[{"name":"Barking football Club","lat":51.54538,"lon":0.11296,"postcode":"RM8 2JR","la":"Barking and Dagenham","era":"trad","nn":296,"risk":52,"cat":"amber"},{"name":"Barking Rugby Union Football Club","lat":51.53492,"lon":0.12736,"postcode":"RM9 4TX","la":"Barking and Dagenham","era":"trad","nn":615,"risk":51,"cat":"amber"},{"name":"Beacon Tree","lat":51.56146,"lon":0.14076,"postcode":"RM8 1DJ","la":"Barking and Dagenham","era":"other","nn":379,"risk":52,"cat":"amber"},{"name":"Chadwell Heath Cricket Club","lat":51.57582,"lon":0.13409,"postcode":"RM6 6YA","la":"Barking and Dagenham","era":"other","nn":354,"risk":37,"cat":"amber"},{"name":"Dagenham Conservative & Social Club","lat":51.54007,"lon":0.15942,"postcode":"RM10 8TT","la":"Barking and Dagenham","era":"mod","nn":160,"risk":48,"cat":"amber"},{"name":"Dagenham Rugby Club","lat":51.55748,"lon":0.15977,"postcode":"RM10 7EJ","la":"Barking and Dagenham","era":"other","nn":659,"risk":52,"cat":"amber"},{"name":"Dagenham Trades Hall","lat":51.541,"lon":0.15767,"postcode":"RM10 8TD","la":"Barking and Dagenham","era":"other","nn":160,"risk":48,"cat":"amber"},{"name":"Eastbrook Pub","lat":51.55233,"lon":0.16449,"postcode":"RM10 7UP","la":"Barking and Dagenham","era":"other","nn":659,"risk":52,"cat":"amber"},{"name":"Harrow PH","lat":51.58885,"lon":0.13613,"postcode":"RM6 5PT","la":"Barking and Dagenham","era":"other","nn":1078,"risk":60,"cat":"amber"},{"name":"Lord Denman PH","lat":51.54185,"lon":0.14813,"postcode":"RM10 8QS","la":"Barking and Dagenham","era":"other","nn":666,"risk":52,"cat":"amber"},{"name":"M & B Catering Company","lat":51.55294,"lon":0.17429,"postcode":"RM7 0QX","la":"Barking and Dagenham","era":"other","nn":681,"risk":54,"cat":"amber"},{"name":"ME 'N' O'Briens","lat":51.53225,"lon":0.14688,"postcode":"RM9 6UR","la":"Barking and Dagenham","era":"other","nn":770,"risk":55,"cat":"amber"},{"name":"Mecca Bingo Club","lat":51.53257,"lon":0.13577,"postcode":"RM9 6UQ","la":"Barking and Dagenham","era":"other","nn":325,"risk":37,"cat":"amber"},{"name":"RoundHouse","lat":51.54274,"lon":0.11352,"postcode":"RM8 2HY","la":"Barking and Dagenham","era":"other","nn":296,"risk":52,"cat":"amber"},{"name":"Royal British Legion Club","lat":51.55922,"lon":0.13661,"postcode":"RM8 3JP","la":"Barking and Dagenham","era":"trad","nn":379,"risk":50,"cat":"amber"},{"name":"The Avenues Social Club Limited","lat":51.56323,"lon":0.1753,"postcode":"RM7 0TH","la":"Barking and Dagenham","era":"mod","nn":363,"risk":37,"cat":"amber"},{"name":"The Bowl Bar (City Pavilion)","lat":51.59552,"lon":0.14746,"postcode":"RM5 2BH","la":"Barking and Dagenham","era":"other","nn":1012,"risk":59,"cat":"amber"},{"name":"The Cedars Club","lat":51.57286,"lon":0.13595,"postcode":"RM6 6TT","la":"Barking and Dagenham","era":"other","nn":354,"risk":37,"cat":"amber"},{"name":"The Cherry Tree Ph","lat":51.55265,"lon":0.13456,"postcode":"RM8 3LJ","la":"Barking and Dagenham","era":"other","nn":744,"risk":55,"cat":"amber"},{"name":"Tollgate Tavern Public House","lat":51.5725,"lon":0.1413,"postcode":"RM6 6QT","la":"Barking and Dagenham","era":"other","nn":372,"risk":37,"cat":"amber"},{"name":"Abridge Cricket Club","lat":51.64912,"lon":0.11808,"postcode":"RM4 1AX","la":"Epping Forest","era":"other","nn":151,"risk":32,"cat":"amber"},{"name":"Abridge Village Hall","lat":51.65353,"lon":0.12345,"postcode":"RM4 1UD","la":"Epping Forest","era":"other","nn":482,"risk":34,"cat":"amber"},{"name":"New Boar","lat":51.65102,"lon":0.11775,"postcode":"RM4 1UA","la":"Epping Forest","era":"other","nn":66,"risk":31,"cat":"amber"},{"name":"Stapleford Flying Club","lat":51.65704,"lon":0.15458,"postcode":"RM4 1SJ","la":"Epping Forest","era":"other","nn":1328,"risk":58,"cat":"amber"},{"name":"The Maltsters Arms","lat":51.65044,"lon":0.11754,"postcode":"RM4 1UX","la":"Epping Forest","era":"trad","nn":66,"risk":31,"cat":"amber"},{"name":"The Rabbits","lat":51.64995,"lon":0.17008,"postcode":"RM4 1RP","la":"Epping Forest","era":"other","nn":1328,"risk":58,"cat":"amber"},{"name":"Top Oak Public House","lat":51.62864,"lon":0.18091,"postcode":"RM4 1JL","la":"Epping Forest","era":"trad","nn":1605,"risk":60,"cat":"amber"},{"name":"Archers","lat":51.58658,"lon":0.20087,"postcode":"RM2 5HA","la":"Havering","era":"other","nn":0,"risk":27,"cat":"green"},{"name":"Array Brasserie & Grill","lat":51.59154,"lon":0.24491,"postcode":"RM3 0NP","la":"Havering","era":"mod","nn":772,"risk":50,"cat":"amber"},{"name":"ATIK","lat":51.57537,"lon":0.1829,"postcode":"RM1 1SS","la":"Havering","era":"other","nn":67,"risk":28,"cat":"green"},{"name":"Ayra","lat":51.5723,"lon":0.19032,"postcode":"RM1 2EH","la":"Havering","era":"other","nn":179,"risk":28,"cat":"green"},{"name":"Bell & Gate","lat":51.59473,"lon":0.16495,"postcode":"RM5 3JB","la":"Havering","era":"other","nn":410,"risk":30,"cat":"green"},{"name":"Bretons Community Association & Social Club","lat":51.54227,"lon":0.18608,"postcode":"RM13 7LP","la":"Havering","era":"mod","nn":1174,"risk":58,"cat":"amber"},{"name":"BrewDog Upminster","lat":51.55683,"lon":0.24979,"postcode":"RM14 2UB","la":"Havering","era":"other","nn":186,"risk":28,"cat":"green"},{"name":"Colley Rowe Inn","lat":51.59903,"lon":0.16098,"postcode":"RM5 3PA","la":"Havering","era":"trad","nn":168,"risk":31,"cat":"amber"},{"name":"Frankie's Wine Bar","lat":51.56077,"lon":0.22103,"postcode":"RM12 6JL","la":"Havering","era":"other","nn":0,"risk":27,"cat":"green"},{"name":"Gidea Park Micropub","lat":51.58658,"lon":0.20087,"postcode":"RM2 5HA","la":"Havering","era":"other","nn":0,"risk":27,"cat":"green"},{"name":"Gravity Bar","lat":51.59911,"lon":0.16372,"postcode":"RM5 3NL","la":"Havering","era":"other","nn":82,"risk":28,"cat":"green"},{"name":"Harold Wood Sports Association","lat":51.58898,"lon":0.23339,"postcode":"RM3 0LX","la":"Havering","era":"other","nn":550,"risk":48,"cat":"amber"},{"name":"Harvester","lat":51.55785,"lon":0.20919,"postcode":"RM12 4XS","la":"Havering","era":"trad","nn":694,"risk":32,"cat":"amber"},{"name":"Harvester Gidea Park","lat":51.58702,"lon":0.2005,"postcode":"RM2 5EL","la":"Havering","era":"trad","nn":0,"risk":27,"cat":"green"},{"name":"Henderson Sports & Social Club","lat":51.60458,"lon":0.2462,"postcode":"RM3 9NE","la":"Havering","era":"mod","nn":640,"risk":52,"cat":"amber"},{"name":"Hornchurch Conservative Club","lat":51.56371,"lon":0.21969,"postcode":"RM11 1RS","la":"Havering","era":"other","nn":110,"risk":28,"cat":"green"},{"name":"Huntsman & Hounds","lat":51.54309,"lon":0.25211,"postcode":"RM14 2DN","la":"Havering","era":"trad","nn":1248,"risk":58,"cat":"amber"},{"name":"Iona Social Club","lat":51.56461,"lon":0.20183,"postcode":"RM12 4SY","la":"Havering","era":"mod","nn":204,"risk":31,"cat":"amber"},{"name":"JJ Moon's","lat":51.56285,"lon":0.2152,"postcode":"RM12 4UN","la":"Havering","era":"other","nn":303,"risk":29,"cat":"green"},{"name":"King Harold","lat":51.59389,"lon":0.2344,"postcode":"RM3 0BS","la":"Havering","era":"trad","nn":550,"risk":48,"cat":"amber"},{"name":"Langtons Hall","lat":51.56611,"lon":0.21838,"postcode":"RM11 1XJ","la":"Havering","era":"other","nn":131,"risk":28,"cat":"green"},{"name":"Lennards","lat":51.50199,"lon":0.22654,"postcode":"RM13 9EB","la":"Havering","era":"other","nn":538,"risk":51,"cat":"amber"},{"name":"Liberty Bell","lat":51.57801,"lon":0.18648,"postcode":"RM1 3EN","la":"Havering","era":"other","nn":111,"risk":28,"cat":"green"},{"name":"Mawney Arms","lat":51.57911,"lon":0.1707,"postcode":"RM7 7HT","la":"Havering","era":"trad","nn":381,"risk":30,"cat":"green"},{"name":"Monty's Bar","lat":51.56849,"lon":0.2191,"postcode":"RM11 1UR","la":"Havering","era":"other","nn":110,"risk":28,"cat":"green"},{"name":"Moon & Stars","lat":51.57596,"lon":0.18311,"postcode":"RM1 1NX","la":"Havering","era":"other","nn":0,"risk":27,"cat":"green"},{"name":"New Angel Inn","lat":51.51856,"lon":0.18983,"postcode":"RM13 9YW","la":"Havering","era":"trad","nn":0,"risk":30,"cat":"green"},{"name":"New Inn","lat":51.58195,"lon":0.21043,"postcode":"RM2 6DP","la":"Havering","era":"trad","nn":606,"risk":31,"cat":"amber"},{"name":"Orange Tree","lat":51.61421,"lon":0.18116,"postcode":"RM4 1PJ","la":"Havering","era":"other","nn":1547,"risk":60,"cat":"amber"},{"name":"Railway Hotel","lat":51.55478,"lon":0.21905,"postcode":"RM12 6SB","la":"Havering","era":"trad","nn":681,"risk":32,"cat":"amber"},{"name":"Rainham Working Mens Club","lat":51.51874,"lon":0.19379,"postcode":"RM13 9AA","la":"Havering","era":"trad","nn":275,"risk":34,"cat":"amber"},{"name":"RM5 Bar & Restaurant","lat":51.59975,"lon":0.16311,"postcode":"RM5 3PH","la":"Havering","era":"mod","nn":82,"risk":28,"cat":"green"},{"name":"Romford & Gidea Park RFC","lat":51.56884,"lon":0.16387,"postcode":"RM7 0EP","la":"Havering","era":"other","nn":556,"risk":51,"cat":"amber"},{"name":"Romford Conservative & Constitutional Club","lat":51.58647,"lon":0.19654,"postcode":"RM2 5EH","la":"Havering","era":"other","nn":280,"risk":29,"cat":"green"},{"name":"Romford Conservative Club","lat":51.579,"lon":0.18749,"postcode":"RM1 3LS","la":"Havering","era":"other","nn":44,"risk":27,"cat":"green"},{"name":"Romford United Services Club","lat":51.57864,"lon":0.17616,"postcode":"RM7 7HB","la":"Havering","era":"other","nn":213,"risk":29,"cat":"green"},{"name":"Royal British Legion","lat":51.5912,"lon":0.16667,"postcode":"RM5 3DT","la":"Havering","era":"trad","nn":410,"risk":30,"cat":"green"},{"name":"Royal British Legion","lat":51.55735,"lon":0.25894,"postcode":"RM14 3HL","la":"Havering","era":"trad","nn":364,"risk":30,"cat":"green"},{"name":"Royal British Legion Club","lat":51.56161,"lon":0.22362,"postcode":"RM11 3XT","la":"Havering","era":"trad","nn":0,"risk":27,"cat":"green"},{"name":"Royal British Legion Club","lat":51.57864,"lon":0.18774,"postcode":"RM1 3LP","la":"Havering","era":"trad","nn":44,"risk":27,"cat":"green"},{"name":"Royal British Legion Club Ltd","lat":51.54894,"lon":0.20137,"postcode":"RM12 5BB","la":"Havering","era":"trad","nn":932,"risk":54,"cat":"amber"},{"name":"Silver Hall Social Club","lat":51.52383,"lon":0.17832,"postcode":"RM13 8SH","la":"Havering","era":"mod","nn":938,"risk":39,"cat":"amber"},{"name":"Slug & Lettuce","lat":51.57596,"lon":0.18311,"postcode":"RM1 1NX","la":"Havering","era":"other","nn":0,"risk":27,"cat":"green"},{"name":"Thatched House","lat":51.55775,"lon":0.27621,"postcode":"RM14 3LT","la":"Havering","era":"other","nn":0,"risk":45,"cat":"amber"},{"name":"The Albion","lat":51.52295,"lon":0.1918,"postcode":"RM13 8SS","la":"Havering","era":"other","nn":488,"risk":33,"cat":"amber"},{"name":"The Ardleigh","lat":51.58419,"lon":0.22087,"postcode":"RM11 2SH","la":"Havering","era":"other","nn":763,"risk":52,"cat":"amber"},{"name":"The Aspen Tree","lat":51.6006,"lon":0.17655,"postcode":"RM5 3SP","la":"Havering","era":"other","nn":901,"risk":51,"cat":"amber"},{"name":"The Bull","lat":51.5795,"lon":0.18289,"postcode":"RM1 3ER","la":"Havering","era":"trad","nn":75,"risk":28,"cat":"green"},{"name":"The Chequers","lat":51.56687,"lon":0.21983,"postcode":"RM11 1ST","la":"Havering","era":"other","nn":105,"risk":28,"cat":"green"},{"name":"The Crown","lat":51.56561,"lon":0.18857,"postcode":"RM12 4TW","la":"Havering","era":"trad","nn":706,"risk":32,"cat":"amber"},{"name":"The Crumpled Horn","lat":51.55407,"lon":0.24839,"postcode":"RM14 2AJ","la":"Havering","era":"other","nn":321,"risk":29,"cat":"green"},{"name":"The Deers Rest","lat":51.61608,"lon":0.2174,"postcode":"RM3 7LL","la":"Havering","era":"other","nn":1938,"risk":63,"cat":"red"},{"name":"The Drill Hotel","lat":51.57685,"lon":0.20735,"postcode":"RM2 5TD","la":"Havering","era":"other","nn":606,"risk":51,"cat":"amber"},{"name":"The Fatling","lat":51.56273,"lon":0.21958,"postcode":"RM11 1TX","la":"Havering","era":"other","nn":110,"risk":28,"cat":"green"},{"name":"The Golden Crane","lat":51.56873,"lon":0.26762,"postcode":"RM14 1RQ","la":"Havering","era":"other","nn":773,"risk":52,"cat":"amber"},{"name":"The Golden Lion","lat":51.57814,"lon":0.17914,"postcode":"RM1 1HR","la":"Havering","era":"trad","nn":213,"risk":29,"cat":"green"},{"name":"The Good Intent","lat":51.54061,"lon":0.20284,"postcode":"RM12 5NU","la":"Havering","era":"other","nn":932,"risk":54,"cat":"amber"},{"name":"The Goose","lat":51.57451,"lon":0.18405,"postcode":"RM1 1PL","la":"Havering","era":"other","nn":125,"risk":28,"cat":"green"},{"name":"The Harrow","lat":51.56481,"lon":0.20476,"postcode":"RM11 1DP","la":"Havering","era":"other","nn":204,"risk":31,"cat":"amber"},{"name":"The Havering Well","lat":51.56592,"lon":0.17828,"postcode":"RM7 0QA","la":"Havering","era":"other","nn":363,"risk":32,"cat":"amber"},{"name":"The Hop Inn","lat":51.56778,"lon":0.22021,"postcode":"RM11 1SU","la":"Havering","era":"trad","nn":105,"risk":28,"cat":"green"},{"name":"The Jobber\u2019s Rest","lat":51.55775,"lon":0.27621,"postcode":"RM14 3LT","la":"Havering","era":"other","nn":0,"risk":45,"cat":"amber"},{"name":"The Junction","lat":51.55843,"lon":0.25054,"postcode":"RM14 2TD","la":"Havering","era":"other","nn":186,"risk":28,"cat":"green"},{"name":"The Lamb","lat":51.58007,"lon":0.18229,"postcode":"RM1 3AB","la":"Havering","era":"other","nn":75,"risk":28,"cat":"green"},{"name":"The Optimist Tavern","lat":51.54885,"lon":0.23373,"postcode":"RM14 2XY","la":"Havering","era":"other","nn":1110,"risk":57,"cat":"amber"},{"name":"The Phoenix","lat":51.51856,"lon":0.18983,"postcode":"RM13 9YW","la":"Havering","era":"other","nn":0,"risk":30,"cat":"green"},{"name":"The Plough","lat":51.56181,"lon":0.26672,"postcode":"RM14 1XL","la":"Havering","era":"trad","nn":731,"risk":32,"cat":"amber"},{"name":"The RAFA  Club","lat":51.57825,"lon":0.19078,"postcode":"RM2 5AA","la":"Havering","era":"other","nn":215,"risk":29,"cat":"green"},{"name":"The Saxon Horn","lat":51.52151,"lon":0.21149,"postcode":"RM13 9RY","la":"Havering","era":"other","nn":1263,"risk":58,"cat":"amber"},{"name":"The Saxon King","lat":51.60363,"lon":0.23706,"postcode":"RM3 9PP","la":"Havering","era":"trad","nn":640,"risk":52,"cat":"amber"},{"name":"The Ship","lat":51.58702,"lon":0.2005,"postcode":"RM2 5EL","la":"Havering","era":"trad","nn":0,"risk":27,"cat":"green"},{"name":"The Sun","lat":51.57509,"lon":0.17543,"postcode":"RM7 9QA","la":"Havering","era":"other","nn":398,"risk":30,"cat":"green"},{"name":"The Sutton Arms","lat":51.56129,"lon":0.22051,"postcode":"RM12 6NJ","la":"Havering","era":"trad","nn":68,"risk":28,"cat":"green"},{"name":"The Victoria","lat":51.5752,"lon":0.18801,"postcode":"RM1 2PA","la":"Havering","era":"trad","nn":284,"risk":29,"cat":"green"},{"name":"The Wheatsheaf","lat":51.57194,"lon":0.18779,"postcode":"RM1 2HD","la":"Havering","era":"trad","nn":179,"risk":28,"cat":"green"},{"name":"The Willow Farm","lat":51.50682,"lon":0.2261,"postcode":"RM13 9ED","la":"Havering","era":"trad","nn":538,"risk":51,"cat":"amber"},{"name":"The Windmill","lat":51.55844,"lon":0.2382,"postcode":"RM14 2RB","la":"Havering","era":"trad","nn":821,"risk":38,"cat":"amber"},{"name":"Upminster Masonic Hall Co Ltd","lat":51.55971,"lon":0.2553,"postcode":"RM14 1DF","la":"Havering","era":"trad","nn":359,"risk":30,"cat":"green"},{"name":"V Bar","lat":51.56161,"lon":0.22362,"postcode":"RM11 3XT","la":"Havering","era":"other","nn":0,"risk":27,"cat":"green"},{"name":"Vertigo Lounge","lat":51.56077,"lon":0.22103,"postcode":"RM12 6JL","la":"Havering","era":"mod","nn":0,"risk":27,"cat":"green"},{"name":"West Ham United Rush Green Training Ground","lat":51.56386,"lon":0.16459,"postcode":"RM7 0LU","la":"Havering","era":"other","nn":556,"risk":33,"cat":"amber"},{"name":"Winchesters","lat":51.58889,"lon":0.15801,"postcode":"RM7 8EA","la":"Havering","era":"other","nn":651,"risk":49,"cat":"amber"},{"name":"Yates Romford","lat":51.5764,"lon":0.18278,"postcode":"RM1 1NX","la":"Havering","era":"other","nn":53,"risk":27,"cat":"green"},{"name":"Barley Bowls Club","lat":51.56796,"lon":0.11161,"postcode":"RM6 4RE","la":"Redbridge","era":"other","nn":493,"risk":36,"cat":"amber"},{"name":"The Eva Hart Public House","lat":51.57053,"lon":0.12996,"postcode":"RM6 4AH","la":"Redbridge","era":"trad","nn":489,"risk":34,"cat":"amber"},{"name":"The Greyhound Public House","lat":51.56858,"lon":0.12041,"postcode":"RM6 4HU","la":"Redbridge","era":"trad","nn":612,"risk":50,"cat":"amber"},{"name":"Aveley Village Social Club","lat":51.50016,"lon":0.25193,"postcode":"RM15 4SJ","la":"Thurrock","era":"mod","nn":276,"risk":49,"cat":"amber"},{"name":"Brandon Groves (SOH) Community Club","lat":51.51814,"lon":0.30135,"postcode":"RM15 6SB","la":"Thurrock","era":"other","nn":602,"risk":54,"cat":"amber"},{"name":"British Legion","lat":51.50584,"lon":0.28124,"postcode":"RM15 5NN","la":"Thurrock","era":"other","nn":318,"risk":37,"cat":"amber"},{"name":"Capability Brown Public House","lat":51.50684,"lon":0.2638,"postcode":"RM15 4PX","la":"Thurrock","era":"other","nn":660,"risk":51,"cat":"amber"},{"name":"Chadwell Working Mens Club","lat":51.48141,"lon":0.36754,"postcode":"RM16 4DH","la":"Thurrock","era":"trad","nn":1818,"risk":65,"cat":"red"},{"name":"Chafford Hundred Brewers Fayre","lat":51.49096,"lon":0.29175,"postcode":"RM16 6YJ","la":"Thurrock","era":"other","nn":582,"risk":53,"cat":"amber"},{"name":"Circus Tavern","lat":51.48519,"lon":0.24534,"postcode":"RM19 1TS","la":"Thurrock","era":"other","nn":1689,"risk":64,"cat":"red"},{"name":"Courtyard Inn","lat":51.47757,"lon":0.32423,"postcode":"RM17 6QA","la":"Thurrock","era":"other","nn":417,"risk":32,"cat":"amber"},{"name":"Dog And Partridge","lat":51.53497,"lon":0.37636,"postcode":"RM16 3HU","la":"Thurrock","era":"other","nn":2370,"risk":68,"cat":"red"},{"name":"Knight Of Aveley South Ockendon","lat":51.50883,"lon":0.28105,"postcode":"RM15 5LN","la":"Thurrock","era":"other","nn":333,"risk":37,"cat":"amber"},{"name":"RAFA Club","lat":51.48519,"lon":0.33607,"postcode":"RM17 5NL","la":"Thurrock","era":"other","nn":459,"risk":50,"cat":"amber"},{"name":"Royal Oak","lat":51.52311,"lon":0.29793,"postcode":"RM15 6SD","la":"Thurrock","era":"trad","nn":602,"risk":54,"cat":"amber"},{"name":"Rozee Bar Group - The Wharf","lat":51.47493,"lon":0.31468,"postcode":"RM17 6SZ","la":"Thurrock","era":"mod","nn":547,"risk":38,"cat":"amber"},{"name":"Scruttons Maltby Sports And Social Club","lat":51.46324,"lon":0.35494,"postcode":"RM18 7AL","la":"Thurrock","era":"mod","nn":71,"risk":50,"cat":"amber"},{"name":"St Thomas Catholic Club","lat":51.47652,"lon":0.3323,"postcode":"RM17 6SR","la":"Thurrock","era":"other","nn":307,"risk":31,"cat":"amber"},{"name":"The Archer","lat":51.50538,"lon":0.27304,"postcode":"RM15 5JU","la":"Thurrock","era":"other","nn":570,"risk":36,"cat":"amber"},{"name":"The Bull Public House","lat":51.47695,"lon":0.34228,"postcode":"RM17 6EY","la":"Thurrock","era":"trad","nn":0,"risk":32,"cat":"amber"},{"name":"The Crown And Anchor Pub","lat":51.49901,"lon":0.25547,"postcode":"RM15 4BB","la":"Thurrock","era":"trad","nn":177,"risk":48,"cat":"amber"},{"name":"The Dog And Partridge","lat":51.49812,"lon":0.3042,"postcode":"RM16 5UQ","la":"Thurrock","era":"other","nn":621,"risk":54,"cat":"amber"},{"name":"The Foxhound","lat":51.51228,"lon":0.36735,"postcode":"RM16 3ER","la":"Thurrock","era":"trad","nn":1183,"risk":60,"cat":"amber"},{"name":"The Kings Arms","lat":51.50785,"lon":0.35182,"postcode":"RM16 3LX","la":"Thurrock","era":"trad","nn":1183,"risk":60,"cat":"amber"},{"name":"The Lounge Bar","lat":51.48618,"lon":0.28831,"postcode":"RM16 6EW","la":"Thurrock","era":"mod","nn":582,"risk":53,"cat":"amber"},{"name":"The Oak At Sockets Heath","lat":51.48889,"lon":0.339,"postcode":"RM17 5RZ","la":"Thurrock","era":"trad","nn":459,"risk":53,"cat":"amber"},{"name":"The Old Shant","lat":51.47728,"lon":0.29726,"postcode":"RM20 4AD","la":"Thurrock","era":"other","nn":444,"risk":52,"cat":"amber"},{"name":"The Old Ship Inn","lat":51.49849,"lon":0.2579,"postcode":"RM15 4AD","la":"Thurrock","era":"trad","nn":177,"risk":48,"cat":"amber"},{"name":"The Park Tavern","lat":51.50915,"lon":0.24986,"postcode":"RM15 4PH","la":"Thurrock","era":"other","nn":998,"risk":56,"cat":"amber"},{"name":"The Sandmartin","lat":51.49265,"lon":0.30603,"postcode":"RM16 6PP","la":"Thurrock","era":"other","nn":621,"risk":51,"cat":"amber"},{"name":"The Ship","lat":51.47606,"lon":0.34053,"postcode":"RM17 6EX","la":"Thurrock","era":"trad","nn":156,"risk":33,"cat":"amber"},{"name":"The Ship","lat":51.46836,"lon":0.4266,"postcode":"RM18 8PB","la":"Thurrock","era":"trad","nn":2412,"risk":69,"cat":"red"},{"name":"The Ship Inn","lat":51.47654,"lon":0.29096,"postcode":"RM20 4AR","la":"Thurrock","era":"trad","nn":444,"risk":52,"cat":"amber"},{"name":"The Theobald Arms","lat":51.47399,"lon":0.32244,"postcode":"RM17 6HR","la":"Thurrock","era":"trad","nn":0,"risk":32,"cat":"amber"},{"name":"The Traitors Gate","lat":51.47611,"lon":0.33669,"postcode":"RM17 6EW","la":"Thurrock","era":"other","nn":266,"risk":31,"cat":"amber"},{"name":"The Treacle Mine","lat":51.49419,"lon":0.31842,"postcode":"RM17 5PR","la":"Thurrock","era":"other","nn":875,"risk":55,"cat":"amber"},{"name":"The White Hart","lat":51.47399,"lon":0.32244,"postcode":"RM17 6HR","la":"Thurrock","era":"trad","nn":0,"risk":32,"cat":"amber"},{"name":"The Worlds End","lat":51.45238,"lon":0.37037,"postcode":"RM18 7NR","la":"Thurrock","era":"other","nn":824,"risk":35,"cat":"amber"},{"name":"Thurrock Irish Association","lat":51.46298,"lon":0.354,"postcode":"RM18 7BS","la":"Thurrock","era":"other","nn":71,"risk":50,"cat":"amber"},{"name":"Tyrells Hall Social Club","lat":51.47695,"lon":0.34228,"postcode":"RM17 6EY","la":"Thurrock","era":"mod","nn":0,"risk":32,"cat":"amber"},{"name":"Woodlands Edge","lat":51.50374,"lon":0.28435,"postcode":"RM15 5RD","la":"Thurrock","era":"other","nn":318,"risk":37,"cat":"amber"}]