[{"name":"Alfreton Golf Catering And Events","lat":53.09721,"lon":-1.41699,"postcode":"DE55 7LH","la":"Amber Valley","era":"other","nn":377,"risk":46,"cat":"amber"},{"name":"Alfreton Masonic Hall / The Watchorn","lat":53.09179,"lon":-1.3937,"postcode":"DE55 7AQ","la":"Amber Valley","era":"trad","nn":220,"risk":25,"cat":"green"},{"name":"Alfreton Snooker Hall","lat":53.09766,"lon":-1.38924,"postcode":"DE55 7DR","la":"Amber Valley","era":"other","nn":0,"risk":23,"cat":"green"},{"name":"Alfreton Town Supporters Social Club","lat":53.09381,"lon":-1.37978,"postcode":"DE55 7FZ","la":"Amber Valley","era":"mod","nn":407,"risk":26,"cat":"green"},{"name":"Amber Valley Rugby Club","lat":53.07522,"lon":-1.35751,"postcode":"DE55 4NQ","la":"Amber Valley","era":"other","nn":510,"risk":27,"cat":"green"},{"name":"Ambers Pool   Sports Bar","lat":53.05127,"lon":-1.40548,"postcode":"DE5 3BU","la":"Amber Valley","era":"other","nn":26,"risk":24,"cat":"green"},{"name":"Arkwrights Bar Limited","lat":53.02233,"lon":-1.48297,"postcode":"DE56 1AP","la":"Amber Valley","era":"mod","nn":0,"risk":23,"cat":"green"},{"name":"Bang In Belper","lat":53.02552,"lon":-1.48498,"postcode":"DE56 1AZ","la":"Amber Valley","era":"other","nn":90,"risk":24,"cat":"green"},{"name":"Bartleby's","lat":53.02262,"lon":-1.48287,"postcode":"DE56 1AP","la":"Amber Valley","era":"other","nn":33,"risk":24,"cat":"green"},{"name":"Bear Inn And Hotel","lat":53.06724,"lon":-1.52984,"postcode":"DE56 2RD","la":"Amber Valley","era":"trad","nn":1714,"risk":58,"cat":"amber"},{"name":"Belper Amateurs Cricket Club","lat":53.05376,"lon":-1.5174,"postcode":"DE56 2DP","la":"Amber Valley","era":"other","nn":1714,"risk":58,"cat":"amber"},{"name":"Belper House","lat":53.02413,"lon":-1.47852,"postcode":"DE56 1GF","la":"Amber Valley","era":"other","nn":45,"risk":24,"cat":"green"},{"name":"Belper Masonic Hall","lat":53.02233,"lon":-1.48297,"postcode":"DE56 1AP","la":"Amber Valley","era":"trad","nn":0,"risk":23,"cat":"green"},{"name":"Belper Meadows Cricket Club","lat":53.02677,"lon":-1.48763,"postcode":"DE56 1BA","la":"Amber Valley","era":"other","nn":139,"risk":24,"cat":"green"},{"name":"Belper Rugby Union Club","lat":53.01716,"lon":-1.48445,"postcode":"DE56 1UU","la":"Amber Valley","era":"other","nn":0,"risk":23,"cat":"green"},{"name":"Belper Sports Centre Services","lat":53.0257,"lon":-1.4596,"postcode":"DE56 1RZ","la":"Amber Valley","era":"other","nn":255,"risk":43,"cat":"amber"},{"name":"Black Boy Inn","lat":53.04531,"lon":-1.45057,"postcode":"DE56 2BN","la":"Amber Valley","era":"trad","nn":401,"risk":44,"cat":"amber"},{"name":"Black Bulls Head","lat":53.02114,"lon":-1.44937,"postcode":"DE56 0SF","la":"Amber Valley","era":"trad","nn":852,"risk":49,"cat":"amber"},{"name":"Black Swan","lat":53.02332,"lon":-1.47895,"postcode":"DE56 1FZ","la":"Amber Valley","era":"trad","nn":0,"risk":23,"cat":"green"},{"name":"Black Swan","lat":53.03648,"lon":-1.57288,"postcode":"DE56 2SG","la":"Amber Valley","era":"trad","nn":2378,"risk":63,"cat":"red"},{"name":"Blue Bell Inn","lat":53.09593,"lon":-1.43634,"postcode":"DE55 7NJ","la":"Amber Valley","era":"trad","nn":0,"risk":28,"cat":"green"},{"name":"Blue Bell Inn","lat":53.09721,"lon":-1.38856,"postcode":"DE55 7BL","la":"Amber Valley","era":"trad","nn":67,"risk":24,"cat":"green"},{"name":"Boot & Slipper","lat":53.07526,"lon":-1.39972,"postcode":"DE55 1BL","la":"Amber Valley","era":"other","nn":99,"risk":27,"cat":"green"},{"name":"Bradmans","lat":52.98741,"lon":-1.48792,"postcode":"DE56 4EH","la":"Amber Valley","era":"other","nn":42,"risk":24,"cat":"green"},{"name":"Brettles Bistro C/o Belper Town Football Club","lat":53.02626,"lon":-1.48573,"postcode":"DE56 1BA","la":"Amber Valley","era":"other","nn":0,"risk":23,"cat":"green"},{"name":"Bridge Inn","lat":52.9862,"lon":-1.47645,"postcode":"DE56 4BG","la":"Amber Valley","era":"trad","nn":715,"risk":28,"cat":"green"},{"name":"Bulls Head Inn","lat":53.041,"lon":-1.50299,"postcode":"DE56 2DL","la":"Amber Valley","era":"trad","nn":1593,"risk":57,"cat":"amber"},{"name":"Bunker","lat":53.01409,"lon":-1.35441,"postcode":"DE75 7NR","la":"Amber Valley","era":"other","nn":94,"risk":24,"cat":"green"},{"name":"Canal Inn Bullbridge","lat":53.06691,"lon":-1.46726,"postcode":"DE56 2EW","la":"Amber Valley","era":"trad","nn":634,"risk":48,"cat":"amber"},{"name":"Chevin Golf Club","lat":52.9949,"lon":-1.48977,"postcode":"DE56 4EE","la":"Amber Valley","era":"other","nn":722,"risk":28,"cat":"green"},{"name":"Cliff Inn","lat":53.09036,"lon":-1.48668,"postcode":"DE4 5DP","la":"Amber Valley","era":"trad","nn":771,"risk":46,"cat":"amber"},{"name":"Cock Hotel/Association","lat":53.05109,"lon":-1.40574,"postcode":"DE5 3BU","la":"Amber Valley","era":"other","nn":10,"risk":23,"cat":"green"},{"name":"Comrades Club","lat":53.08398,"lon":-1.47764,"postcode":"DE4 5DF","la":"Amber Valley","era":"other","nn":176,"risk":42,"cat":"amber"},{"name":"Corn Exchange","lat":53.02296,"lon":-1.4835,"postcode":"DE56 1PS","la":"Amber Valley","era":"other","nn":38,"risk":24,"cat":"green"},{"name":"Crompton Arms","lat":53.04944,"lon":-1.40617,"postcode":"DE5 3AA","la":"Amber Valley","era":"trad","nn":27,"risk":24,"cat":"green"},{"name":"Cross Keys","lat":53.07863,"lon":-1.39827,"postcode":"DE55 1BG","la":"Amber Valley","era":"trad","nn":303,"risk":28,"cat":"green"},{"name":"Denby Cricket Club","lat":53.01758,"lon":-1.39596,"postcode":"DE5 8PL","la":"Amber Valley","era":"other","nn":417,"risk":46,"cat":"amber"},{"name":"Denby Lodge","lat":53.01377,"lon":-1.41003,"postcode":"DE5 8PH","la":"Amber Valley","era":"other","nn":1032,"risk":53,"cat":"amber"},{"name":"Devonshire Arms","lat":53.07911,"lon":-1.36677,"postcode":"DE55 4HX","la":"Amber Valley","era":"trad","nn":246,"risk":25,"cat":"green"},{"name":"Duffield Club","lat":52.98696,"lon":-1.48812,"postcode":"DE56 4EH","la":"Amber Valley","era":"other","nn":0,"risk":23,"cat":"green"},{"name":"Duffield Squash And Tennis Club","lat":52.98696,"lon":-1.48812,"postcode":"DE56 4EH","la":"Amber Valley","era":"other","nn":0,"risk":23,"cat":"green"},{"name":"Eclipse Inn","lat":53.02682,"lon":-1.37223,"postcode":"DE75 7LF","la":"Amber Valley","era":"trad","nn":0,"risk":28,"cat":"green"},{"name":"Emmanuel Community Church","lat":52.98752,"lon":-1.4869,"postcode":"DE56 4EQ","la":"Amber Valley","era":"other","nn":69,"risk":24,"cat":"green"},{"name":"Fisherman's Rest","lat":53.03972,"lon":-1.47926,"postcode":"DE56 2JF","la":"Amber Valley","era":"other","nn":1287,"risk":55,"cat":"amber"},{"name":"Genesis Family Entertainment Centre (Strikes Bowling)","lat":53.09677,"lon":-1.39163,"postcode":"DE55 7DQ","la":"Amber Valley","era":"other","nn":84,"risk":24,"cat":"green"},{"name":"George And Dragon","lat":53.02626,"lon":-1.48573,"postcode":"DE56 1BA","la":"Amber Valley","era":"trad","nn":0,"risk":23,"cat":"green"},{"name":"George Inn","lat":53.05691,"lon":-1.40783,"postcode":"DE5 3DW","la":"Amber Valley","era":"trad","nn":380,"risk":26,"cat":"green"},{"name":"George Inn","lat":53.05863,"lon":-1.42815,"postcode":"DE5 3RP","la":"Amber Valley","era":"trad","nn":991,"risk":50,"cat":"amber"},{"name":"Grapes Inn Public House","lat":53.0248,"lon":-1.47594,"postcode":"DE56 1GF","la":"Amber Valley","era":"trad","nn":188,"risk":25,"cat":"green"},{"name":"Greenhill Tavern","lat":53.07008,"lon":-1.36901,"postcode":"DE55 4AS","la":"Amber Valley","era":"other","nn":100,"risk":24,"cat":"green"},{"name":"Greyhound Inn","lat":53.02798,"lon":-1.46003,"postcode":"DE56 0HB","la":"Amber Valley","era":"trad","nn":255,"risk":45,"cat":"amber"},{"name":"Hanging Gate","lat":53.02215,"lon":-1.52311,"postcode":"DE56 2LE","la":"Amber Valley","era":"other","nn":1087,"risk":54,"cat":"amber"},{"name":"Heanor Conservative Club","lat":53.01366,"lon":-1.35006,"postcode":"DE75 7AH","la":"Amber Valley","era":"other","nn":204,"risk":25,"cat":"green"},{"name":"Heanor Labour Club","lat":53.01418,"lon":-1.35667,"postcode":"DE75 7PA","la":"Amber Valley","era":"other","nn":113,"risk":24,"cat":"green"},{"name":"Heanor Miners Welfare","lat":53.01031,"lon":-1.34974,"postcode":"DE75 7DT","la":"Amber Valley","era":"other","nn":323,"risk":26,"cat":"green"},{"name":"Heanor Town Football Sports And Social Club","lat":53.01064,"lon":-1.3581,"postcode":"DE75 7EN","la":"Amber Valley","era":"mod","nn":318,"risk":26,"cat":"green"},{"name":"Holbrook Sports And Social Club","lat":53.00575,"lon":-1.46587,"postcode":"DE56 0TG","la":"Amber Valley","era":"mod","nn":385,"risk":31,"cat":"amber"},{"name":"Holly Bush","lat":53.04093,"lon":-1.40718,"postcode":"DE5 8JA","la":"Amber Valley","era":"trad","nn":304,"risk":26,"cat":"green"},{"name":"Holly Bush Inn","lat":52.99849,"lon":-1.47681,"postcode":"DE56 0RX","la":"Amber Valley","era":"trad","nn":471,"risk":27,"cat":"green"},{"name":"Horsley Bowls Club","lat":52.99582,"lon":-1.4383,"postcode":"DE21 5BT","la":"Amber Valley","era":"other","nn":178,"risk":45,"cat":"amber"},{"name":"Hunters Arms","lat":53.0068,"lon":-1.43805,"postcode":"DE56 0LU","la":"Amber Valley","era":"trad","nn":458,"risk":47,"cat":"amber"},{"name":"Hurt Arms Hotel","lat":53.05891,"lon":-1.48251,"postcode":"DE56 2EJ","la":"Amber Valley","era":"trad","nn":1352,"risk":55,"cat":"amber"},{"name":"Joiners Arms","lat":52.96374,"lon":-1.50479,"postcode":"DE22 5JA","la":"Amber Valley","era":"trad","nn":586,"risk":48,"cat":"amber"},{"name":"Kedleston Park Golf Club","lat":52.96425,"lon":-1.52002,"postcode":"DE22 5JD","la":"Amber Valley","era":"other","nn":1022,"risk":53,"cat":"amber"},{"name":"Kilburn Social Club","lat":53.00805,"lon":-1.43152,"postcode":"DE56 0NR","la":"Amber Valley","era":"mod","nn":458,"risk":47,"cat":"amber"},{"name":"King William IV","lat":53.00268,"lon":-1.47793,"postcode":"DE56 0RR","la":"Amber Valley","era":"trad","nn":245,"risk":25,"cat":"green"},{"name":"Kings Head","lat":52.98696,"lon":-1.48812,"postcode":"DE56 4EH","la":"Amber Valley","era":"trad","nn":0,"risk":23,"cat":"green"},{"name":"Lux Beauty And Tanning","lat":53.07662,"lon":-1.37309,"postcode":"DE55 1LA","la":"Amber Valley","era":"other","nn":108,"risk":24,"cat":"green"},{"name":"Marehay Cricket Club","lat":53.03833,"lon":-1.4086,"postcode":"DE5 8JB","la":"Amber Valley","era":"other","nn":304,"risk":31,"cat":"amber"},{"name":"Marehay Miners Welfare","lat":53.03332,"lon":-1.40536,"postcode":"DE5 8JN","la":"Amber Valley","era":"other","nn":319,"risk":31,"cat":"amber"},{"name":"Milford Social Club","lat":53.00333,"lon":-1.48292,"postcode":"DE56 0QH","la":"Amber Valley","era":"mod","nn":122,"risk":27,"cat":"green"},{"name":"Miners Arms","lat":53.09273,"lon":-1.3908,"postcode":"DE55 7JE","la":"Amber Valley","era":"trad","nn":220,"risk":25,"cat":"green"},{"name":"Moulders Arms","lat":53.0699,"lon":-1.35877,"postcode":"DE55 4BX","la":"Amber Valley","era":"trad","nn":0,"risk":23,"cat":"green"},{"name":"Muchbox At The Marquis","lat":53.03229,"lon":-1.38132,"postcode":"DE5 9SP","la":"Amber Valley","era":"other","nn":783,"risk":29,"cat":"green"},{"name":"Mundy Arms Hungry Horse","lat":53.0064,"lon":-1.34438,"postcode":"DE75 7LX","la":"Amber Valley","era":"trad","nn":192,"risk":27,"cat":"green"},{"name":"Nags Head","lat":53.02335,"lon":-1.47771,"postcode":"DE56 1GD","la":"Amber Valley","era":"trad","nn":70,"risk":24,"cat":"green"},{"name":"Nags Head Ripley Ltd","lat":53.05383,"lon":-1.40536,"postcode":"DE5 3LT","la":"Amber Valley","era":"trad","nn":0,"risk":23,"cat":"green"},{"name":"Nealies","lat":53.00224,"lon":-1.48284,"postcode":"DE56 0QR","la":"Amber Valley","era":"other","nn":118,"risk":24,"cat":"green"},{"name":"New Inn","lat":53.01222,"lon":-1.3641,"postcode":"DE75 7QL","la":"Amber Valley","era":"trad","nn":127,"risk":24,"cat":"green"},{"name":"Old Black Horse","lat":52.98275,"lon":-1.35528,"postcode":"DE7 6BY","la":"Amber Valley","era":"trad","nn":1495,"risk":56,"cat":"amber"},{"name":"Old English Gentleman","lat":53.07775,"lon":-1.36388,"postcode":"DE55 4JX","la":"Amber Valley","era":"other","nn":246,"risk":25,"cat":"green"},{"name":"Old Kings Head","lat":53.02161,"lon":-1.4804,"postcode":"DE56 1NP","la":"Amber Valley","era":"trad","nn":144,"risk":24,"cat":"green"},{"name":"Palmer Morewood Memorial Social Club","lat":53.09597,"lon":-1.38882,"postcode":"DE55 7BU","la":"Amber Valley","era":"mod","nn":139,"risk":24,"cat":"green"},{"name":"Pattenmakers Arms","lat":52.98843,"lon":-1.49078,"postcode":"DE56 4EY","la":"Amber Valley","era":"trad","nn":223,"risk":25,"cat":"green"},{"name":"Pear Tree Hotel","lat":53.04722,"lon":-1.4059,"postcode":"DE5 3HR","la":"Amber Valley","era":"other","nn":238,"risk":25,"cat":"green"},{"name":"Pesto At The Peacock","lat":53.09985,"lon":-1.42054,"postcode":"DE55 7LN","la":"Amber Valley","era":"other","nn":377,"risk":46,"cat":"amber"},{"name":"Plough Inn","lat":53.09717,"lon":-1.3822,"postcode":"DE55 7HL","la":"Amber Valley","era":"trad","nn":0,"risk":23,"cat":"green"},{"name":"Prospect Street Micro Pub","lat":53.09815,"lon":-1.37734,"postcode":"DE55 7GY","la":"Amber Valley","era":"other","nn":342,"risk":26,"cat":"green"},{"name":"Puss In Boots Inn","lat":52.99466,"lon":-1.51963,"postcode":"DE56 4AQ","la":"Amber Valley","era":"trad","nn":1999,"risk":60,"cat":"amber"},{"name":"Quarndon Cricket Club","lat":52.96895,"lon":-1.50349,"postcode":"DE22 5JY","la":"Amber Valley","era":"other","nn":586,"risk":48,"cat":"amber"},{"name":"Queens Head","lat":53.00806,"lon":-1.34356,"postcode":"DE75 7NJ","la":"Amber Valley","era":"trad","nn":180,"risk":25,"cat":"green"},{"name":"Queens Head","lat":53.02829,"lon":-1.47619,"postcode":"DE56 1FF","la":"Amber Valley","era":"trad","nn":0,"risk":23,"cat":"green"},{"name":"Queens Head","lat":53.06723,"lon":-1.36382,"postcode":"DE55 4BJ","la":"Amber Valley","era":"trad","nn":450,"risk":27,"cat":"green"},{"name":"Railway Inn","lat":53.02056,"lon":-1.53914,"postcode":"DE56 2LF","la":"Amber Valley","era":"trad","nn":1087,"risk":54,"cat":"amber"},{"name":"Red Lion","lat":53.0726,"lon":-1.46655,"postcode":"DE56 2FT","la":"Amber Valley","era":"trad","nn":634,"risk":48,"cat":"amber"},{"name":"Regal","lat":53.05067,"lon":-1.40373,"postcode":"DE5 3DJ","la":"Amber Valley","era":"other","nn":88,"risk":24,"cat":"green"},{"name":"Riddings Cricket Club","lat":53.07065,"lon":-1.36785,"postcode":"DE55 4EW","la":"Amber Valley","era":"other","nn":100,"risk":24,"cat":"green"},{"name":"Riflemans Arms","lat":53.02632,"lon":-1.48513,"postcode":"DE56 1AZ","la":"Amber Valley","era":"trad","nn":40,"risk":24,"cat":"green"},{"name":"Ripleys Little Ale House","lat":53.04991,"lon":-1.40412,"postcode":"DE5 3AH","la":"Amber Valley","era":"other","nn":88,"risk":24,"cat":"green"},{"name":"Rose & Crown","lat":52.98255,"lon":-1.40613,"postcode":"DE7 6DG","la":"Amber Valley","era":"trad","nn":956,"risk":50,"cat":"amber"},{"name":"Rumours","lat":53.02699,"lon":-1.48542,"postcode":"DE56 1AZ","la":"Amber Valley","era":"other","nn":77,"risk":24,"cat":"green"},{"name":"Seven Stars","lat":53.0699,"lon":-1.35877,"postcode":"DE55 4BX","la":"Amber Valley","era":"other","nn":0,"risk":23,"cat":"green"},{"name":"Shipley Working Mens Club","lat":53.00935,"lon":-1.34519,"postcode":"DE75 7BQ","la":"Amber Valley","era":"trad","nn":180,"risk":25,"cat":"green"},{"name":"Sitwell Arms","lat":52.99109,"lon":-1.40777,"postcode":"DE7 6BN","la":"Amber Valley","era":"trad","nn":956,"risk":50,"cat":"amber"},{"name":"Somercotes Snooker Club","lat":53.07914,"lon":-1.3724,"postcode":"DE55 4HB","la":"Amber Valley","era":"other","nn":284,"risk":25,"cat":"green"},{"name":"South Wingfield Cricket Club","lat":53.09593,"lon":-1.43634,"postcode":"DE55 7NJ","la":"Amber Valley","era":"other","nn":0,"risk":28,"cat":"green"},{"name":"South Wingfield Social Club","lat":53.09748,"lon":-1.43915,"postcode":"DE55 7LX","la":"Amber Valley","era":"mod","nn":255,"risk":30,"cat":"green"},{"name":"Sunnyside Working Mens Club","lat":53.01093,"lon":-1.36283,"postcode":"DE75 7GS","la":"Amber Valley","era":"trad","nn":166,"risk":25,"cat":"green"},{"name":"Swanwick Methodist Church","lat":53.07592,"lon":-1.39873,"postcode":"DE55 1AB","la":"Amber Valley","era":"trad","nn":0,"risk":26,"cat":"green"},{"name":"The Angels Micro Pub","lat":53.02332,"lon":-1.47895,"postcode":"DE56 1FZ","la":"Amber Valley","era":"trad","nn":0,"risk":23,"cat":"green"},{"name":"The Angry Bee Micropub","lat":53.01312,"lon":-1.35524,"postcode":"DE75 7GD","la":"Amber Valley","era":"other","nn":52,"risk":24,"cat":"green"},{"name":"The Bank @ Belper","lat":53.02305,"lon":-1.48259,"postcode":"DE56 1PS","la":"Amber Valley","era":"other","nn":51,"risk":24,"cat":"green"},{"name":"The Bankers Tavern","lat":53.09766,"lon":-1.38924,"postcode":"DE55 7DR","la":"Amber Valley","era":"other","nn":0,"risk":23,"cat":"green"},{"name":"The Beer Trap","lat":53.02372,"lon":-1.47856,"postcode":"DE56 1FZ","la":"Amber Valley","era":"other","nn":45,"risk":24,"cat":"green"},{"name":"The Bell Inn","lat":52.99651,"lon":-1.39401,"postcode":"DE7 6EF","la":"Amber Valley","era":"trad","nn":1101,"risk":54,"cat":"amber"},{"name":"The Black Swan","lat":53.08549,"lon":-1.47847,"postcode":"DE4 5DG","la":"Amber Valley","era":"trad","nn":176,"risk":42,"cat":"amber"},{"name":"The Bluebell Country Inn  And Restaurant","lat":53.01881,"lon":-1.50105,"postcode":"DE56 2UP","la":"Amber Valley","era":"trad","nn":1126,"risk":54,"cat":"amber"},{"name":"The Bulls Head","lat":53.02015,"lon":-1.39142,"postcode":"DE5 8PW","la":"Amber Valley","era":"trad","nn":417,"risk":46,"cat":"amber"},{"name":"The Coach And Horses","lat":52.99632,"lon":-1.43577,"postcode":"DE21 5BQ","la":"Amber Valley","era":"trad","nn":178,"risk":45,"cat":"amber"},{"name":"The Codnor Inn","lat":53.04046,"lon":-1.37703,"postcode":"DE5 9RN","la":"Amber Valley","era":"trad","nn":470,"risk":32,"cat":"amber"},{"name":"The Cotes Park Inn","lat":53.08565,"lon":-1.37427,"postcode":"DE55 4HQ","la":"Amber Valley","era":"trad","nn":574,"risk":30,"cat":"green"},{"name":"The Cross Keys","lat":53.02332,"lon":-1.47895,"postcode":"DE56 1FZ","la":"Amber Valley","era":"trad","nn":0,"risk":23,"cat":"green"},{"name":"The Crossroads Tavern","lat":53.09749,"lon":-1.38487,"postcode":"DE55 7HH","la":"Amber Valley","era":"trad","nn":124,"risk":24,"cat":"green"},{"name":"The Crown Inn","lat":53.08076,"lon":-1.37703,"postcode":"DE55 1RE","la":"Amber Valley","era":"trad","nn":358,"risk":26,"cat":"green"},{"name":"The Dead Poets Inn","lat":53.00516,"lon":-1.4602,"postcode":"DE56 0TQ","la":"Amber Valley","era":"trad","nn":385,"risk":44,"cat":"amber"},{"name":"The Devonshire","lat":53.02626,"lon":-1.48573,"postcode":"DE56 1BA","la":"Amber Valley","era":"other","nn":0,"risk":23,"cat":"green"},{"name":"The Dog","lat":53.0677,"lon":-1.41959,"postcode":"DE5 3RE","la":"Amber Valley","era":"other","nn":1160,"risk":54,"cat":"amber"},{"name":"The Dog House","lat":53.09717,"lon":-1.3822,"postcode":"DE55 7HL","la":"Amber Valley","era":"other","nn":0,"risk":23,"cat":"green"},{"name":"The Eagle Tavern","lat":53.0503,"lon":-1.44241,"postcode":"DE56 2HU","la":"Amber Valley","era":"trad","nn":778,"risk":46,"cat":"amber"},{"name":"The Elephant & Peacock","lat":53.00176,"lon":-1.48127,"postcode":"DE56 0QF","la":"Amber Valley","era":"other","nn":118,"risk":24,"cat":"green"},{"name":"The Excavator","lat":53.06199,"lon":-1.44188,"postcode":"DE56 2HS","la":"Amber Valley","era":"other","nn":991,"risk":50,"cat":"amber"},{"name":"The Family Tree","lat":53.08555,"lon":-1.50635,"postcode":"DE4 5HG","la":"Amber Valley","era":"other","nn":1418,"risk":56,"cat":"amber"},{"name":"The Gate Inn","lat":53.02682,"lon":-1.37223,"postcode":"DE75 7LF","la":"Amber Valley","era":"trad","nn":0,"risk":28,"cat":"green"},{"name":"The Gate Inn","lat":53.07308,"lon":-1.39096,"postcode":"DE55 1AQ","la":"Amber Valley","era":"trad","nn":608,"risk":30,"cat":"green"},{"name":"The Green House","lat":53.0235,"lon":-1.47943,"postcode":"DE56 1QA","la":"Amber Valley","era":"other","nn":31,"risk":24,"cat":"green"},{"name":"The Greenman Inn","lat":53.0422,"lon":-1.44755,"postcode":"DE56 2AB","la":"Amber Valley","era":"trad","nn":401,"risk":44,"cat":"amber"},{"name":"The Groovers Arms","lat":53.04352,"lon":-1.39467,"postcode":"DE5 3JN","la":"Amber Valley","era":"trad","nn":788,"risk":29,"cat":"green"},{"name":"The Jolly Colliers","lat":53.01274,"lon":-1.3624,"postcode":"DE75 7QL","la":"Amber Valley","era":"other","nn":127,"risk":24,"cat":"green"},{"name":"The Jug And Glass","lat":53.11435,"lon":-1.5129,"postcode":"DE4 5GJ","la":"Amber Valley","era":"other","nn":1935,"risk":59,"cat":"amber"},{"name":"The Keys","lat":53.05039,"lon":-1.40583,"postcode":"DE5 3JE","la":"Amber Valley","era":"other","nn":0,"risk":23,"cat":"green"},{"name":"The King Alfred","lat":53.09743,"lon":-1.38672,"postcode":"DE55 7BE","la":"Amber Valley","era":"trad","nn":124,"risk":24,"cat":"green"},{"name":"The King Of Prussia","lat":53.01378,"lon":-1.3531,"postcode":"DE75 7AA","la":"Amber Valley","era":"trad","nn":94,"risk":24,"cat":"green"},{"name":"The Old Oak Inn","lat":53.00087,"lon":-1.41804,"postcode":"DE7 6AW","la":"Amber Valley","era":"trad","nn":1204,"risk":54,"cat":"amber"},{"name":"The Old Yew Tree Inn","lat":53.09287,"lon":-1.44107,"postcode":"DE55 7NH","la":"Amber Valley","era":"trad","nn":464,"risk":32,"cat":"amber"},{"name":"The Poet & Castle","lat":53.04435,"lon":-1.3743,"postcode":"DE5 9QY","la":"Amber Valley","era":"other","nn":470,"risk":44,"cat":"amber"},{"name":"The Railway","lat":53.02329,"lon":-1.48365,"postcode":"DE56 1PW","la":"Amber Valley","era":"trad","nn":38,"risk":24,"cat":"green"},{"name":"The Red Lion","lat":53.0138,"lon":-1.3585,"postcode":"DE75 7QG","la":"Amber Valley","era":"trad","nn":129,"risk":24,"cat":"green"},{"name":"The Red Lion","lat":53.05036,"lon":-1.40687,"postcode":"DE5 3BR","la":"Amber Valley","era":"trad","nn":0,"risk":23,"cat":"green"},{"name":"The Red Lion Inn","lat":53.07204,"lon":-1.37014,"postcode":"DE55 4EX","la":"Amber Valley","era":"trad","nn":217,"risk":25,"cat":"green"},{"name":"The Redemption Ale House","lat":53.01325,"lon":-1.35599,"postcode":"DE75 7GE","la":"Amber Valley","era":"other","nn":52,"risk":24,"cat":"green"},{"name":"The Royal British Legion (Belper) Club Ltd","lat":53.02286,"lon":-1.48096,"postcode":"DE56 1UN","la":"Amber Valley","era":"trad","nn":105,"risk":24,"cat":"green"},{"name":"The Spanker Inn","lat":53.05132,"lon":-1.46358,"postcode":"DE56 2AT","la":"Amber Valley","era":"trad","nn":1097,"risk":54,"cat":"amber"},{"name":"The Steampacket","lat":53.07592,"lon":-1.39873,"postcode":"DE55 1AB","la":"Amber Valley","era":"other","nn":0,"risk":26,"cat":"green"},{"name":"The Strutt Club","lat":53.02233,"lon":-1.48297,"postcode":"DE56 1AP","la":"Amber Valley","era":"other","nn":0,"risk":23,"cat":"green"},{"name":"The Talbot Taphouse","lat":53.05383,"lon":-1.40536,"postcode":"DE5 3LT","la":"Amber Valley","era":"other","nn":0,"risk":23,"cat":"green"},{"name":"The Tavern","lat":53.01716,"lon":-1.48445,"postcode":"DE56 1UU","la":"Amber Valley","era":"other","nn":0,"risk":23,"cat":"green"},{"name":"The Thorn Tree","lat":53.03877,"lon":-1.38593,"postcode":"DE5 9TE","la":"Amber Valley","era":"other","nn":624,"risk":30,"cat":"green"},{"name":"The Three Horse Shoes","lat":53.05036,"lon":-1.40687,"postcode":"DE5 3BR","la":"Amber Valley","era":"trad","nn":0,"risk":23,"cat":"green"},{"name":"The Tip Inn","lat":53.02686,"lon":-1.37165,"postcode":"DE75 7LF","la":"Amber Valley","era":"trad","nn":39,"risk":29,"cat":"green"},{"name":"The Town Street Tap","lat":52.98704,"lon":-1.48809,"postcode":"DE56 4EH","la":"Amber Valley","era":"mod","nn":9,"risk":23,"cat":"green"},{"name":"The Vibe Bar","lat":53.02323,"lon":-1.47952,"postcode":"DE56 1QA","la":"Amber Valley","era":"other","nn":31,"risk":24,"cat":"green"},{"name":"The Village Inn","lat":53.03303,"lon":-1.41011,"postcode":"DE5 8JF","la":"Amber Valley","era":"trad","nn":319,"risk":31,"cat":"amber"},{"name":"The White Hart","lat":52.98591,"lon":-1.48801,"postcode":"DE56 4GD","la":"Amber Valley","era":"trad","nn":117,"risk":24,"cat":"green"},{"name":"The Xchange","lat":53.05039,"lon":-1.40583,"postcode":"DE5 3JE","la":"Amber Valley","era":"other","nn":0,"risk":23,"cat":"green"},{"name":"Thorn Tree","lat":53.04974,"lon":-1.40766,"postcode":"DE5 3HA","la":"Amber Valley","era":"other","nn":87,"risk":24,"cat":"green"},{"name":"Thorn Tree Inn","lat":53.02829,"lon":-1.47619,"postcode":"DE56 1FF","la":"Amber Valley","era":"trad","nn":0,"risk":23,"cat":"green"},{"name":"Three Horse Shoes","lat":53.07571,"lon":-1.37368,"postcode":"DE55 1LT","la":"Amber Valley","era":"trad","nn":108,"risk":24,"cat":"green"},{"name":"Tiger Inn","lat":53.01599,"lon":-1.55722,"postcode":"DE56 2LH","la":"Amber Valley","era":"trad","nn":1312,"risk":55,"cat":"amber"},{"name":"Tom Said","lat":53.04936,"lon":-1.4058,"postcode":"DE5 3AR","la":"Amber Valley","era":"other","nn":27,"risk":24,"cat":"green"},{"name":"Voodoo Gin And Cocktail Bar","lat":53.05109,"lon":-1.40589,"postcode":"DE5 3BU","la":"Amber Valley","era":"other","nn":10,"risk":23,"cat":"green"},{"name":"Wagon & Horses","lat":53.09686,"lon":-1.39037,"postcode":"DE55 7AF","la":"Amber Valley","era":"trad","nn":84,"risk":24,"cat":"green"},{"name":"White Hart","lat":53.01301,"lon":-1.46258,"postcode":"DE56 0JA","la":"Amber Valley","era":"trad","nn":837,"risk":47,"cat":"amber"},{"name":"White Lion","lat":53.05036,"lon":-1.40687,"postcode":"DE5 3BR","la":"Amber Valley","era":"trad","nn":0,"risk":23,"cat":"green"},{"name":"Carnfield Club","lat":53.10478,"lon":-1.34417,"postcode":"DE55 2AD","la":"Bolsover","era":"other","nn":78,"risk":28,"cat":"green"},{"name":"Crown Hotel","lat":53.1391,"lon":-1.34784,"postcode":"DE55 5NY","la":"Bolsover","era":"trad","nn":0,"risk":45,"cat":"amber"},{"name":"George And Dragon","lat":53.12803,"lon":-1.33779,"postcode":"DE55 5TN","la":"Bolsover","era":"trad","nn":459,"risk":51,"cat":"amber"},{"name":"Hilcote Arms","lat":53.11865,"lon":-1.32689,"postcode":"DE55 5HT","la":"Bolsover","era":"trad","nn":1272,"risk":59,"cat":"amber"},{"name":"Sherwood Street Club","lat":53.1319,"lon":-1.3354,"postcode":"DE55 5SE","la":"Bolsover","era":"other","nn":459,"risk":51,"cat":"amber"},{"name":"The Castlewood Public House","lat":53.10521,"lon":-1.32239,"postcode":"DE55 2DY","la":"Bolsover","era":"other","nn":0,"risk":45,"cat":"amber"},{"name":"The Clock Inn","lat":53.10448,"lon":-1.34311,"postcode":"DE55 2AA","la":"Bolsover","era":"trad","nn":78,"risk":28,"cat":"green"},{"name":"The Hawthorns","lat":53.1005,"lon":-1.35147,"postcode":"DE55 2AS","la":"Bolsover","era":"trad","nn":681,"risk":37,"cat":"amber"},{"name":"The Market Tavern","lat":53.1068,"lon":-1.3423,"postcode":"DE55 2BP","la":"Bolsover","era":"other","nn":257,"risk":29,"cat":"green"},{"name":"The Royal Oak","lat":53.1391,"lon":-1.34784,"postcode":"DE55 5NY","la":"Bolsover","era":"trad","nn":0,"risk":45,"cat":"amber"},{"name":"The Unity Club","lat":53.1098,"lon":-1.34235,"postcode":"DE55 2BR","la":"Bolsover","era":"other","nn":334,"risk":32,"cat":"amber"},{"name":"The Villager","lat":53.10781,"lon":-1.33605,"postcode":"DE55 2DH","la":"Bolsover","era":"other","nn":431,"risk":30,"cat":"green"},{"name":"The White Swan","lat":53.10521,"lon":-1.32239,"postcode":"DE55 2DY","la":"Bolsover","era":"trad","nn":0,"risk":45,"cat":"amber"},{"name":"Tibshelf Tots","lat":53.14337,"lon":-1.34246,"postcode":"DE55 5NU","la":"Bolsover","era":"other","nn":595,"risk":49,"cat":"amber"},{"name":"A1 Snooker Club","lat":52.90819,"lon":-1.47926,"postcode":"DE23 6QG","la":"Derby","era":"other","nn":264,"risk":24,"cat":"green"},{"name":"Alexandra Hotel","lat":52.9192,"lon":-1.46478,"postcode":"DE1 2QE","la":"Derby","era":"other","nn":117,"risk":23,"cat":"green"},{"name":"Allestree British Legion","lat":52.95408,"lon":-1.4887,"postcode":"DE22 2FS","la":"Derby","era":"other","nn":293,"risk":30,"cat":"green"},{"name":"Alvaston & Crewton Mens Social Club","lat":52.89763,"lon":-1.43439,"postcode":"DE24 8RY","la":"Derby","era":"mod","nn":406,"risk":28,"cat":"green"},{"name":"Baby M","lat":52.9233,"lon":-1.47877,"postcode":"DE1 3NH","la":"Derby","era":"other","nn":5,"risk":23,"cat":"green"},{"name":"Baby Platinum","lat":52.92181,"lon":-1.47781,"postcode":"DE1 1EQ","la":"Derby","era":"other","nn":96,"risk":23,"cat":"green"},{"name":"Bar 189","lat":52.95344,"lon":-1.49389,"postcode":"DE22 2GN","la":"Derby","era":"mod","nn":355,"risk":30,"cat":"green"},{"name":"Bar One","lat":52.92166,"lon":-1.48252,"postcode":"DE1 1JD","la":"Derby","era":"mod","nn":65,"risk":23,"cat":"green"},{"name":"Bar Sport Derby","lat":52.92513,"lon":-1.47781,"postcode":"DE1 3DL","la":"Derby","era":"mod","nn":18,"risk":23,"cat":"green"},{"name":"Bedford Arms","lat":52.91728,"lon":-1.49721,"postcode":"DE22 3PB","la":"Derby","era":"trad","nn":664,"risk":27,"cat":"green"},{"name":"Bell And Castle","lat":52.91679,"lon":-1.47999,"postcode":"DE1 1TG","la":"Derby","era":"other","nn":0,"risk":23,"cat":"green"},{"name":"Belong","lat":52.92343,"lon":-1.47918,"postcode":"DE1 3PD","la":"Derby","era":"other","nn":12,"risk":23,"cat":"green"},{"name":"Bishop Blaise","lat":52.92318,"lon":-1.48243,"postcode":"DE1 1EX","la":"Derby","era":"trad","nn":19,"risk":23,"cat":"green"},{"name":"Blacksmith's Lounge","lat":52.92334,"lon":-1.47881,"postcode":"DE1 3NH","la":"Derby","era":"mod","nn":5,"risk":23,"cat":"green"},{"name":"Blends","lat":52.93269,"lon":-1.49219,"postcode":"DE22 1FX","la":"Derby","era":"other","nn":48,"risk":23,"cat":"green"},{"name":"Bull and Bush","lat":52.92713,"lon":-1.52926,"postcode":"DE22 4LJ","la":"Derby","era":"trad","nn":502,"risk":44,"cat":"amber"},{"name":"Bunk","lat":52.92342,"lon":-1.47815,"postcode":"DE1 3NF","la":"Derby","era":"other","nn":19,"risk":23,"cat":"green"},{"name":"Bustler Market","lat":52.91926,"lon":-1.46653,"postcode":"DE1 2QD","la":"Derby","era":"other","nn":117,"risk":23,"cat":"green"},{"name":"Buzz Bingo","lat":52.91843,"lon":-1.47453,"postcode":"DE1 2JD","la":"Derby","era":"other","nn":62,"risk":23,"cat":"green"},{"name":"Carnero Lounge","lat":52.92089,"lon":-1.47672,"postcode":"DE1 1SH","la":"Derby","era":"mod","nn":125,"risk":24,"cat":"green"},{"name":"Castle and Falcon","lat":52.92161,"lon":-1.474,"postcode":"DE1 2AU","la":"Derby","era":"other","nn":41,"risk":23,"cat":"green"},{"name":"Central United Reformed Church Derby","lat":52.90141,"lon":-1.5023,"postcode":"DE23 6LD","la":"Derby","era":"other","nn":205,"risk":24,"cat":"green"},{"name":"Chaddesden Jubilee Club","lat":52.93039,"lon":-1.43419,"postcode":"DE21 6LJ","la":"Derby","era":"other","nn":145,"risk":26,"cat":"green"},{"name":"Chaddesden Park Social Club","lat":52.92653,"lon":-1.44358,"postcode":"DE21 6PD","la":"Derby","era":"mod","nn":452,"risk":26,"cat":"green"},{"name":"Coronation Hotel","lat":52.8995,"lon":-1.44392,"postcode":"DE24 8SL","la":"Derby","era":"other","nn":526,"risk":29,"cat":"green"},{"name":"Crescent Inn","lat":52.92318,"lon":-1.4957,"postcode":"DE1 1GP","la":"Derby","era":"trad","nn":347,"risk":25,"cat":"green"},{"name":"Crown Hotel","lat":52.88856,"lon":-1.45049,"postcode":"DE24 9AD","la":"Derby","era":"trad","nn":745,"risk":33,"cat":"amber"},{"name":"Crown Inn","lat":52.92222,"lon":-1.48284,"postcode":"DE1 1LL","la":"Derby","era":"trad","nn":63,"risk":23,"cat":"green"},{"name":"Cueball","lat":52.93788,"lon":-1.46433,"postcode":"DE21 4AW","la":"Derby","era":"other","nn":0,"risk":25,"cat":"green"},{"name":"Darley Abbey Wines Ltd","lat":52.94392,"lon":-1.47464,"postcode":"DE22 1DZ","la":"Derby","era":"trad","nn":239,"risk":24,"cat":"green"},{"name":"Derby Athletic Club","lat":52.89287,"lon":-1.46184,"postcode":"DE24 9HY","la":"Derby","era":"other","nn":209,"risk":42,"cat":"amber"},{"name":"Derby Co Operative Bowls and Social Club","lat":52.89956,"lon":-1.50235,"postcode":"DE23 6XT","la":"Derby","era":"mod","nn":205,"risk":24,"cat":"green"},{"name":"Derby Leisure and Events Venue","lat":52.89111,"lon":-1.46076,"postcode":"DE24 9HY","la":"Derby","era":"other","nn":209,"risk":42,"cat":"amber"},{"name":"Derby West End Bowls Club","lat":52.92643,"lon":-1.49221,"postcode":"DE1 1DX","la":"Derby","era":"other","nn":91,"risk":23,"cat":"green"},{"name":"Derby West Indian Community Association","lat":52.9167,"lon":-1.46769,"postcode":"DE1 2ND","la":"Derby","era":"other","nn":86,"risk":23,"cat":"green"},{"name":"Don Burger","lat":52.92361,"lon":-1.48254,"postcode":"DE1 1BU","la":"Derby","era":"other","nn":0,"risk":23,"cat":"green"},{"name":"Douglas Bar","lat":52.91292,"lon":-1.47718,"postcode":"DE23 6UX","la":"Derby","era":"other","nn":210,"risk":24,"cat":"green"},{"name":"Dubrek Studios","lat":52.92672,"lon":-1.48622,"postcode":"DE1 3LB","la":"Derby","era":"mod","nn":20,"risk":23,"cat":"green"},{"name":"East Midlands Bridge Academy Limited","lat":52.92209,"lon":-1.40725,"postcode":"DE21 7JR","la":"Derby","era":"other","nn":90,"risk":23,"cat":"green"},{"name":"Fat Cat Derby","lat":52.92361,"lon":-1.48254,"postcode":"DE1 1BU","la":"Derby","era":"other","nn":0,"risk":23,"cat":"green"},{"name":"Ferrers Arms,","lat":52.87684,"lon":-1.49381,"postcode":"DE24 3DS","la":"Derby","era":"trad","nn":564,"risk":44,"cat":"amber"},{"name":"Fever Derby","lat":52.92216,"lon":-1.47975,"postcode":"DE1 1HA","la":"Derby","era":"other","nn":0,"risk":23,"cat":"green"},{"name":"Five Lamps","lat":52.92918,"lon":-1.48286,"postcode":"DE1 3BH","la":"Derby","era":"other","nn":157,"risk":24,"cat":"green"},{"name":"Furnace Inn","lat":52.92845,"lon":-1.47674,"postcode":"DE1 3BX","la":"Derby","era":"trad","nn":308,"risk":25,"cat":"green"},{"name":"Golden Eagle","lat":52.92534,"lon":-1.48647,"postcode":"DE1 1DZ","la":"Derby","era":"trad","nn":101,"risk":23,"cat":"green"},{"name":"Half Moon Inn","lat":52.90711,"lon":-1.5033,"postcode":"DE23 6FN","la":"Derby","era":"trad","nn":129,"risk":24,"cat":"green"},{"name":"Hickory's Smokehouse","lat":52.86226,"lon":-1.43873,"postcode":"DE73 5UE","la":"Derby","era":"other","nn":777,"risk":48,"cat":"amber"},{"name":"Hideout / KTown / ChikBox / LockedLoaded / LocoLoco / ElRodeo / BurritoBandits / PizzaAmore / DoughMaster","lat":52.92326,"lon":-1.47765,"postcode":"DE1 3QE","la":"Derby","era":"other","nn":37,"risk":23,"cat":"green"},{"name":"Hole in the Wall","lat":52.90497,"lon":-1.54299,"postcode":"DE3 0ZQ","la":"Derby","era":"other","nn":109,"risk":28,"cat":"green"},{"name":"Horse And Groom","lat":52.92969,"lon":-1.48676,"postcode":"DE1 3HN","la":"Derby","era":"trad","nn":268,"risk":25,"cat":"green"},{"name":"House of Holes Limited","lat":52.91926,"lon":-1.47599,"postcode":"DE1 1TA","la":"Derby","era":"mod","nn":32,"risk":23,"cat":"green"},{"name":"Independent Order Of Oddfellows","lat":52.91579,"lon":-1.47528,"postcode":"DE1 2GU","la":"Derby","era":"other","nn":58,"risk":23,"cat":"green"},{"name":"James Wyatt","lat":52.89152,"lon":-1.41687,"postcode":"DE24 0RY","la":"Derby","era":"other","nn":487,"risk":26,"cat":"green"},{"name":"Jaxx Derby","lat":52.91872,"lon":-1.47732,"postcode":"DE1 1SX","la":"Derby","era":"other","nn":79,"risk":23,"cat":"green"},{"name":"JJ Lloyds","lat":52.9222,"lon":-1.47479,"postcode":"DE1 2DS","la":"Derby","era":"other","nn":43,"risk":23,"cat":"green"},{"name":"Jonty Farmer","lat":52.93227,"lon":-1.49204,"postcode":"DE22 1FT","la":"Derby","era":"other","nn":48,"risk":23,"cat":"green"},{"name":"Jorrocks","lat":52.92359,"lon":-1.47761,"postcode":"DE1 3GA","la":"Derby","era":"other","nn":37,"risk":23,"cat":"green"},{"name":"Kings Corner","lat":52.94707,"lon":-1.41506,"postcode":"DE21 4TD","la":"Derby","era":"trad","nn":1349,"risk":55,"cat":"amber"},{"name":"Little Chester Ale House","lat":52.93276,"lon":-1.47345,"postcode":"DE1 3SF","la":"Derby","era":"other","nn":528,"risk":26,"cat":"green"},{"name":"Littleover Club","lat":52.90533,"lon":-1.50497,"postcode":"DE23 6FX","la":"Derby","era":"other","nn":101,"risk":23,"cat":"green"},{"name":"Littleover Social Club Ltd","lat":52.89529,"lon":-1.50951,"postcode":"DE23 1FQ","la":"Derby","era":"mod","nn":676,"risk":32,"cat":"amber"},{"name":"London Midland Railway Club Association","lat":52.91633,"lon":-1.46657,"postcode":"DE1 2LY","la":"Derby","era":"trad","nn":86,"risk":23,"cat":"green"},{"name":"Lyndhurst Bar","lat":52.91076,"lon":-1.47788,"postcode":"DE23 6WD","la":"Derby","era":"other","nn":153,"risk":24,"cat":"green"},{"name":"Marleyz","lat":52.9223,"lon":-1.48191,"postcode":"DE1 1LH","la":"Derby","era":"other","nn":63,"risk":23,"cat":"green"},{"name":"Maypole","lat":52.92681,"lon":-1.48648,"postcode":"DE1 3PH","la":"Derby","era":"other","nn":20,"risk":23,"cat":"green"},{"name":"Melbourne Bar","lat":52.91481,"lon":-1.47704,"postcode":"DE1 2GG","la":"Derby","era":"other","nn":104,"risk":23,"cat":"green"},{"name":"Metro Bar","lat":52.92197,"lon":-1.47568,"postcode":"DE1 2DS","la":"Derby","era":"other","nn":0,"risk":23,"cat":"green"},{"name":"Mickleover Sports Club","lat":52.9183,"lon":-1.54299,"postcode":"DE3 9FE","la":"Derby","era":"other","nn":669,"risk":45,"cat":"amber"},{"name":"Mosh Nightclub / Bar E11even","lat":52.92322,"lon":-1.48271,"postcode":"DE1 1EX","la":"Derby","era":"mod","nn":2,"risk":23,"cat":"green"},{"name":"Museum & Art Gallery on The Wardwick","lat":52.92286,"lon":-1.47992,"postcode":"DE1 1BS","la":"Derby","era":"other","nn":38,"risk":23,"cat":"green"},{"name":"Navigation","lat":52.90481,"lon":-1.44672,"postcode":"DE24 8UU","la":"Derby","era":"other","nn":96,"risk":26,"cat":"green"},{"name":"New Bridge Inn","lat":52.87819,"lon":-1.44531,"postcode":"DE24 9EF","la":"Derby","era":"trad","nn":1102,"risk":53,"cat":"amber"},{"name":"New Zealand Arms","lat":52.92572,"lon":-1.4987,"postcode":"DE22 3GL","la":"Derby","era":"trad","nn":323,"risk":25,"cat":"green"},{"name":"Noahs Ark","lat":52.92198,"lon":-1.47406,"postcode":"DE1 2AW","la":"Derby","era":"other","nn":16,"risk":23,"cat":"green"},{"name":"Norman Arms","lat":52.89871,"lon":-1.484,"postcode":"DE23 8DF","la":"Derby","era":"trad","nn":272,"risk":27,"cat":"green"},{"name":"Nunsfield House Community Association","lat":52.89385,"lon":-1.42902,"postcode":"DE24 0FD","la":"Derby","era":"mod","nn":293,"risk":25,"cat":"green"},{"name":"Oaklands","lat":52.887,"lon":-1.50496,"postcode":"DE23 2QL","la":"Derby","era":"trad","nn":928,"risk":47,"cat":"amber"},{"name":"Occasions Events Venue","lat":52.91696,"lon":-1.47714,"postcode":"DE1 2JW","la":"Derby","era":"other","nn":181,"risk":24,"cat":"green"},{"name":"Osmaston Mens Social Club","lat":52.90395,"lon":-1.4466,"postcode":"DE24 8UW","la":"Derby","era":"mod","nn":96,"risk":26,"cat":"green"},{"name":"Peacock Inn","lat":52.92601,"lon":-1.47087,"postcode":"DE1 3QS","la":"Derby","era":"trad","nn":86,"risk":23,"cat":"green"},{"name":"Peacock Lounge","lat":52.9442,"lon":-1.49591,"postcode":"DE22 2QN","la":"Derby","era":"mod","nn":47,"risk":25,"cat":"green"},{"name":"Pear Tree Inn (Kitchen)","lat":52.90302,"lon":-1.47809,"postcode":"DE23 8RH","la":"Derby","era":"other","nn":294,"risk":25,"cat":"green"},{"name":"Prosecco Bars","lat":52.92357,"lon":-1.48312,"postcode":"DE1 1BU","la":"Derby","era":"other","nn":25,"risk":23,"cat":"green"},{"name":"R & R Derby Ltd","lat":52.86924,"lon":-1.43822,"postcode":"DE73 6RA","la":"Derby","era":"other","nn":777,"risk":48,"cat":"amber"},{"name":"Revolucion de Cuba","lat":52.92233,"lon":-1.47894,"postcode":"DE1 1BE","la":"Derby","era":"other","nn":30,"risk":23,"cat":"green"},{"name":"Revolution","lat":52.92246,"lon":-1.47933,"postcode":"DE1 1BJ","la":"Derby","era":"other","nn":30,"risk":23,"cat":"green"},{"name":"Royal British Legion Club Ltd","lat":52.90971,"lon":-1.53774,"postcode":"DE3 9GQ","la":"Derby","era":"trad","nn":404,"risk":28,"cat":"green"},{"name":"Seven Stars Inn","lat":52.92795,"lon":-1.48169,"postcode":"DE1 3EE","la":"Derby","era":"trad","nn":157,"risk":24,"cat":"green"},{"name":"Seymours (Derby) Ltd","lat":52.92321,"lon":-1.48057,"postcode":"DE1 1BR","la":"Derby","era":"other","nn":59,"risk":23,"cat":"green"},{"name":"Slug and Lettuce","lat":52.92423,"lon":-1.47718,"postcode":"DE1 3FJ","la":"Derby","era":"other","nn":67,"risk":23,"cat":"green"},{"name":"Spondon Bowls Club","lat":52.91182,"lon":-1.39293,"postcode":"DE21 7PH","la":"Derby","era":"other","nn":894,"risk":49,"cat":"amber"},{"name":"Spondon Conservative Club","lat":52.9213,"lon":-1.40405,"postcode":"DE21 7JP","la":"Derby","era":"other","nn":96,"risk":23,"cat":"green"},{"name":"Spondon Liberal Club","lat":52.92117,"lon":-1.40232,"postcode":"DE21 7EA","la":"Derby","era":"other","nn":117,"risk":23,"cat":"green"},{"name":"Stein Strasse","lat":52.92216,"lon":-1.47975,"postcode":"DE1 1HA","la":"Derby","era":"other","nn":0,"risk":23,"cat":"green"},{"name":"Suds and Soda","lat":52.92321,"lon":-1.48273,"postcode":"DE1 1EX","la":"Derby","era":"other","nn":2,"risk":23,"cat":"green"},{"name":"The 102 Social Club","lat":52.92449,"lon":-1.4889,"postcode":"DE1 1FN","la":"Derby","era":"mod","nn":13,"risk":23,"cat":"green"},{"name":"The Argosy","lat":52.91315,"lon":-1.50788,"postcode":"DE22 3HZ","la":"Derby","era":"other","nn":673,"risk":27,"cat":"green"},{"name":"The Attic Experience","lat":52.90136,"lon":-1.45253,"postcode":"DE24 8ST","la":"Derby","era":"other","nn":490,"risk":31,"cat":"amber"},{"name":"The Babington Arms","lat":52.91902,"lon":-1.47626,"postcode":"DE1 1TA","la":"Derby","era":"trad","nn":32,"risk":23,"cat":"green"},{"name":"The Bank Bar","lat":52.91776,"lon":-1.41975,"postcode":"DE21 7SG","la":"Derby","era":"other","nn":536,"risk":29,"cat":"green"},{"name":"The Bess of Hardwick","lat":52.92216,"lon":-1.47975,"postcode":"DE1 1HA","la":"Derby","era":"other","nn":0,"risk":23,"cat":"green"},{"name":"The Black Rhino","lat":52.9153,"lon":-1.46643,"postcode":"DE1 2SN","la":"Derby","era":"other","nn":21,"risk":23,"cat":"green"},{"name":"The Bless","lat":52.92563,"lon":-1.48062,"postcode":"DE1 3GU","la":"Derby","era":"other","nn":104,"risk":23,"cat":"green"},{"name":"The Blue Jay","lat":52.90172,"lon":-1.42471,"postcode":"DE21 7HX","la":"Derby","era":"other","nn":641,"risk":32,"cat":"amber"},{"name":"The Blue Note","lat":52.92345,"lon":-1.47843,"postcode":"DE1 3NF","la":"Derby","era":"other","nn":0,"risk":23,"cat":"green"},{"name":"The Blue Peter","lat":52.89647,"lon":-1.42865,"postcode":"DE24 0JH","la":"Derby","era":"other","nn":293,"risk":25,"cat":"green"},{"name":"The Brackens Hotel","lat":52.88871,"lon":-1.43724,"postcode":"DE24 0AQ","la":"Derby","era":"other","nn":544,"risk":29,"cat":"green"},{"name":"The Brick And Tile","lat":52.92556,"lon":-1.49024,"postcode":"DE1 1DU","la":"Derby","era":"other","nn":63,"risk":23,"cat":"green"},{"name":"The Broadway","lat":52.93947,"lon":-1.48462,"postcode":"DE22 1JB","la":"Derby","era":"other","nn":0,"risk":23,"cat":"green"},{"name":"The Cathedral","lat":52.92459,"lon":-1.47818,"postcode":"DE1 3GP","la":"Derby","era":"other","nn":47,"risk":23,"cat":"green"},{"name":"The Chestnut Tree","lat":52.90026,"lon":-1.47506,"postcode":"DE23 8PJ","la":"Derby","era":"other","nn":353,"risk":25,"cat":"green"},{"name":"The Coach House","lat":52.93947,"lon":-1.48462,"postcode":"DE22 1JB","la":"Derby","era":"trad","nn":0,"risk":23,"cat":"green"},{"name":"The Corn Exchange Sports Bar","lat":52.92197,"lon":-1.47568,"postcode":"DE1 2DS","la":"Derby","era":"other","nn":0,"risk":23,"cat":"green"},{"name":"The Cornishman","lat":52.88822,"lon":-1.42165,"postcode":"DE24 0LX","la":"Derby","era":"other","nn":332,"risk":25,"cat":"green"},{"name":"The Courtyard","lat":52.92502,"lon":-1.49047,"postcode":"DE1 1FP","la":"Derby","era":"mod","nn":63,"risk":23,"cat":"green"},{"name":"The Creaky Floorboard","lat":52.93262,"lon":-1.49341,"postcode":"DE22 1FT","la":"Derby","era":"other","nn":82,"risk":23,"cat":"green"},{"name":"The Derby Irish Centre","lat":52.92154,"lon":-1.48093,"postcode":"DE1 1HT","la":"Derby","era":"other","nn":0,"risk":23,"cat":"green"},{"name":"The Durham Ox","lat":52.91679,"lon":-1.47999,"postcode":"DE1 1TG","la":"Derby","era":"other","nn":0,"risk":23,"cat":"green"},{"name":"The Evington Club","lat":52.89917,"lon":-1.48001,"postcode":"DE23 8TA","la":"Derby","era":"other","nn":272,"risk":27,"cat":"green"},{"name":"The Fairholme Club","lat":52.90499,"lon":-1.50819,"postcode":"DE23 6FZ","la":"Derby","era":"other","nn":118,"risk":23,"cat":"green"},{"name":"The Falstaff","lat":52.91051,"lon":-1.48012,"postcode":"DE23 6UJ","la":"Derby","era":"other","nn":153,"risk":24,"cat":"green"},{"name":"The Flower Pot","lat":52.92615,"lon":-1.47932,"postcode":"DE1 3DZ","la":"Derby","era":"other","nn":104,"risk":23,"cat":"green"},{"name":"The Forge","lat":52.92351,"lon":-1.47905,"postcode":"DE1 3PD","la":"Derby","era":"trad","nn":12,"risk":23,"cat":"green"},{"name":"The Friary / 88th Street / Value Mighty / Sin City Burger","lat":52.9233,"lon":-1.4838,"postcode":"DE1 1FG","la":"Derby","era":"other","nn":55,"risk":23,"cat":"green"},{"name":"The Georgian House Hotel","lat":52.926,"lon":-1.49336,"postcode":"DE22 3AD","la":"Derby","era":"mod","nn":91,"risk":23,"cat":"green"},{"name":"The Grampian","lat":52.88191,"lon":-1.49401,"postcode":"DE24 9NB","la":"Derby","era":"trad","nn":564,"risk":44,"cat":"amber"},{"name":"The Grange Banqueting Suite","lat":52.9072,"lon":-1.50138,"postcode":"DE23 6FL","la":"Derby","era":"other","nn":129,"risk":24,"cat":"green"},{"name":"The Greyhound","lat":52.92459,"lon":-1.48881,"postcode":"DE1 1FN","la":"Derby","era":"trad","nn":13,"risk":23,"cat":"green"},{"name":"The Hairy Dog","lat":52.92154,"lon":-1.48093,"postcode":"DE1 1HT","la":"Derby","era":"other","nn":0,"risk":23,"cat":"green"},{"name":"The Honeycomb","lat":52.91361,"lon":-1.55212,"postcode":"DE3 0NR","la":"Derby","era":"other","nn":804,"risk":46,"cat":"amber"},{"name":"The Hoppy Place","lat":52.92385,"lon":-1.4385,"postcode":"DE21 6PF","la":"Derby","era":"other","nn":71,"risk":23,"cat":"green"},{"name":"The Hoptimist","lat":52.92047,"lon":-1.4037,"postcode":"DE21 7FH","la":"Derby","era":"other","nn":96,"risk":23,"cat":"green"},{"name":"The Iron Ram","lat":52.92417,"lon":-1.47818,"postcode":"DE1 3GL","la":"Derby","era":"trad","nn":0,"risk":23,"cat":"green"},{"name":"The Kensington Tavern","lat":52.92024,"lon":-1.4852,"postcode":"DE22 3QP","la":"Derby","era":"other","nn":239,"risk":24,"cat":"green"},{"name":"The King's Highway","lat":52.9192,"lon":-1.50751,"postcode":"DE22 3NH","la":"Derby","era":"trad","nn":673,"risk":27,"cat":"green"},{"name":"The Kingsway","lat":52.92419,"lon":-1.5155,"postcode":"DE22 4AF","la":"Derby","era":"trad","nn":771,"risk":33,"cat":"amber"},{"name":"The Lace Club Limited","lat":52.92584,"lon":-1.45257,"postcode":"DE21 6AQ","la":"Derby","era":"other","nn":608,"risk":44,"cat":"amber"},{"name":"The Lodge","lat":52.89083,"lon":-1.42406,"postcode":"DE24 0JW","la":"Derby","era":"other","nn":332,"risk":25,"cat":"green"},{"name":"The Malt Shovel","lat":52.91997,"lon":-1.40756,"postcode":"DE21 7LH","la":"Derby","era":"other","nn":237,"risk":24,"cat":"green"},{"name":"The Markeaton","lat":52.94499,"lon":-1.50267,"postcode":"DE22 2TF","la":"Derby","era":"other","nn":462,"risk":31,"cat":"amber"},{"name":"The Merlin","lat":52.91134,"lon":-1.45067,"postcode":"DE24 8BY","la":"Derby","era":"other","nn":774,"risk":46,"cat":"amber"},{"name":"The Merry Widows","lat":52.91643,"lon":-1.46423,"postcode":"DE1 2RU","la":"Derby","era":"other","nn":13,"risk":23,"cat":"green"},{"name":"The Nags Head","lat":52.90561,"lon":-1.5393,"postcode":"DE3 9GF","la":"Derby","era":"trad","nn":258,"risk":27,"cat":"green"},{"name":"The Needles","lat":52.88582,"lon":-1.41545,"postcode":"DE24 0UQ","la":"Derby","era":"other","nn":495,"risk":31,"cat":"amber"},{"name":"The Neptune","lat":52.91879,"lon":-1.47524,"postcode":"DE1 2HR","la":"Derby","era":"other","nn":62,"risk":23,"cat":"green"},{"name":"The Oak and Acorn","lat":52.94158,"lon":-1.433,"postcode":"DE21 2HT","la":"Derby","era":"trad","nn":1110,"risk":53,"cat":"amber"},{"name":"The Old Bell Hotel","lat":52.92311,"lon":-1.47831,"postcode":"DE1 3NQ","la":"Derby","era":"other","nn":0,"risk":23,"cat":"green"},{"name":"The Old Silk Mill","lat":52.92555,"lon":-1.47723,"postcode":"DE1 3AF","la":"Derby","era":"trad","nn":52,"risk":23,"cat":"green"},{"name":"The Orange Tree","lat":52.92379,"lon":-1.48323,"postcode":"DE1 1EH","la":"Derby","era":"other","nn":25,"risk":23,"cat":"green"},{"name":"The Paddock","lat":52.93788,"lon":-1.46433,"postcode":"DE21 4AW","la":"Derby","era":"other","nn":0,"risk":25,"cat":"green"},{"name":"The Paper Mill","lat":52.9421,"lon":-1.47653,"postcode":"DE22 1DX","la":"Derby","era":"trad","nn":239,"risk":24,"cat":"green"},{"name":"The Pot Hole","lat":52.94411,"lon":-1.49523,"postcode":"DE22 2QQ","la":"Derby","era":"other","nn":47,"risk":25,"cat":"green"},{"name":"The Red Cow","lat":52.95377,"lon":-1.48436,"postcode":"DE22 2DZ","la":"Derby","era":"other","nn":293,"risk":42,"cat":"amber"},{"name":"The Robin Hotel","lat":52.91333,"lon":-1.53735,"postcode":"DE3 9HD","la":"Derby","era":"other","nn":404,"risk":28,"cat":"green"},{"name":"The Royal Crown","lat":52.91829,"lon":-1.4277,"postcode":"DE21 6TT","la":"Derby","era":"trad","nn":536,"risk":31,"cat":"amber"},{"name":"The Royal Telegraph","lat":52.9173,"lon":-1.47026,"postcode":"DE1 2QS","la":"Derby","era":"trad","nn":184,"risk":24,"cat":"green"},{"name":"The Rykneld Bowling Club Ltd","lat":52.90912,"lon":-1.50033,"postcode":"DE23 6BW","la":"Derby","era":"other","nn":224,"risk":24,"cat":"green"},{"name":"The Shakespeare","lat":52.92345,"lon":-1.47843,"postcode":"DE1 3NF","la":"Derby","era":"other","nn":0,"risk":23,"cat":"green"},{"name":"The Silver Ghost","lat":52.88569,"lon":-1.43085,"postcode":"DE24 0HF","la":"Derby","era":"other","nn":544,"risk":29,"cat":"green"},{"name":"The Smithfield","lat":52.92325,"lon":-1.46788,"postcode":"DE1 2BH","la":"Derby","era":"other","nn":324,"risk":25,"cat":"green"},{"name":"The Standing Order","lat":52.92417,"lon":-1.47818,"postcode":"DE1 3GL","la":"Derby","era":"other","nn":0,"risk":23,"cat":"green"},{"name":"The Station Inn","lat":52.91534,"lon":-1.46612,"postcode":"DE1 2SN","la":"Derby","era":"trad","nn":21,"risk":23,"cat":"green"},{"name":"The Tavern","lat":52.92598,"lon":-1.46959,"postcode":"DE1 3QR","la":"Derby","era":"other","nn":86,"risk":23,"cat":"green"},{"name":"The Toby Carvery","lat":52.92426,"lon":-1.43769,"postcode":"DE21 6LZ","la":"Derby","era":"other","nn":71,"risk":23,"cat":"green"},{"name":"The Travellers Rest","lat":52.92802,"lon":-1.50164,"postcode":"DE22 3AJ","la":"Derby","era":"other","nn":323,"risk":25,"cat":"green"},{"name":"The Vine Inn","lat":52.90454,"lon":-1.54446,"postcode":"DE3 0DA","la":"Derby","era":"trad","nn":109,"risk":28,"cat":"green"},{"name":"The Waterfall","lat":52.91726,"lon":-1.46422,"postcode":"DE1 2RU","la":"Derby","era":"other","nn":84,"risk":23,"cat":"green"},{"name":"The Woodpecker","lat":52.92971,"lon":-1.52312,"postcode":"DE22 4EF","la":"Derby","era":"other","nn":502,"risk":44,"cat":"amber"},{"name":"Tiger Bar","lat":52.92236,"lon":-1.4763,"postcode":"DE1 2DT","la":"Derby","era":"other","nn":60,"risk":23,"cat":"green"},{"name":"Together","lat":52.92216,"lon":-1.47975,"postcode":"DE1 1HA","la":"Derby","era":"other","nn":0,"risk":23,"cat":"green"},{"name":"Turtle Bay","lat":52.92216,"lon":-1.47975,"postcode":"DE1 1HA","la":"Derby","era":"other","nn":0,"risk":23,"cat":"green"},{"name":"Ukranian Social Club","lat":52.91537,"lon":-1.4758,"postcode":"DE1 2GU","la":"Derby","era":"mod","nn":58,"risk":23,"cat":"green"},{"name":"Vernon Arms","lat":52.92286,"lon":-1.40765,"postcode":"DE21 7AL","la":"Derby","era":"trad","nn":90,"risk":23,"cat":"green"},{"name":"Victoria Inn","lat":52.91651,"lon":-1.46437,"postcode":"DE1 2RR","la":"Derby","era":"trad","nn":13,"risk":23,"cat":"green"},{"name":"Vines Wine bar","lat":52.92311,"lon":-1.47831,"postcode":"DE1 3NQ","la":"Derby","era":"other","nn":0,"risk":23,"cat":"green"},{"name":"Vulcan Arms","lat":52.90466,"lon":-1.47464,"postcode":"DE23 8RF","la":"Derby","era":"trad","nn":294,"risk":25,"cat":"green"},{"name":"White Horse Public House","lat":52.92195,"lon":-1.47429,"postcode":"DE1 2AW","la":"Derby","era":"trad","nn":16,"risk":23,"cat":"green"},{"name":"White Swan","lat":52.90514,"lon":-1.50645,"postcode":"DE23 6GA","la":"Derby","era":"trad","nn":101,"risk":23,"cat":"green"},{"name":"Wilmot Arms","lat":52.93067,"lon":-1.43208,"postcode":"DE21 4QU","la":"Derby","era":"trad","nn":145,"risk":26,"cat":"green"},{"name":"Wine Stories","lat":52.92293,"lon":-1.47937,"postcode":"DE1 1BQ","la":"Derby","era":"other","nn":38,"risk":23,"cat":"green"},{"name":"Woodlands Hotel","lat":52.95264,"lon":-1.50253,"postcode":"DE22 2LH","la":"Derby","era":"other","nn":585,"risk":32,"cat":"amber"},{"name":"Woodlark Inn","lat":52.92516,"lon":-1.48794,"postcode":"DE1 3LA","la":"Derby","era":"trad","nn":86,"risk":23,"cat":"green"},{"name":"Woodlark Inn","lat":52.92648,"lon":-1.48592,"postcode":"DE1 3LA","la":"Derby","era":"trad","nn":33,"risk":23,"cat":"green"},{"name":"Ye Olde Dolphin","lat":52.92529,"lon":-1.47787,"postcode":"DE1 3DL","la":"Derby","era":"other","nn":18,"risk":23,"cat":"green"},{"name":"Ye Olde Spa Inne","lat":52.91726,"lon":-1.48382,"postcode":"DE22 3SU","la":"Derby","era":"trad","nn":262,"risk":24,"cat":"green"},{"name":"Ashbourne Ex-Servicemens Club","lat":53.01783,"lon":-1.73268,"postcode":"DE6 1EU","la":"Derbyshire Dales","era":"other","nn":0,"risk":26,"cat":"green"},{"name":"Barley Mow","lat":53.11853,"lon":-1.6003,"postcode":"DE4 2AY","la":"Derbyshire Dales","era":"other","nn":0,"risk":26,"cat":"green"},{"name":"Barley Mow Inn","lat":53.04798,"lon":-1.60288,"postcode":"DE6 3JP","la":"Derbyshire Dales","era":"trad","nn":2378,"risk":65,"cat":"red"},{"name":"Black Horse Inn","lat":53.01919,"lon":-1.61206,"postcode":"DE6 3EE","la":"Derbyshire Dales","era":"trad","nn":816,"risk":52,"cat":"amber"},{"name":"Boat Inn","lat":53.11853,"lon":-1.6003,"postcode":"DE4 3QF","la":"Derbyshire Dales","era":"trad","nn":0,"risk":26,"cat":"green"},{"name":"Brailsford Golf Club","lat":52.95618,"lon":-1.61403,"postcode":"DE6 3BU","la":"Derbyshire Dales","era":"other","nn":1554,"risk":59,"cat":"amber"},{"name":"Buddy's","lat":53.13692,"lon":-1.55586,"postcode":"DE4 3LT","la":"Derbyshire Dales","era":"other","nn":0,"risk":26,"cat":"green"},{"name":"Bulan","lat":53.1357,"lon":-1.55551,"postcode":"DE4 3LU","la":"Derbyshire Dales","era":"other","nn":29,"risk":26,"cat":"green"},{"name":"Bulls Head Hotel","lat":53.17518,"lon":-1.68605,"postcode":"DE45 1UR","la":"Derbyshire Dales","era":"trad","nn":215,"risk":32,"cat":"amber"},{"name":"Castle Inn","lat":53.21495,"lon":-1.67376,"postcode":"DE45 1DU","la":"Derbyshire Dales","era":"trad","nn":124,"risk":27,"cat":"green"},{"name":"Church Inn","lat":53.16656,"lon":-1.602,"postcode":"DE4 2GG","la":"Derbyshire Dales","era":"trad","nn":214,"risk":32,"cat":"amber"},{"name":"Church Lane Deli","lat":52.97124,"lon":-1.67646,"postcode":"DE6 3AS","la":"Derbyshire Dales","era":"other","nn":0,"risk":46,"cat":"amber"},{"name":"Coach And Horses","lat":53.04814,"lon":-1.74019,"postcode":"DE6 1LB","la":"Derbyshire Dales","era":"trad","nn":1069,"risk":56,"cat":"amber"},{"name":"Cock Inn Public House","lat":53.00215,"lon":-1.75258,"postcode":"DE6 2GJ","la":"Derbyshire Dales","era":"trad","nn":758,"risk":51,"cat":"amber"},{"name":"Couplings Wine Bar","lat":53.01654,"lon":-1.73525,"postcode":"DE6 1AE","la":"Derbyshire Dales","era":"other","nn":118,"risk":27,"cat":"green"},{"name":"Crispin Inn","lat":53.243,"lon":-1.70379,"postcode":"DE45 1TZ","la":"Derbyshire Dales","era":"trad","nn":123,"risk":44,"cat":"amber"},{"name":"Designate At The Gate","lat":53.14143,"lon":-1.54927,"postcode":"DE4 3FQ","la":"Derbyshire Dales","era":"other","nn":275,"risk":28,"cat":"green"},{"name":"Devonshire Arms","lat":53.2036,"lon":-1.60474,"postcode":"DE4 2NZ","la":"Derbyshire Dales","era":"trad","nn":1938,"risk":62,"cat":"red"},{"name":"Devonshire Arms Hotel","lat":53.23576,"lon":-1.64187,"postcode":"DE45 1UL","la":"Derbyshire Dales","era":"trad","nn":1815,"risk":61,"cat":"red"},{"name":"Devonshire Arms Hotel","lat":53.24613,"lon":-1.61301,"postcode":"DE45 1SR","la":"Derbyshire Dales","era":"trad","nn":0,"risk":43,"cat":"amber"},{"name":"Doveridge Working Mens Club","lat":52.90441,"lon":-1.82409,"postcode":"DE6 5JZ","la":"Derbyshire Dales","era":"trad","nn":200,"risk":47,"cat":"amber"},{"name":"Druid Inn","lat":53.1557,"lon":-1.6449,"postcode":"DE4 2BL","la":"Derbyshire Dales","era":"trad","nn":73,"risk":46,"cat":"amber"},{"name":"Duke Of Wellington","lat":53.14421,"lon":-1.54371,"postcode":"DE4 3GX","la":"Derbyshire Dales","era":"trad","nn":483,"risk":29,"cat":"green"},{"name":"Duke Of York Public House","lat":53.14527,"lon":-1.66797,"postcode":"DE4 2BW","la":"Derbyshire Dales","era":"trad","nn":1630,"risk":60,"cat":"amber"},{"name":"Edgefold Club","lat":53.14044,"lon":-1.55479,"postcode":"DE4 3NJ","la":"Derbyshire Dales","era":"other","nn":234,"risk":28,"cat":"green"},{"name":"Flying Childers Inn","lat":53.17551,"lon":-1.64698,"postcode":"DE4 2LW","la":"Derbyshire Dales","era":"trad","nn":2144,"risk":63,"cat":"red"},{"name":"Gate Inn","lat":53.13843,"lon":-1.52223,"postcode":"DE4 5FN","la":"Derbyshire Dales","era":"trad","nn":721,"risk":48,"cat":"amber"},{"name":"George And Dragon","lat":53.01783,"lon":-1.73268,"postcode":"DE6 1EU","la":"Derbyshire Dales","era":"trad","nn":0,"risk":26,"cat":"green"},{"name":"Greenman Public House","lat":53.01752,"lon":-1.73176,"postcode":"DE6 1GH","la":"Derbyshire Dales","era":"other","nn":0,"risk":26,"cat":"green"},{"name":"Greyhound Hotel","lat":53.10887,"lon":-1.56023,"postcode":"DE4 3QE","la":"Derbyshire Dales","era":"trad","nn":157,"risk":45,"cat":"amber"},{"name":"Grouse And Claret","lat":53.18865,"lon":-1.61968,"postcode":"DE4 2EB","la":"Derbyshire Dales","era":"other","nn":1938,"risk":62,"cat":"red"},{"name":"Grouse Inn","lat":53.16683,"lon":-1.59883,"postcode":"DE4 2FT","la":"Derbyshire Dales","era":"trad","nn":214,"risk":32,"cat":"amber"},{"name":"Hope And Anchor Public House","lat":53.08246,"lon":-1.57405,"postcode":"DE4 4ET","la":"Derbyshire Dales","era":"trad","nn":0,"risk":26,"cat":"green"},{"name":"Kings Head Public House","lat":53.12011,"lon":-1.58456,"postcode":"DE4 2AA","la":"Derbyshire Dales","era":"trad","nn":1065,"risk":56,"cat":"amber"},{"name":"Knoll Club","lat":53.17316,"lon":-1.69362,"postcode":"DE45 1UY","la":"Derbyshire Dales","era":"other","nn":337,"risk":33,"cat":"amber"},{"name":"Laburnum Inn","lat":53.14914,"lon":-1.56533,"postcode":"DE4 2PW","la":"Derbyshire Dales","era":"trad","nn":716,"risk":48,"cat":"amber"},{"name":"Lime Kiln Inn","lat":53.08973,"lon":-1.57013,"postcode":"DE4 4FR","la":"Derbyshire Dales","era":"trad","nn":526,"risk":30,"cat":"green"},{"name":"Machine Inn","lat":53.01706,"lon":-1.73371,"postcode":"DE6 1AE","la":"Derbyshire Dales","era":"trad","nn":110,"risk":27,"cat":"green"},{"name":"Malt Shovel Public House","lat":53.09371,"lon":-1.56589,"postcode":"DE4 4GP","la":"Derbyshire Dales","era":"other","nn":526,"risk":50,"cat":"amber"},{"name":"Matlock (Baileans) Rugby Club Ltd","lat":53.10887,"lon":-1.55549,"postcode":"DE4 3RQ","la":"Derbyshire Dales","era":"other","nn":316,"risk":46,"cat":"amber"},{"name":"Miners Arms","lat":53.07769,"lon":-1.62624,"postcode":"DE4 4DE","la":"Derbyshire Dales","era":"trad","nn":2215,"risk":64,"cat":"red"},{"name":"Miners Arms","lat":53.08628,"lon":-1.65616,"postcode":"DE4 4HA","la":"Derbyshire Dales","era":"trad","nn":189,"risk":47,"cat":"amber"},{"name":"Miners Standard","lat":53.13876,"lon":-1.64607,"postcode":"DE4 2DR","la":"Derbyshire Dales","era":"other","nn":1630,"risk":60,"cat":"amber"},{"name":"Monk Bar","lat":53.13692,"lon":-1.55586,"postcode":"DE4 3LT","la":"Derbyshire Dales","era":"trad","nn":0,"risk":26,"cat":"green"},{"name":"Monsal Head Hotel","lat":53.24051,"lon":-1.72417,"postcode":"DE45 1NL","la":"Derbyshire Dales","era":"trad","nn":570,"risk":50,"cat":"amber"},{"name":"Nags Head","lat":53.02079,"lon":-1.62397,"postcode":"DE6 3EF","la":"Derbyshire Dales","era":"trad","nn":816,"risk":52,"cat":"amber"},{"name":"Nelson Arms","lat":53.10054,"lon":-1.58839,"postcode":"DE4 4LU","la":"Derbyshire Dales","era":"trad","nn":776,"risk":51,"cat":"amber"},{"name":"Old Bowling Green","lat":53.11853,"lon":-1.6003,"postcode":"DE4 2DS","la":"Derbyshire Dales","era":"other","nn":0,"risk":26,"cat":"green"},{"name":"Prince Of Wales","lat":53.24791,"lon":-1.62365,"postcode":"DE45 1RY","la":"Derbyshire Dales","era":"trad","nn":735,"risk":49,"cat":"amber"},{"name":"Queens Arms","lat":53.21383,"lon":-1.67367,"postcode":"DE45 1DS","la":"Derbyshire Dales","era":"trad","nn":0,"risk":26,"cat":"green"},{"name":"Queen's Vaults","lat":53.01791,"lon":-1.73171,"postcode":"DE6 1ES","la":"Derbyshire Dales","era":"trad","nn":43,"risk":26,"cat":"green"},{"name":"Red Lion","lat":53.04948,"lon":-1.69139,"postcode":"DE6 1JH","la":"Derbyshire Dales","era":"trad","nn":1479,"risk":59,"cat":"amber"},{"name":"Red Lion Hotel","lat":53.13504,"lon":-1.54962,"postcode":"DE4 3BT","la":"Derbyshire Dales","era":"trad","nn":352,"risk":28,"cat":"green"},{"name":"Red Lion Hotel","lat":53.08246,"lon":-1.57405,"postcode":"DE4 4ET","la":"Derbyshire Dales","era":"trad","nn":0,"risk":26,"cat":"green"},{"name":"Red Lion Inn","lat":53.05238,"lon":-1.65191,"postcode":"DE6 1PR","la":"Derbyshire Dales","era":"trad","nn":1313,"risk":58,"cat":"amber"},{"name":"Red Lion Inn","lat":53.15629,"lon":-1.64443,"postcode":"DE4 2BN","la":"Derbyshire Dales","era":"trad","nn":73,"risk":46,"cat":"amber"},{"name":"Red Lion Public House","lat":52.95416,"lon":-1.66181,"postcode":"DE6 3HA","la":"Derbyshire Dales","era":"trad","nn":1870,"risk":62,"cat":"red"},{"name":"Rising Sun","lat":53.09417,"lon":-1.58366,"postcode":"DE4 4LS","la":"Derbyshire Dales","era":"other","nn":776,"risk":51,"cat":"amber"},{"name":"Robin Hood Inn","lat":53.24929,"lon":-1.588,"postcode":"DE45 1PQ","la":"Derbyshire Dales","era":"trad","nn":1701,"risk":60,"cat":"amber"},{"name":"Rose And Crown","lat":52.96959,"lon":-1.62059,"postcode":"DE6 3DA","la":"Derbyshire Dales","era":"trad","nn":1554,"risk":59,"cat":"amber"},{"name":"Rose And Crown","lat":52.91537,"lon":-1.73974,"postcode":"DE6 5AA","la":"Derbyshire Dales","era":"trad","nn":3563,"risk":73,"cat":"red"},{"name":"Rose Cottage","lat":53.12181,"lon":-1.5609,"postcode":"DE4 3NS","la":"Derbyshire Dales","era":"trad","nn":269,"risk":45,"cat":"amber"},{"name":"Roston Inn","lat":52.96989,"lon":-1.81328,"postcode":"DE6 2EE","la":"Derbyshire Dales","era":"trad","nn":1864,"risk":61,"cat":"red"},{"name":"Royal Oak Hotel","lat":53.00854,"lon":-1.76377,"postcode":"DE6 2BN","la":"Derbyshire Dales","era":"trad","nn":1032,"risk":56,"cat":"amber"},{"name":"Royal Oak Inn","lat":53.08397,"lon":-1.57114,"postcode":"DE4 4FG","la":"Derbyshire Dales","era":"trad","nn":257,"risk":28,"cat":"green"},{"name":"Saracens Bar and Restuarant","lat":52.97124,"lon":-1.67646,"postcode":"DE6 3AS","la":"Derbyshire Dales","era":"mod","nn":0,"risk":46,"cat":"amber"},{"name":"Shoulder Of Mutton","lat":52.99094,"lon":-1.70386,"postcode":"DE6 1LW","la":"Derbyshire Dales","era":"other","nn":2858,"risk":68,"cat":"red"},{"name":"Smiths Tavern","lat":53.01752,"lon":-1.73176,"postcode":"DE6 1GH","la":"Derbyshire Dales","era":"other","nn":0,"risk":26,"cat":"green"},{"name":"Square And Compass","lat":53.16089,"lon":-1.59175,"postcode":"DE4 2EQ","la":"Derbyshire Dales","era":"other","nn":0,"risk":26,"cat":"green"},{"name":"Sycamore Inn","lat":53.08542,"lon":-1.71978,"postcode":"DE6 1QL","la":"Derbyshire Dales","era":"trad","nn":300,"risk":48,"cat":"amber"},{"name":"Tavern At Tansley","lat":53.13174,"lon":-1.51411,"postcode":"DE4 5FR","la":"Derbyshire Dales","era":"other","nn":920,"risk":52,"cat":"amber"},{"name":"The Ashford Arms","lat":53.22436,"lon":-1.70802,"postcode":"DE45 1QB","la":"Derbyshire Dales","era":"trad","nn":0,"risk":46,"cat":"amber"},{"name":"The Bell Inn","lat":53.10765,"lon":-1.56141,"postcode":"DE4 3RF","la":"Derbyshire Dales","era":"trad","nn":157,"risk":45,"cat":"amber"},{"name":"The Bentley Brook Brewing Company Taproom LTD","lat":53.13905,"lon":-1.53298,"postcode":"DE4 5EX","la":"Derbyshire Dales","era":"mod","nn":721,"risk":48,"cat":"amber"},{"name":"The Bentley Brook Inn","lat":53.04981,"lon":-1.72445,"postcode":"DE6 1LF","la":"Derbyshire Dales","era":"trad","nn":1069,"risk":56,"cat":"amber"},{"name":"The Bowling Green Inn","lat":53.01944,"lon":-1.73491,"postcode":"DE6 1EZ","la":"Derbyshire Dales","era":"trad","nn":232,"risk":28,"cat":"green"},{"name":"The Bulls Head","lat":53.22436,"lon":-1.70802,"postcode":"DE45 1QB","la":"Derbyshire Dales","era":"trad","nn":0,"risk":46,"cat":"amber"},{"name":"The Bulls Head Public House","lat":53.1953,"lon":-1.77409,"postcode":"DE45 1JH","la":"Derbyshire Dales","era":"trad","nn":2327,"risk":65,"cat":"red"},{"name":"The Cavendish Arms","lat":52.90604,"lon":-1.82533,"postcode":"DE6 5JR","la":"Derbyshire Dales","era":"trad","nn":200,"risk":47,"cat":"amber"},{"name":"The Cock And Pullett Public House","lat":53.21579,"lon":-1.74104,"postcode":"DE45 1QS","la":"Derbyshire Dales","era":"other","nn":2396,"risk":65,"cat":"red"},{"name":"The Crown Inn","lat":52.93899,"lon":-1.80087,"postcode":"DE6 2FF","la":"Derbyshire Dales","era":"trad","nn":2954,"risk":69,"cat":"red"},{"name":"The Duke William","lat":53.13263,"lon":-1.55304,"postcode":"DE4 3BZ","la":"Derbyshire Dales","era":"trad","nn":352,"risk":28,"cat":"green"},{"name":"The Farmacy","lat":53.14308,"lon":-1.55233,"postcode":"DE4 3JJ","la":"Derbyshire Dales","era":"other","nn":165,"risk":27,"cat":"green"},{"name":"The Farmyard Inn","lat":53.17435,"lon":-1.68896,"postcode":"DE45 1UW","la":"Derbyshire Dales","era":"other","nn":215,"risk":32,"cat":"amber"},{"name":"The Fishpond","lat":53.11984,"lon":-1.56324,"postcode":"DE4 3NR","la":"Derbyshire Dales","era":"other","nn":269,"risk":45,"cat":"amber"},{"name":"The George Hotel","lat":53.17713,"lon":-1.6822,"postcode":"DE45 1WN","la":"Derbyshire Dales","era":"trad","nn":336,"risk":33,"cat":"amber"},{"name":"The Joiners Arms","lat":53.21323,"lon":-1.67625,"postcode":"DE45 1BZ","la":"Derbyshire Dales","era":"trad","nn":61,"risk":26,"cat":"green"},{"name":"The Ketch","lat":53.04043,"lon":-1.70761,"postcode":"DE6 1JF","la":"Derbyshire Dales","era":"other","nn":1479,"risk":59,"cat":"amber"},{"name":"The Knockerdown Inn","lat":53.06409,"lon":-1.65455,"postcode":"DE6 1NQ","la":"Derbyshire Dales","era":"trad","nn":1313,"risk":58,"cat":"amber"},{"name":"The Lathkil Hotel","lat":53.19479,"lon":-1.69514,"postcode":"DE45 1JE","la":"Derbyshire Dales","era":"other","nn":2145,"risk":63,"cat":"red"},{"name":"The Loft, Holme House","lat":53.13847,"lon":-1.556,"postcode":"DE4 3AT","la":"Derbyshire Dales","era":"other","nn":172,"risk":27,"cat":"green"},{"name":"The Matlock Club","lat":53.13548,"lon":-1.55575,"postcode":"DE4 3LU","la":"Derbyshire Dales","era":"other","nn":29,"risk":26,"cat":"green"},{"name":"The Old Gate Inn","lat":53.08493,"lon":-1.65787,"postcode":"DE4 4HJ","la":"Derbyshire Dales","era":"trad","nn":189,"risk":47,"cat":"amber"},{"name":"The Packhorse Inn","lat":53.24251,"lon":-1.71627,"postcode":"DE45 1NN","la":"Derbyshire Dales","era":"trad","nn":570,"risk":35,"cat":"amber"},{"name":"The Peacock","lat":53.21383,"lon":-1.67367,"postcode":"DE45 1DS","la":"Derbyshire Dales","era":"other","nn":0,"risk":26,"cat":"green"},{"name":"The Plough Inn","lat":53.16376,"lon":-1.58174,"postcode":"DE4 2FF","la":"Derbyshire Dales","era":"trad","nn":740,"risk":49,"cat":"amber"},{"name":"The Quarryman (Formerly The Blacks Head)","lat":53.08246,"lon":-1.57405,"postcode":"DE4 4ET","la":"Derbyshire Dales","era":"trad","nn":0,"risk":26,"cat":"green"},{"name":"The Red Lion","lat":53.21351,"lon":-1.67545,"postcode":"DE45 1BT","la":"Derbyshire Dales","era":"trad","nn":0,"risk":26,"cat":"green"},{"name":"The Royal British Legion Social Club","lat":53.08691,"lon":-1.72352,"postcode":"DE6 1QJ","la":"Derbyshire Dales","era":"other","nn":300,"risk":48,"cat":"amber"},{"name":"The Rutland Arms Hotel","lat":53.21351,"lon":-1.67545,"postcode":"DE45 1BT","la":"Derbyshire Dales","era":"trad","nn":0,"risk":26,"cat":"green"},{"name":"The Stepping Stones","lat":53.00829,"lon":-1.74768,"postcode":"DE6 1AY","la":"Derbyshire Dales","era":"other","nn":758,"risk":51,"cat":"amber"},{"name":"The Sycamore Public House","lat":53.14403,"lon":-1.55878,"postcode":"DE4 3HZ","la":"Derbyshire Dales","era":"other","nn":344,"risk":28,"cat":"green"},{"name":"The Thorn Tree Inn","lat":53.14434,"lon":-1.55365,"postcode":"DE4 3JQ","la":"Derbyshire Dales","era":"trad","nn":165,"risk":27,"cat":"green"},{"name":"The Three Stags Head","lat":53.15465,"lon":-1.59792,"postcode":"DE4 2JY","la":"Derbyshire Dales","era":"trad","nn":806,"risk":49,"cat":"amber"},{"name":"The Tipsy Toad","lat":53.13997,"lon":-1.55831,"postcode":"DE4 3AU","la":"Derbyshire Dales","era":"other","nn":228,"risk":28,"cat":"green"},{"name":"The Vernon Arms","lat":52.88529,"lon":-1.76144,"postcode":"DE6 5HS","la":"Derbyshire Dales","era":"trad","nn":2891,"risk":69,"cat":"red"},{"name":"The Wheatsheaf","lat":53.21383,"lon":-1.67367,"postcode":"DE45 1DS","la":"Derbyshire Dales","era":"trad","nn":0,"risk":26,"cat":"green"},{"name":"The Wheatsheaf Public House","lat":53.08053,"lon":-1.5731,"postcode":"DE4 4DS","la":"Derbyshire Dales","era":"trad","nn":223,"risk":30,"cat":"green"},{"name":"The White Lion","lat":53.24249,"lon":-1.70214,"postcode":"DE45 1TA","la":"Derbyshire Dales","era":"trad","nn":123,"risk":44,"cat":"amber"},{"name":"The Whitworth Centre","lat":53.16089,"lon":-1.59175,"postcode":"DE4 2EQ","la":"Derbyshire Dales","era":"other","nn":0,"risk":26,"cat":"green"},{"name":"The Yeaveley Arms","lat":52.96004,"lon":-1.72232,"postcode":"DE6 2DT","la":"Derbyshire Dales","era":"trad","nn":3314,"risk":72,"cat":"red"},{"name":"Twenty Ten","lat":53.13692,"lon":-1.55586,"postcode":"DE4 3LT","la":"Derbyshire Dales","era":"other","nn":0,"risk":26,"cat":"green"},{"name":"Wheatsheaf Hotel","lat":53.24613,"lon":-1.61301,"postcode":"DE45 1SR","la":"Derbyshire Dales","era":"trad","nn":0,"risk":43,"cat":"amber"},{"name":"Wheel Inn","lat":53.01507,"lon":-1.73211,"postcode":"DE6 1BX","la":"Derbyshire Dales","era":"trad","nn":246,"risk":28,"cat":"green"},{"name":"White Lion Inn","lat":53.12561,"lon":-1.55193,"postcode":"DE4 5JA","la":"Derbyshire Dales","era":"trad","nn":733,"risk":36,"cat":"amber"},{"name":"White Swan","lat":53.01783,"lon":-1.73268,"postcode":"DE6 1EU","la":"Derbyshire Dales","era":"trad","nn":0,"risk":26,"cat":"green"},{"name":"Ye Olde Vaults","lat":53.01783,"lon":-1.73268,"postcode":"DE6 1EU","la":"Derbyshire Dales","era":"other","nn":0,"risk":26,"cat":"green"},{"name":"Yew Tree Inn","lat":52.96878,"lon":-1.64801,"postcode":"DE6 3AE","la":"Derbyshire Dales","era":"trad","nn":1838,"risk":61,"cat":"red"},{"name":"Acorn Inn","lat":52.81126,"lon":-1.70126,"postcode":"DE13 9PX","la":"East Staffordshire","era":"trad","nn":1306,"risk":57,"cat":"amber"},{"name":"Anglesey Arms","lat":52.80682,"lon":-1.60673,"postcode":"DE15 0JW","la":"East Staffordshire","era":"trad","nn":755,"risk":51,"cat":"amber"},{"name":"Bar XV","lat":52.80142,"lon":-1.63482,"postcode":"DE14 3QW","la":"East Staffordshire","era":"mod","nn":196,"risk":27,"cat":"green"},{"name":"Beeropolis","lat":52.80586,"lon":-1.62728,"postcode":"DE14 1LD","la":"East Staffordshire","era":"other","nn":159,"risk":27,"cat":"green"},{"name":"BLACKSMITHS ARMS","lat":52.78651,"lon":-1.67351,"postcode":"DE14 3EY","la":"East Staffordshire","era":"trad","nn":0,"risk":45,"cat":"amber"},{"name":"BRANSTON ARMS","lat":52.79154,"lon":-1.64345,"postcode":"DE14 3DD","la":"East Staffordshire","era":"trad","nn":623,"risk":47,"cat":"amber"},{"name":"BURTON BRIDGE BREWERY LTD","lat":52.80678,"lon":-1.62548,"postcode":"DE14 1SY","la":"East Staffordshire","era":"other","nn":159,"risk":27,"cat":"green"},{"name":"Cask and Pottle","lat":52.85705,"lon":-1.68635,"postcode":"DE13 9LP","la":"East Staffordshire","era":"other","nn":114,"risk":26,"cat":"green"},{"name":"COOPERS TAVERN","lat":52.80469,"lon":-1.63764,"postcode":"DE14 1EG","la":"East Staffordshire","era":"trad","nn":74,"risk":26,"cat":"green"},{"name":"Corner House","lat":52.79549,"lon":-1.66909,"postcode":"DE14 2WF","la":"East Staffordshire","era":"other","nn":1042,"risk":55,"cat":"amber"},{"name":"Cross Keys","lat":52.85533,"lon":-1.68256,"postcode":"DE13 9NR","la":"East Staffordshire","era":"trad","nn":310,"risk":30,"cat":"green"},{"name":"Devonshire Arms","lat":52.8053,"lon":-1.63807,"postcode":"DE14 1BT","la":"East Staffordshire","era":"trad","nn":0,"risk":25,"cat":"green"},{"name":"DOG INN","lat":52.80074,"lon":-1.63156,"postcode":"DE14 3QZ","la":"East Staffordshire","era":"trad","nn":42,"risk":26,"cat":"green"},{"name":"Duncombe Arms","lat":52.98473,"lon":-1.82625,"postcode":"DE6 2GZ","la":"East Staffordshire","era":"trad","nn":1864,"risk":61,"cat":"red"},{"name":"Dunstall Cricket Club","lat":52.78303,"lon":-1.7289,"postcode":"DE13 8BE","la":"East Staffordshire","era":"other","nn":2037,"risk":62,"cat":"red"},{"name":"Hanbury Arms","lat":52.8185,"lon":-1.63308,"postcode":"DE14 2QX","la":"East Staffordshire","era":"trad","nn":443,"risk":31,"cat":"amber"},{"name":"Henhurst & District Recreation Club","lat":52.81325,"lon":-1.68211,"postcode":"DE13 9TB","la":"East Staffordshire","era":"other","nn":1190,"risk":56,"cat":"amber"},{"name":"Horseshoe Inn","lat":52.79454,"lon":-1.69841,"postcode":"DE13 9SD","la":"East Staffordshire","era":"trad","nn":1869,"risk":61,"cat":"red"},{"name":"Leopard Inn","lat":52.80022,"lon":-1.63236,"postcode":"DE14 3QZ","la":"East Staffordshire","era":"trad","nn":79,"risk":26,"cat":"green"},{"name":"Marstons Sports and Social Club","lat":52.80726,"lon":-1.65691,"postcode":"DE14 2BG","la":"East Staffordshire","era":"mod","nn":142,"risk":26,"cat":"green"},{"name":"Meynell Ingram Arms","lat":52.80741,"lon":-1.80896,"postcode":"DE13 8RB","la":"East Staffordshire","era":"trad","nn":2141,"risk":63,"cat":"red"},{"name":"Mill House Inn","lat":52.82948,"lon":-1.61923,"postcode":"DE13 0LA","la":"East Staffordshire","era":"other","nn":398,"risk":31,"cat":"amber"},{"name":"Navigation Inn","lat":52.81715,"lon":-1.63936,"postcode":"DE14 2PT","la":"East Staffordshire","era":"trad","nn":36,"risk":26,"cat":"green"},{"name":"New Inn","lat":52.79266,"lon":-1.624,"postcode":"DE15 9EU","la":"East Staffordshire","era":"trad","nn":131,"risk":26,"cat":"green"},{"name":"New Inn Tutbury","lat":52.85498,"lon":-1.68714,"postcode":"DE13 9NG","la":"East Staffordshire","era":"trad","nn":0,"risk":28,"cat":"green"},{"name":"Oak & Ivy","lat":52.80679,"lon":-1.64593,"postcode":"DE14 2DP","la":"East Staffordshire","era":"trad","nn":11,"risk":25,"cat":"green"},{"name":"Oak and Ivy","lat":52.80672,"lon":-1.64605,"postcode":"DE14 2DP","la":"East Staffordshire","era":"trad","nn":11,"risk":25,"cat":"green"},{"name":"Outwoods Brewing Taproom","lat":52.807,"lon":-1.6396,"postcode":"DE14 1AZ","la":"East Staffordshire","era":"mod","nn":131,"risk":26,"cat":"green"},{"name":"Plough Inn","lat":52.82391,"lon":-1.64649,"postcode":"DE13 0SZ","la":"East Staffordshire","era":"trad","nn":241,"risk":27,"cat":"green"},{"name":"PRINCE OF BREWERS","lat":52.80307,"lon":-1.62923,"postcode":"DE14 1JE","la":"East Staffordshire","era":"trad","nn":59,"risk":26,"cat":"green"},{"name":"ROEBUCK INN","lat":52.86002,"lon":-1.77154,"postcode":"DE6 5BT","la":"East Staffordshire","era":"trad","nn":2656,"risk":67,"cat":"red"},{"name":"ROLLESTON COMMEMORATION CLUB","lat":52.84572,"lon":-1.65016,"postcode":"DE13 9DN","la":"East Staffordshire","era":"other","nn":622,"risk":50,"cat":"amber"},{"name":"Rolleston Cricket Club","lat":52.84611,"lon":-1.62851,"postcode":"DE13 9AU","la":"East Staffordshire","era":"other","nn":852,"risk":51,"cat":"amber"},{"name":"Royal Oak Horninglow","lat":52.81988,"lon":-1.64047,"postcode":"DE13 0SL","la":"East Staffordshire","era":"trad","nn":277,"risk":27,"cat":"green"},{"name":"Shobnall Sports and Social Club","lat":52.80835,"lon":-1.658,"postcode":"DE14 2BB","la":"East Staffordshire","era":"mod","nn":142,"risk":26,"cat":"green"},{"name":"Shoulder of Mutton","lat":52.76484,"lon":-1.72371,"postcode":"DE13 8AA","la":"East Staffordshire","era":"other","nn":55,"risk":31,"cat":"amber"},{"name":"South Stapenhill Social Club","lat":52.7893,"lon":-1.62481,"postcode":"DE15 9LF","la":"East Staffordshire","era":"mod","nn":378,"risk":28,"cat":"green"},{"name":"Spot On Snooker Club","lat":52.8032,"lon":-1.63009,"postcode":"DE14 1JN","la":"East Staffordshire","era":"other","nn":51,"risk":26,"cat":"green"},{"name":"Stapenhill Institute","lat":52.79364,"lon":-1.62294,"postcode":"DE15 9AP","la":"East Staffordshire","era":"other","nn":26,"risk":26,"cat":"green"},{"name":"Stretton Bowls Club","lat":52.83214,"lon":-1.64087,"postcode":"DE13 0HB","la":"East Staffordshire","era":"other","nn":791,"risk":48,"cat":"amber"},{"name":"Stretton Social Club","lat":52.82954,"lon":-1.62573,"postcode":"DE13 0DU","la":"East Staffordshire","era":"mod","nn":437,"risk":31,"cat":"amber"},{"name":"The 3 Horseshoes","lat":52.76353,"lon":-1.71936,"postcode":"DE13 8DR","la":"East Staffordshire","era":"trad","nn":327,"risk":33,"cat":"amber"},{"name":"THE ALBION TAPHOUSE","lat":52.80971,"lon":-1.6654,"postcode":"DE14 2BE","la":"East Staffordshire","era":"mod","nn":520,"risk":47,"cat":"amber"},{"name":"The Anchor Inn","lat":52.80103,"lon":-1.63198,"postcode":"DE14 3QN","la":"East Staffordshire","era":"trad","nn":42,"risk":26,"cat":"green"},{"name":"THE BARLEY MOW","lat":52.79387,"lon":-1.62305,"postcode":"DE15 9AP","la":"East Staffordshire","era":"other","nn":26,"risk":26,"cat":"green"},{"name":"THE BARTON TURNS","lat":52.76127,"lon":-1.7024,"postcode":"DE13 8EA","la":"East Staffordshire","era":"other","nn":1168,"risk":56,"cat":"amber"},{"name":"The Beacon","lat":52.83092,"lon":-1.65248,"postcode":"DE13 0AJ","la":"East Staffordshire","era":"other","nn":791,"risk":36,"cat":"amber"},{"name":"The Beech Hotel","lat":52.82599,"lon":-1.62059,"postcode":"DE13 0DL","la":"East Staffordshire","era":"other","nn":398,"risk":31,"cat":"amber"},{"name":"THE BREAK ROOM SPORTS BAR","lat":52.80282,"lon":-1.63052,"postcode":"DE14 1AN","la":"East Staffordshire","era":"other","nn":51,"risk":26,"cat":"green"},{"name":"The crossing","lat":52.80398,"lon":-1.62915,"postcode":"DE14 1JS","la":"East Staffordshire","era":"trad","nn":101,"risk":26,"cat":"green"},{"name":"The Crown","lat":52.78457,"lon":-1.62694,"postcode":"DE15 9RF","la":"East Staffordshire","era":"trad","nn":461,"risk":31,"cat":"amber"},{"name":"THE CROWN INN","lat":52.76775,"lon":-1.79062,"postcode":"DE13 8NQ","la":"East Staffordshire","era":"trad","nn":1890,"risk":61,"cat":"red"},{"name":"THE ELMS","lat":52.8015,"lon":-1.62135,"postcode":"DE15 9AE","la":"East Staffordshire","era":"trad","nn":141,"risk":26,"cat":"green"},{"name":"The Foresters Arms","lat":52.78474,"lon":-1.79035,"postcode":"DE13 8PH","la":"East Staffordshire","era":"trad","nn":1890,"risk":61,"cat":"red"},{"name":"The Gate Inn","lat":52.78651,"lon":-1.67351,"postcode":"DE14 3EY","la":"East Staffordshire","era":"trad","nn":0,"risk":45,"cat":"amber"},{"name":"The Grange Inn","lat":52.81011,"lon":-1.64514,"postcode":"DE14 2JQ","la":"East Staffordshire","era":"trad","nn":372,"risk":28,"cat":"green"},{"name":"THE GREAT NORTHERN","lat":52.81911,"lon":-1.62407,"postcode":"DE14 1QS","la":"East Staffordshire","era":"other","nn":610,"risk":47,"cat":"amber"},{"name":"THE GROVE","lat":52.79462,"lon":-1.61502,"postcode":"DE15 9DQ","la":"East Staffordshire","era":"other","nn":543,"risk":29,"cat":"green"},{"name":"The Jinnie Inn","lat":52.84696,"lon":-1.64112,"postcode":"DE13 9AB","la":"East Staffordshire","era":"trad","nn":622,"risk":47,"cat":"amber"},{"name":"THE JUNCTION","lat":52.8336,"lon":-1.62581,"postcode":"DE13 0DZ","la":"East Staffordshire","era":"other","nn":452,"risk":31,"cat":"amber"},{"name":"THE LAST HERETIC","lat":52.80584,"lon":-1.63929,"postcode":"DE14 1BT","la":"East Staffordshire","era":"other","nn":102,"risk":26,"cat":"green"},{"name":"The Middle Bell","lat":52.7649,"lon":-1.72452,"postcode":"DE13 8AA","la":"East Staffordshire","era":"other","nn":55,"risk":31,"cat":"amber"},{"name":"The Monks Bridge","lat":52.83726,"lon":-1.6211,"postcode":"DE13 0HE","la":"East Staffordshire","era":"trad","nn":515,"risk":34,"cat":"amber"},{"name":"The Rangemore Club","lat":52.80362,"lon":-1.73257,"postcode":"DE13 9RW","la":"East Staffordshire","era":"other","nn":2269,"risk":64,"cat":"red"},{"name":"The Red Lion","lat":52.82523,"lon":-1.79689,"postcode":"DE13 8SH","la":"East Staffordshire","era":"trad","nn":2141,"risk":63,"cat":"red"},{"name":"The Roebuck Inn","lat":52.8053,"lon":-1.63807,"postcode":"DE14 1BT","la":"East Staffordshire","era":"trad","nn":0,"risk":25,"cat":"green"},{"name":"The Royal Oak Barton","lat":52.75965,"lon":-1.73148,"postcode":"DE13 8JD","la":"East Staffordshire","era":"trad","nn":748,"risk":36,"cat":"amber"},{"name":"The Sump","lat":52.81287,"lon":-1.61179,"postcode":"DE15 0TT","la":"East Staffordshire","era":"other","nn":755,"risk":51,"cat":"amber"},{"name":"The Vine Inn","lat":52.85498,"lon":-1.68714,"postcode":"DE13 9NG","la":"East Staffordshire","era":"trad","nn":0,"risk":28,"cat":"green"},{"name":"The Wyggeston","lat":52.82225,"lon":-1.64879,"postcode":"DE13 0UN","la":"East Staffordshire","era":"other","nn":241,"risk":27,"cat":"green"},{"name":"Trent Rowing Club","lat":52.80275,"lon":-1.62096,"postcode":"DE15 9AE","la":"East Staffordshire","era":"other","nn":141,"risk":26,"cat":"green"},{"name":"Tutbury Club","lat":52.8578,"lon":-1.68517,"postcode":"DE13 9LP","la":"East Staffordshire","era":"other","nn":114,"risk":26,"cat":"green"},{"name":"Uxbridge Arms","lat":52.79638,"lon":-1.63878,"postcode":"DE14 3LR","la":"East Staffordshire","era":"trad","nn":607,"risk":30,"cat":"green"},{"name":"Victoria Inn","lat":52.81747,"lon":-1.63945,"postcode":"DE14 2PT","la":"East Staffordshire","era":"trad","nn":36,"risk":26,"cat":"green"},{"name":"Weighbridge Inn","lat":52.80701,"lon":-1.64228,"postcode":"DE14 2JJ","la":"East Staffordshire","era":"trad","nn":180,"risk":27,"cat":"green"},{"name":"Wootton Cricket Club","lat":53.00243,"lon":-1.84086,"postcode":"DE6 2GW","la":"East Staffordshire","era":"other","nn":2198,"risk":63,"cat":"red"},{"name":"Bateman Arms","lat":52.97406,"lon":-1.37594,"postcode":"DE7 6FP","la":"Erewash","era":"trad","nn":1078,"risk":56,"cat":"amber"},{"name":"Bell and Harp","lat":52.97984,"lon":-1.45463,"postcode":"DE21 5AE","la":"Erewash","era":"other","nn":1436,"risk":58,"cat":"amber"},{"name":"Breadsall Cricket Club","lat":52.95134,"lon":-1.43917,"postcode":"DE21 5LH","la":"Erewash","era":"other","nn":428,"risk":49,"cat":"amber"},{"name":"Bulls Head Inn","lat":52.89805,"lon":-1.31293,"postcode":"DE72 3EA","la":"Erewash","era":"trad","nn":378,"risk":46,"cat":"amber"},{"name":"Carlton Club","lat":52.97511,"lon":-1.30768,"postcode":"DE7 5LD","la":"Erewash","era":"other","nn":101,"risk":26,"cat":"green"},{"name":"Carpenters Arms","lat":52.94571,"lon":-1.35174,"postcode":"DE7 4PP","la":"Erewash","era":"trad","nn":2102,"risk":63,"cat":"red"},{"name":"Cat and Fiddle Hungry Horse","lat":52.95864,"lon":-1.32886,"postcode":"DE7 4NJ","la":"Erewash","era":"trad","nn":1088,"risk":56,"cat":"amber"},{"name":"Chequers Inn","lat":52.9373,"lon":-1.31257,"postcode":"DE7 4QF","la":"Erewash","era":"trad","nn":228,"risk":47,"cat":"amber"},{"name":"Chequers Inn","lat":52.89706,"lon":-1.31832,"postcode":"DE72 3DX","la":"Erewash","era":"trad","nn":378,"risk":46,"cat":"amber"},{"name":"Coach & Horses","lat":52.89463,"lon":-1.34101,"postcode":"DE72 3PS","la":"Erewash","era":"trad","nn":61,"risk":43,"cat":"amber"},{"name":"Cross Keys","lat":52.92346,"lon":-1.37252,"postcode":"DE72 3SE","la":"Erewash","era":"trad","nn":0,"risk":31,"cat":"amber"},{"name":"Dewdrop Inn","lat":52.97782,"lon":-1.29546,"postcode":"DE7 5TE","la":"Erewash","era":"trad","nn":797,"risk":31,"cat":"amber"},{"name":"Draycott Catering","lat":52.89614,"lon":-1.34683,"postcode":"DE72 3NJ","la":"Erewash","era":"other","nn":364,"risk":46,"cat":"amber"},{"name":"Dukeries Club","lat":52.98423,"lon":-1.30831,"postcode":"DE7 8JW","la":"Erewash","era":"trad","nn":321,"risk":28,"cat":"green"},{"name":"Durham Ox","lat":52.97603,"lon":-1.30756,"postcode":"DE7 8FQ","la":"Erewash","era":"other","nn":103,"risk":26,"cat":"green"},{"name":"Erewash Valley Golf Club","lat":52.93847,"lon":-1.29116,"postcode":"DE7 4QR","la":"Erewash","era":"other","nn":1180,"risk":56,"cat":"amber"},{"name":"Gallows Inn","lat":52.96069,"lon":-1.29366,"postcode":"DE7 5BN","la":"Erewash","era":"trad","nn":151,"risk":29,"cat":"green"},{"name":"Gladstone Lodge","lat":52.9693,"lon":-1.30761,"postcode":"DE7 5QU","la":"Erewash","era":"other","nn":31,"risk":26,"cat":"green"},{"name":"Ilkeston Rugby Club","lat":52.95281,"lon":-1.29398,"postcode":"DE7 4AZ","la":"Erewash","era":"other","nn":657,"risk":35,"cat":"amber"},{"name":"Ilkeston Town Football Club","lat":52.98223,"lon":-1.30485,"postcode":"DE7 8JF","la":"Erewash","era":"other","nn":0,"risk":26,"cat":"green"},{"name":"Kirk Hallam Social Club","lat":52.95286,"lon":-1.31575,"postcode":"DE7 4GZ","la":"Erewash","era":"mod","nn":1088,"risk":56,"cat":"amber"},{"name":"Legs Wine Bar","lat":52.96929,"lon":-1.30939,"postcode":"DE7 5QE","la":"Erewash","era":"other","nn":99,"risk":26,"cat":"green"},{"name":"Lonely Boy Bar","lat":52.9074,"lon":-1.3818,"postcode":"DE72 3HE","la":"Erewash","era":"other","nn":609,"risk":47,"cat":"amber"},{"name":"Mad Dog Coffee Bar","lat":52.97502,"lon":-1.30919,"postcode":"DE7 8AP","la":"Erewash","era":"other","nn":101,"risk":26,"cat":"green"},{"name":"Market Inn & Shakers","lat":52.97139,"lon":-1.30891,"postcode":"DE7 5QA","la":"Erewash","era":"trad","nn":0,"risk":26,"cat":"green"},{"name":"Nags Head","lat":52.90474,"lon":-1.37386,"postcode":"DE72 3FP","la":"Erewash","era":"trad","nn":609,"risk":50,"cat":"amber"},{"name":"Prince of Wales","lat":52.96858,"lon":-1.30851,"postcode":"DE7 5QQ","la":"Erewash","era":"trad","nn":38,"risk":26,"cat":"green"},{"name":"Queens Head","lat":52.917,"lon":-1.37404,"postcode":"DE72 3RN","la":"Erewash","era":"trad","nn":123,"risk":31,"cat":"amber"},{"name":"Risley Cricket Club","lat":52.91478,"lon":-1.31142,"postcode":"DE72 3SS","la":"Erewash","era":"other","nn":1429,"risk":58,"cat":"amber"},{"name":"Royal Oak","lat":52.92346,"lon":-1.37252,"postcode":"DE72 3SE","la":"Erewash","era":"trad","nn":0,"risk":31,"cat":"amber"},{"name":"Rutland Cottage Inn","lat":52.98567,"lon":-1.31683,"postcode":"DE7 8TE","la":"Erewash","era":"trad","nn":593,"risk":30,"cat":"green"},{"name":"Rutland Cricket Club (Cricket Pavilion)","lat":52.9693,"lon":-1.31389,"postcode":"DE7 5GL","la":"Erewash","era":"trad","nn":301,"risk":28,"cat":"green"},{"name":"Sir John Warren","lat":52.971,"lon":-1.30974,"postcode":"DE7 5QB","la":"Erewash","era":"other","nn":70,"risk":26,"cat":"green"},{"name":"Sixty Six Club","lat":52.98775,"lon":-1.30721,"postcode":"DE7 8PB","la":"Erewash","era":"other","nn":39,"risk":26,"cat":"green"},{"name":"Smalley Common Ex-Servicemen's and W.M Club","lat":52.97947,"lon":-1.3893,"postcode":"DE7 6FY","la":"Erewash","era":"other","nn":1078,"risk":56,"cat":"amber"},{"name":"Spanish Bar","lat":52.96824,"lon":-1.30887,"postcode":"DE7 5QJ","la":"Erewash","era":"other","nn":45,"risk":26,"cat":"green"},{"name":"Spring Cottage Inn","lat":52.97442,"lon":-1.3105,"postcode":"DE7 8AZ","la":"Erewash","era":"trad","nn":111,"risk":26,"cat":"green"},{"name":"The 3 Horseshoes","lat":52.96981,"lon":-1.41588,"postcode":"DE7 6DF","la":"Erewash","era":"trad","nn":1560,"risk":59,"cat":"amber"},{"name":"The Borough","lat":52.97232,"lon":-1.30863,"postcode":"DE7 8FB","la":"Erewash","era":"other","nn":105,"risk":26,"cat":"green"},{"name":"The Burnt Pig","lat":52.96908,"lon":-1.30789,"postcode":"DE7 5RB","la":"Erewash","era":"other","nn":31,"risk":26,"cat":"green"},{"name":"The Davy Lamp","lat":52.96063,"lon":-1.29591,"postcode":"DE7 4AP","la":"Erewash","era":"other","nn":151,"risk":27,"cat":"green"},{"name":"The General Havelock","lat":52.96503,"lon":-1.30693,"postcode":"DE7 5FW","la":"Erewash","era":"other","nn":306,"risk":28,"cat":"green"},{"name":"The Harrow","lat":52.97139,"lon":-1.30891,"postcode":"DE7 5QA","la":"Erewash","era":"other","nn":0,"risk":26,"cat":"green"},{"name":"The Kings Head","lat":52.97139,"lon":-1.30891,"postcode":"DE7 5QA","la":"Erewash","era":"trad","nn":0,"risk":26,"cat":"green"},{"name":"The Latch Lifter","lat":52.96835,"lon":-1.3081,"postcode":"DE7 5QQ","la":"Erewash","era":"other","nn":38,"risk":26,"cat":"green"},{"name":"The Little Acorn","lat":52.98223,"lon":-1.30485,"postcode":"DE7 8JF","la":"Erewash","era":"other","nn":0,"risk":26,"cat":"green"},{"name":"The Manor Bar & Catering Limited","lat":52.97624,"lon":-1.31147,"postcode":"DE7 8AT","la":"Erewash","era":"mod","nn":157,"risk":27,"cat":"green"},{"name":"The Navigation Inn","lat":52.90241,"lon":-1.31721,"postcode":"DE72 3BP","la":"Erewash","era":"trad","nn":563,"risk":47,"cat":"amber"},{"name":"The Needlemakers Arms","lat":52.96443,"lon":-1.30228,"postcode":"DE7 5NY","la":"Erewash","era":"trad","nn":318,"risk":28,"cat":"green"},{"name":"The New Inn","lat":52.96576,"lon":-1.46292,"postcode":"DE21 5DR","la":"Erewash","era":"trad","nn":233,"risk":47,"cat":"amber"},{"name":"The Newdigate Arms","lat":52.97346,"lon":-1.33914,"postcode":"DE7 6HW","la":"Erewash","era":"trad","nn":1495,"risk":58,"cat":"amber"},{"name":"The Observatory","lat":52.97139,"lon":-1.30891,"postcode":"DE7 5QA","la":"Erewash","era":"other","nn":0,"risk":26,"cat":"green"},{"name":"The Queens Head","lat":52.96751,"lon":-1.461,"postcode":"DE21 5DF","la":"Erewash","era":"trad","nn":233,"risk":47,"cat":"amber"},{"name":"The Stanhope Arms","lat":52.93769,"lon":-1.30923,"postcode":"DE7 4QA","la":"Erewash","era":"trad","nn":228,"risk":47,"cat":"amber"},{"name":"The Stanton Cask (Ilson Tap)","lat":52.97676,"lon":-1.3093,"postcode":"DE7 8FH","la":"Erewash","era":"mod","nn":142,"risk":27,"cat":"green"},{"name":"The Victoria Hotel","lat":52.89484,"lon":-1.34184,"postcode":"DE72 3NA","la":"Erewash","era":"trad","nn":61,"risk":43,"cat":"amber"},{"name":"The White Hart","lat":52.95565,"lon":-1.38116,"postcode":"DE7 6EX","la":"Erewash","era":"trad","nn":2077,"risk":63,"cat":"red"},{"name":"The White Swan","lat":52.91714,"lon":-1.37223,"postcode":"DE72 3RB","la":"Erewash","era":"trad","nn":123,"risk":31,"cat":"amber"},{"name":"Three Horse Shoes","lat":52.96697,"lon":-1.31018,"postcode":"DE7 5FH","la":"Erewash","era":"trad","nn":166,"risk":27,"cat":"green"},{"name":"Trumpet Inn","lat":52.98798,"lon":-1.30765,"postcode":"DE7 8NZ","la":"Erewash","era":"trad","nn":39,"risk":26,"cat":"green"},{"name":"Windmill Inn","lat":52.94895,"lon":-1.44417,"postcode":"DE21 4FY","la":"Derby","era":"trad","nn":428,"risk":46,"cat":"amber"},{"name":"Alrewas & District Royal British Legion Club Ltd","lat":52.72987,"lon":-1.74254,"postcode":"DE13 7AX","la":"Lichfield","era":"trad","nn":493,"risk":33,"cat":"amber"},{"name":"Alrewas Cricket Club","lat":52.72912,"lon":-1.75359,"postcode":"DE13 7EW","la":"Lichfield","era":"other","nn":502,"risk":33,"cat":"amber"},{"name":"George & Dragon","lat":52.73264,"lon":-1.74893,"postcode":"DE13 7AE","la":"Lichfield","era":"trad","nn":103,"risk":30,"cat":"green"},{"name":"Kings Bromley Cricket Club","lat":52.74322,"lon":-1.82029,"postcode":"DE13 7JF","la":"Lichfield","era":"trad","nn":682,"risk":51,"cat":"amber"},{"name":"Manor Park Sailing Club","lat":52.74484,"lon":-1.84064,"postcode":"DE13 7JG","la":"Lichfield","era":"other","nn":1259,"risk":58,"cat":"amber"},{"name":"Royal Oak","lat":52.74907,"lon":-1.82329,"postcode":"DE13 7HZ","la":"Lichfield","era":"trad","nn":682,"risk":51,"cat":"amber"},{"name":"The Crown Inn","lat":52.73356,"lon":-1.74908,"postcode":"DE13 7BS","la":"Lichfield","era":"trad","nn":103,"risk":30,"cat":"green"},{"name":"The Swan","lat":52.72374,"lon":-1.7937,"postcode":"DE13 7DN","la":"Lichfield","era":"trad","nn":2767,"risk":68,"cat":"red"},{"name":"William IV","lat":52.73332,"lon":-1.74714,"postcode":"DE13 7AN","la":"Lichfield","era":"other","nn":133,"risk":30,"cat":"green"},{"name":"Horse And Jockey Wessington Ltd","lat":53.11732,"lon":-1.44922,"postcode":"DE55 6DW","la":"North East Derbyshire","era":"trad","nn":2306,"risk":65,"cat":"red"},{"name":"Morton Colliery Cricket Club","lat":53.13745,"lon":-1.39007,"postcode":"DE55 6GT","la":"North East Derbyshire","era":"other","nn":103,"risk":47,"cat":"amber"},{"name":"Shirland Golf Course","lat":53.11308,"lon":-1.4077,"postcode":"DE55 6AU","la":"North East Derbyshire","era":"other","nn":810,"risk":52,"cat":"amber"},{"name":"The Greyhound","lat":53.12977,"lon":-1.41809,"postcode":"DE55 6EF","la":"North East Derbyshire","era":"trad","nn":1625,"risk":61,"cat":"red"},{"name":"The Hay Hotel","lat":53.11924,"lon":-1.40122,"postcode":"DE55 6BA","la":"North East Derbyshire","era":"other","nn":810,"risk":52,"cat":"amber"},{"name":"The Sitwell Arms","lat":53.1366,"lon":-1.38944,"postcode":"DE55 6GS","la":"North East Derbyshire","era":"trad","nn":103,"risk":47,"cat":"amber"},{"name":"The White Horse","lat":53.14889,"lon":-1.45216,"postcode":"DE55 6FG","la":"North East Derbyshire","era":"trad","nn":1167,"risk":57,"cat":"amber"},{"name":"White Bear Inn","lat":53.14583,"lon":-1.41498,"postcode":"DE55 6ET","la":"North East Derbyshire","era":"trad","nn":1798,"risk":62,"cat":"red"},{"name":"Bar Egos Limited","lat":52.84184,"lon":-1.33854,"postcode":"DE74 2LA","la":"North West Leicestershire","era":"mod","nn":186,"risk":33,"cat":"amber"},{"name":"Bird In Hand","lat":52.70691,"lon":-1.50573,"postcode":"DE12 7HZ","la":"North West Leicestershire","era":"other","nn":111,"risk":33,"cat":"amber"},{"name":"Buckos Bar","lat":52.70729,"lon":-1.50725,"postcode":"DE12 7JE","la":"North West Leicestershire","era":"other","nn":111,"risk":33,"cat":"amber"},{"name":"Cap \\\\& Stocking","lat":52.8374,"lon":-1.27895,"postcode":"DE74 2FF","la":"North West Leicestershire","era":"trad","nn":237,"risk":34,"cat":"amber"},{"name":"Castle Rock Tap Room And Kitchen","lat":52.82613,"lon":-1.32964,"postcode":"DE74 2SA","la":"North West Leicestershire","era":"mod","nn":1486,"risk":60,"cat":"amber"},{"name":"Holly Bush Inn","lat":52.80392,"lon":-1.40278,"postcode":"DE73 8AT","la":"North West Leicestershire","era":"trad","nn":2402,"risk":66,"cat":"red"},{"name":"Lamb inn","lat":52.84611,"lon":-1.33689,"postcode":"DE74 2NJ","la":"North West Leicestershire","era":"trad","nn":263,"risk":34,"cat":"amber"},{"name":"Measham Bowling Club","lat":52.70481,"lon":-1.50926,"postcode":"DE12 7HR","la":"North West Leicestershire","era":"other","nn":307,"risk":34,"cat":"amber"},{"name":"Moira Miners Welfare Club","lat":52.73643,"lon":-1.54174,"postcode":"DE12 6BP","la":"North West Leicestershire","era":"other","nn":591,"risk":51,"cat":"amber"},{"name":"Old Crown Inn","lat":52.86423,"lon":-1.33839,"postcode":"DE72 2HL","la":"North West Leicestershire","era":"trad","nn":432,"risk":33,"cat":"amber"},{"name":"Railway Inn","lat":52.73763,"lon":-1.53318,"postcode":"DE12 6DJ","la":"North West Leicestershire","era":"trad","nn":591,"risk":51,"cat":"amber"},{"name":"The Anchor Inn Kegworth","lat":52.84016,"lon":-1.27277,"postcode":"DE74 2FR","la":"North West Leicestershire","era":"trad","nn":516,"risk":36,"cat":"amber"},{"name":"The Black Horse","lat":52.68201,"lon":-1.53354,"postcode":"DE12 7AH","la":"North West Leicestershire","era":"trad","nn":2924,"risk":70,"cat":"red"},{"name":"The Black Lion","lat":52.75992,"lon":-1.51242,"postcode":"DE11 8AB","la":"North West Leicestershire","era":"trad","nn":1517,"risk":60,"cat":"amber"},{"name":"The Coach House","lat":52.83574,"lon":-1.28117,"postcode":"DE74 2DA","la":"North West Leicestershire","era":"trad","nn":0,"risk":32,"cat":"amber"},{"name":"The Cross Keys","lat":52.84351,"lon":-1.33832,"postcode":"DE74 2NR","la":"North West Leicestershire","era":"trad","nn":70,"risk":32,"cat":"amber"},{"name":"The Globe","lat":52.68104,"lon":-1.49019,"postcode":"DE12 7DB","la":"North West Leicestershire","era":"other","nn":2924,"risk":70,"cat":"red"},{"name":"The Jolly Potters","lat":52.84377,"lon":-1.33737,"postcode":"DE74 2NH","la":"North West Leicestershire","era":"other","nn":70,"risk":32,"cat":"amber"},{"name":"The Mushroom Hall","lat":52.76185,"lon":-1.55183,"postcode":"DE11 8EN","la":"North West Leicestershire","era":"other","nn":952,"risk":51,"cat":"amber"},{"name":"The Nags Head","lat":52.83426,"lon":-1.34719,"postcode":"DE74 2PR","la":"North West Leicestershire","era":"trad","nn":1024,"risk":57,"cat":"amber"},{"name":"The Otter","lat":52.8241,"lon":-1.27157,"postcode":"DE74 2EY","la":"North West Leicestershire","era":"other","nn":1213,"risk":58,"cat":"amber"},{"name":"The Red Lion","lat":52.83574,"lon":-1.28117,"postcode":"DE74 2DA","la":"North West Leicestershire","era":"trad","nn":0,"risk":32,"cat":"amber"},{"name":"White Hart Inn","lat":52.70594,"lon":-1.50507,"postcode":"DE12 7LG","la":"North West Leicestershire","era":"trad","nn":117,"risk":33,"cat":"amber"},{"name":"Alma Inn","lat":52.82469,"lon":-1.42922,"postcode":"DE73 8FE","la":"South Derbyshire","era":"trad","nn":0,"risk":26,"cat":"green"},{"name":"Barrow On Trent Social Club (The Brookfield)","lat":51.08563,"lon":-3.10441,"postcode":"DE73 7HG","la":"South Derbyshire","era":"mod","nn":2802,"risk":69,"cat":"red"},{"name":"Belmont Services Club Ltd","lat":52.77476,"lon":-1.55509,"postcode":"DE11 8JU","la":"South Derbyshire","era":"trad","nn":140,"risk":27,"cat":"green"},{"name":"Black Horse Inn","lat":52.7346,"lon":-1.6357,"postcode":"DE12 8HJ","la":"South Derbyshire","era":"trad","nn":218,"risk":48,"cat":"amber"},{"name":"Boat House","lat":52.86818,"lon":-1.34537,"postcode":"DE72 2GL","la":"South Derbyshire","era":"other","nn":293,"risk":28,"cat":"green"},{"name":"Broughton Heath Golf Club","lat":52.88699,"lon":-1.68281,"postcode":"DE65 5BA","la":"South Derbyshire","era":"other","nn":1569,"risk":60,"cat":"amber"},{"name":"Bubble Inn","lat":52.73343,"lon":-1.6331,"postcode":"DE12 8EX","la":"South Derbyshire","era":"trad","nn":218,"risk":48,"cat":"amber"},{"name":"Bubble Inn","lat":52.86701,"lon":-1.51625,"postcode":"DE73 7HL","la":"South Derbyshire","era":"trad","nn":1231,"risk":58,"cat":"amber"},{"name":"Burton on Trent Golf Club","lat":52.79855,"lon":-1.58408,"postcode":"DE15 0PS","la":"South Derbyshire","era":"other","nn":269,"risk":48,"cat":"amber"},{"name":"Burton Sailing Club","lat":52.82225,"lon":-1.51304,"postcode":"DE65 6EG","la":"South Derbyshire","era":"other","nn":1538,"risk":60,"cat":"amber"},{"name":"Burton Watersports Club","lat":52.78705,"lon":-1.63695,"postcode":"DE15 9JL","la":"East Staffordshire","era":"other","nn":663,"risk":35,"cat":"amber"},{"name":"Catchems Inn","lat":52.77016,"lon":-1.5714,"postcode":"DE11 9DU","la":"South Derbyshire","era":"trad","nn":680,"risk":36,"cat":"amber"},{"name":"Cherry Tree Farm","lat":52.86397,"lon":-1.56412,"postcode":"DE65 6DX","la":"South Derbyshire","era":"other","nn":936,"risk":53,"cat":"amber"},{"name":"Chesterfield Arms","lat":52.79125,"lon":-1.56778,"postcode":"DE15 0QA","la":"South Derbyshire","era":"trad","nn":669,"risk":31,"cat":"amber"},{"name":"Clock Warehouse","lat":52.86905,"lon":-1.35309,"postcode":"DE72 2GP","la":"South Derbyshire","era":"other","nn":0,"risk":26,"cat":"green"},{"name":"Colvile Arms","lat":52.71432,"lon":-1.63105,"postcode":"DE12 8EG","la":"South Derbyshire","era":"trad","nn":2079,"risk":63,"cat":"red"},{"name":"Crewe and Harpur","lat":52.85384,"lon":-1.45545,"postcode":"DE73 7JA","la":"South Derbyshire","era":"other","nn":1463,"risk":59,"cat":"amber"},{"name":"Cricketts Inn","lat":52.71742,"lon":-1.56111,"postcode":"DE12 8AP","la":"South Derbyshire","era":"trad","nn":2146,"risk":64,"cat":"red"},{"name":"Crown Inn","lat":52.78063,"lon":-1.57972,"postcode":"DE11 0SN","la":"South Derbyshire","era":"trad","nn":442,"risk":30,"cat":"green"},{"name":"Dog and Duck","lat":52.87125,"lon":-1.36109,"postcode":"DE72 2GR","la":"South Derbyshire","era":"other","nn":590,"risk":48,"cat":"amber"},{"name":"Doveside Social Club","lat":52.865,"lon":-1.68227,"postcode":"DE65 5EZ","la":"South Derbyshire","era":"mod","nn":70,"risk":27,"cat":"green"},{"name":"Drum and Monkey","lat":52.75824,"lon":-1.5763,"postcode":"DE11 9LH","la":"South Derbyshire","era":"trad","nn":621,"risk":33,"cat":"amber"},{"name":"Etwall Cricket Club","lat":52.88571,"lon":-1.60101,"postcode":"DE65 6LT","la":"South Derbyshire","era":"other","nn":126,"risk":45,"cat":"amber"},{"name":"Foresters Arms","lat":52.77302,"lon":-1.55404,"postcode":"DE11 8JA","la":"South Derbyshire","era":"trad","nn":192,"risk":28,"cat":"green"},{"name":"Freehold Tavern","lat":52.78588,"lon":-1.577,"postcode":"DE11 0LH","la":"South Derbyshire","era":"other","nn":192,"risk":28,"cat":"green"},{"name":"Gresley Old Hall Community Welfare Centre","lat":52.7641,"lon":-1.57275,"postcode":"DE11 9QW","la":"South Derbyshire","era":"other","nn":513,"risk":33,"cat":"amber"},{"name":"Hardinge Arms","lat":52.83195,"lon":-1.42469,"postcode":"DE73 8BX","la":"South Derbyshire","era":"trad","nn":282,"risk":31,"cat":"amber"},{"name":"Hartshorne Cricket Club","lat":52.78478,"lon":-1.51785,"postcode":"DE11 7ES","la":"South Derbyshire","era":"trad","nn":0,"risk":31,"cat":"amber"},{"name":"Hatton Sports and Social Club","lat":52.86625,"lon":-1.68455,"postcode":"DE65 5ER","la":"South Derbyshire","era":"mod","nn":207,"risk":30,"cat":"green"},{"name":"Hawk and Buckle","lat":52.88464,"lon":-1.60041,"postcode":"DE65 6LP","la":"South Derbyshire","era":"other","nn":0,"risk":44,"cat":"amber"},{"name":"Holly Bush Inn","lat":52.89953,"lon":-1.69356,"postcode":"DE65 5AS","la":"South Derbyshire","era":"trad","nn":1569,"risk":60,"cat":"amber"},{"name":"John Thompson Inn","lat":52.83921,"lon":-1.48209,"postcode":"DE73 7HW","la":"South Derbyshire","era":"trad","nn":2418,"risk":66,"cat":"red"},{"name":"Joiners Arms","lat":52.76724,"lon":-1.53144,"postcode":"DE11 7EA","la":"South Derbyshire","era":"trad","nn":235,"risk":46,"cat":"amber"},{"name":"Kings Head (Wet Sales Only)","lat":52.87279,"lon":-1.63999,"postcode":"DE65 5GG","la":"South Derbyshire","era":"trad","nn":265,"risk":46,"cat":"amber"},{"name":"Kings Newton Bowls Club","lat":52.83024,"lon":-1.42779,"postcode":"DE73 8BZ","la":"South Derbyshire","era":"trad","nn":282,"risk":28,"cat":"green"},{"name":"Lakeside Cottage","lat":52.74294,"lon":-1.58726,"postcode":"DE12 6PB","la":"South Derbyshire","era":"other","nn":567,"risk":50,"cat":"amber"},{"name":"Melbourne Inn","lat":52.82257,"lon":-1.43032,"postcode":"DE73 8GJ","la":"South Derbyshire","era":"trad","nn":247,"risk":28,"cat":"green"},{"name":"Melbourne Royal British Legion","lat":52.82469,"lon":-1.42922,"postcode":"DE73 8FE","la":"South Derbyshire","era":"trad","nn":0,"risk":26,"cat":"green"},{"name":"Mickleover Country Park and Social Club","lat":52.89594,"lon":-1.56013,"postcode":"DE3 0UJ","la":"South Derbyshire","era":"mod","nn":1421,"risk":59,"cat":"amber"},{"name":"Mount Pleasant Inn","lat":52.75272,"lon":-1.57776,"postcode":"DE11 9JE","la":"South Derbyshire","era":"trad","nn":621,"risk":51,"cat":"amber"},{"name":"Mount Pleasant Inn","lat":52.83443,"lon":-1.53937,"postcode":"DE65 6GQ","la":"South Derbyshire","era":"trad","nn":557,"risk":30,"cat":"green"},{"name":"Navigation Inn","lat":52.86777,"lon":-1.34106,"postcode":"DE72 2HJ","la":"South Derbyshire","era":"trad","nn":268,"risk":28,"cat":"green"},{"name":"New Inn (Wet Sales Only)","lat":52.76895,"lon":-1.53351,"postcode":"DE11 7EH","la":"South Derbyshire","era":"trad","nn":0,"risk":44,"cat":"amber"},{"name":"Newhall Labour Club","lat":52.78326,"lon":-1.56767,"postcode":"DE11 0HP","la":"South Derbyshire","era":"other","nn":0,"risk":26,"cat":"green"},{"name":"Newhall Social Club","lat":52.78439,"lon":-1.5713,"postcode":"DE11 0HT","la":"South Derbyshire","era":"mod","nn":275,"risk":28,"cat":"green"},{"name":"Old Talbot","lat":52.87304,"lon":-1.63607,"postcode":"DE65 5FF","la":"South Derbyshire","era":"trad","nn":265,"risk":46,"cat":"amber"},{"name":"Peggs Bar and Street Food","lat":52.77385,"lon":-1.55655,"postcode":"DE11 8JU","la":"South Derbyshire","era":"mod","nn":50,"risk":27,"cat":"green"},{"name":"Potters","lat":52.77345,"lon":-1.56059,"postcode":"DE11 9DD","la":"South Derbyshire","era":"other","nn":141,"risk":27,"cat":"green"},{"name":"Railway Inn","lat":52.77739,"lon":-1.55152,"postcode":"DE11 7NR","la":"South Derbyshire","era":"trad","nn":378,"risk":29,"cat":"green"},{"name":"Railway Inn (Wet Sales Only)","lat":52.86441,"lon":-1.68191,"postcode":"DE65 5DW","la":"South Derbyshire","era":"trad","nn":70,"risk":27,"cat":"green"},{"name":"Red Lion","lat":52.83898,"lon":-1.55174,"postcode":"DE65 6FL","la":"South Derbyshire","era":"trad","nn":187,"risk":30,"cat":"green"},{"name":"Rising Sun","lat":52.85383,"lon":-1.56437,"postcode":"DE65 6BP","la":"South Derbyshire","era":"other","nn":91,"risk":45,"cat":"amber"},{"name":"Robin Hood Inn","lat":52.73647,"lon":-1.56625,"postcode":"DE12 6LQ","la":"South Derbyshire","era":"trad","nn":1587,"risk":60,"cat":"amber"},{"name":"Royal British Legion Club","lat":52.83827,"lon":-1.54879,"postcode":"DE65 6GD","la":"South Derbyshire","era":"trad","nn":156,"risk":30,"cat":"green"},{"name":"Royal Oak","lat":52.78326,"lon":-1.56767,"postcode":"DE11 0HP","la":"South Derbyshire","era":"trad","nn":0,"risk":26,"cat":"green"},{"name":"Shakespeare Inn","lat":52.86905,"lon":-1.35309,"postcode":"DE72 2GP","la":"South Derbyshire","era":"trad","nn":0,"risk":26,"cat":"green"},{"name":"Sir Nigel Gresley","lat":52.77384,"lon":-1.5586,"postcode":"DE11 9DA","la":"South Derbyshire","era":"other","nn":99,"risk":27,"cat":"green"},{"name":"Springfield Sports Bar","lat":52.77864,"lon":-1.55799,"postcode":"DE11 0AX","la":"South Derbyshire","era":"other","nn":457,"risk":30,"cat":"green"},{"name":"Stable Ales (T/A The Brewhouse)","lat":52.82158,"lon":-1.42334,"postcode":"DE73 8EN","la":"South Derbyshire","era":"other","nn":116,"risk":27,"cat":"green"},{"name":"Stanhope Arms Hotel","lat":52.79649,"lon":-1.58198,"postcode":"DE15 0PT","la":"South Derbyshire","era":"trad","nn":269,"risk":48,"cat":"amber"},{"name":"Stapenhill Football Club","lat":52.78042,"lon":-1.62675,"postcode":"DE15 9NN","la":"East Staffordshire","era":"other","nn":461,"risk":46,"cat":"amber"},{"name":"Staunton Harold Sailing Club CIC","lat":52.81674,"lon":-1.4387,"postcode":"DE73 8DL","la":"South Derbyshire","era":"other","nn":859,"risk":52,"cat":"amber"},{"name":"Stenson Fields Public House","lat":52.87578,"lon":-1.50507,"postcode":"DE24 3JG","la":"South Derbyshire","era":"other","nn":765,"risk":52,"cat":"amber"},{"name":"Swadlincote Constitutional Club","lat":52.77408,"lon":-1.55719,"postcode":"DE11 0AG","la":"South Derbyshire","era":"other","nn":50,"risk":27,"cat":"green"},{"name":"Tall Chimney","lat":52.77075,"lon":-1.55377,"postcode":"DE11 9AA","la":"South Derbyshire","era":"other","nn":253,"risk":28,"cat":"green"},{"name":"The Admiral Rodney Inn","lat":52.78478,"lon":-1.51785,"postcode":"DE11 7ES","la":"South Derbyshire","era":"trad","nn":0,"risk":31,"cat":"amber"},{"name":"The Anchor Inn (Wet Sales Only)","lat":52.78172,"lon":-1.56584,"postcode":"DE11 0EA","la":"South Derbyshire","era":"trad","nn":211,"risk":28,"cat":"green"},{"name":"The Board Walk","lat":52.85594,"lon":-1.55992,"postcode":"DE65 6DW","la":"South Derbyshire","era":"other","nn":380,"risk":34,"cat":"amber"},{"name":"The Boot Inn","lat":52.83966,"lon":-1.54919,"postcode":"DE65 6FT","la":"South Derbyshire","era":"trad","nn":156,"risk":30,"cat":"green"},{"name":"The Brickmakers Arms","lat":52.82751,"lon":-1.58431,"postcode":"DE15 0SJ","la":"South Derbyshire","era":"trad","nn":362,"risk":49,"cat":"amber"},{"name":"The Bulls Head","lat":52.78224,"lon":-1.51949,"postcode":"DE11 7ET","la":"South Derbyshire","era":"trad","nn":303,"risk":34,"cat":"amber"},{"name":"The Bulls Head","lat":52.74867,"lon":-1.64186,"postcode":"DE12 8JU","la":"South Derbyshire","era":"trad","nn":1619,"risk":60,"cat":"amber"},{"name":"The Bulls Head","lat":52.8364,"lon":-1.547,"postcode":"DE65 6GF","la":"South Derbyshire","era":"trad","nn":240,"risk":31,"cat":"amber"},{"name":"The Chequers Inn","lat":52.8095,"lon":-1.48188,"postcode":"DE73 7JH","la":"South Derbyshire","era":"trad","nn":0,"risk":44,"cat":"amber"},{"name":"The Coopers Arms","lat":52.85069,"lon":-1.40054,"postcode":"DE72 2BJ","la":"South Derbyshire","era":"trad","nn":1615,"risk":60,"cat":"amber"},{"name":"The Cow","lat":52.93352,"lon":-1.6078,"postcode":"DE6 5BE","la":"South Derbyshire","era":"other","nn":1530,"risk":60,"cat":"amber"},{"name":"The Gate Inn","lat":52.77194,"lon":-1.59642,"postcode":"DE15 9TH","la":"South Derbyshire","era":"trad","nn":1482,"risk":59,"cat":"amber"},{"name":"The Green Man","lat":52.85422,"lon":-1.56557,"postcode":"DE65 6BQ","la":"South Derbyshire","era":"other","nn":91,"risk":45,"cat":"amber"},{"name":"The Harrington Arms","lat":52.883,"lon":-1.39562,"postcode":"DE72 3EY","la":"South Derbyshire","era":"trad","nn":1367,"risk":58,"cat":"amber"},{"name":"The Hilton Brook","lat":52.87159,"lon":-1.6295,"postcode":"DE65 5JR","la":"South Derbyshire","era":"other","nn":469,"risk":47,"cat":"amber"},{"name":"The Horseshoes","lat":52.93969,"lon":-1.6282,"postcode":"DE6 5BJ","la":"South Derbyshire","era":"trad","nn":1530,"risk":60,"cat":"amber"},{"name":"The Lamb Inn","lat":52.78461,"lon":-1.57952,"postcode":"DE11 0TW","la":"South Derbyshire","era":"trad","nn":220,"risk":28,"cat":"green"},{"name":"The Malt","lat":52.8616,"lon":-1.38467,"postcode":"DE72 2AA","la":"South Derbyshire","era":"other","nn":381,"risk":49,"cat":"amber"},{"name":"The Malt Shovel Inn","lat":52.87018,"lon":-1.3412,"postcode":"DE72 2HG","la":"South Derbyshire","era":"trad","nn":0,"risk":26,"cat":"green"},{"name":"The Midway Inn","lat":52.78134,"lon":-1.545,"postcode":"DE11 7ND","la":"South Derbyshire","era":"trad","nn":621,"risk":33,"cat":"amber"},{"name":"The Mill Wheel","lat":52.78853,"lon":-1.51876,"postcode":"DE11 7AS","la":"South Derbyshire","era":"trad","nn":422,"risk":34,"cat":"amber"},{"name":"The Miners Arms","lat":52.76064,"lon":-1.56768,"postcode":"DE11 9NT","la":"South Derbyshire","era":"trad","nn":154,"risk":32,"cat":"amber"},{"name":"The New Inn","lat":52.87018,"lon":-1.3412,"postcode":"DE72 2HG","la":"South Derbyshire","era":"trad","nn":0,"risk":26,"cat":"green"},{"name":"The Ragley Boat Stop","lat":52.86145,"lon":-1.48795,"postcode":"DE73 7FY","la":"South Derbyshire","era":"other","nn":1756,"risk":61,"cat":"red"},{"name":"The Red Lion","lat":52.74675,"lon":-1.59286,"postcode":"DE12 6PZ","la":"South Derbyshire","era":"trad","nn":567,"risk":50,"cat":"amber"},{"name":"The Rising Sun","lat":52.76001,"lon":-1.56564,"postcode":"DE11 9NR","la":"South Derbyshire","era":"other","nn":154,"risk":30,"cat":"green"},{"name":"The Seven Wells","lat":52.89723,"lon":-1.59448,"postcode":"DE65 6LS","la":"South Derbyshire","era":"other","nn":1353,"risk":58,"cat":"amber"},{"name":"The Spirit Vaults","lat":52.82181,"lon":-1.42503,"postcode":"DE73 8EJ","la":"South Derbyshire","era":"other","nn":116,"risk":27,"cat":"green"},{"name":"The Spread Eagle (Etwall Ltd)","lat":52.88464,"lon":-1.60041,"postcode":"DE65 6LP","la":"South Derbyshire","era":"trad","nn":0,"risk":44,"cat":"amber"},{"name":"The Staff of Life","lat":52.8095,"lon":-1.48188,"postcode":"DE73 7JH","la":"South Derbyshire","era":"other","nn":0,"risk":44,"cat":"amber"},{"name":"The Swan","lat":52.75986,"lon":-1.68239,"postcode":"DE12 8LZ","la":"South Derbyshire","era":"trad","nn":1356,"risk":58,"cat":"amber"},{"name":"The Swan Inn","lat":52.83394,"lon":-1.52528,"postcode":"DE65 6EF","la":"South Derbyshire","era":"trad","nn":949,"risk":53,"cat":"amber"},{"name":"The Tavern","lat":52.86931,"lon":-1.6798,"postcode":"DE65 5EH","la":"South Derbyshire","era":"other","nn":466,"risk":35,"cat":"amber"},{"name":"The Unicorn Inn","lat":52.82905,"lon":-1.57956,"postcode":"DE15 0SG","la":"South Derbyshire","era":"trad","nn":362,"risk":49,"cat":"amber"},{"name":"The Wheel Inn","lat":52.78583,"lon":-1.5559,"postcode":"DE11 0DH","la":"South Derbyshire","era":"trad","nn":811,"risk":32,"cat":"amber"},{"name":"The White Swan","lat":52.82377,"lon":-1.42511,"postcode":"DE73 8DY","la":"South Derbyshire","era":"trad","nn":218,"risk":28,"cat":"green"},{"name":"Thorntree Inn","lat":52.78717,"lon":-1.5751,"postcode":"DE11 0LL","la":"South Derbyshire","era":"trad","nn":192,"risk":28,"cat":"green"},{"name":"Ticknall Cricket Club","lat":52.81145,"lon":-1.48187,"postcode":"DE73 7JG","la":"South Derbyshire","era":"other","nn":217,"risk":45,"cat":"amber"},{"name":"White Hart","lat":52.86502,"lon":-1.38477,"postcode":"DE72 2AF","la":"South Derbyshire","era":"trad","nn":381,"risk":49,"cat":"amber"},{"name":"Woodville Box Club (Wets Sales)","lat":52.76895,"lon":-1.53351,"postcode":"DE11 7EH","la":"South Derbyshire","era":"other","nn":0,"risk":44,"cat":"amber"},{"name":"THE GEORGE AT ALSTONEFIELD","lat":53.09657,"lon":-1.80467,"postcode":"DE6 2FX","la":"Staffordshire Moorlands","era":"trad","nn":711,"risk":54,"cat":"amber"},{"name":"WATTS RUSSELL  ARMS","lat":53.09364,"lon":-1.81414,"postcode":"DE6 2GD","la":"Staffordshire Moorlands","era":"trad","nn":711,"risk":54,"cat":"amber"},{"name":"YE OLDE ROYAL OAK","lat":53.09533,"lon":-1.83822,"postcode":"DE6 2AF","la":"Staffordshire Moorlands","era":"trad","nn":1619,"risk":63,"cat":"red"}]