[{"name":"Asta Golf Club","lat":60.15512,"lon":-1.26204,"postcode":"ZE1 0UQ","la":"Shetland Islands","era":"other","nn":1898,"risk":68,"cat":"red"},{"name":"Balta Light Ltd","lat":60.76497,"lon":-0.84364,"postcode":"ZE2 9DS","la":"Shetland Islands","era":"other","nn":22412,"risk":90,"cat":"red"},{"name":"Delting Boating Club","lat":60.39479,"lon":-1.35938,"postcode":"ZE2 9QG","la":"Shetland Islands","era":"other","nn":0,"risk":50,"cat":"amber"},{"name":"Lerwick Boating Club","lat":60.15262,"lon":-1.13783,"postcode":"ZE1 0AN","la":"Shetland Islands","era":"other","nn":195,"risk":34,"cat":"amber"},{"name":"Lodge Delting","lat":60.39479,"lon":-1.35938,"postcode":"ZE2 9QG","la":"Shetland Islands","era":"other","nn":0,"risk":50,"cat":"amber"},{"name":"Maryfield House Hotel","lat":60.15579,"lon":-1.11614,"postcode":"ZE2 9EL","la":"Shetland Islands","era":"mod","nn":1251,"risk":63,"cat":"red"},{"name":"Mid Brae Inn","lat":60.38815,"lon":-1.34794,"postcode":"ZE2 9QJ","la":"Shetland Islands","era":"trad","nn":969,"risk":56,"cat":"amber"},{"name":"Mid Yell Boating Club","lat":60.59875,"lon":-1.07643,"postcode":"ZE2 9BJ","la":"Shetland Islands","era":"other","nn":16423,"risk":90,"cat":"red"},{"name":"Morton Lodge No 89 & Social Club","lat":60.15268,"lon":-1.14136,"postcode":"ZE1 0BF","la":"Shetland Islands","era":"mod","nn":99,"risk":33,"cat":"amber"},{"name":"Ness Boating Club","lat":60.04473,"lon":-1.22643,"postcode":"ZE2 9JS","la":"Shetland Islands","era":"other","nn":5230,"risk":90,"cat":"red"},{"name":"Oot Ower Lounge","lat":60.34155,"lon":-1.00965,"postcode":"ZE2 9AQ","la":"Shetland Islands","era":"mod","nn":728,"risk":57,"cat":"amber"},{"name":"RAF Association Club","lat":60.15557,"lon":-1.14613,"postcode":"ZE1 0JN","la":"Shetland Islands","era":"other","nn":138,"risk":33,"cat":"amber"},{"name":"Sandwick Social Club","lat":59.99773,"lon":-1.23002,"postcode":"ZE2 9HW","la":"Shetland Islands","era":"mod","nn":5230,"risk":90,"cat":"red"},{"name":"Scalloway Boating Club","lat":60.13351,"lon":-1.28789,"postcode":"ZE1 0UW","la":"Shetland Islands","era":"other","nn":778,"risk":55,"cat":"amber"},{"name":"Shetland Golf Club","lat":60.17915,"lon":-1.23666,"postcode":"ZE2 9SB","la":"Shetland Islands","era":"other","nn":3018,"risk":76,"cat":"red"},{"name":"The Douglas Arms","lat":60.15274,"lon":-1.14929,"postcode":"ZE1 0EQ","la":"Shetland Islands","era":"trad","nn":344,"risk":35,"cat":"amber"},{"name":"The KB","lat":60.13762,"lon":-1.27653,"postcode":"ZE1 0TR","la":"Shetland Islands","era":"other","nn":208,"risk":51,"cat":"amber"},{"name":"The Lounge Bar","lat":60.15293,"lon":-1.14309,"postcode":"ZE1 0BJ","la":"Shetland Islands","era":"mod","nn":99,"risk":33,"cat":"amber"},{"name":"The Royal British Legion","lat":60.1394,"lon":-1.27541,"postcode":"ZE1 0UJ","la":"Shetland Islands","era":"trad","nn":208,"risk":51,"cat":"amber"},{"name":"The Royal British Legion","lat":60.15705,"lon":-1.15004,"postcode":"ZE1 0NL","la":"Shetland Islands","era":"trad","nn":265,"risk":34,"cat":"amber"},{"name":"Thule Bar","lat":60.15516,"lon":-1.14342,"postcode":"ZE1 0LL","la":"Shetland Islands","era":"other","nn":157,"risk":33,"cat":"amber"},{"name":"Trench Bar and Nightclub","lat":60.15673,"lon":-1.14529,"postcode":"ZE1 0LX","la":"Shetland Islands","era":"mod","nn":138,"risk":33,"cat":"amber"},{"name":"Walls Regatta Club","lat":60.22507,"lon":-1.55791,"postcode":"ZE2 9PF","la":"Shetland Islands","era":"other","nn":14522,"risk":90,"cat":"red"},{"name":"Welcome Inn","lat":60.46016,"lon":-1.18024,"postcode":"ZE2 9RA","la":"Shetland Islands","era":"trad","nn":12199,"risk":90,"cat":"red"},{"name":"Whalsay Boating & Sports Club","lat":60.34003,"lon":-1.02252,"postcode":"ZE2 9AA","la":"Shetland Islands","era":"other","nn":728,"risk":57,"cat":"amber"},{"name":"Whalsay Golf Club","lat":60.37642,"lon":-0.93199,"postcode":"ZE2 9AW","la":"Shetland Islands","era":"other","nn":5768,"risk":90,"cat":"red"},{"name":"Whitedale Snooker Club","lat":60.21617,"lon":-1.29557,"postcode":"ZE2 9LG","la":"Shetland Islands","era":"other","nn":5249,"risk":90,"cat":"red"}]