[{"name":"Blarneys Free House","lat":51.60122,"lon":-0.26769,"postcode":"HA8 0BB","la":"Barnet","era":"other","nn":253,"risk":28,"cat":"green"},{"name":"The Jolly Badger","lat":51.61726,"lon":-0.26104,"postcode":"HA8 9RZ","la":"Barnet","era":"other","nn":175,"risk":45,"cat":"amber"},{"name":"The Three Wishes","lat":51.61222,"lon":-0.2807,"postcode":"HA8 7EL","la":"Barnet","era":"other","nn":220,"risk":32,"cat":"amber"},{"name":"Barrel & Corner","lat":51.5522,"lon":-0.29988,"postcode":"HA0 2AF","la":"Brent","era":"other","nn":462,"risk":30,"cat":"green"},{"name":"Black Horse","lat":51.56051,"lon":-0.32941,"postcode":"HA0 2QP","la":"Brent","era":"trad","nn":366,"risk":29,"cat":"green"},{"name":"Blue Ginger","lat":51.58678,"lon":-0.30505,"postcode":"HA3 0XS","la":"Brent","era":"other","nn":203,"risk":28,"cat":"green"},{"name":"Boxpark Trading  Ltd (Inc. Dining Area.and Bars)","lat":51.56052,"lon":-0.28039,"postcode":"HA9 0JT","la":"Brent","era":"other","nn":199,"risk":28,"cat":"green"},{"name":"Crystals","lat":51.55508,"lon":-0.27604,"postcode":"HA9 0HF","la":"Brent","era":"other","nn":467,"risk":30,"cat":"green"},{"name":"Everest Spice The Honeypot","lat":51.59378,"lon":-0.29028,"postcode":"HA7 1EE","la":"Harrow","era":"other","nn":395,"risk":30,"cat":"green"},{"name":"Fizz Sports Bar","lat":51.58335,"lon":-0.31434,"postcode":"HA3 0HD","la":"Brent","era":"other","nn":198,"risk":28,"cat":"green"},{"name":"Green Man Pub","lat":51.55703,"lon":-0.28945,"postcode":"HA9 8DF","la":"Brent","era":"other","nn":444,"risk":29,"cat":"green"},{"name":"J J Moons","lat":51.55343,"lon":-0.29225,"postcode":"HA9 6AA","la":"Brent","era":"other","nn":0,"risk":26,"cat":"green"},{"name":"Parish Bar","lat":51.56176,"lon":-0.28304,"postcode":"HA9 8HP","la":"Brent","era":"other","nn":52,"risk":27,"cat":"green"},{"name":"Preston Public House","lat":51.5697,"lon":-0.29536,"postcode":"HA9 8NG","la":"Brent","era":"other","nn":763,"risk":49,"cat":"amber"},{"name":"Stadium Sports Bar -First Class Sports Bar Ltd","lat":51.56219,"lon":-0.28145,"postcode":"HA9 8HQ","la":"Brent","era":"mod","nn":74,"risk":27,"cat":"green"},{"name":"Student Union (Bars (x2) & Shop)","lat":51.57762,"lon":-0.32458,"postcode":"HA1 3TP","la":"Brent","era":"other","nn":594,"risk":30,"cat":"green"},{"name":"Sugar & Spice- The Spice Lounge","lat":51.59406,"lon":-0.28458,"postcode":"HA8 5NR","la":"Brent","era":"mod","nn":395,"risk":29,"cat":"green"},{"name":"The Arch Wembley","lat":51.55287,"lon":-0.28483,"postcode":"HA9 6LL","la":"Brent","era":"other","nn":95,"risk":27,"cat":"green"},{"name":"The Balkan Bar & Restaurant","lat":51.54822,"lon":-0.29801,"postcode":"HA0 4TH","la":"Brent","era":"mod","nn":172,"risk":27,"cat":"green"},{"name":"The Bar","lat":51.54675,"lon":-0.29724,"postcode":"HA0 4BD","la":"Brent","era":"other","nn":172,"risk":30,"cat":"green"},{"name":"The Corner House","lat":51.55306,"lon":-0.28616,"postcode":"HA9 6BA","la":"Brent","era":"other","nn":95,"risk":27,"cat":"green"},{"name":"The Crock of Gold","lat":51.56446,"lon":-0.27787,"postcode":"HA9 9AB","la":"Brent","era":"other","nn":0,"risk":26,"cat":"green"},{"name":"The Liquor Station","lat":51.55343,"lon":-0.29225,"postcode":"HA9 6AA","la":"Brent","era":"other","nn":0,"risk":26,"cat":"green"},{"name":"The Nest","lat":51.57105,"lon":-0.30816,"postcode":"HA9 8RB","la":"Brent","era":"other","nn":246,"risk":46,"cat":"amber"},{"name":"The New Inn","lat":51.59914,"lon":-0.26619,"postcode":"HA8 5LD","la":"Brent","era":"trad","nn":253,"risk":28,"cat":"green"},{"name":"The Swan","lat":51.55578,"lon":-0.31712,"postcode":"HA0 2LP","la":"Brent","era":"trad","nn":857,"risk":37,"cat":"amber"},{"name":"The Wembley Tavern","lat":51.56209,"lon":-0.28251,"postcode":"HA9 8HG","la":"Brent","era":"other","nn":52,"risk":27,"cat":"green"},{"name":"The White Horse","lat":51.55807,"lon":-0.28079,"postcode":"HA9 0HP","la":"Brent","era":"trad","nn":274,"risk":28,"cat":"green"},{"name":"The Windermere","lat":51.56914,"lon":-0.30636,"postcode":"HA9 8QT","la":"Brent","era":"other","nn":246,"risk":46,"cat":"amber"},{"name":"Torch Public House","lat":51.56446,"lon":-0.27787,"postcode":"HA9 9AB","la":"Brent","era":"other","nn":0,"risk":26,"cat":"green"},{"name":"Sudbury Golf Club","lat":51.54778,"lon":-0.31245,"postcode":"HA0 1AL","la":"Ealing","era":"other","nn":768,"risk":33,"cat":"amber"},{"name":"Barrett's PH","lat":51.59295,"lon":-0.33445,"postcode":"HA3 5AH","la":"Harrow","era":"other","nn":188,"risk":46,"cat":"amber"},{"name":"Boulevard Club","lat":51.59617,"lon":-0.31303,"postcode":"HA3 8RP","la":"Harrow","era":"other","nn":700,"risk":37,"cat":"amber"},{"name":"Buckley's","lat":51.59596,"lon":-0.29582,"postcode":"HA3 9DA","la":"Harrow","era":"other","nn":91,"risk":33,"cat":"amber"},{"name":"Cosy Bar","lat":51.60351,"lon":-0.33997,"postcode":"HA3 5ES","la":"Harrow","era":"other","nn":45,"risk":33,"cat":"amber"},{"name":"Duck In The Pond Public House","lat":51.58784,"lon":-0.30774,"postcode":"HA3 6AA","la":"Harrow","era":"other","nn":132,"risk":28,"cat":"green"},{"name":"Edgware Ex-Servicemans Club","lat":51.60569,"lon":-0.27418,"postcode":"HA8 5ED","la":"Harrow","era":"other","nn":589,"risk":31,"cat":"amber"},{"name":"Frosty's Bar","lat":51.58735,"lon":-0.3002,"postcode":"HA3 9DW","la":"Harrow","era":"other","nn":341,"risk":32,"cat":"amber"},{"name":"Harrow Bowls Club","lat":51.58395,"lon":-0.34376,"postcode":"HA1 1RR","la":"Harrow","era":"other","nn":492,"risk":31,"cat":"amber"},{"name":"Harrow Cricket Club","lat":51.55976,"lon":-0.33936,"postcode":"HA1 3PP","la":"Harrow","era":"other","nn":348,"risk":32,"cat":"amber"},{"name":"Harrow School Staff Sports Club","lat":51.57101,"lon":-0.33876,"postcode":"HA1 3HT","la":"Harrow","era":"other","nn":138,"risk":28,"cat":"green"},{"name":"Harrow Sports Bar","lat":51.5604,"lon":-0.35809,"postcode":"HA2 8JE","la":"Harrow","era":"other","nn":53,"risk":30,"cat":"green"},{"name":"Harrow St Mary's Cricket Club","lat":51.60422,"lon":-0.36528,"postcode":"HA2 6NF","la":"Harrow","era":"other","nn":390,"risk":50,"cat":"amber"},{"name":"Jameson's Bar","lat":51.59766,"lon":-0.27856,"postcode":"HA8 5QL","la":"Harrow","era":"other","nn":57,"risk":28,"cat":"green"},{"name":"Kenton Sports Club","lat":51.58848,"lon":-0.30614,"postcode":"HA3 8UB","la":"Harrow","era":"other","nn":132,"risk":28,"cat":"green"},{"name":"Lokma Meze & Grill","lat":51.58024,"lon":-0.33602,"postcode":"HA1 1BE","la":"Harrow","era":"mod","nn":145,"risk":28,"cat":"green"},{"name":"Lunaa Lounge","lat":51.61039,"lon":-0.27951,"postcode":"HA8 7DD","la":"Harrow","era":"mod","nn":50,"risk":33,"cat":"amber"},{"name":"Miller & Carter","lat":51.61304,"lon":-0.33325,"postcode":"HA3 6DL","la":"Harrow","era":"trad","nn":313,"risk":49,"cat":"amber"},{"name":"Nachley","lat":51.57608,"lon":-0.37075,"postcode":"HA5 5ED","la":"Harrow","era":"other","nn":79,"risk":45,"cat":"amber"},{"name":"Parkfield Sports & Social Club","lat":51.61384,"lon":-0.36601,"postcode":"HA5 4BT","la":"Harrow","era":"mod","nn":698,"risk":52,"cat":"amber"},{"name":"Pinner Wood Breakfast/After School","lat":51.60283,"lon":-0.39535,"postcode":"HA5 3RA","la":"Harrow","era":"trad","nn":553,"risk":36,"cat":"amber"},{"name":"Purple Flame","lat":51.59662,"lon":-0.29503,"postcode":"HA7 1JJ","la":"Harrow","era":"other","nn":91,"risk":33,"cat":"amber"},{"name":"Rising Sun PH","lat":51.55937,"lon":-0.33437,"postcode":"HA1 3QL","la":"Harrow","era":"other","nn":348,"risk":32,"cat":"amber"},{"name":"RNOH Social Club","lat":51.63127,"lon":-0.3128,"postcode":"HA7 4LP","la":"Harrow","era":"mod","nn":1483,"risk":60,"cat":"amber"},{"name":"Royal British Legion","lat":51.56825,"lon":-0.34913,"postcode":"HA2 0DW","la":"Harrow","era":"trad","nn":307,"risk":29,"cat":"green"},{"name":"Royal Oak","lat":51.58165,"lon":-0.33768,"postcode":"HA1 1JP","la":"Harrow","era":"trad","nn":194,"risk":29,"cat":"green"},{"name":"Ruby M's","lat":51.57458,"lon":-0.37051,"postcode":"HA2 9TL","la":"Harrow","era":"other","nn":167,"risk":46,"cat":"amber"},{"name":"Ruffles Bar","lat":51.59464,"lon":-0.33462,"postcode":"HA3 7SJ","la":"Harrow","era":"other","nn":188,"risk":46,"cat":"amber"},{"name":"Sahara Lounge","lat":51.61794,"lon":-0.31209,"postcode":"HA7 3DP","la":"Harrow","era":"mod","nn":84,"risk":45,"cat":"amber"},{"name":"Spice Rack","lat":51.61731,"lon":-0.31313,"postcode":"HA7 4AR","la":"Harrow","era":"other","nn":100,"risk":45,"cat":"amber"},{"name":"St Gabriel's Social Club","lat":51.56084,"lon":-0.35836,"postcode":"HA2 8EX","la":"Harrow","era":"mod","nn":53,"risk":30,"cat":"green"},{"name":"St Luke's Parish Centre","lat":51.59502,"lon":-0.38285,"postcode":"HA5 3EF","la":"Harrow","era":"other","nn":165,"risk":46,"cat":"amber"},{"name":"Stanmore Social Club","lat":51.61749,"lon":-0.31112,"postcode":"HA7 4DA","la":"Harrow","era":"mod","nn":84,"risk":45,"cat":"amber"},{"name":"Sync","lat":51.59787,"lon":-0.39589,"postcode":"HA5 3TE","la":"Harrow","era":"other","nn":553,"risk":49,"cat":"amber"},{"name":"The 19 Club","lat":51.59818,"lon":-0.27862,"postcode":"HA8 5QH","la":"Harrow","era":"other","nn":57,"risk":28,"cat":"green"},{"name":"The Cardammon Club","lat":51.60173,"lon":-0.31777,"postcode":"HA3 8RF","la":"Harrow","era":"other","nn":700,"risk":52,"cat":"amber"},{"name":"The Castle","lat":51.572,"lon":-0.33998,"postcode":"HA1 3EF","la":"Harrow","era":"other","nn":138,"risk":28,"cat":"green"},{"name":"The George","lat":51.58312,"lon":-0.33209,"postcode":"HA1 2TB","la":"Harrow","era":"trad","nn":387,"risk":30,"cat":"green"},{"name":"The Hare Public House","lat":51.62058,"lon":-0.34301,"postcode":"HA3 6SD","la":"Harrow","era":"other","nn":1076,"risk":57,"cat":"amber"},{"name":"The Horseshoe Bar","lat":51.56157,"lon":-0.37429,"postcode":"HA2 9AJ","la":"Harrow","era":"trad","nn":1104,"risk":57,"cat":"amber"},{"name":"The Junction PH","lat":51.57965,"lon":-0.33254,"postcode":"HA1 2DH","la":"Harrow","era":"other","nn":81,"risk":28,"cat":"green"},{"name":"The Kingsfield Arms Public House","lat":51.57524,"lon":-0.34314,"postcode":"HA1 3DF","la":"Harrow","era":"trad","nn":209,"risk":29,"cat":"green"},{"name":"The Laurels","lat":51.6039,"lon":-0.33975,"postcode":"HA3 5EQ","la":"Harrow","era":"other","nn":45,"risk":30,"cat":"green"},{"name":"The Moon And Sixpence PH","lat":51.60759,"lon":-0.36687,"postcode":"HA5 4NY","la":"Harrow","era":"other","nn":390,"risk":47,"cat":"amber"},{"name":"The Moon On The Hill","lat":51.57948,"lon":-0.33431,"postcode":"HA1 2AW","la":"Harrow","era":"other","nn":48,"risk":28,"cat":"green"},{"name":"The Page Centre","lat":51.57624,"lon":-0.34057,"postcode":"HA1 3BE","la":"Harrow","era":"other","nn":209,"risk":29,"cat":"green"},{"name":"The Queens Head Public House","lat":51.59437,"lon":-0.3807,"postcode":"HA5 5PJ","la":"Harrow","era":"trad","nn":165,"risk":46,"cat":"amber"},{"name":"The Seven Harrow","lat":51.61075,"lon":-0.33061,"postcode":"HA3 6AW","la":"Harrow","era":"other","nn":313,"risk":47,"cat":"amber"},{"name":"The Shawl Public House","lat":51.56289,"lon":-0.35606,"postcode":"HA2 8EE","la":"Harrow","era":"other","nn":277,"risk":32,"cat":"amber"},{"name":"The Star","lat":51.56517,"lon":-0.35169,"postcode":"HA2 0NQ","la":"Harrow","era":"other","nn":386,"risk":30,"cat":"green"},{"name":"The Three Wishes","lat":51.59635,"lon":-0.33524,"postcode":"HA3 7AH","la":"Harrow","era":"other","nn":195,"risk":31,"cat":"amber"},{"name":"The VIP Lounge","lat":51.61005,"lon":-0.27902,"postcode":"HA8 7DD","la":"Harrow","era":"mod","nn":50,"risk":33,"cat":"amber"},{"name":"The White Horse","lat":51.57011,"lon":-0.34585,"postcode":"HA2 0HL","la":"Harrow","era":"trad","nn":307,"risk":29,"cat":"green"},{"name":"Travellers Rest PH","lat":51.58257,"lon":-0.31692,"postcode":"HA3 8AT","la":"Harrow","era":"other","nn":198,"risk":29,"cat":"green"},{"name":"Trinity","lat":51.57969,"lon":-0.33371,"postcode":"HA1 2DE","la":"Harrow","era":"other","nn":48,"risk":28,"cat":"green"},{"name":"Village Inn","lat":51.57678,"lon":-0.37087,"postcode":"HA5 5DY","la":"Harrow","era":"trad","nn":79,"risk":45,"cat":"amber"},{"name":"Wards Free House","lat":51.57923,"lon":-0.33971,"postcode":"HA1 3AT","la":"Harrow","era":"other","nn":279,"risk":29,"cat":"green"},{"name":"West Harrow Cricket Club","lat":51.59905,"lon":-0.35173,"postcode":"HA2 6NS","la":"Harrow","era":"other","nn":952,"risk":51,"cat":"amber"},{"name":"Whittington","lat":51.58562,"lon":-0.38013,"postcode":"HA5 5JS","la":"Harrow","era":"other","nn":974,"risk":54,"cat":"amber"},{"name":"Arens Bar & Grill at the Six Bells","lat":51.58953,"lon":-0.43691,"postcode":"HA4 7TP","la":"Hillingdon","era":"mod","nn":363,"risk":33,"cat":"amber"},{"name":"B E C Club","lat":51.57362,"lon":-0.41574,"postcode":"HA4 8NN","la":"Hillingdon","era":"other","nn":155,"risk":26,"cat":"green"},{"name":"Captain Morgans","lat":51.5769,"lon":-0.39832,"postcode":"HA5 1RD","la":"Hillingdon","era":"other","nn":79,"risk":28,"cat":"green"},{"name":"Champers","lat":51.57751,"lon":-0.39888,"postcode":"HA5 1RF","la":"Hillingdon","era":"other","nn":79,"risk":26,"cat":"green"},{"name":"David Lloyd Northwood","lat":51.61298,"lon":-0.44259,"postcode":"HA6 2DR","la":"Hillingdon","era":"other","nn":242,"risk":32,"cat":"amber"},{"name":"Eastcote Cricket Club","lat":51.5886,"lon":-0.40613,"postcode":"HA5 2EG","la":"Hillingdon","era":"other","nn":132,"risk":44,"cat":"amber"},{"name":"Eastcote Royal British Legion","lat":51.57317,"lon":-0.40322,"postcode":"HA4 9SQ","la":"Hillingdon","era":"trad","nn":535,"risk":29,"cat":"green"},{"name":"Geo Bar","lat":51.57852,"lon":-0.39899,"postcode":"HA5 1QL","la":"Hillingdon","era":"other","nn":91,"risk":26,"cat":"green"},{"name":"Hennessys Bar","lat":51.57259,"lon":-0.41287,"postcode":"HA4 0AG","la":"Hillingdon","era":"other","nn":94,"risk":26,"cat":"green"},{"name":"Hillingdon Athletic Club","lat":51.58519,"lon":-0.4335,"postcode":"HA4 7TJ","la":"Hillingdon","era":"other","nn":475,"risk":34,"cat":"amber"},{"name":"Hop and Vine","lat":51.5759,"lon":-0.42653,"postcode":"HA4 7AN","la":"Hillingdon","era":"other","nn":0,"risk":25,"cat":"green"},{"name":"J J Moons","lat":51.57332,"lon":-0.41356,"postcode":"HA4 0AA","la":"Hillingdon","era":"other","nn":94,"risk":26,"cat":"green"},{"name":"Manor Bar","lat":51.57172,"lon":-0.41247,"postcode":"HA4 0AH","la":"Hillingdon","era":"other","nn":101,"risk":26,"cat":"green"},{"name":"McGovern Park","lat":51.5495,"lon":-0.39966,"postcode":"HA4 6QX","la":"Hillingdon","era":"other","nn":922,"risk":52,"cat":"amber"},{"name":"Northwood Central Club","lat":51.61095,"lon":-0.42272,"postcode":"HA6 1DN","la":"Hillingdon","era":"other","nn":259,"risk":32,"cat":"amber"},{"name":"Northwood Cricket Club","lat":51.61434,"lon":-0.43986,"postcode":"HA6 2NP","la":"Hillingdon","era":"other","nn":186,"risk":29,"cat":"green"},{"name":"Northwood Football Club","lat":51.60104,"lon":-0.41615,"postcode":"HA6 1HR","la":"Hillingdon","era":"other","nn":271,"risk":30,"cat":"green"},{"name":"Northwood Town Cricket Club","lat":51.60298,"lon":-0.41855,"postcode":"HA6 1HR","la":"Hillingdon","era":"other","nn":234,"risk":27,"cat":"green"},{"name":"Ruislip Conservative Club","lat":51.57206,"lon":-0.433,"postcode":"HA4 7DQ","la":"Hillingdon","era":"other","nn":125,"risk":26,"cat":"green"},{"name":"Ruislip Royal British Legion","lat":51.5759,"lon":-0.42653,"postcode":"HA4 7AN","la":"Hillingdon","era":"trad","nn":0,"risk":25,"cat":"green"},{"name":"Ruislip Rugby Football Club","lat":51.56929,"lon":-0.42337,"postcode":"HA4 6DR","la":"Hillingdon","era":"other","nn":266,"risk":27,"cat":"green"},{"name":"Sahibs","lat":51.60229,"lon":-0.40966,"postcode":"HA6 1PF","la":"Hillingdon","era":"other","nn":54,"risk":26,"cat":"green"},{"name":"Smuggler's Cove","lat":51.57271,"lon":-0.42253,"postcode":"HA4 8JY","la":"Hillingdon","era":"other","nn":384,"risk":28,"cat":"green"},{"name":"The Ascot","lat":51.57915,"lon":-0.39985,"postcode":"HA5 1RJ","la":"Hillingdon","era":"other","nn":91,"risk":26,"cat":"green"},{"name":"The Black Bull","lat":51.56145,"lon":-0.40108,"postcode":"HA4 0EF","la":"Hillingdon","era":"trad","nn":512,"risk":49,"cat":"amber"},{"name":"The Black Horse","lat":51.58467,"lon":-0.40629,"postcode":"HA5 2EN","la":"Hillingdon","era":"trad","nn":438,"risk":28,"cat":"green"},{"name":"The Case is Altered P.H","lat":51.5896,"lon":-0.40508,"postcode":"HA5 2EQ","la":"Hillingdon","era":"other","nn":132,"risk":44,"cat":"amber"},{"name":"The Clubhouse","lat":51.58685,"lon":-0.43992,"postcode":"HA4 7SB","la":"Hillingdon","era":"other","nn":56,"risk":31,"cat":"amber"},{"name":"The Gate P H","lat":51.61417,"lon":-0.43718,"postcode":"HA6 2RH","la":"Hillingdon","era":"other","nn":186,"risk":29,"cat":"green"},{"name":"The Locker Room","lat":51.60198,"lon":-0.40907,"postcode":"HA6 1NU","la":"Hillingdon","era":"other","nn":54,"risk":26,"cat":"green"},{"name":"The Middlesex Arms","lat":51.55762,"lon":-0.39697,"postcode":"HA4 0HG","la":"Hillingdon","era":"trad","nn":512,"risk":46,"cat":"amber"},{"name":"The Misty Moon","lat":51.61211,"lon":-0.42596,"postcode":"HA6 2PX","la":"Hillingdon","era":"other","nn":259,"risk":32,"cat":"amber"},{"name":"The Olde Northwood P H","lat":51.60484,"lon":-0.41694,"postcode":"HA6 1BP","la":"Hillingdon","era":"other","nn":234,"risk":27,"cat":"green"},{"name":"The White Bear","lat":51.57185,"lon":-0.43122,"postcode":"HA4 7DF","la":"Hillingdon","era":"other","nn":125,"risk":26,"cat":"green"},{"name":"Venue 5","lat":51.56883,"lon":-0.38995,"postcode":"HA4 9PB","la":"Hillingdon","era":"other","nn":1036,"risk":55,"cat":"amber"},{"name":"Wealdstone FC","lat":51.56904,"lon":-0.41954,"postcode":"HA4 6JQ","la":"Hillingdon","era":"other","nn":266,"risk":27,"cat":"green"},{"name":"Woodman","lat":51.58636,"lon":-0.44011,"postcode":"HA4 7SE","la":"Hillingdon","era":"other","nn":56,"risk":28,"cat":"green"}]