[{"name":"Acre Rigg Social Club","lat":54.77065,"lon":-1.34499,"postcode":"SR8 2DW","la":"County Durham","era":"mod","nn":930,"risk":40,"cat":"amber"},{"name":"Ales \u2018N\u2019 Tails","lat":54.75798,"lon":-1.33342,"postcode":"SR8 1AB","la":"County Durham","era":"other","nn":42,"risk":14,"cat":"green"},{"name":"Bar 1828","lat":54.83713,"lon":-1.33201,"postcode":"SR7 7HE","la":"County Durham","era":"mod","nn":17,"risk":14,"cat":"green"},{"name":"Black Bull","lat":54.75101,"lon":-1.36084,"postcode":"SR8 2NA","la":"County Durham","era":"trad","nn":91,"risk":32,"cat":"amber"},{"name":"Cork & Coffee","lat":54.83997,"lon":-1.33301,"postcode":"SR7 7EU","la":"County Durham","era":"other","nn":107,"risk":15,"cat":"green"},{"name":"Crows Nest","lat":54.84499,"lon":-1.33911,"postcode":"SR7 7XR","la":"County Durham","era":"other","nn":432,"risk":17,"cat":"green"},{"name":"Dawdon Welfare Cricket Club","lat":54.82642,"lon":-1.3347,"postcode":"SR7 7XL","la":"County Durham","era":"other","nn":312,"risk":33,"cat":"amber"},{"name":"Dempseys Bar","lat":54.83911,"lon":-1.33225,"postcode":"SR7 7EU","la":"County Durham","era":"other","nn":16,"risk":14,"cat":"green"},{"name":"Deneside Workmens Club","lat":54.83499,"lon":-1.35793,"postcode":"SR7 8PE","la":"County Durham","era":"other","nn":443,"risk":17,"cat":"green"},{"name":"Dun Cow","lat":54.8422,"lon":-1.38196,"postcode":"SR7 0NA","la":"County Durham","era":"other","nn":213,"risk":20,"cat":"green"},{"name":"Easington Colliery AFC","lat":54.78762,"lon":-1.32946,"postcode":"SR8 3PL","la":"County Durham","era":"other","nn":0,"risk":19,"cat":"green"},{"name":"Easington Colliery WMC and Institute","lat":54.78857,"lon":-1.33571,"postcode":"SR8 3JZ","la":"County Durham","era":"other","nn":415,"risk":22,"cat":"green"},{"name":"Easington Social Welfare Centre","lat":54.78762,"lon":-1.32946,"postcode":"SR8 3PL","la":"County Durham","era":"mod","nn":0,"risk":19,"cat":"green"},{"name":"Funk-A-Deli","lat":54.75254,"lon":-1.33937,"postcode":"SR8 1ER","la":"County Durham","era":"other","nn":0,"risk":14,"cat":"green"},{"name":"Half Moon Inn","lat":54.78092,"lon":-1.35814,"postcode":"SR8 3AZ","la":"County Durham","era":"trad","nn":356,"risk":36,"cat":"amber"},{"name":"Hat and Feathers","lat":54.83727,"lon":-1.33365,"postcode":"SR7 7HF","la":"County Durham","era":"other","nn":0,"risk":14,"cat":"green"},{"name":"Hearts of Oak","lat":54.75203,"lon":-1.34529,"postcode":"SR8 1EX","la":"County Durham","era":"trad","nn":384,"risk":16,"cat":"green"},{"name":"Hidden On The Harbour","lat":54.83897,"lon":-1.33225,"postcode":"SR7 7EU","la":"County Durham","era":"other","nn":0,"risk":14,"cat":"green"},{"name":"Horden and Peterlee Rugby Football Club","lat":54.7665,"lon":-1.33102,"postcode":"SR8 5DJ","la":"County Durham","era":"other","nn":613,"risk":18,"cat":"green"},{"name":"Horden Catholic Club","lat":54.76385,"lon":-1.31703,"postcode":"SR8 4NG","la":"County Durham","era":"other","nn":127,"risk":15,"cat":"green"},{"name":"Horden Community Welfare FC","lat":54.76498,"lon":-1.31671,"postcode":"SR8 4LW","la":"County Durham","era":"other","nn":127,"risk":15,"cat":"green"},{"name":"Horden Comrades Club","lat":54.76113,"lon":-1.30863,"postcode":"SR8 4HP","la":"County Durham","era":"other","nn":466,"risk":17,"cat":"green"},{"name":"Horden Conservative Club","lat":54.76559,"lon":-1.31316,"postcode":"SR8 4JZ","la":"County Durham","era":"other","nn":55,"risk":14,"cat":"green"},{"name":"Horden Cricket Social Club","lat":54.76577,"lon":-1.31886,"postcode":"SR8 4PE","la":"County Durham","era":"mod","nn":91,"risk":14,"cat":"green"},{"name":"Horden Labour Club","lat":54.76668,"lon":-1.32083,"postcode":"SR8 4PF","la":"County Durham","era":"other","nn":105,"risk":14,"cat":"green"},{"name":"Horden Social Welfare Centre","lat":54.76392,"lon":-1.31494,"postcode":"SR8 4LX","la":"County Durham","era":"mod","nn":96,"risk":14,"cat":"green"},{"name":"Horden Sportsmans Club","lat":54.76595,"lon":-1.31259,"postcode":"SR8 4DU","la":"County Durham","era":"other","nn":55,"risk":14,"cat":"green"},{"name":"Horden Victory Club Ltd","lat":54.76422,"lon":-1.31354,"postcode":"SR8 4LQ","la":"County Durham","era":"other","nn":96,"risk":14,"cat":"green"},{"name":"Island Social Club","lat":54.83901,"lon":-1.34813,"postcode":"SR7 0AA","la":"County Durham","era":"mod","nn":145,"risk":15,"cat":"green"},{"name":"JD's","lat":54.76825,"lon":-1.3198,"postcode":"SR8 4PX","la":"County Durham","era":"other","nn":187,"risk":15,"cat":"green"},{"name":"Londonderry Bar & Accommodation","lat":54.83739,"lon":-1.33156,"postcode":"SR7 7HD","la":"County Durham","era":"mod","nn":10,"risk":14,"cat":"green"},{"name":"Luciano Bar & Bistro","lat":54.74826,"lon":-1.34229,"postcode":"SR8 1QB","la":"County Durham","era":"mod","nn":462,"risk":22,"cat":"green"},{"name":"Memory Lane","lat":54.83727,"lon":-1.33365,"postcode":"SR7 7HF","la":"County Durham","era":"other","nn":0,"risk":14,"cat":"green"},{"name":"Murton Colliery Club Ltd","lat":54.81912,"lon":-1.38566,"postcode":"SR7 9DU","la":"County Durham","era":"other","nn":207,"risk":18,"cat":"green"},{"name":"New Hesledon Social Club","lat":54.81845,"lon":-1.39821,"postcode":"SR7 9HN","la":"County Durham","era":"mod","nn":160,"risk":20,"cat":"green"},{"name":"New Seaham Conservative Club","lat":54.84106,"lon":-1.36135,"postcode":"SR7 0BL","la":"County Durham","era":"other","nn":361,"risk":16,"cat":"green"},{"name":"Parkside Sports Bar","lat":54.82687,"lon":-1.34233,"postcode":"SR7 7UF","la":"County Durham","era":"other","nn":328,"risk":34,"cat":"amber"},{"name":"Peterlee Catholic Club Ltd","lat":54.75679,"lon":-1.35316,"postcode":"SR8 2LR","la":"County Durham","era":"other","nn":732,"risk":21,"cat":"green"},{"name":"Peterlee Central Club","lat":54.76144,"lon":-1.33478,"postcode":"SR8 5BA","la":"County Durham","era":"other","nn":138,"risk":15,"cat":"green"},{"name":"Peterlee Cricket Club","lat":54.75254,"lon":-1.33937,"postcode":"SR8 1ER","la":"County Durham","era":"other","nn":0,"risk":14,"cat":"green"},{"name":"Peterlee Labour Club","lat":54.75599,"lon":-1.33076,"postcode":"SR8 5SN","la":"County Durham","era":"other","nn":280,"risk":16,"cat":"green"},{"name":"Port of Call Seaham","lat":54.83897,"lon":-1.33225,"postcode":"SR7 7EU","la":"County Durham","era":"other","nn":0,"risk":14,"cat":"green"},{"name":"Seaham Golf Club","lat":54.82847,"lon":-1.33803,"postcode":"SR7 7RD","la":"County Durham","era":"other","nn":312,"risk":16,"cat":"green"},{"name":"Seaham Harbour Cricket Club","lat":54.83958,"lon":-1.3461,"postcode":"SR7 7BX","la":"County Durham","era":"other","nn":145,"risk":15,"cat":"green"},{"name":"Seaham Masonic Club","lat":54.84191,"lon":-1.335,"postcode":"SR7 7AA","la":"County Durham","era":"trad","nn":251,"risk":16,"cat":"green"},{"name":"Seaham Old Scouts Social Club","lat":54.83748,"lon":-1.33151,"postcode":"SR7 7HD","la":"County Durham","era":"mod","nn":0,"risk":14,"cat":"green"},{"name":"Seaham Park Sports Club","lat":54.84394,"lon":-1.36769,"postcode":"SR7 0HX","la":"County Durham","era":"other","nn":234,"risk":15,"cat":"green"},{"name":"Seaham Red Star Football Club","lat":54.8419,"lon":-1.36678,"postcode":"SR7 0HP","la":"County Durham","era":"other","nn":234,"risk":15,"cat":"green"},{"name":"Seaham Sea Angling Club","lat":54.83748,"lon":-1.33151,"postcode":"SR7 7HD","la":"County Durham","era":"other","nn":0,"risk":14,"cat":"green"},{"name":"Seaton Lane Inn","lat":54.8441,"lon":-1.38159,"postcode":"SR7 0LP","la":"County Durham","era":"trad","nn":213,"risk":20,"cat":"green"},{"name":"Southside Social Club","lat":54.78331,"lon":-1.35445,"postcode":"SR8 3AX","la":"County Durham","era":"mod","nn":356,"risk":36,"cat":"amber"},{"name":"Stapylton Steakhouse","lat":54.80186,"lon":-1.34815,"postcode":"SR7 8SD","la":"County Durham","era":"other","nn":1679,"risk":48,"cat":"amber"},{"name":"The Coalface","lat":54.83713,"lon":-1.33175,"postcode":"SR7 7HE","la":"County Durham","era":"other","nn":17,"risk":14,"cat":"green"},{"name":"The Coalhouse","lat":54.83724,"lon":-1.33571,"postcode":"SR7 7EJ","la":"County Durham","era":"other","nn":76,"risk":14,"cat":"green"},{"name":"The Dancing Betty","lat":54.81538,"lon":-1.37482,"postcode":"SR7 9HU","la":"County Durham","era":"other","nn":620,"risk":36,"cat":"amber"},{"name":"The Five Quarter","lat":54.75833,"lon":-1.33367,"postcode":"SR8 1AB","la":"County Durham","era":"mod","nn":42,"risk":14,"cat":"green"},{"name":"The Fox & Tree","lat":54.82527,"lon":-1.3681,"postcode":"SR7 8QA","la":"County Durham","era":"trad","nn":884,"risk":40,"cat":"amber"},{"name":"The Ginnel","lat":54.83684,"lon":-1.33376,"postcode":"SR7 7HQ","la":"County Durham","era":"trad","nn":48,"risk":14,"cat":"green"},{"name":"The Inn Between","lat":54.83791,"lon":-1.33595,"postcode":"SR7 7EN","la":"County Durham","era":"trad","nn":76,"risk":14,"cat":"green"},{"name":"The Knack Sports and Social Club","lat":54.83701,"lon":-1.36389,"postcode":"SR7 8ED","la":"County Durham","era":"mod","nn":338,"risk":16,"cat":"green"},{"name":"The Leather Cap Sports and Social Club Ltd","lat":54.78786,"lon":-1.32297,"postcode":"SR8 3RY","la":"County Durham","era":"mod","nn":417,"risk":22,"cat":"green"},{"name":"The Legion","lat":54.76579,"lon":-1.32027,"postcode":"SR8 4NU","la":"County Durham","era":"other","nn":91,"risk":14,"cat":"green"},{"name":"The Mallard","lat":54.83313,"lon":-1.36604,"postcode":"SR7 8EP","la":"County Durham","era":"other","nn":234,"risk":15,"cat":"green"},{"name":"The Moorcock","lat":54.76397,"lon":-1.35373,"postcode":"SR8 2HW","la":"County Durham","era":"other","nn":800,"risk":37,"cat":"amber"},{"name":"The Murton Club (Officials) Ltd","lat":54.81765,"lon":-1.38366,"postcode":"SR7 9AA","la":"County Durham","era":"other","nn":207,"risk":20,"cat":"green"},{"name":"The Oddfellows Arms","lat":54.83727,"lon":-1.33365,"postcode":"SR7 7HF","la":"County Durham","era":"trad","nn":0,"risk":14,"cat":"green"},{"name":"The Royal George","lat":54.75183,"lon":-1.36071,"postcode":"SR8 2ND","la":"County Durham","era":"trad","nn":91,"risk":19,"cat":"green"},{"name":"The Three Stories","lat":54.76022,"lon":-1.33516,"postcode":"SR8 1BS","la":"County Durham","era":"other","nn":68,"risk":14,"cat":"green"},{"name":"The Vibe","lat":54.75962,"lon":-1.33545,"postcode":"SR8 1BU","la":"County Durham","era":"other","nn":68,"risk":14,"cat":"green"},{"name":"The Volunteer Arms Licensed Coffee Bar","lat":54.83581,"lon":-1.33549,"postcode":"SR7 7JE","la":"County Durham","era":"trad","nn":159,"risk":15,"cat":"green"},{"name":"Village Inn","lat":54.81732,"lon":-1.39977,"postcode":"SR7 9RP","la":"County Durham","era":"trad","nn":160,"risk":32,"cat":"amber"},{"name":"Westlea Sports and Family Bar","lat":54.83497,"lon":-1.3678,"postcode":"SR7 8EL","la":"County Durham","era":"other","nn":234,"risk":15,"cat":"green"},{"name":"Blues Micro Pub","lat":54.95143,"lon":-1.36414,"postcode":"SR6 7EW","la":"South Tyneside","era":"other","nn":256,"risk":32,"cat":"amber"},{"name":"The Cottage Tavern","lat":54.95571,"lon":-1.40068,"postcode":"SR6 7PL","la":"South Tyneside","era":"other","nn":49,"risk":43,"cat":"amber"},{"name":"The Jolly Sailor","lat":54.94853,"lon":-1.36475,"postcode":"SR6 7BZ","la":"South Tyneside","era":"other","nn":0,"risk":30,"cat":"green"},{"name":"The Stables","lat":54.95409,"lon":-1.40278,"postcode":"SR6 7PG","la":"South Tyneside","era":"other","nn":191,"risk":44,"cat":"amber"},{"name":"Toby Carvery Cleadon Village","lat":54.95562,"lon":-1.40143,"postcode":"SR6 7PQ","la":"South Tyneside","era":"other","nn":49,"risk":31,"cat":"amber"},{"name":"Whitburn and Marsden Social Club","lat":54.95002,"lon":-1.36732,"postcode":"SR6 7AD","la":"South Tyneside","era":"mod","nn":234,"risk":32,"cat":"amber"},{"name":"Whitburn Cricket Club","lat":54.94853,"lon":-1.36475,"postcode":"SR6 7BZ","la":"South Tyneside","era":"other","nn":0,"risk":30,"cat":"green"},{"name":"7EVEN","lat":54.90358,"lon":-1.38662,"postcode":"SR1 3NT","la":"Sunderland","era":"other","nn":34,"risk":23,"cat":"green"},{"name":"Alexandra","lat":54.88564,"lon":-1.36976,"postcode":"SR2 9PF","la":"Sunderland","era":"other","nn":123,"risk":41,"cat":"amber"},{"name":"Angels Place","lat":54.90888,"lon":-1.36982,"postcode":"SR1 2BB","la":"Sunderland","era":"trad","nn":52,"risk":23,"cat":"green"},{"name":"Ashbrooke Sports Club","lat":54.89124,"lon":-1.38693,"postcode":"SR2 7HH","la":"Sunderland","era":"other","nn":88,"risk":26,"cat":"green"},{"name":"Bar Justice","lat":54.90698,"lon":-1.37849,"postcode":"SR1 1BH","la":"Sunderland","era":"mod","nn":55,"risk":23,"cat":"green"},{"name":"Bar Unique","lat":54.90037,"lon":-1.38846,"postcode":"SR1 3NQ","la":"Sunderland","era":"mod","nn":126,"risk":24,"cat":"green"},{"name":"Barge & Barrel","lat":54.90416,"lon":-1.3814,"postcode":"SR1 1QB","la":"Sunderland","era":"other","nn":98,"risk":23,"cat":"green"},{"name":"Bluebell / 88th Street / Value Mighty / Sin City Burger","lat":54.92936,"lon":-1.38186,"postcode":"SR6 9AD","la":"Sunderland","era":"other","nn":113,"risk":26,"cat":"green"},{"name":"Board Inn / 88th Street/ Value Mighty/ Sin City Burger/ K-Town/ Chik Box/ Locked And Locked","lat":54.87244,"lon":-1.44146,"postcode":"SR3 3NS","la":"Sunderland","era":"trad","nn":730,"risk":48,"cat":"amber"},{"name":"Bonded Warehouse","lat":54.90929,"lon":-1.37306,"postcode":"SR1 2AD","la":"Sunderland","era":"other","nn":152,"risk":24,"cat":"green"},{"name":"Burton House Ltd","lat":54.90487,"lon":-1.37713,"postcode":"SR1 1PA","la":"Sunderland","era":"mod","nn":61,"risk":23,"cat":"green"},{"name":"Buzz Bingo","lat":54.91152,"lon":-1.41233,"postcode":"SR4 6UA","la":"Sunderland","era":"other","nn":236,"risk":24,"cat":"green"},{"name":"Captain Morgan","lat":54.93665,"lon":-1.36918,"postcode":"SR6 8AA","la":"Sunderland","era":"other","nn":0,"risk":23,"cat":"green"},{"name":"Chaplins","lat":54.90312,"lon":-1.38727,"postcode":"SR1 3NR","la":"Sunderland","era":"other","nn":44,"risk":23,"cat":"green"},{"name":"Cheers Bar","lat":54.90928,"lon":-1.37023,"postcode":"SR1 2BG","la":"Sunderland","era":"other","nn":52,"risk":23,"cat":"green"},{"name":"Chesters / 88th Street / Value Mighty / Sin City Burger/ K-Town, Chik Box, Locked And Loaded","lat":54.90245,"lon":-1.40318,"postcode":"SR4 7DR","la":"Sunderland","era":"other","nn":124,"risk":24,"cat":"green"},{"name":"Coast Cafe Bar","lat":54.92233,"lon":-1.365,"postcode":"SR6 0PP","la":"Sunderland","era":"other","nn":262,"risk":25,"cat":"green"},{"name":"Colliery Tavern","lat":54.91613,"lon":-1.3859,"postcode":"SR5 1EQ","la":"Sunderland","era":"other","nn":297,"risk":25,"cat":"green"},{"name":"Comrades Club Silksworth","lat":54.87391,"lon":-1.40619,"postcode":"SR3 1ET","la":"Sunderland","era":"other","nn":172,"risk":24,"cat":"green"},{"name":"Cooper Rose","lat":54.90326,"lon":-1.38796,"postcode":"SR1 3NG","la":"Sunderland","era":"trad","nn":3,"risk":23,"cat":"green"},{"name":"Deaf Society","lat":54.91317,"lon":-1.38352,"postcode":"SR5 1AH","la":"Sunderland","era":"mod","nn":61,"risk":23,"cat":"green"},{"name":"Derwenthurst (Ryhope) Club Ltd","lat":54.86894,"lon":-1.36059,"postcode":"SR2 0PF","la":"Sunderland","era":"other","nn":64,"risk":23,"cat":"green"},{"name":"Derwenthurst Club","lat":54.86895,"lon":-1.35935,"postcode":"SR2 0PF","la":"Sunderland","era":"other","nn":16,"risk":23,"cat":"green"},{"name":"Dolphin","lat":54.87457,"lon":-1.43066,"postcode":"SR3 3HT","la":"Sunderland","era":"other","nn":730,"risk":45,"cat":"amber"},{"name":"Donkins","lat":54.87614,"lon":-1.40181,"postcode":"SR3 1AU","la":"Sunderland","era":"other","nn":283,"risk":25,"cat":"green"},{"name":"Fitzgeralds","lat":54.90424,"lon":-1.38893,"postcode":"SR1 3PZ","la":"Sunderland","era":"other","nn":24,"risk":23,"cat":"green"},{"name":"Foresters Arms","lat":54.87136,"lon":-1.37564,"postcode":"SR2 0AG","la":"Sunderland","era":"trad","nn":0,"risk":23,"cat":"green"},{"name":"Gatsby","lat":54.90384,"lon":-1.38594,"postcode":"SR1 3NT","la":"Sunderland","era":"other","nn":26,"risk":23,"cat":"green"},{"name":"Get Stuffed @railwaytaven","lat":54.90704,"lon":-1.40051,"postcode":"SR4 6EF","la":"Sunderland","era":"trad","nn":33,"risk":23,"cat":"green"},{"name":"Grange Hotel","lat":54.92667,"lon":-1.38925,"postcode":"SR5 1NR","la":"Sunderland","era":"other","nn":449,"risk":31,"cat":"amber"},{"name":"Grangetown W M C","lat":54.88626,"lon":-1.36817,"postcode":"SR2 9QF","la":"Sunderland","era":"other","nn":123,"risk":41,"cat":"amber"},{"name":"Grannie Annies","lat":54.92499,"lon":-1.36587,"postcode":"SR6 0PL","la":"Sunderland","era":"other","nn":300,"risk":25,"cat":"green"},{"name":"Greens","lat":54.9057,"lon":-1.3898,"postcode":"SR1 3PY","la":"Sunderland","era":"other","nn":65,"risk":23,"cat":"green"},{"name":"Grindon Broadway Club","lat":54.88693,"lon":-1.44723,"postcode":"SR4 9RX","la":"Sunderland","era":"other","nn":507,"risk":46,"cat":"amber"},{"name":"Guide Post","lat":54.87037,"lon":-1.36566,"postcode":"SR2 0RN","la":"Sunderland","era":"other","nn":152,"risk":24,"cat":"green"},{"name":"Harbour View Public House","lat":54.92084,"lon":-1.36816,"postcode":"SR6 0NU","la":"Sunderland","era":"other","nn":194,"risk":24,"cat":"green"},{"name":"Hastings Hill","lat":54.89023,"lon":-1.4527,"postcode":"SR4 9LP","la":"Sunderland","era":"other","nn":507,"risk":46,"cat":"amber"},{"name":"Heineken","lat":54.93665,"lon":-1.36918,"postcode":"SR6 8AA","la":"Sunderland","era":"other","nn":0,"risk":23,"cat":"green"},{"name":"Hendon Grange","lat":54.88603,"lon":-1.36233,"postcode":"SR2 9RZ","la":"Sunderland","era":"other","nn":375,"risk":43,"cat":"amber"},{"name":"Hogans","lat":54.91936,"lon":-1.4038,"postcode":"SR5 2AU","la":"Sunderland","era":"other","nn":433,"risk":43,"cat":"amber"},{"name":"Hollymere","lat":54.88559,"lon":-1.38914,"postcode":"SR2 9DL","la":"Sunderland","era":"trad","nn":609,"risk":44,"cat":"amber"},{"name":"Howard Arms","lat":54.91533,"lon":-1.37839,"postcode":"SR6 0BS","la":"Sunderland","era":"trad","nn":186,"risk":24,"cat":"green"},{"name":"Humbledon & Plains Farm WMC","lat":54.88672,"lon":-1.40796,"postcode":"SR3 1SY","la":"Sunderland","era":"other","nn":863,"risk":49,"cat":"amber"},{"name":"Hylton Castle Club","lat":54.91914,"lon":-1.45729,"postcode":"SR5 3SP","la":"Sunderland","era":"other","nn":642,"risk":45,"cat":"amber"},{"name":"Independent","lat":54.90449,"lon":-1.38281,"postcode":"SR1 3JE","la":"Sunderland","era":"other","nn":46,"risk":23,"cat":"green"},{"name":"Ivy House","lat":54.90144,"lon":-1.38779,"postcode":"SR2 7AW","la":"Sunderland","era":"other","nn":126,"risk":24,"cat":"green"},{"name":"Josephs","lat":54.90454,"lon":-1.38364,"postcode":"SR1 3JE","la":"Sunderland","era":"other","nn":53,"risk":23,"cat":"green"},{"name":"Keel Tavern","lat":54.90733,"lon":-1.3863,"postcode":"SR1 3DS","la":"Sunderland","era":"other","nn":96,"risk":23,"cat":"green"},{"name":"Lakeside Sports & Social Club","lat":54.87821,"lon":-1.41912,"postcode":"SR3 3BD","la":"Sunderland","era":"mod","nn":842,"risk":46,"cat":"amber"},{"name":"Lansdowne","lat":54.90892,"lon":-1.3971,"postcode":"SR4 6AG","la":"Sunderland","era":"other","nn":231,"risk":24,"cat":"green"},{"name":"Last Orders","lat":54.92627,"lon":-1.43395,"postcode":"SR5 5DE","la":"Sunderland","era":"other","nn":1115,"risk":53,"cat":"amber"},{"name":"Masonic Temple","lat":54.90824,"lon":-1.37155,"postcode":"SR1 2HT","la":"Sunderland","era":"trad","nn":132,"risk":24,"cat":"green"},{"name":"Mill View Social Club","lat":54.92898,"lon":-1.38349,"postcode":"SR6 9AE","la":"Sunderland","era":"other","nn":113,"risk":26,"cat":"green"},{"name":"Museum Vaults","lat":54.90707,"lon":-1.39324,"postcode":"SR1 3QJ","la":"Sunderland","era":"other","nn":2,"risk":23,"cat":"green"},{"name":"New Derby","lat":54.92199,"lon":-1.37247,"postcode":"SR6 9TA","la":"Sunderland","era":"other","nn":304,"risk":25,"cat":"green"},{"name":"New Silksworth R B Legion","lat":54.8738,"lon":-1.40352,"postcode":"SR3 1HW","la":"Sunderland","era":"other","nn":172,"risk":24,"cat":"green"},{"name":"Nissan Sports & Social Club","lat":54.92035,"lon":-1.47899,"postcode":"SR5 3NS","la":"Sunderland","era":"mod","nn":464,"risk":46,"cat":"amber"},{"name":"Oddfellows Arms","lat":54.89122,"lon":-1.49122,"postcode":"SR4 9JS","la":"Sunderland","era":"trad","nn":230,"risk":42,"cat":"amber"},{"name":"Oddies Bar","lat":54.90684,"lon":-1.39722,"postcode":"SR4 7AB","la":"Sunderland","era":"other","nn":211,"risk":24,"cat":"green"},{"name":"Pennywell Comrades Club","lat":54.90148,"lon":-1.44457,"postcode":"SR4 0LJ","la":"Sunderland","era":"other","nn":537,"risk":31,"cat":"amber"},{"name":"Port Of Call","lat":54.90387,"lon":-1.3853,"postcode":"SR1 3NX","la":"Sunderland","era":"other","nn":41,"risk":23,"cat":"green"},{"name":"Rosedene","lat":54.89104,"lon":-1.38826,"postcode":"SR2 9BT","la":"Sunderland","era":"other","nn":88,"risk":28,"cat":"green"},{"name":"Royal Artillery Club","lat":54.90291,"lon":-1.38789,"postcode":"SR1 3NH","la":"Sunderland","era":"trad","nn":38,"risk":23,"cat":"green"},{"name":"Royal British Legion Club","lat":54.90013,"lon":-1.38437,"postcode":"SR2 7BN","la":"Sunderland","era":"trad","nn":156,"risk":24,"cat":"green"},{"name":"Royal Naval Assoc Club","lat":54.9164,"lon":-1.37618,"postcode":"SR6 0HX","la":"Sunderland","era":"trad","nn":93,"risk":23,"cat":"green"},{"name":"Ryhope Catholic Club","lat":54.86934,"lon":-1.36722,"postcode":"SR2 0RH","la":"Sunderland","era":"other","nn":152,"risk":24,"cat":"green"},{"name":"Ryhope Football &  Cricket Club","lat":54.87124,"lon":-1.3741,"postcode":"SR2 0AB","la":"Sunderland","era":"other","nn":15,"risk":23,"cat":"green"},{"name":"Ryhope Village & District Club","lat":54.86896,"lon":-1.3596,"postcode":"SR2 0PF","la":"Sunderland","era":"other","nn":16,"risk":23,"cat":"green"},{"name":"Ryhope W. M. C.","lat":54.87136,"lon":-1.37564,"postcode":"SR2 0AG","la":"Sunderland","era":"other","nn":0,"risk":23,"cat":"green"},{"name":"S Hylton Working Mens Club","lat":54.90567,"lon":-1.45128,"postcode":"SR4 0PX","la":"Sunderland","era":"trad","nn":99,"risk":26,"cat":"green"},{"name":"Shipwrights","lat":54.90636,"lon":-1.45539,"postcode":"SR5 3HW","la":"Sunderland","era":"trad","nn":274,"risk":27,"cat":"green"},{"name":"Silksworth W M C","lat":54.87143,"lon":-1.40182,"postcode":"SR3 2DS","la":"Sunderland","era":"other","nn":200,"risk":24,"cat":"green"},{"name":"Sir John Short Raob Club","lat":54.90623,"lon":-1.40824,"postcode":"SR4 6HX","la":"Sunderland","era":"other","nn":181,"risk":24,"cat":"green"},{"name":"Sloanes Sports Bar","lat":54.90734,"lon":-1.37929,"postcode":"SR1 1BA","la":"Sunderland","era":"other","nn":33,"risk":23,"cat":"green"},{"name":"Spot White Sunderland","lat":54.90489,"lon":-1.38261,"postcode":"SR1 3HT","la":"Sunderland","era":"other","nn":46,"risk":23,"cat":"green"},{"name":"St Leonards Catholic Club","lat":54.87331,"lon":-1.39956,"postcode":"SR3 2BB","la":"Sunderland","era":"other","nn":254,"risk":25,"cat":"green"},{"name":"Sunderland Drama Club","lat":54.90265,"lon":-1.39577,"postcode":"SR2 7PP","la":"Sunderland","era":"trad","nn":41,"risk":23,"cat":"green"},{"name":"Sunderland National Reserve Club","lat":54.90325,"lon":-1.38792,"postcode":"SR1 3NG","la":"Sunderland","era":"other","nn":3,"risk":23,"cat":"green"},{"name":"Sunderland West Community Centre Social Club.","lat":54.90167,"lon":-1.40458,"postcode":"SR4 7HR","la":"Sunderland","era":"mod","nn":124,"risk":24,"cat":"green"},{"name":"Sunderland Yacht Club","lat":54.91826,"lon":-1.363,"postcode":"SR6 0PN","la":"Sunderland","era":"other","nn":396,"risk":26,"cat":"green"},{"name":"The Albion","lat":54.91743,"lon":-1.37226,"postcode":"SR6 0LS","la":"Sunderland","era":"other","nn":188,"risk":24,"cat":"green"},{"name":"The Avenue","lat":54.91621,"lon":-1.37476,"postcode":"SR6 0EQ","la":"Sunderland","era":"other","nn":93,"risk":23,"cat":"green"},{"name":"The Beehive","lat":54.90441,"lon":-1.38542,"postcode":"SR1 3JG","la":"Sunderland","era":"other","nn":60,"risk":23,"cat":"green"},{"name":"The Blandford","lat":54.90476,"lon":-1.3844,"postcode":"SR1 3JH","la":"Sunderland","era":"other","nn":54,"risk":23,"cat":"green"},{"name":"The Borough","lat":54.90402,"lon":-1.38621,"postcode":"SR1 3NE","la":"Sunderland","era":"other","nn":26,"risk":23,"cat":"green"},{"name":"The Cambridge","lat":54.91934,"lon":-1.37925,"postcode":"SR6 0JB","la":"Sunderland","era":"other","nn":381,"risk":25,"cat":"green"},{"name":"The Church Door","lat":54.90744,"lon":-1.37881,"postcode":"SR1 1BA","la":"Sunderland","era":"other","nn":33,"risk":23,"cat":"green"},{"name":"The Cliff","lat":54.92565,"lon":-1.37337,"postcode":"SR6 9LG","la":"Sunderland","era":"other","nn":411,"risk":26,"cat":"green"},{"name":"The Doxy Lad","lat":54.8663,"lon":-1.41684,"postcode":"SR3 2NE","la":"Sunderland","era":"other","nn":328,"risk":43,"cat":"amber"},{"name":"The Gin Cabinet","lat":54.93665,"lon":-1.36918,"postcode":"SR6 8AA","la":"Sunderland","era":"other","nn":0,"risk":23,"cat":"green"},{"name":"The Golden Fleece","lat":54.87194,"lon":-1.40482,"postcode":"SR3 2AJ","la":"Sunderland","era":"trad","nn":200,"risk":24,"cat":"green"},{"name":"The Hylton Castle","lat":54.92351,"lon":-1.45072,"postcode":"SR5 3LQ","la":"Sunderland","era":"other","nn":642,"risk":45,"cat":"amber"},{"name":"The Isis","lat":54.90708,"lon":-1.39326,"postcode":"SR1 3QJ","la":"Sunderland","era":"other","nn":2,"risk":23,"cat":"green"},{"name":"The Jolly Potter","lat":54.90515,"lon":-1.45001,"postcode":"SR4 0PZ","la":"Sunderland","era":"other","nn":99,"risk":26,"cat":"green"},{"name":"The Life Of Riley","lat":54.90405,"lon":-1.38875,"postcode":"SR1 3PZ","la":"Sunderland","era":"other","nn":24,"risk":23,"cat":"green"},{"name":"The Manor Bar","lat":54.90522,"lon":-1.37788,"postcode":"SR1 1LB","la":"Sunderland","era":"other","nn":61,"risk":23,"cat":"green"},{"name":"The Peacock","lat":54.90657,"lon":-1.38701,"postcode":"SR1 3ES","la":"Sunderland","era":"other","nn":91,"risk":23,"cat":"green"},{"name":"The Prior","lat":54.86605,"lon":-1.42195,"postcode":"SR3 2SW","la":"Sunderland","era":"other","nn":328,"risk":45,"cat":"amber"},{"name":"The Promenade","lat":54.93441,"lon":-1.36877,"postcode":"SR6 8DA","la":"Sunderland","era":"other","nn":251,"risk":24,"cat":"green"},{"name":"The Queens","lat":54.87123,"lon":-1.37433,"postcode":"SR2 0AB","la":"Sunderland","era":"trad","nn":15,"risk":23,"cat":"green"},{"name":"The Rabbit","lat":54.90627,"lon":-1.38962,"postcode":"SR1 3EX","la":"Sunderland","era":"other","nn":65,"risk":23,"cat":"green"},{"name":"The Regale Tavern","lat":54.90499,"lon":-1.36433,"postcode":"SR1 2NP","la":"Sunderland","era":"other","nn":556,"risk":27,"cat":"green"},{"name":"The Royal Marine","lat":54.93066,"lon":-1.37574,"postcode":"SR6 9EE","la":"Sunderland","era":"trad","nn":417,"risk":26,"cat":"green"},{"name":"The Saltgrass","lat":54.9139,"lon":-1.39565,"postcode":"SR4 6BY","la":"Sunderland","era":"other","nn":561,"risk":27,"cat":"green"},{"name":"The Stumble Inn","lat":54.90285,"lon":-1.39632,"postcode":"SR2 7PR","la":"Sunderland","era":"trad","nn":41,"risk":23,"cat":"green"},{"name":"The Victory","lat":54.91371,"lon":-1.38333,"postcode":"SR5 1AH","la":"Sunderland","era":"other","nn":61,"risk":23,"cat":"green"},{"name":"The Volt","lat":54.91058,"lon":-1.41565,"postcode":"SR4 6TA","la":"Sunderland","era":"other","nn":236,"risk":27,"cat":"green"},{"name":"The Wavendon","lat":54.89518,"lon":-1.424,"postcode":"SR4 8LW","la":"Sunderland","era":"other","nn":1392,"risk":55,"cat":"amber"},{"name":"The Wessington","lat":54.9111,"lon":-1.45613,"postcode":"SR5 3HR","la":"Sunderland","era":"other","nn":529,"risk":29,"cat":"green"},{"name":"The Wheatsheaf","lat":54.91461,"lon":-1.38208,"postcode":"SR6 0BN","la":"Sunderland","era":"trad","nn":128,"risk":24,"cat":"green"},{"name":"The Wolsey","lat":54.91835,"lon":-1.36979,"postcode":"SR6 0ES","la":"Sunderland","era":"other","nn":104,"risk":23,"cat":"green"},{"name":"These Things Happen","lat":54.91916,"lon":-1.36899,"postcode":"SR6 0NL","la":"Sunderland","era":"other","nn":104,"risk":23,"cat":"green"},{"name":"Times Inn","lat":54.91587,"lon":-1.40682,"postcode":"SR5 2BH","la":"Sunderland","era":"trad","nn":433,"risk":26,"cat":"green"},{"name":"Toby Carvery Barnes Park","lat":54.89334,"lon":-1.40095,"postcode":"SR2 7RB","la":"Sunderland","era":"other","nn":851,"risk":31,"cat":"amber"},{"name":"Top House","lat":54.87136,"lon":-1.37564,"postcode":"SR2 0AG","la":"Sunderland","era":"other","nn":0,"risk":23,"cat":"green"},{"name":"Town End Farm W M Club","lat":54.92867,"lon":-1.45738,"postcode":"SR5 4QF","la":"Sunderland","era":"other","nn":713,"risk":48,"cat":"amber"},{"name":"Ttonic Bar Kitchen","lat":54.90368,"lon":-1.38712,"postcode":"SR1 3NE","la":"Sunderland","era":"mod","nn":34,"risk":23,"cat":"green"},{"name":"Vesta Tilleys","lat":54.90607,"lon":-1.38814,"postcode":"SR1 3ET","la":"Sunderland","era":"other","nn":91,"risk":23,"cat":"green"},{"name":"Wearside Farm","lat":54.91814,"lon":-1.48515,"postcode":"SR5 3NZ","la":"Sunderland","era":"other","nn":464,"risk":46,"cat":"amber"},{"name":"Wearside Golf Club","lat":54.89236,"lon":-1.47868,"postcode":"SR4 9JT","la":"Sunderland","era":"other","nn":812,"risk":46,"cat":"amber"},{"name":"Wearside Masonic Temple","lat":54.89975,"lon":-1.38201,"postcode":"SR2 7DX","la":"Sunderland","era":"trad","nn":156,"risk":24,"cat":"green"},{"name":"Welcome Tavern","lat":54.91108,"lon":-1.36407,"postcode":"SR1 2DW","la":"Sunderland","era":"other","nn":442,"risk":26,"cat":"green"},{"name":"West End Conservative Club","lat":54.90701,"lon":-1.40103,"postcode":"SR4 7XS","la":"Sunderland","era":"other","nn":33,"risk":23,"cat":"green"},{"name":"Willow Pond","lat":54.90561,"lon":-1.40561,"postcode":"SR4 7YF","la":"Sunderland","era":"trad","nn":181,"risk":24,"cat":"green"},{"name":"YOLO Bar","lat":54.93665,"lon":-1.36918,"postcode":"SR6 8AA","la":"Sunderland","era":"other","nn":0,"risk":23,"cat":"green"}]