[{"name":"Bailey Mill","lat":55.10099,"lon":-2.75444,"postcode":"TD9 0TR","la":"Cumberland","era":"trad","nn":6745,"risk":80,"cat":"red"},{"name":"As Good As It Gets","lat":55.76879,"lon":-2.00238,"postcode":"TD15 1EQ","la":"Northumberland","era":"other","nn":0,"risk":16,"cat":"green"},{"name":"Barrels Inn","lat":55.76823,"lon":-2.0045,"postcode":"TD15 1ES","la":"Northumberland","era":"trad","nn":29,"risk":16,"cat":"green"},{"name":"Bedrock Night Club Ltd","lat":55.77,"lon":-2.00563,"postcode":"TD15 1BG","la":"Northumberland","era":"other","nn":0,"risk":16,"cat":"green"},{"name":"Berwick Cricket & Tennis Club","lat":55.76762,"lon":-1.99593,"postcode":"TD15 1JE","la":"Northumberland","era":"other","nn":424,"risk":19,"cat":"green"},{"name":"Berwick Holiday Centre","lat":55.77564,"lon":-2.00342,"postcode":"TD15 1NE","la":"Northumberland","era":"other","nn":0,"risk":16,"cat":"green"},{"name":"Berwick Masonic Hall","lat":55.77022,"lon":-2.00229,"postcode":"TD15 1EE","la":"Northumberland","era":"trad","nn":46,"risk":16,"cat":"green"},{"name":"Berwick Rangers Football Club Plc","lat":55.75991,"lon":-2.01704,"postcode":"TD15 2EF","la":"Northumberland","era":"other","nn":0,"risk":21,"cat":"green"},{"name":"Berwick Rugby Club","lat":55.73928,"lon":-1.99241,"postcode":"TD15 2QY","la":"Northumberland","era":"other","nn":1923,"risk":52,"cat":"amber"},{"name":"Blenheim Hotel","lat":55.75657,"lon":-1.99236,"postcode":"TD15 1RD","la":"Northumberland","era":"other","nn":95,"risk":34,"cat":"amber"},{"name":"Crown & Anchor Inn","lat":55.67022,"lon":-1.80185,"postcode":"TD15 2RX","la":"Northumberland","era":"trad","nn":151,"risk":37,"cat":"amber"},{"name":"Flinders Wine & Tapas","lat":55.76906,"lon":-2.00487,"postcode":"TD15 1AS","la":"Northumberland","era":"mod","nn":41,"risk":16,"cat":"green"},{"name":"Free Trade","lat":55.77275,"lon":-2.00876,"postcode":"TD15 1LF","la":"Northumberland","era":"other","nn":164,"risk":17,"cat":"green"},{"name":"Greenhouse","lat":55.77,"lon":-2.00563,"postcode":"TD15 1BG","la":"Northumberland","era":"other","nn":0,"risk":16,"cat":"green"},{"name":"Kings Head Hotel","lat":55.76987,"lon":-2.00191,"postcode":"TD15 1DX","la":"Northumberland","era":"trad","nn":46,"risk":16,"cat":"green"},{"name":"Live Lounge","lat":55.68659,"lon":-1.9347,"postcode":"TD15 2PA","la":"Northumberland","era":"mod","nn":0,"risk":36,"cat":"amber"},{"name":"Magdalen Fields Golf Club","lat":55.77564,"lon":-2.00342,"postcode":"TD15 1NE","la":"Northumberland","era":"other","nn":0,"risk":16,"cat":"green"},{"name":"Maguires Bar","lat":55.31895,"lon":-2.05172,"postcode":"TD15 2NS","la":"Northumberland","era":"other","nn":0,"risk":16,"cat":"green"},{"name":"Mash & Barrel","lat":55.68659,"lon":-1.9347,"postcode":"TD15 2PA","la":"Northumberland","era":"other","nn":0,"risk":36,"cat":"amber"},{"name":"Masons Arms","lat":55.71851,"lon":-2.16368,"postcode":"TD15 2LB","la":"Northumberland","era":"trad","nn":336,"risk":38,"cat":"amber"},{"name":"Northern View (Berwick) Ltd","lat":55.31895,"lon":-2.05172,"postcode":"TD15 2JL","la":"Northumberland","era":"other","nn":0,"risk":16,"cat":"green"},{"name":"Red Lion","lat":55.77143,"lon":-2.00758,"postcode":"TD15 1JS","la":"Northumberland","era":"trad","nn":120,"risk":17,"cat":"green"},{"name":"Spittal Bowling Club","lat":55.75735,"lon":-1.99173,"postcode":"TD15 1RN","la":"Northumberland","era":"other","nn":95,"risk":34,"cat":"amber"},{"name":"The Albion Inn","lat":55.75881,"lon":-1.99555,"postcode":"TD15 1QY","la":"Northumberland","era":"trad","nn":289,"risk":23,"cat":"green"},{"name":"The Angel Inn","lat":55.76375,"lon":-2.01029,"postcode":"TD15 2AQ","la":"Northumberland","era":"trad","nn":534,"risk":20,"cat":"green"},{"name":"The Black & Gold","lat":55.75991,"lon":-2.01704,"postcode":"TD15 2EF","la":"Northumberland","era":"other","nn":0,"risk":21,"cat":"green"},{"name":"The Black Bull","lat":55.31895,"lon":-2.05172,"postcode":"TD12 4TL","la":"Northumberland","era":"trad","nn":0,"risk":16,"cat":"green"},{"name":"The Black Bull Inn","lat":55.65097,"lon":-1.97551,"postcode":"TD15 2UA","la":"Northumberland","era":"trad","nn":119,"risk":37,"cat":"amber"},{"name":"The Brewer's Arms","lat":55.77053,"lon":-2.00653,"postcode":"TD15 1BH","la":"Northumberland","era":"trad","nn":81,"risk":16,"cat":"green"},{"name":"The Brown Bear Inn","lat":55.76879,"lon":-2.00238,"postcode":"TD15 1EQ","la":"Northumberland","era":"trad","nn":0,"risk":16,"cat":"green"},{"name":"The Curfew","lat":55.76831,"lon":-2.00406,"postcode":"TD15 1AQ","la":"Northumberland","era":"other","nn":29,"risk":16,"cat":"green"},{"name":"The Fishers Arms","lat":55.74202,"lon":-2.11392,"postcode":"TD15 2XW","la":"Northumberland","era":"trad","nn":3739,"risk":64,"cat":"red"},{"name":"The Island View","lat":55.70694,"lon":-1.96766,"postcode":"TD15 2RL","la":"Northumberland","era":"other","nn":3064,"risk":60,"cat":"amber"},{"name":"The Leaping Salmon","lat":55.77,"lon":-2.00563,"postcode":"TD15 1BG","la":"Northumberland","era":"other","nn":0,"risk":16,"cat":"green"},{"name":"The Maltings Theatre & Cinema","lat":55.76919,"lon":-2.00426,"postcode":"TD15 1AJ","la":"Northumberland","era":"other","nn":41,"risk":16,"cat":"green"},{"name":"The Meadow House","lat":55.78683,"lon":-2.01857,"postcode":"TD15 1UR","la":"Northumberland","era":"other","nn":1564,"risk":49,"cat":"amber"},{"name":"The Pilot Inn","lat":55.77434,"lon":-2.00482,"postcode":"TD15 1LZ","la":"Northumberland","era":"trad","nn":169,"risk":17,"cat":"green"},{"name":"The Ship Inn","lat":55.67119,"lon":-1.80016,"postcode":"TD15 2SJ","la":"Northumberland","era":"trad","nn":151,"risk":37,"cat":"amber"},{"name":"The Thatch","lat":55.76843,"lon":-2.01217,"postcode":"TD15 2HE","la":"Northumberland","era":"other","nn":423,"risk":19,"cat":"green"},{"name":"The Victoria Hotel","lat":55.71991,"lon":-2.15892,"postcode":"TD15 2LQ","la":"Northumberland","era":"trad","nn":336,"risk":38,"cat":"amber"},{"name":"The White Swan","lat":55.6509,"lon":-1.9774,"postcode":"TD15 2UD","la":"Northumberland","era":"trad","nn":119,"risk":37,"cat":"amber"},{"name":"1905","lat":55.59945,"lon":-2.4347,"postcode":"TD5 7DP","la":"Scottish Borders","era":"other","nn":133,"risk":26,"cat":"green"},{"name":"Abbotsford Bowling Club","lat":55.60937,"lon":-2.79365,"postcode":"TD1 3DU","la":"Scottish Borders","era":"other","nn":901,"risk":49,"cat":"amber"},{"name":"Angus O'Malleys","lat":55.54725,"lon":-2.84329,"postcode":"TD7 4DQ","la":"Scottish Borders","era":"other","nn":48,"risk":25,"cat":"green"},{"name":"Belhaven Bar","lat":55.60643,"lon":-2.44506,"postcode":"TD5 7SX","la":"Scottish Borders","era":"other","nn":0,"risk":25,"cat":"green"},{"name":"Besom Inn","lat":55.6521,"lon":-2.2509,"postcode":"TD12 4AE","la":"Scottish Borders","era":"trad","nn":51,"risk":25,"cat":"green"},{"name":"Black Bull Inn","lat":55.63793,"lon":-2.67909,"postcode":"TD4 6DE","la":"Scottish Borders","era":"trad","nn":0,"risk":30,"cat":"green"},{"name":"Bridge Inn","lat":55.6192,"lon":-2.81202,"postcode":"TD1 1NU","la":"Scottish Borders","era":"trad","nn":69,"risk":26,"cat":"green"},{"name":"Buccleuch Bowling Club","lat":55.42119,"lon":-2.79408,"postcode":"TD9 0HH","la":"Scottish Borders","era":"other","nn":0,"risk":25,"cat":"green"},{"name":"Chicken Hutch Bar","lat":55.60643,"lon":-2.44506,"postcode":"TD5 7SX","la":"Scottish Borders","era":"other","nn":0,"risk":25,"cat":"green"},{"name":"Chirnside Bowling Club","lat":55.80361,"lon":-2.19763,"postcode":"TD11 3XR","la":"Scottish Borders","era":"other","nn":8621,"risk":83,"cat":"red"},{"name":"Contented Sole","lat":55.87275,"lon":-2.08701,"postcode":"TD14 5HS","la":"Scottish Borders","era":"other","nn":123,"risk":31,"cat":"amber"},{"name":"Cutty Sark Inn","lat":55.87389,"lon":-2.09292,"postcode":"TD14 5ES","la":"Scottish Borders","era":"trad","nn":337,"risk":32,"cat":"amber"},{"name":"Drumlanrig Bar","lat":55.42013,"lon":-2.78975,"postcode":"TD9 0AR","la":"Scottish Borders","era":"other","nn":47,"risk":25,"cat":"green"},{"name":"Duns Volunteer Hall","lat":55.77685,"lon":-2.34787,"postcode":"TD11 3AF","la":"Scottish Borders","era":"other","nn":119,"risk":31,"cat":"amber"},{"name":"Earlston Bowling Club","lat":55.63763,"lon":-2.67673,"postcode":"TD4 6BZ","la":"Scottish Borders","era":"other","nn":151,"risk":31,"cat":"amber"},{"name":"Earlston Rugby Football Club","lat":55.63833,"lon":-2.68064,"postcode":"TD4 6DG","la":"Scottish Borders","era":"other","nn":107,"risk":31,"cat":"amber"},{"name":"Ettrick Forest Bowling Club","lat":55.55168,"lon":-2.83479,"postcode":"TD7 4DR","la":"Scottish Borders","era":"other","nn":0,"risk":25,"cat":"green"},{"name":"Exchange Bar","lat":55.42095,"lon":-2.78861,"postcode":"TD9 0AD","la":"Scottish Borders","era":"other","nn":60,"risk":26,"cat":"green"},{"name":"Eyemouth Bowling Club","lat":55.87006,"lon":-2.09232,"postcode":"TD14 5AN","la":"Scottish Borders","era":"other","nn":324,"risk":32,"cat":"amber"},{"name":"Final Fence Bar Trailer","lat":55.60643,"lon":-2.44506,"postcode":"TD5 7SX","la":"Scottish Borders","era":"mod","nn":0,"risk":25,"cat":"green"},{"name":"Gala Y M Social Club","lat":55.61832,"lon":-2.81353,"postcode":"TD1 1PF","la":"Scottish Borders","era":"mod","nn":136,"risk":26,"cat":"green"},{"name":"Galashiels Bowling Club","lat":55.61291,"lon":-2.80681,"postcode":"TD1 3JS","la":"Scottish Borders","era":"other","nn":225,"risk":27,"cat":"green"},{"name":"Galashiels Cricket Club","lat":55.61836,"lon":-2.82119,"postcode":"TD1 1TG","la":"Scottish Borders","era":"other","nn":473,"risk":28,"cat":"green"},{"name":"Galashiels Golf Club","lat":55.62118,"lon":-2.80952,"postcode":"TD1 2NJ","la":"Scottish Borders","era":"other","nn":187,"risk":26,"cat":"green"},{"name":"Gordon Bowling Club","lat":55.67812,"lon":-2.56062,"postcode":"TD3 6JR","la":"Scottish Borders","era":"other","nn":6745,"risk":83,"cat":"red"},{"name":"Greenlaw Bowling Club","lat":55.70606,"lon":-2.46508,"postcode":"TD10 6XA","la":"Scottish Borders","era":"other","nn":6745,"risk":83,"cat":"red"},{"name":"Hawick And Wilton Cricket Club","lat":55.42119,"lon":-2.79408,"postcode":"TD9 0HW","la":"Scottish Borders","era":"other","nn":0,"risk":25,"cat":"green"},{"name":"Hawick Angling Club","lat":55.42184,"lon":-2.78957,"postcode":"TD9 0HE","la":"Scottish Borders","era":"other","nn":59,"risk":26,"cat":"green"},{"name":"Hawick Bowling Club","lat":55.42119,"lon":-2.79408,"postcode":"TD9 0HH","la":"Scottish Borders","era":"other","nn":0,"risk":25,"cat":"green"},{"name":"Hawick Conservative Club","lat":55.42547,"lon":-2.78487,"postcode":"TD9 9RD","la":"Scottish Borders","era":"other","nn":90,"risk":26,"cat":"green"},{"name":"Hawick Ex-Service Mens Club","lat":55.42437,"lon":-2.78664,"postcode":"TD9 9RE","la":"Scottish Borders","era":"other","nn":17,"risk":25,"cat":"green"},{"name":"Hawick Harlequins Rugby Football Club","lat":55.42416,"lon":-2.78597,"postcode":"TD9 9BW","la":"Scottish Borders","era":"other","nn":31,"risk":25,"cat":"green"},{"name":"Hawick Lodge 111","lat":55.42608,"lon":-2.78774,"postcode":"TD9 7AD","la":"Scottish Borders","era":"other","nn":193,"risk":26,"cat":"green"},{"name":"Hawick Rugby Football Club","lat":55.42894,"lon":-2.78003,"postcode":"TD9 8AW","la":"Scottish Borders","era":"other","nn":78,"risk":26,"cat":"green"},{"name":"Hirsel Golf Club","lat":55.64957,"lon":-2.25985,"postcode":"TD12 4NJ","la":"Scottish Borders","era":"other","nn":293,"risk":27,"cat":"green"},{"name":"Horn Inn","lat":55.77889,"lon":-2.34515,"postcode":"TD11 3DT","la":"Scottish Borders","era":"trad","nn":149,"risk":31,"cat":"amber"},{"name":"JCK Base","lat":55.42429,"lon":-2.7864,"postcode":"TD9 9BW","la":"Scottish Borders","era":"other","nn":17,"risk":25,"cat":"green"},{"name":"Jedburgh Unionist Club","lat":55.47725,"lon":-2.55448,"postcode":"TD8 6BE","la":"Scottish Borders","era":"other","nn":33,"risk":25,"cat":"green"},{"name":"Kelso Bowling Club","lat":55.60265,"lon":-2.43809,"postcode":"TD5 7EH","la":"Scottish Borders","era":"other","nn":134,"risk":26,"cat":"green"},{"name":"Kelso Golf Club","lat":55.60767,"lon":-2.43167,"postcode":"TD5 7SL","la":"Scottish Borders","era":"other","nn":555,"risk":29,"cat":"green"},{"name":"Kelso Rugby Football Club","lat":55.60369,"lon":-2.43702,"postcode":"TD5 7EH","la":"Scottish Borders","era":"other","nn":134,"risk":26,"cat":"green"},{"name":"Ladhope Inn","lat":55.62094,"lon":-2.81247,"postcode":"TD1 2HR","la":"Scottish Borders","era":"trad","nn":187,"risk":26,"cat":"green"},{"name":"Lauder Bowling Club","lat":55.72143,"lon":-2.75399,"postcode":"TD2 6TN","la":"Scottish Borders","era":"other","nn":133,"risk":44,"cat":"amber"},{"name":"Lodge Duns No 23","lat":55.77781,"lon":-2.34702,"postcode":"TD11 3AS","la":"Scottish Borders","era":"other","nn":114,"risk":31,"cat":"amber"},{"name":"Lodge St James","lat":55.42665,"lon":-2.7838,"postcode":"TD9 9LF","la":"Scottish Borders","era":"other","nn":56,"risk":26,"cat":"green"},{"name":"Lodge St John 104","lat":55.4771,"lon":-2.55596,"postcode":"TD8 6AR","la":"Scottish Borders","era":"other","nn":25,"risk":25,"cat":"green"},{"name":"Lodge St John 32","lat":55.54653,"lon":-2.83928,"postcode":"TD7 4LP","la":"Scottish Borders","era":"other","nn":217,"risk":27,"cat":"green"},{"name":"Lodge St Luke","lat":55.72128,"lon":-2.75188,"postcode":"TD2 6TF","la":"Scottish Borders","era":"other","nn":133,"risk":44,"cat":"amber"},{"name":"Mac Arts","lat":55.61889,"lon":-2.81107,"postcode":"TD1 1SP","la":"Scottish Borders","era":"other","nn":69,"risk":26,"cat":"green"},{"name":"Melrose Bowling Club","lat":55.60017,"lon":-2.72557,"postcode":"TD6 9LJ","la":"Scottish Borders","era":"trad","nn":412,"risk":48,"cat":"amber"},{"name":"Melrose Rugby Football Club","lat":55.59784,"lon":-2.72048,"postcode":"TD6 9SA","la":"Scottish Borders","era":"trad","nn":412,"risk":48,"cat":"amber"},{"name":"Newtown St Boswells Bowling Club","lat":55.57873,"lon":-2.67761,"postcode":"TD6 0QX","la":"Scottish Borders","era":"other","nn":2260,"risk":63,"cat":"red"},{"name":"Niki's Bar","lat":55.61422,"lon":-2.81949,"postcode":"TD1 1JJ","la":"Scottish Borders","era":"other","nn":473,"risk":28,"cat":"green"},{"name":"Office Bar","lat":55.42146,"lon":-2.7889,"postcode":"TD9 9DQ","la":"Scottish Borders","era":"other","nn":59,"risk":26,"cat":"green"},{"name":"Queens Head","lat":55.42234,"lon":-2.78663,"postcode":"TD9 9EG","la":"Scottish Borders","era":"trad","nn":174,"risk":26,"cat":"green"},{"name":"Railway Tavern","lat":55.48032,"lon":-2.55249,"postcode":"TD8 6DQ","la":"Scottish Borders","era":"trad","nn":131,"risk":26,"cat":"green"},{"name":"Reivers Sports Bar","lat":55.61773,"lon":-2.81127,"postcode":"TD1 1RZ","la":"Scottish Borders","era":"other","nn":130,"risk":26,"cat":"green"},{"name":"Royal British Legion","lat":55.47916,"lon":-2.55284,"postcode":"TD8 6DQ","la":"Scottish Borders","era":"trad","nn":131,"risk":26,"cat":"green"},{"name":"Royal British Legion","lat":55.59995,"lon":-2.43662,"postcode":"TD5 7DH","la":"Scottish Borders","era":"trad","nn":133,"risk":26,"cat":"green"},{"name":"Selkirk Bowling Club","lat":55.55168,"lon":-2.83479,"postcode":"TD7 4DR","la":"Scottish Borders","era":"other","nn":0,"risk":25,"cat":"green"},{"name":"Selkirk Conservative Club","lat":55.54749,"lon":-2.84233,"postcode":"TD7 4LE","la":"Scottish Borders","era":"other","nn":49,"risk":25,"cat":"green"},{"name":"Selkirk Cricket Club","lat":55.54578,"lon":-2.85817,"postcode":"TD7 5AX","la":"Scottish Borders","era":"other","nn":950,"risk":49,"cat":"amber"},{"name":"Square One","lat":55.42054,"lon":-2.78988,"postcode":"TD9 0AS","la":"Scottish Borders","era":"other","nn":47,"risk":25,"cat":"green"},{"name":"St Boswells Golf Club","lat":55.57343,"lon":-2.64291,"postcode":"TD6 0DE","la":"Scottish Borders","era":"other","nn":2260,"risk":63,"cat":"red"},{"name":"St Johns Masonic Lodge","lat":55.6492,"lon":-2.25523,"postcode":"TD12 4BS","la":"Scottish Borders","era":"trad","nn":293,"risk":27,"cat":"green"},{"name":"Stags Head Bar","lat":55.41987,"lon":-2.79116,"postcode":"TD9 0AS","la":"Scottish Borders","era":"trad","nn":94,"risk":26,"cat":"green"},{"name":"Stow Bowling Club","lat":55.69259,"lon":-2.86343,"postcode":"TD1 2SH","la":"Scottish Borders","era":"other","nn":7569,"risk":83,"cat":"red"},{"name":"The Anchor Inn","lat":55.89066,"lon":-2.16957,"postcode":"TD14 5NS","la":"Scottish Borders","era":"trad","nn":0,"risk":45,"cat":"amber"},{"name":"The Auld Mill Inn","lat":55.61492,"lon":-2.80647,"postcode":"TD1 1EP","la":"Scottish Borders","era":"trad","nn":33,"risk":25,"cat":"green"},{"name":"The Border Club","lat":55.4271,"lon":-2.78418,"postcode":"TD9 9PX","la":"Scottish Borders","era":"other","nn":46,"risk":25,"cat":"green"},{"name":"The Bourtree","lat":55.42522,"lon":-2.78353,"postcode":"TD9 9HL","la":"Scottish Borders","era":"other","nn":90,"risk":26,"cat":"green"},{"name":"The Bridge","lat":55.42725,"lon":-2.78486,"postcode":"TD9 9QT","la":"Scottish Borders","era":"other","nn":0,"risk":25,"cat":"green"},{"name":"The Canon","lat":55.47799,"lon":-2.55615,"postcode":"TD8 6BH","la":"Scottish Borders","era":"other","nn":93,"risk":26,"cat":"green"},{"name":"The Carters Rest","lat":55.47696,"lon":-2.5544,"postcode":"TD8 6BE","la":"Scottish Borders","era":"other","nn":33,"risk":25,"cat":"green"},{"name":"The Clock Tower","lat":55.65222,"lon":-2.25168,"postcode":"TD12 4AD","la":"Scottish Borders","era":"other","nn":0,"risk":25,"cat":"green"},{"name":"The Drift Inn","lat":55.89066,"lon":-2.16957,"postcode":"TD14 5NT","la":"Scottish Borders","era":"trad","nn":0,"risk":45,"cat":"amber"},{"name":"The Eildon","lat":55.65222,"lon":-2.25168,"postcode":"TD12 4AD","la":"Scottish Borders","era":"other","nn":0,"risk":25,"cat":"green"},{"name":"The Fleet","lat":55.87208,"lon":-2.08858,"postcode":"TD14 5HG","la":"Scottish Borders","era":"other","nn":123,"risk":31,"cat":"amber"},{"name":"The Forresters Arms","lat":55.47716,"lon":-2.55634,"postcode":"TD8 6AS","la":"Scottish Borders","era":"trad","nn":25,"risk":25,"cat":"green"},{"name":"The Golden Bannock","lat":55.71975,"lon":-2.74973,"postcode":"TD2 6TE","la":"Scottish Borders","era":"other","nn":217,"risk":44,"cat":"amber"},{"name":"The Indigo Rooms","lat":55.616,"lon":-2.80724,"postcode":"TD1 1DP","la":"Scottish Borders","era":"mod","nn":102,"risk":26,"cat":"green"},{"name":"The Pavilion Bingo Club","lat":55.6163,"lon":-2.80505,"postcode":"TD1 3AF","la":"Scottish Borders","era":"trad","nn":141,"risk":26,"cat":"green"},{"name":"The Plough Inn","lat":55.77755,"lon":-2.34525,"postcode":"TD11 3AP","la":"Scottish Borders","era":"trad","nn":114,"risk":31,"cat":"amber"},{"name":"The Royal British Legion","lat":55.65331,"lon":-2.24845,"postcode":"TD12 4DH","la":"Scottish Borders","era":"trad","nn":205,"risk":27,"cat":"green"},{"name":"The Salmon Inn","lat":55.61512,"lon":-2.80685,"postcode":"TD1 1EP","la":"Scottish Borders","era":"trad","nn":33,"risk":25,"cat":"green"},{"name":"The Station Bar","lat":55.42831,"lon":-2.78539,"postcode":"TD9 8AZ","la":"Scottish Borders","era":"other","nn":122,"risk":26,"cat":"green"},{"name":"The Vibe","lat":55.5979,"lon":-2.43479,"postcode":"TD5 7JU","la":"Scottish Borders","era":"other","nn":172,"risk":29,"cat":"green"},{"name":"Town Arms Inn","lat":55.54708,"lon":-2.84259,"postcode":"TD7 4BT","la":"Scottish Borders","era":"trad","nn":48,"risk":25,"cat":"green"},{"name":"Trinity Bar","lat":55.42856,"lon":-2.779,"postcode":"TD9 9QB","la":"Scottish Borders","era":"other","nn":78,"risk":26,"cat":"green"},{"name":"Venue 34","lat":55.42725,"lon":-2.78486,"postcode":"TD9 9QT","la":"Scottish Borders","era":"other","nn":0,"risk":25,"cat":"green"},{"name":"Waverley Bar","lat":55.42394,"lon":-2.78491,"postcode":"TD9 9HR","la":"Scottish Borders","era":"other","nn":72,"risk":26,"cat":"green"},{"name":"White Swan Hotel","lat":55.63793,"lon":-2.67909,"postcode":"TD4 6DE","la":"Scottish Borders","era":"trad","nn":0,"risk":30,"cat":"green"},{"name":"Wilton Bowling Club","lat":55.43026,"lon":-2.78655,"postcode":"TD9 8BH","la":"Scottish Borders","era":"other","nn":229,"risk":27,"cat":"green"},{"name":"Woodcutter Inn","lat":55.61232,"lon":-2.78028,"postcode":"TD1 2NB","la":"Scottish Borders","era":"trad","nn":901,"risk":51,"cat":"amber"}]