[{"name":"All Bar One","lat":51.38191,"lon":-2.35946,"postcode":"BA1 5AQ","la":"Bath and North East Somerset","era":"mod","nn":61,"risk":24,"cat":"green"},{"name":"Apple Tree Inn","lat":51.30667,"lon":-2.41474,"postcode":"BA2 8LS","la":"Bath and North East Somerset","era":"trad","nn":1344,"risk":55,"cat":"amber"},{"name":"Bath Bowling Club","lat":51.38283,"lon":-2.35184,"postcode":"BA2 4EZ","la":"Bath and North East Somerset","era":"other","nn":185,"risk":25,"cat":"green"},{"name":"Bath Brew House","lat":51.38083,"lon":-2.3649,"postcode":"BA1 2BX","la":"Bath and North East Somerset","era":"other","nn":13,"risk":23,"cat":"green"},{"name":"Bath Cider House","lat":51.38544,"lon":-2.36027,"postcode":"BA1 5LS","la":"Bath and North East Somerset","era":"other","nn":62,"risk":24,"cat":"green"},{"name":"Bath City Football Club","lat":51.37988,"lon":-2.39457,"postcode":"BA2 1DB","la":"Bath and North East Somerset","era":"other","nn":81,"risk":24,"cat":"green"},{"name":"Bathampton Mill","lat":51.39943,"lon":-2.32602,"postcode":"BA2 6TS","la":"Bath and North East Somerset","era":"trad","nn":410,"risk":44,"cat":"amber"},{"name":"Be At One","lat":51.3775,"lon":-2.35818,"postcode":"BA1 1SX","la":"Bath and North East Somerset","era":"other","nn":25,"risk":23,"cat":"green"},{"name":"Bear Inn","lat":51.37407,"lon":-2.36681,"postcode":"BA2 3AQ","la":"Bath and North East Somerset","era":"trad","nn":520,"risk":27,"cat":"green"},{"name":"Belushi's/St Christopher's Inns","lat":51.38346,"lon":-2.36057,"postcode":"BA1 2JY","la":"Bath and North East Somerset","era":"trad","nn":17,"risk":23,"cat":"green"},{"name":"Berdoulat","lat":51.38682,"lon":-2.36564,"postcode":"BA1 2LP","la":"Bath and North East Somerset","era":"other","nn":40,"risk":24,"cat":"green"},{"name":"Boater","lat":51.38321,"lon":-2.35706,"postcode":"BA2 4BQ","la":"Bath and North East Somerset","era":"other","nn":35,"risk":23,"cat":"green"},{"name":"Boathouse","lat":51.39104,"lon":-2.40805,"postcode":"BA1 3NB","la":"Bath and North East Somerset","era":"other","nn":1204,"risk":54,"cat":"amber"},{"name":"Butcher's Arms","lat":51.34315,"lon":-2.48256,"postcode":"BA2 0AE","la":"Bath and North East Somerset","era":"trad","nn":741,"risk":48,"cat":"amber"},{"name":"Centurion Inn","lat":51.37877,"lon":-2.40283,"postcode":"BA2 1QR","la":"Bath and North East Somerset","era":"trad","nn":586,"risk":30,"cat":"green"},{"name":"Coeur De Lion Public House","lat":51.3824,"lon":-2.35985,"postcode":"BA1 5AR","la":"Bath and North East Somerset","era":"trad","nn":61,"risk":24,"cat":"green"},{"name":"Combe Down Rugby Football Club","lat":51.36075,"lon":-2.35075,"postcode":"BA2 5DE","la":"Bath and North East Somerset","era":"other","nn":290,"risk":43,"cat":"amber"},{"name":"Cross Keys Inn Public House","lat":51.35584,"lon":-2.36467,"postcode":"BA2 5RZ","la":"Bath and North East Somerset","era":"trad","nn":692,"risk":33,"cat":"amber"},{"name":"Crossways Tavern","lat":51.28338,"lon":-2.49019,"postcode":"BA3 2JH","la":"Bath and North East Somerset","era":"trad","nn":490,"risk":29,"cat":"green"},{"name":"Crystal Palace","lat":51.38033,"lon":-2.35873,"postcode":"BA1 1NW","la":"Bath and North East Somerset","era":"other","nn":38,"risk":24,"cat":"green"},{"name":"Dolphin Inn","lat":51.29315,"lon":-2.47905,"postcode":"BA3 2TL","la":"Bath and North East Somerset","era":"trad","nn":694,"risk":33,"cat":"amber"},{"name":"Fat Sams","lat":51.286,"lon":-2.48123,"postcode":"BA3 2DA","la":"Bath and North East Somerset","era":"other","nn":117,"risk":24,"cat":"green"},{"name":"Fidel Rum Bar","lat":51.38253,"lon":-2.36175,"postcode":"BA1 1HD","la":"Bath and North East Somerset","era":"other","nn":23,"risk":23,"cat":"green"},{"name":"Flan O'Briens","lat":51.38149,"lon":-2.36193,"postcode":"BA1 1EP","la":"Bath and North East Somerset","era":"other","nn":32,"risk":23,"cat":"green"},{"name":"Forester And Flower","lat":51.35961,"lon":-2.35451,"postcode":"BA2 5BZ","la":"Bath and North East Somerset","era":"other","nn":290,"risk":30,"cat":"green"},{"name":"Fosters Rooms Limited","lat":51.38413,"lon":-2.35352,"postcode":"BA2 4DS","la":"Bath and North East Somerset","era":"mod","nn":185,"risk":25,"cat":"green"},{"name":"Garricks Head Public House","lat":51.38206,"lon":-2.36277,"postcode":"BA1 1ET","la":"Bath and North East Somerset","era":"trad","nn":17,"risk":23,"cat":"green"},{"name":"Globe Inn","lat":51.38583,"lon":-2.43073,"postcode":"BA2 9BB","la":"Bath and North East Somerset","era":"trad","nn":1677,"risk":57,"cat":"amber"},{"name":"GROG.","lat":51.38656,"lon":-2.36602,"postcode":"BA1 2LP","la":"Bath and North East Somerset","era":"other","nn":40,"risk":24,"cat":"green"},{"name":"Hare And Hounds Public House","lat":51.40339,"lon":-2.37208,"postcode":"BA1 5TJ","la":"Bath and North East Somerset","era":"trad","nn":1378,"risk":55,"cat":"amber"},{"name":"Harrison Cocktail Bar","lat":51.38445,"lon":-2.3615,"postcode":"BA1 1DG","la":"Bath and North East Somerset","era":"other","nn":49,"risk":24,"cat":"green"},{"name":"Haydon Que And Social Club","lat":51.28144,"lon":-2.45381,"postcode":"BA3 3QR","la":"Bath and North East Somerset","era":"mod","nn":1081,"risk":53,"cat":"amber"},{"name":"Juno Bath Limited","lat":51.37888,"lon":-2.35789,"postcode":"BA1 1AU","la":"Bath and North East Somerset","era":"other","nn":46,"risk":24,"cat":"green"},{"name":"Kettlesmith's Walcot","lat":51.38912,"lon":-2.35873,"postcode":"BA1 5BU","la":"Bath and North East Somerset","era":"other","nn":142,"risk":24,"cat":"green"},{"name":"King Of Wessex","lat":51.38074,"lon":-2.36478,"postcode":"BA1 2BX","la":"Bath and North East Somerset","era":"trad","nn":13,"risk":23,"cat":"green"},{"name":"King William","lat":51.33404,"lon":-2.43925,"postcode":"BA2 0EB","la":"Bath and North East Somerset","era":"trad","nn":1003,"risk":53,"cat":"amber"},{"name":"Labyrinth Nightclub","lat":51.38068,"lon":-2.35658,"postcode":"BA2 4AL","la":"Bath and North East Somerset","era":"other","nn":1,"risk":23,"cat":"green"},{"name":"Lamb And Lion","lat":51.37985,"lon":-2.35995,"postcode":"BA1 1QU","la":"Bath and North East Somerset","era":"trad","nn":85,"risk":24,"cat":"green"},{"name":"Lane 7","lat":51.38177,"lon":-2.36212,"postcode":"BA1 1EY","la":"Bath and North East Somerset","era":"other","nn":34,"risk":23,"cat":"green"},{"name":"Lansdown Golf Club","lat":51.41623,"lon":-2.39588,"postcode":"BA1 9BT","la":"Bath and North East Somerset","era":"other","nn":74,"risk":44,"cat":"amber"},{"name":"Larkhall Inn","lat":51.39745,"lon":-2.34498,"postcode":"BA1 6SD","la":"Bath and North East Somerset","era":"trad","nn":68,"risk":24,"cat":"green"},{"name":"Larkhall Liberal Club","lat":51.39685,"lon":-2.34431,"postcode":"BA1 6RU","la":"Bath and North East Somerset","era":"other","nn":57,"risk":24,"cat":"green"},{"name":"Livingstone Public House","lat":51.37771,"lon":-2.37914,"postcode":"BA2 3PW","la":"Bath and North East Somerset","era":"other","nn":337,"risk":26,"cat":"green"},{"name":"Ludo Sports Bar And Kitchen","lat":51.37751,"lon":-2.35781,"postcode":"BA1 1SX","la":"Bath and North East Somerset","era":"mod","nn":25,"risk":23,"cat":"green"},{"name":"Mallards","lat":51.28699,"lon":-2.48065,"postcode":"BA3 2DR","la":"Bath and North East Somerset","era":"other","nn":117,"risk":24,"cat":"green"},{"name":"Mandalyn's","lat":51.38558,"lon":-2.36113,"postcode":"BA1 5DX","la":"Bath and North East Somerset","era":"other","nn":53,"risk":24,"cat":"green"},{"name":"Mardon Sports And Social Club","lat":51.2826,"lon":-2.47931,"postcode":"BA3 4NL","la":"Bath and North East Somerset","era":"mod","nn":401,"risk":29,"cat":"green"},{"name":"Meatbusters Burger Bar","lat":51.38162,"lon":-2.37537,"postcode":"BA2 3EH","la":"Bath and North East Somerset","era":"other","nn":384,"risk":26,"cat":"green"},{"name":"Moles Club And Kitchen","lat":51.38486,"lon":-2.36276,"postcode":"BA1 2EN","la":"Bath and North East Somerset","era":"mod","nn":67,"risk":24,"cat":"green"},{"name":"New Crown Inn","lat":51.3852,"lon":-2.3882,"postcode":"BA1 3PW","la":"Bath and North East Somerset","era":"trad","nn":395,"risk":26,"cat":"green"},{"name":"New Inn","lat":51.34977,"lon":-2.48373,"postcode":"BA2 0EG","la":"Bath and North East Somerset","era":"trad","nn":741,"risk":48,"cat":"amber"},{"name":"Old Green Tree Public House","lat":51.38333,"lon":-2.36045,"postcode":"BA1 2JZ","la":"Bath and North East Somerset","era":"other","nn":17,"risk":23,"cat":"green"},{"name":"Oldfield Old Boys RFC","lat":51.35884,"lon":-2.33342,"postcode":"BA2 7HP","la":"Bath and North East Somerset","era":"other","nn":464,"risk":44,"cat":"amber"},{"name":"Opium Bar","lat":51.38437,"lon":-2.3576,"postcode":"BA2 6PJ","la":"Bath and North East Somerset","era":"other","nn":112,"risk":24,"cat":"green"},{"name":"Packhorse","lat":51.34962,"lon":-2.36461,"postcode":"BA2 7DU","la":"Bath and North East Somerset","era":"trad","nn":692,"risk":48,"cat":"amber"},{"name":"Parade Park And Lambrettas Bar","lat":51.38069,"lon":-2.35659,"postcode":"BA2 4AL","la":"Bath and North East Somerset","era":"other","nn":1,"risk":23,"cat":"green"},{"name":"Pulteney Arms","lat":51.38636,"lon":-2.3526,"postcode":"BA2 6ND","la":"Bath and North East Somerset","era":"trad","nn":55,"risk":24,"cat":"green"},{"name":"Railway Hotel","lat":51.29116,"lon":-2.45445,"postcode":"BA3 3RR","la":"Bath and North East Somerset","era":"trad","nn":1081,"risk":53,"cat":"amber"},{"name":"Raincheck","lat":51.38517,"lon":-2.36193,"postcode":"BA1 2EE","la":"Bath and North East Somerset","era":"other","nn":2,"risk":23,"cat":"green"},{"name":"Red Post Inn","lat":51.3127,"lon":-2.43346,"postcode":"BA2 8JH","la":"Bath and North East Somerset","era":"trad","nn":493,"risk":47,"cat":"amber"},{"name":"Rengen House","lat":51.38336,"lon":-2.35751,"postcode":"BA2 4BA","la":"Bath and North East Somerset","era":"other","nn":35,"risk":23,"cat":"green"},{"name":"Revolution Bath","lat":51.38487,"lon":-2.36132,"postcode":"BA1 2EB","la":"Bath and North East Somerset","era":"other","nn":0,"risk":23,"cat":"green"},{"name":"Ring O Bells","lat":51.37639,"lon":-2.35407,"postcode":"BA2 4JT","la":"Bath and North East Somerset","era":"other","nn":59,"risk":24,"cat":"green"},{"name":"Ring O' Bells","lat":51.34304,"lon":-2.44,"postcode":"BA2 9EE","la":"Bath and North East Somerset","era":"other","nn":1003,"risk":53,"cat":"amber"},{"name":"Rose And Crown","lat":51.32227,"lon":-2.32859,"postcode":"BA2 7SN","la":"Bath and North East Somerset","era":"trad","nn":50,"risk":44,"cat":"amber"},{"name":"Saracens Head","lat":51.38414,"lon":-2.3599,"postcode":"BA1 5LP","la":"Bath and North East Somerset","era":"trad","nn":56,"risk":24,"cat":"green"},{"name":"Slug And Lettuce","lat":51.3852,"lon":-2.36193,"postcode":"BA1 2EE","la":"Bath and North East Somerset","era":"other","nn":0,"risk":23,"cat":"green"},{"name":"St James Wine Vaults","lat":51.38823,"lon":-2.36783,"postcode":"BA1 2TW","la":"Bath and North East Somerset","era":"other","nn":133,"risk":24,"cat":"green"},{"name":"Stag Inn","lat":51.32186,"lon":-2.3283,"postcode":"BA2 7SW","la":"Bath and North East Somerset","era":"trad","nn":50,"risk":44,"cat":"amber"},{"name":"Star Inn","lat":51.38699,"lon":-2.36021,"postcode":"BA1 5NA","la":"Bath and North East Somerset","era":"trad","nn":82,"risk":24,"cat":"green"},{"name":"Sub 13","lat":51.3852,"lon":-2.36193,"postcode":"BA1 2EE","la":"Bath and North East Somerset","era":"other","nn":0,"risk":23,"cat":"green"},{"name":"The Ale House","lat":51.3811,"lon":-2.35836,"postcode":"BA1 1NG","la":"Bath and North East Somerset","era":"other","nn":40,"risk":24,"cat":"green"},{"name":"The Architect","lat":51.38141,"lon":-2.35785,"postcode":"BA1 1LP","la":"Bath and North East Somerset","era":"other","nn":49,"risk":24,"cat":"green"},{"name":"The Assembly Inn","lat":51.3859,"lon":-2.36171,"postcode":"BA1 2QU","la":"Bath and North East Somerset","era":"other","nn":53,"risk":24,"cat":"green"},{"name":"The Barley Mow","lat":51.38674,"lon":-2.35211,"postcode":"BA2 6NZ","la":"Bath and North East Somerset","era":"other","nn":55,"risk":24,"cat":"green"},{"name":"The Bell Inn (Bath) Ltd","lat":51.38754,"lon":-2.35942,"postcode":"BA1 5BW","la":"Bath and North East Somerset","era":"trad","nn":82,"risk":24,"cat":"green"},{"name":"The Black Fox","lat":51.37971,"lon":-2.36116,"postcode":"BA1 1UQ","la":"Bath and North East Somerset","era":"trad","nn":85,"risk":24,"cat":"green"},{"name":"The Bladud's Head","lat":51.40163,"lon":-2.34408,"postcode":"BA1 6TA","la":"Bath and North East Somerset","era":"trad","nn":304,"risk":25,"cat":"green"},{"name":"The Canary Gin Bar","lat":51.38273,"lon":-2.36184,"postcode":"BA1 1HE","la":"Bath and North East Somerset","era":"other","nn":23,"risk":23,"cat":"green"},{"name":"The Canon","lat":51.3824,"lon":-2.36237,"postcode":"BA1 1HQ","la":"Bath and North East Somerset","era":"other","nn":45,"risk":24,"cat":"green"},{"name":"The Charlcombe Inn","lat":51.41563,"lon":-2.39543,"postcode":"BA1 9BT","la":"Bath and North East Somerset","era":"trad","nn":74,"risk":44,"cat":"amber"},{"name":"The Charmbury Arms","lat":51.38072,"lon":-2.38162,"postcode":"BA2 3RR","la":"Bath and North East Somerset","era":"trad","nn":134,"risk":24,"cat":"green"},{"name":"The Chequers","lat":51.38746,"lon":-2.36497,"postcode":"BA1 2QA","la":"Bath and North East Somerset","era":"other","nn":85,"risk":24,"cat":"green"},{"name":"The Claremont","lat":51.39505,"lon":-2.35282,"postcode":"BA1 6EH","la":"Bath and North East Somerset","era":"other","nn":281,"risk":25,"cat":"green"},{"name":"The Common Room","lat":51.38634,"lon":-2.36204,"postcode":"BA1 2QP","la":"Bath and North East Somerset","era":"other","nn":54,"risk":24,"cat":"green"},{"name":"The Cork","lat":51.38055,"lon":-2.36244,"postcode":"BA1 1EB","la":"Bath and North East Somerset","era":"other","nn":93,"risk":24,"cat":"green"},{"name":"The Crown At Bathford","lat":51.40082,"lon":-2.30476,"postcode":"BA1 7SL","la":"Bath and North East Somerset","era":"trad","nn":1049,"risk":53,"cat":"amber"},{"name":"The Curfew","lat":51.38985,"lon":-2.35705,"postcode":"BA1 5DG","la":"Bath and North East Somerset","era":"other","nn":142,"risk":24,"cat":"green"},{"name":"The Devonshire Arms","lat":51.36945,"lon":-2.36566,"postcode":"BA2 4RY","la":"Bath and North East Somerset","era":"trad","nn":520,"risk":47,"cat":"amber"},{"name":"The Earl Of Manvers","lat":51.37912,"lon":-2.35727,"postcode":"BA1 1JQ","la":"Bath and North East Somerset","era":"other","nn":25,"risk":23,"cat":"green"},{"name":"The Fairfield Arms","lat":51.39724,"lon":-2.35484,"postcode":"BA1 6JN","la":"Bath and North East Somerset","era":"trad","nn":281,"risk":25,"cat":"green"},{"name":"The Fox & Badger","lat":51.32245,"lon":-2.37417,"postcode":"BA2 8QG","la":"Bath and North East Somerset","era":"trad","nn":1836,"risk":59,"cat":"amber"},{"name":"The Fromeway","lat":51.29037,"lon":-2.43759,"postcode":"BA3 3LG","la":"Bath and North East Somerset","era":"other","nn":1176,"risk":54,"cat":"amber"},{"name":"The George And Dragon","lat":51.40563,"lon":-2.31777,"postcode":"BA1 7NB","la":"Bath and North East Somerset","era":"trad","nn":895,"risk":50,"cat":"amber"},{"name":"The George Inn","lat":51.3967,"lon":-2.32205,"postcode":"BA2 6TR","la":"Bath and North East Somerset","era":"trad","nn":410,"risk":46,"cat":"amber"},{"name":"The Golden Fleece","lat":51.38073,"lon":-2.38821,"postcode":"BA2 1ES","la":"Bath and North East Somerset","era":"trad","nn":371,"risk":26,"cat":"green"},{"name":"The Grapes","lat":51.38125,"lon":-2.36169,"postcode":"BA1 1EQ","la":"Bath and North East Somerset","era":"other","nn":32,"risk":23,"cat":"green"},{"name":"The Griffin","lat":51.38248,"lon":-2.36448,"postcode":"BA1 2AP","la":"Bath and North East Somerset","era":"trad","nn":103,"risk":24,"cat":"green"},{"name":"The Hadley Arms Public House","lat":51.36218,"lon":-2.34571,"postcode":"BA2 5DH","la":"Bath and North East Somerset","era":"trad","nn":385,"risk":31,"cat":"amber"},{"name":"The Hideout","lat":51.38061,"lon":-2.35842,"postcode":"BA1 1ND","la":"Bath and North East Somerset","era":"other","nn":33,"risk":23,"cat":"green"},{"name":"The Hop Pole","lat":51.38507,"lon":-2.3756,"postcode":"BA1 3AR","la":"Bath and North East Somerset","era":"other","nn":67,"risk":24,"cat":"green"},{"name":"The House Of St John's","lat":51.38369,"lon":-2.36295,"postcode":"BA1 2HA","la":"Bath and North East Somerset","era":"mod","nn":67,"risk":24,"cat":"green"},{"name":"The Huntsman","lat":51.3808,"lon":-2.35805,"postcode":"BA1 1LJ","la":"Bath and North East Somerset","era":"other","nn":33,"risk":23,"cat":"green"},{"name":"The Inn At Freshford","lat":51.33934,"lon":-2.30185,"postcode":"BA2 7WG","la":"Bath and North East Somerset","era":"trad","nn":1206,"risk":54,"cat":"amber"},{"name":"The Locksbrook Inn","lat":51.38295,"lon":-2.39259,"postcode":"BA1 3EN","la":"Bath and North East Somerset","era":"trad","nn":328,"risk":26,"cat":"green"},{"name":"The Marlborough Tavern","lat":51.38828,"lon":-2.36975,"postcode":"BA1 2LY","la":"Bath and North East Somerset","era":"other","nn":133,"risk":24,"cat":"green"},{"name":"The Moorfields","lat":51.37493,"lon":-2.37722,"postcode":"BA2 3NZ","la":"Bath and North East Somerset","era":"other","nn":337,"risk":26,"cat":"green"},{"name":"The New Inn","lat":51.3829,"lon":-2.36581,"postcode":"BA1 2AY","la":"Bath and North East Somerset","era":"trad","nn":103,"risk":24,"cat":"green"},{"name":"The Old Crown","lat":51.39488,"lon":-2.38897,"postcode":"BA1 4BP","la":"Bath and North East Somerset","era":"trad","nn":592,"risk":47,"cat":"amber"},{"name":"The Old Crown","lat":51.38004,"lon":-2.39343,"postcode":"BA2 1DA","la":"Bath and North East Somerset","era":"trad","nn":81,"risk":24,"cat":"green"},{"name":"The Old Crown Inn","lat":51.4038,"lon":-2.43229,"postcode":"BA1 9AQ","la":"Bath and North East Somerset","era":"trad","nn":1131,"risk":54,"cat":"amber"},{"name":"The Other Room","lat":51.38182,"lon":-2.36297,"postcode":"BA1 1EN","la":"Bath and North East Somerset","era":"other","nn":30,"risk":23,"cat":"green"},{"name":"The Pig And Fiddle","lat":51.38464,"lon":-2.36,"postcode":"BA1 5BR","la":"Bath and North East Somerset","era":"other","nn":56,"risk":24,"cat":"green"},{"name":"The Ram","lat":51.37668,"lon":-2.35478,"postcode":"BA2 4LD","la":"Bath and North East Somerset","era":"trad","nn":59,"risk":24,"cat":"green"},{"name":"The Raven","lat":51.38314,"lon":-2.36202,"postcode":"BA1 1HE","la":"Bath and North East Somerset","era":"other","nn":33,"risk":23,"cat":"green"},{"name":"The Red Lion Sizzling Pub","lat":51.35869,"lon":-2.37634,"postcode":"BA2 2UA","la":"Bath and North East Somerset","era":"trad","nn":870,"risk":49,"cat":"amber"},{"name":"The Rondo Trust For The Performing Arts","lat":51.39684,"lon":-2.34513,"postcode":"BA1 6RT","la":"Bath and North East Somerset","era":"other","nn":57,"risk":24,"cat":"green"},{"name":"The Rose And Crown","lat":51.39892,"lon":-2.34457,"postcode":"BA1 6SJ","la":"Bath and North East Somerset","era":"trad","nn":166,"risk":24,"cat":"green"},{"name":"The Royal Oak","lat":51.38192,"lon":-2.38168,"postcode":"BA2 3BW","la":"Bath and North East Somerset","era":"trad","nn":134,"risk":24,"cat":"green"},{"name":"The Salamander","lat":51.38344,"lon":-2.36207,"postcode":"BA1 2JL","la":"Bath and North East Somerset","era":"other","nn":33,"risk":23,"cat":"green"},{"name":"The Sam Weller's","lat":51.38275,"lon":-2.36055,"postcode":"BA1 1RH","la":"Bath and North East Somerset","era":"other","nn":11,"risk":23,"cat":"green"},{"name":"The Second Bridge Nightclub","lat":51.37889,"lon":-2.35723,"postcode":"BA1 1JQ","la":"Bath and North East Somerset","era":"other","nn":25,"risk":23,"cat":"green"},{"name":"The Seven Stars Inn","lat":51.32782,"lon":-2.47371,"postcode":"BA2 0JJ","la":"Bath and North East Somerset","era":"trad","nn":1811,"risk":58,"cat":"amber"},{"name":"The Trinity Pub","lat":51.38087,"lon":-2.36368,"postcode":"BA1 2DA","la":"Bath and North East Somerset","era":"other","nn":78,"risk":24,"cat":"green"},{"name":"The Westgate","lat":51.38159,"lon":-2.36105,"postcode":"BA1 1EL","la":"Bath and North East Somerset","era":"other","nn":58,"risk":24,"cat":"green"},{"name":"Theatre Royal Bath (Trading) Ltd","lat":51.38214,"lon":-2.36297,"postcode":"BA1 1ET","la":"Bath and North East Somerset","era":"trad","nn":17,"risk":23,"cat":"green"},{"name":"Trowbridge House Public House","lat":51.37134,"lon":-2.38573,"postcode":"BA2 2JP","la":"Bath and North East Somerset","era":"mod","nn":711,"risk":33,"cat":"amber"},{"name":"Victoria Pub & Kitchen","lat":51.38505,"lon":-2.37656,"postcode":"BA1 3AT","la":"Bath and North East Somerset","era":"other","nn":67,"risk":24,"cat":"green"},{"name":"Volunteer Riflemans Arms Public House","lat":51.38284,"lon":-2.36052,"postcode":"BA1 1BH","la":"Bath and North East Somerset","era":"trad","nn":11,"risk":23,"cat":"green"},{"name":"Waggon And Horses","lat":51.3155,"lon":-2.42795,"postcode":"BA2 8DL","la":"Bath and North East Somerset","era":"trad","nn":493,"risk":47,"cat":"amber"},{"name":"Weston Ex Servicemans Club","lat":51.39842,"lon":-2.39535,"postcode":"BA1 4DH","la":"Bath and North East Somerset","era":"other","nn":592,"risk":47,"cat":"amber"},{"name":"Wheatsheaf Inn","lat":51.33792,"lon":-2.38339,"postcode":"BA2 7EG","la":"Bath and North East Somerset","era":"trad","nn":1836,"risk":59,"cat":"amber"},{"name":"Wheelwrights Arms","lat":51.35646,"lon":-2.32793,"postcode":"BA2 7HB","la":"Bath and North East Somerset","era":"trad","nn":464,"risk":47,"cat":"amber"},{"name":"White Hart","lat":51.28519,"lon":-2.48377,"postcode":"BA3 2HQ","la":"Bath and North East Somerset","era":"trad","nn":199,"risk":25,"cat":"green"},{"name":"White Horse","lat":51.37737,"lon":-2.38914,"postcode":"BA2 1EF","la":"Bath and North East Somerset","era":"trad","nn":379,"risk":26,"cat":"green"},{"name":"Widcombe Social Club","lat":51.37615,"lon":-2.35243,"postcode":"BA2 6AA","la":"Bath and North East Somerset","era":"mod","nn":117,"risk":24,"cat":"green"},{"name":"Zero Zero","lat":51.38487,"lon":-2.36132,"postcode":"BA1 2EB","la":"Bath and North East Somerset","era":"other","nn":0,"risk":23,"cat":"green"},{"name":"Yeovil Golf Club Ltd","lat":50.93949,"lon":-2.60979,"postcode":"BA21 5BW","la":"Dorset","era":"other","nn":625,"risk":27,"cat":"green"},{"name":"A K Miles t/a Jolliffe Arms Ltd","lat":51.26956,"lon":-2.43751,"postcode":"BA3 5TD","la":"Somerset","era":"trad","nn":1741,"risk":50,"cat":"amber"},{"name":"Airfield Tavern","lat":50.94175,"lon":-2.67153,"postcode":"BA22 8UX","la":"Somerset","era":"other","nn":764,"risk":41,"cat":"amber"},{"name":"Archangel","lat":51.23082,"lon":-2.32066,"postcode":"BA11 1BH","la":"Somerset","era":"trad","nn":0,"risk":15,"cat":"green"},{"name":"Avalon Constitutional Club","lat":51.14767,"lon":-2.7148,"postcode":"BA6 9DX","la":"Somerset","era":"other","nn":54,"risk":16,"cat":"green"},{"name":"Bar Lotte","lat":51.23077,"lon":-2.32725,"postcode":"BA11 3BQ","la":"Somerset","era":"mod","nn":28,"risk":16,"cat":"green"},{"name":"Bear Inn Street","lat":51.12904,"lon":-2.73654,"postcode":"BA16 0EF","la":"Somerset","era":"trad","nn":138,"risk":16,"cat":"green"},{"name":"Beckets Inn","lat":51.14806,"lon":-2.71433,"postcode":"BA6 9DS","la":"Somerset","era":"trad","nn":54,"risk":16,"cat":"green"},{"name":"Beehive Inn","lat":50.94182,"lon":-2.64056,"postcode":"BA20 1BD","la":"Somerset","era":"trad","nn":373,"risk":18,"cat":"green"},{"name":"Bell Inn","lat":51.14663,"lon":-2.50176,"postcode":"BA4 6HY","la":"Somerset","era":"trad","nn":1338,"risk":47,"cat":"amber"},{"name":"Bird In Hand Inn","lat":50.9784,"lon":-2.39598,"postcode":"BA8 0QD","la":"Somerset","era":"trad","nn":714,"risk":40,"cat":"amber"},{"name":"Bishops Eye","lat":51.20944,"lon":-2.64465,"postcode":"BA5 2RB","la":"Somerset","era":"trad","nn":60,"risk":16,"cat":"green"},{"name":"Black Horse","lat":50.94464,"lon":-2.63106,"postcode":"BA21 4BJ","la":"Somerset","era":"trad","nn":254,"risk":17,"cat":"green"},{"name":"British Legion Club","lat":51.2436,"lon":-2.45157,"postcode":"BA3 5PB","la":"Somerset","era":"other","nn":781,"risk":41,"cat":"amber"},{"name":"Bruton Unionist Club","lat":51.11361,"lon":-2.45079,"postcode":"BA10 0HQ","la":"Somerset","era":"other","nn":344,"risk":38,"cat":"amber"},{"name":"Bull & Bar","lat":51.12719,"lon":-2.73953,"postcode":"BA16 0EQ","la":"Somerset","era":"trad","nn":54,"risk":16,"cat":"green"},{"name":"Burcott Inn","lat":51.20765,"lon":-2.68697,"postcode":"BA5 1NJ","la":"Somerset","era":"trad","nn":420,"risk":38,"cat":"amber"},{"name":"Caroline Bowen T/A The Catash Inn","lat":51.04455,"lon":-2.52243,"postcode":"BA22 7DH","la":"Somerset","era":"trad","nn":2495,"risk":55,"cat":"amber"},{"name":"Cheddar Valley Inn","lat":51.20757,"lon":-2.65323,"postcode":"BA5 2DZ","la":"Somerset","era":"trad","nn":101,"risk":16,"cat":"green"},{"name":"Chester House","lat":51.2304,"lon":-2.32561,"postcode":"BA11 1EQ","la":"Somerset","era":"other","nn":78,"risk":16,"cat":"green"},{"name":"Chicago Rock Cafe","lat":50.94067,"lon":-2.62806,"postcode":"BA20 1NR","la":"Somerset","era":"other","nn":0,"risk":15,"cat":"green"},{"name":"Chilthorne Domer Recreation Trust Pavilion","lat":50.96885,"lon":-2.67869,"postcode":"BA22 8RD","la":"Somerset","era":"trad","nn":740,"risk":41,"cat":"amber"},{"name":"City Arms","lat":51.208,"lon":-2.64866,"postcode":"BA5 2AG","la":"Somerset","era":"trad","nn":109,"risk":16,"cat":"green"},{"name":"Club Neo","lat":50.94067,"lon":-2.62806,"postcode":"BA20 1NR","la":"Somerset","era":"other","nn":0,"risk":15,"cat":"green"},{"name":"Conservative Club","lat":51.20964,"lon":-2.64545,"postcode":"BA5 2RF","la":"Somerset","era":"other","nn":60,"risk":16,"cat":"green"},{"name":"COOP Kitchen","lat":51.23058,"lon":-2.32697,"postcode":"BA11 1EQ","la":"Somerset","era":"mod","nn":28,"risk":16,"cat":"green"},{"name":"Coopers Mill","lat":50.93711,"lon":-2.6354,"postcode":"BA20 1QZ","la":"Somerset","era":"trad","nn":169,"risk":17,"cat":"green"},{"name":"Cross Keys Inn","lat":51.21047,"lon":-2.31764,"postcode":"BA11 5EJ","la":"Somerset","era":"trad","nn":1068,"risk":45,"cat":"amber"},{"name":"Crown Hotel","lat":51.14752,"lon":-2.71815,"postcode":"BA6 9HD","la":"Somerset","era":"trad","nn":28,"risk":16,"cat":"green"},{"name":"Crown Inn Leisure Ltd","lat":51.27903,"lon":-2.514,"postcode":"BA3 4EB","la":"Somerset","era":"trad","nn":1725,"risk":50,"cat":"amber"},{"name":"Duke of Cumberland Inn","lat":51.23719,"lon":-2.47456,"postcode":"BA3 5HQ","la":"Somerset","era":"trad","nn":1097,"risk":46,"cat":"amber"},{"name":"Faulkland Inn","lat":51.28867,"lon":-2.37778,"postcode":"BA3 5UH","la":"Somerset","era":"trad","nn":1532,"risk":49,"cat":"amber"},{"name":"Fleur De Lys","lat":51.30126,"lon":-2.32468,"postcode":"BA2 7LG","la":"Somerset","era":"other","nn":37,"risk":36,"cat":"amber"},{"name":"Flow","lat":51.23208,"lon":-2.32021,"postcode":"BA11 1AR","la":"Somerset","era":"other","nn":86,"risk":16,"cat":"green"},{"name":"Foresters","lat":51.26694,"lon":-2.28482,"postcode":"BA11 6SS","la":"Somerset","era":"other","nn":250,"risk":37,"cat":"amber"},{"name":"Fosso Lounge","lat":51.20829,"lon":-2.64716,"postcode":"BA5 2AE","la":"Somerset","era":"mod","nn":33,"risk":16,"cat":"green"},{"name":"Fountain Inn","lat":51.21154,"lon":-2.64164,"postcode":"BA5 2UU","la":"Somerset","era":"trad","nn":313,"risk":18,"cat":"green"},{"name":"Fox and Hounds Inn","lat":51.20556,"lon":-2.33082,"postcode":"BA11 5BN","la":"Somerset","era":"trad","nn":1068,"risk":45,"cat":"amber"},{"name":"Frome and District Club & Institute","lat":51.23009,"lon":-2.3239,"postcode":"BA11 1EJ","la":"Somerset","era":"other","nn":122,"risk":16,"cat":"green"},{"name":"Frome Cricket Club","lat":51.23611,"lon":-2.31396,"postcode":"BA11 2AH","la":"Somerset","era":"other","nn":625,"risk":20,"cat":"green"},{"name":"Frome Rugby Club","lat":51.24373,"lon":-2.30482,"postcode":"BA11 2NA","la":"Somerset","era":"other","nn":1059,"risk":45,"cat":"amber"},{"name":"Full Moon","lat":51.2051,"lon":-2.64956,"postcode":"BA5 1UH","la":"Somerset","era":"other","nn":132,"risk":16,"cat":"green"},{"name":"Full Moon Inn","lat":51.26508,"lon":-2.24668,"postcode":"BA11 2QF","la":"Somerset","era":"trad","nn":1566,"risk":49,"cat":"amber"},{"name":"George & Pilgrims","lat":51.14786,"lon":-2.71694,"postcode":"BA6 9DP","la":"Somerset","era":"trad","nn":92,"risk":16,"cat":"green"},{"name":"George Inn","lat":51.19689,"lon":-2.58998,"postcode":"BA5 3QH","la":"Somerset","era":"trad","nn":2396,"risk":55,"cat":"amber"},{"name":"George Inn","lat":51.24092,"lon":-2.54175,"postcode":"BA3 4TQ","la":"Somerset","era":"trad","nn":490,"risk":39,"cat":"amber"},{"name":"Glastonbury Football Club","lat":51.15548,"lon":-2.72462,"postcode":"BA6 9AF","la":"Somerset","era":"other","nn":643,"risk":25,"cat":"green"},{"name":"Great Western Railway Staff Association","lat":50.94466,"lon":-2.6133,"postcode":"BA21 5DD","la":"Somerset","era":"trad","nn":174,"risk":22,"cat":"green"},{"name":"Greyhound Inn","lat":51.11195,"lon":-2.65508,"postcode":"BA6 8QN","la":"Somerset","era":"trad","nn":2830,"risk":58,"cat":"amber"},{"name":"Half Moon Inn","lat":51.01293,"lon":-2.4268,"postcode":"BA8 0EF","la":"Somerset","era":"trad","nn":1235,"risk":47,"cat":"amber"},{"name":"Halfway House Inn Country Lodge","lat":50.97317,"lon":-2.67064,"postcode":"BA22 8RE","la":"Somerset","era":"other","nn":740,"risk":41,"cat":"amber"},{"name":"Horse and Jockey","lat":51.24078,"lon":-2.54878,"postcode":"BA3 4UH","la":"Somerset","era":"trad","nn":490,"risk":39,"cat":"amber"},{"name":"Hunters Lodge Inn","lat":51.06782,"lon":-2.36912,"postcode":"BA9 8LD","la":"Somerset","era":"trad","nn":2314,"risk":54,"cat":"amber"},{"name":"Hunters Lodge Inn","lat":51.24747,"lon":-2.64613,"postcode":"BA5 3AR","la":"Somerset","era":"trad","nn":2318,"risk":54,"cat":"amber"},{"name":"JD Wetherspoon Plc (William Dampier)","lat":50.94145,"lon":-2.62708,"postcode":"BA20 1LN","la":"Somerset","era":"other","nn":35,"risk":16,"cat":"green"},{"name":"Just Ales Part 2","lat":51.23082,"lon":-2.32259,"postcode":"BA11 1BU","la":"Somerset","era":"other","nn":83,"risk":16,"cat":"green"},{"name":"Karma Bar","lat":50.94067,"lon":-2.62806,"postcode":"BA20 1NR","la":"Somerset","era":"other","nn":0,"risk":15,"cat":"green"},{"name":"King Arthur","lat":51.14629,"lon":-2.72051,"postcode":"BA6 9NB","la":"Somerset","era":"trad","nn":97,"risk":16,"cat":"green"},{"name":"King William Inn","lat":51.14735,"lon":-2.71844,"postcode":"BA6 9HL","la":"Somerset","era":"trad","nn":28,"risk":16,"cat":"green"},{"name":"Kings Arms Inn","lat":51.25384,"lon":-2.49188,"postcode":"BA3 4RA","la":"Somerset","era":"trad","nn":1189,"risk":46,"cat":"amber"},{"name":"Kings Head","lat":51.2088,"lon":-2.64759,"postcode":"BA5 2SG","la":"Somerset","era":"trad","nn":33,"risk":16,"cat":"green"},{"name":"Kings Head","lat":51.2367,"lon":-2.44944,"postcode":"BA3 5LU","la":"Somerset","era":"trad","nn":781,"risk":41,"cat":"amber"},{"name":"Lamb and Lark","lat":50.9958,"lon":-2.65473,"postcode":"BA22 8EG","la":"Somerset","era":"other","nn":2093,"risk":53,"cat":"amber"},{"name":"Leigh On Mendip Cricket Club","lat":51.22384,"lon":-2.44949,"postcode":"BA3 5QP","la":"Somerset","era":"other","nn":1429,"risk":48,"cat":"amber"},{"name":"MGC Catering Limited","lat":51.2229,"lon":-2.54405,"postcode":"BA3 4UT","la":"Somerset","era":"other","nn":1614,"risk":49,"cat":"amber"},{"name":"Midsomer Norton RFC","lat":51.27092,"lon":-2.48542,"postcode":"BA3 4RW","la":"Somerset","era":"other","nn":382,"risk":38,"cat":"amber"},{"name":"Mildmay Arms","lat":51.02227,"lon":-2.57721,"postcode":"BA22 7NJ","la":"Somerset","era":"trad","nn":1516,"risk":49,"cat":"amber"},{"name":"Mill Street Social Club","lat":51.05615,"lon":-2.41282,"postcode":"BA9 9AP","la":"Somerset","era":"other","nn":95,"risk":16,"cat":"green"},{"name":"Montague Inn","lat":51.08134,"lon":-2.46617,"postcode":"BA9 8JW","la":"Somerset","era":"trad","nn":3479,"risk":62,"cat":"red"},{"name":"Nunney Coaching Inn","lat":51.20959,"lon":-2.37797,"postcode":"BA11 4LW","la":"Somerset","era":"trad","nn":2067,"risk":52,"cat":"amber"},{"name":"Oakhill Inn","lat":51.22282,"lon":-2.52088,"postcode":"BA3 5HU","la":"Somerset","era":"trad","nn":1614,"risk":49,"cat":"amber"},{"name":"Old Bath Arms","lat":51.23009,"lon":-2.322,"postcode":"BA11 1DS","la":"Somerset","era":"trad","nn":69,"risk":16,"cat":"green"},{"name":"Old Down Inn","lat":51.25977,"lon":-2.53379,"postcode":"BA3 4SA","la":"Somerset","era":"trad","nn":2109,"risk":53,"cat":"amber"},{"name":"Old Red Lion","lat":51.13151,"lon":-2.39807,"postcode":"BA10 0JL","la":"Somerset","era":"trad","nn":3884,"risk":65,"cat":"red"},{"name":"Pecking Mill Inn","lat":51.1388,"lon":-2.51633,"postcode":"BA4 6PG","la":"Somerset","era":"trad","nn":1203,"risk":46,"cat":"amber"},{"name":"Pen Mill Hotel","lat":50.94494,"lon":-2.61575,"postcode":"BA21 5DB","la":"Somerset","era":"trad","nn":174,"risk":17,"cat":"green"},{"name":"Pillars 501","lat":51.19094,"lon":-2.54671,"postcode":"BA4 5AZ","la":"Somerset","era":"other","nn":100,"risk":16,"cat":"green"},{"name":"Podymore Inn","lat":51.02322,"lon":-2.6468,"postcode":"BA22 8JF","la":"Somerset","era":"trad","nn":3099,"risk":60,"cat":"amber"},{"name":"Quarter Jack","lat":51.20615,"lon":-2.65046,"postcode":"BA5 1SY","la":"Somerset","era":"mod","nn":132,"risk":16,"cat":"green"},{"name":"Queen of Cups Restaurant and Bar","lat":51.14782,"lon":-2.7186,"postcode":"BA6 9JJ","la":"Somerset","era":"trad","nn":46,"risk":16,"cat":"green"},{"name":"Queen Victoria Inn","lat":51.25224,"lon":-2.67855,"postcode":"BA5 3BA","la":"Somerset","era":"trad","nn":2318,"risk":54,"cat":"amber"},{"name":"Quicksilver Mail","lat":50.93375,"lon":-2.64226,"postcode":"BA20 2RG","la":"Somerset","era":"trad","nn":445,"risk":19,"cat":"green"},{"name":"R&R @ Masons Arms Ltd","lat":50.93934,"lon":-2.69925,"postcode":"BA22 8TX","la":"Somerset","era":"trad","nn":1600,"risk":49,"cat":"amber"},{"name":"Railway Hotel","lat":50.93648,"lon":-2.6376,"postcode":"BA20 2QN","la":"Somerset","era":"trad","nn":169,"risk":17,"cat":"green"},{"name":"RAOB Club","lat":51.16166,"lon":-3.04114,"postcode":"BA21 4JA","la":"Somerset","era":"other","nn":0,"risk":33,"cat":"amber"},{"name":"Red House","lat":50.92512,"lon":-2.63699,"postcode":"BA22 9RA","la":"Somerset","era":"other","nn":1028,"risk":45,"cat":"amber"},{"name":"Ring O Bells","lat":51.20978,"lon":-2.69196,"postcode":"BA5 1JZ","la":"Somerset","era":"other","nn":420,"risk":38,"cat":"amber"},{"name":"Rose and Crown","lat":51.20693,"lon":-2.648,"postcode":"BA5 1SW","la":"Somerset","era":"trad","nn":128,"risk":16,"cat":"green"},{"name":"Rosemary","lat":51.19005,"lon":-2.54693,"postcode":"BA4 5AA","la":"Somerset","era":"other","nn":100,"risk":16,"cat":"green"},{"name":"Royal British Legion Club","lat":51.12732,"lon":-2.74027,"postcode":"BA16 0BJ","la":"Somerset","era":"trad","nn":54,"risk":16,"cat":"green"},{"name":"Royal Marine Inn","lat":50.94566,"lon":-2.61811,"postcode":"BA21 5AA","la":"Somerset","era":"trad","nn":184,"risk":17,"cat":"green"},{"name":"Royal Oak","lat":51.23211,"lon":-2.33731,"postcode":"BA11 3HJ","la":"Somerset","era":"trad","nn":717,"risk":20,"cat":"green"},{"name":"ROYAL STANDARD","lat":50.95003,"lon":-2.65653,"postcode":"BA21 3HW","la":"Somerset","era":"trad","nn":556,"risk":22,"cat":"green"},{"name":"Seymour Arms","lat":51.1684,"lon":-2.36677,"postcode":"BA11 5HF","la":"Somerset","era":"trad","nn":2773,"risk":57,"cat":"amber"},{"name":"Somerset Golf Club Ltd","lat":51.26107,"lon":-2.32468,"postcode":"BA11 2PH","la":"Somerset","era":"other","nn":1986,"risk":52,"cat":"amber"},{"name":"Sparkford Cricket Club","lat":51.03647,"lon":-2.56049,"postcode":"BA22 7LA","la":"Somerset","era":"other","nn":542,"risk":39,"cat":"amber"},{"name":"Sparkford Inn","lat":51.03448,"lon":-2.56756,"postcode":"BA22 7JH","la":"Somerset","era":"trad","nn":542,"risk":39,"cat":"amber"},{"name":"Sun Inn","lat":51.20937,"lon":-2.64794,"postcode":"BA5 2PU","la":"Somerset","era":"trad","nn":68,"risk":16,"cat":"green"},{"name":"Sutton Bingham Sailing Club","lat":50.89644,"lon":-2.64568,"postcode":"BA22 9QP","la":"Somerset","era":"other","nn":1456,"risk":48,"cat":"amber"},{"name":"Tee Time Catering Ltd / Westbury Inn","lat":51.23523,"lon":-2.71699,"postcode":"BA5 1HA","la":"Somerset","era":"trad","nn":3222,"risk":61,"cat":"red"},{"name":"Templecombe Recreation and Sports Club","lat":50.99886,"lon":-2.41713,"postcode":"BA8 0JY","la":"Somerset","era":"other","nn":1705,"risk":50,"cat":"amber"},{"name":"The 94 Club","lat":50.94113,"lon":-2.62704,"postcode":"BA20 1LT","la":"Somerset","era":"other","nn":35,"risk":16,"cat":"green"},{"name":"The Alhampton Community Pub Ltd","lat":51.11166,"lon":-2.53315,"postcode":"BA4 6PY","la":"Somerset","era":"other","nn":1230,"risk":47,"cat":"amber"},{"name":"The Armoury Inn","lat":50.943,"lon":-2.63557,"postcode":"BA20 1DY","la":"Somerset","era":"trad","nn":162,"risk":17,"cat":"green"},{"name":"The Arrow","lat":50.94993,"lon":-2.66447,"postcode":"BA21 3TL","la":"Somerset","era":"other","nn":556,"risk":37,"cat":"amber"},{"name":"The Bay Tree","lat":51.0844,"lon":-2.51946,"postcode":"BA7 7ET","la":"Somerset","era":"other","nn":592,"risk":40,"cat":"amber"},{"name":"The Bell","lat":51.25495,"lon":-2.26232,"postcode":"BA11 2PR","la":"Somerset","era":"other","nn":1566,"risk":49,"cat":"amber"},{"name":"The Bell Inn","lat":51.25966,"lon":-2.35614,"postcode":"BA11 2QT","la":"Somerset","era":"trad","nn":2195,"risk":53,"cat":"amber"},{"name":"The Bell Inn (Hungry Horse)","lat":50.94279,"lon":-2.66076,"postcode":"BA20 2EW","la":"Somerset","era":"trad","nn":764,"risk":26,"cat":"green"},{"name":"The Bird","lat":51.17945,"lon":-2.8071,"postcode":"BA6 9TN","la":"Somerset","era":"other","nn":3338,"risk":61,"cat":"red"},{"name":"The Blue Boar","lat":51.23141,"lon":-2.32082,"postcode":"BA11 1AN","la":"Somerset","era":"other","nn":60,"risk":16,"cat":"green"},{"name":"The Brook House Inn","lat":51.10245,"lon":-2.52338,"postcode":"BA7 7PF","la":"Somerset","era":"other","nn":1230,"risk":47,"cat":"amber"},{"name":"The Butchers Arms","lat":50.94042,"lon":-2.63432,"postcode":"BA20 1TQ","la":"Somerset","era":"trad","nn":0,"risk":15,"cat":"green"},{"name":"The Charlton Inn","lat":51.18785,"lon":-2.5357,"postcode":"BA4 5PH","la":"Somerset","era":"trad","nn":449,"risk":21,"cat":"green"},{"name":"The Cocktail Way Ltd","lat":51.2305,"lon":-2.32124,"postcode":"BA11 1DR","la":"Somerset","era":"other","nn":54,"risk":16,"cat":"green"},{"name":"The Cooper Hall Foundation","lat":51.24347,"lon":-2.32957,"postcode":"BA11 3NL","la":"Somerset","era":"trad","nn":1211,"risk":46,"cat":"amber"},{"name":"The Cornerhouse","lat":51.22884,"lon":-2.32245,"postcode":"BA11 1QA","la":"Somerset","era":"other","nn":143,"risk":16,"cat":"green"},{"name":"The Cross Keys Inn","lat":51.28291,"lon":-2.28357,"postcode":"BA11 6NZ","la":"Somerset","era":"trad","nn":905,"risk":42,"cat":"amber"},{"name":"The Crown & Victoria Inn","lat":50.9749,"lon":-2.71163,"postcode":"BA22 8PZ","la":"Somerset","era":"trad","nn":244,"risk":37,"cat":"amber"},{"name":"The Crown Inn","lat":51.16716,"lon":-2.59044,"postcode":"BA4 4EA","la":"Somerset","era":"trad","nn":3298,"risk":61,"cat":"red"},{"name":"The Dolphin Inn","lat":51.00108,"lon":-2.68343,"postcode":"BA22 8NH","la":"Somerset","era":"trad","nn":2093,"risk":53,"cat":"amber"},{"name":"The George Hotel","lat":51.23128,"lon":-2.32166,"postcode":"BA11 1AF","la":"Somerset","era":"trad","nn":60,"risk":16,"cat":"green"},{"name":"The George Inn","lat":51.30093,"lon":-2.32472,"postcode":"BA2 7LH","la":"Somerset","era":"trad","nn":37,"risk":36,"cat":"amber"},{"name":"The Globe Inn","lat":51.20905,"lon":-2.65024,"postcode":"BA5 2PY","la":"Somerset","era":"trad","nn":160,"risk":17,"cat":"green"},{"name":"The Great Lyde","lat":50.95614,"lon":-2.61138,"postcode":"BA21 5UA","la":"Somerset","era":"other","nn":459,"risk":39,"cat":"amber"},{"name":"The Griffin","lat":51.23299,"lon":-2.3248,"postcode":"BA11 3DB","la":"Somerset","era":"trad","nn":116,"risk":16,"cat":"green"},{"name":"The Half Moon Inn","lat":50.9755,"lon":-2.60801,"postcode":"BA21 5TF","la":"Somerset","era":"trad","nn":1973,"risk":52,"cat":"amber"},{"name":"The Helyar Arms","lat":50.90871,"lon":-2.65292,"postcode":"BA22 9JR","la":"Somerset","era":"trad","nn":1456,"risk":48,"cat":"amber"},{"name":"The Highwayman Inn","lat":51.1753,"lon":-2.53572,"postcode":"BA4 4LY","la":"Somerset","era":"trad","nn":0,"risk":35,"cat":"amber"},{"name":"The Holcombe Inn","lat":51.24691,"lon":-2.47725,"postcode":"BA3 5EB","la":"Somerset","era":"trad","nn":1097,"risk":46,"cat":"amber"},{"name":"The Horse Shoe Inn","lat":51.1938,"lon":-2.55595,"postcode":"BA4 5JG","la":"Somerset","era":"trad","nn":563,"risk":19,"cat":"green"},{"name":"The King Alfred","lat":51.12407,"lon":-2.73817,"postcode":"BA16 0HB","la":"Somerset","era":"trad","nn":8,"risk":16,"cat":"green"},{"name":"The King William","lat":51.18789,"lon":-2.5566,"postcode":"BA4 5UG","la":"Somerset","era":"trad","nn":452,"risk":19,"cat":"green"},{"name":"The King William IV","lat":51.17256,"lon":-2.41413,"postcode":"BA4 4SZ","la":"Somerset","era":"trad","nn":3268,"risk":61,"cat":"red"},{"name":"The Kings Head","lat":51.20858,"lon":-2.64726,"postcode":"BA5 2AE","la":"Somerset","era":"trad","nn":33,"risk":16,"cat":"green"},{"name":"The Lamb and Fountain Inn","lat":51.23203,"lon":-2.32545,"postcode":"BA11 3BW","la":"Somerset","era":"trad","nn":105,"risk":16,"cat":"green"},{"name":"The Lantokay","lat":51.12575,"lon":-2.74134,"postcode":"BA16 0EY","la":"Somerset","era":"other","nn":191,"risk":17,"cat":"green"},{"name":"The Lion at Pennard","lat":51.14281,"lon":-2.65184,"postcode":"BA6 8NH","la":"Somerset","era":"trad","nn":3439,"risk":62,"cat":"red"},{"name":"The Litton","lat":51.28883,"lon":-2.58234,"postcode":"BA3 4PW","la":"Somerset","era":"other","nn":1476,"risk":48,"cat":"amber"},{"name":"The Market House","lat":51.14654,"lon":-2.7181,"postcode":"BA6 9EH","la":"Somerset","era":"other","nn":59,"risk":16,"cat":"green"},{"name":"The Marston Inn","lat":50.99654,"lon":-2.58399,"postcode":"BA22 8BX","la":"Somerset","era":"trad","nn":1845,"risk":51,"cat":"amber"},{"name":"The Mill at Rode","lat":51.28952,"lon":-2.29114,"postcode":"BA11 6AG","la":"Somerset","era":"trad","nn":905,"risk":42,"cat":"amber"},{"name":"The Millers Inn","lat":51.05549,"lon":-2.41404,"postcode":"BA9 9AN","la":"Somerset","era":"trad","nn":113,"risk":16,"cat":"green"},{"name":"The Mitre","lat":51.14666,"lon":-2.71925,"postcode":"BA6 9NE","la":"Somerset","era":"other","nn":81,"risk":16,"cat":"green"},{"name":"The Natterjack","lat":51.12801,"lon":-2.51761,"postcode":"BA4 6NA","la":"Somerset","era":"other","nn":1203,"risk":46,"cat":"amber"},{"name":"The New Inn","lat":50.91934,"lon":-2.68721,"postcode":"BA22 9BD","la":"Somerset","era":"trad","nn":89,"risk":36,"cat":"amber"},{"name":"The Nog Inn","lat":51.05534,"lon":-2.41084,"postcode":"BA9 9DL","la":"Somerset","era":"trad","nn":72,"risk":16,"cat":"green"},{"name":"The Old Barn Club","lat":50.933,"lon":-2.65266,"postcode":"BA20 2NX","la":"Somerset","era":"other","nn":734,"risk":41,"cat":"amber"},{"name":"The Old Inn","lat":51.04138,"lon":-2.45094,"postcode":"BA9 8AR","la":"Somerset","era":"trad","nn":2426,"risk":55,"cat":"amber"},{"name":"The Orchard Inn","lat":51.06698,"lon":-2.52253,"postcode":"BA22 7BA","la":"Somerset","era":"trad","nn":1948,"risk":52,"cat":"amber"},{"name":"The Pall Tavern","lat":50.94237,"lon":-2.63147,"postcode":"BA20 1HW","la":"Somerset","era":"other","nn":229,"risk":17,"cat":"green"},{"name":"The Ploughboy Inn","lat":51.25144,"lon":-2.60383,"postcode":"BA5 3ET","la":"Somerset","era":"trad","nn":2977,"risk":59,"cat":"amber"},{"name":"The Poachers Pocket","lat":51.19423,"lon":-2.50325,"postcode":"BA4 4PY","la":"Somerset","era":"other","nn":1634,"risk":49,"cat":"amber"},{"name":"The Prestleigh Inn","lat":51.16152,"lon":-2.52432,"postcode":"BA4 4NL","la":"Somerset","era":"trad","nn":1726,"risk":50,"cat":"amber"},{"name":"The Railway Inn","lat":51.15117,"lon":-2.79103,"postcode":"BA6 9SX","la":"Somerset","era":"trad","nn":2585,"risk":56,"cat":"amber"},{"name":"The Redan Inn","lat":51.2616,"lon":-2.50363,"postcode":"BA3 4HA","la":"Somerset","era":"trad","nn":1189,"risk":46,"cat":"amber"},{"name":"The Royal George","lat":50.91948,"lon":-2.68596,"postcode":"BA22 9AN","la":"Somerset","era":"trad","nn":89,"risk":36,"cat":"amber"},{"name":"The Royal Oak","lat":50.91811,"lon":-2.61769,"postcode":"BA22 9UD","la":"Somerset","era":"trad","nn":1561,"risk":49,"cat":"amber"},{"name":"The Royal Oak","lat":51.12416,"lon":-2.76702,"postcode":"BA16 9QG","la":"Somerset","era":"trad","nn":1801,"risk":51,"cat":"amber"},{"name":"The Royal Oak Inn","lat":50.90757,"lon":-2.68833,"postcode":"BA22 9NW","la":"Somerset","era":"trad","nn":1311,"risk":47,"cat":"amber"},{"name":"The Sheppey Inn","lat":51.18172,"lon":-2.75482,"postcode":"BA5 1RZ","la":"Somerset","era":"trad","nn":3598,"risk":63,"cat":"red"},{"name":"The Shrubbery Hotel","lat":51.18983,"lon":-2.54835,"postcode":"BA4 5BU","la":"Somerset","era":"other","nn":103,"risk":16,"cat":"green"},{"name":"The Smithy Inn","lat":51.0836,"lon":-2.39071,"postcode":"BA9 8HG","la":"Somerset","era":"trad","nn":2314,"risk":54,"cat":"amber"},{"name":"The Street Inn","lat":51.13003,"lon":-2.73535,"postcode":"BA16 0DR","la":"Somerset","era":"trad","nn":138,"risk":16,"cat":"green"},{"name":"The Strode Arms","lat":51.18787,"lon":-2.47431,"postcode":"BA4 4QJ","la":"Somerset","era":"trad","nn":2138,"risk":53,"cat":"amber"},{"name":"The Sun Inn","lat":51.11204,"lon":-2.45503,"postcode":"BA10 0AH","la":"Somerset","era":"trad","nn":344,"risk":38,"cat":"amber"},{"name":"The Sun Inn","lat":51.23109,"lon":-2.32544,"postcode":"BA11 1DA","la":"Somerset","era":"trad","nn":78,"risk":16,"cat":"green"},{"name":"The Talbot Inn","lat":51.24128,"lon":-2.39114,"postcode":"BA11 3PN","la":"Somerset","era":"trad","nn":2330,"risk":54,"cat":"amber"},{"name":"The Thatched Cottage Inn","lat":51.1862,"lon":-2.52981,"postcode":"BA4 5QF","la":"Somerset","era":"trad","nn":449,"risk":39,"cat":"amber"},{"name":"The Three Horseshoes","lat":51.15039,"lon":-2.4449,"postcode":"BA4 6HE","la":"Somerset","era":"trad","nn":3268,"risk":61,"cat":"red"},{"name":"The Three Swans","lat":51.23082,"lon":-2.32066,"postcode":"BA11 1BH","la":"Somerset","era":"trad","nn":0,"risk":15,"cat":"green"},{"name":"The Travellers Rest","lat":51.11174,"lon":-2.58532,"postcode":"BA4 6RY","la":"Somerset","era":"other","nn":3642,"risk":63,"cat":"red"},{"name":"The Venue","lat":51.20776,"lon":-2.64654,"postcode":"BA5 1SL","la":"Somerset","era":"other","nn":73,"risk":16,"cat":"green"},{"name":"The Victoria Inn","lat":51.18985,"lon":-2.55091,"postcode":"BA4 5DX","la":"Somerset","era":"trad","nn":178,"risk":17,"cat":"green"},{"name":"The Virginia Ash","lat":50.97793,"lon":-2.40614,"postcode":"BA8 0PL","la":"Somerset","era":"other","nn":714,"risk":40,"cat":"amber"},{"name":"The Waggon and Horses Inn","lat":51.20893,"lon":-2.50321,"postcode":"BA4 4LA","la":"Somerset","era":"trad","nn":1634,"risk":49,"cat":"amber"},{"name":"The Well Inn","lat":51.1753,"lon":-2.53572,"postcode":"BA4 4LY","la":"Somerset","era":"trad","nn":0,"risk":35,"cat":"amber"},{"name":"The Westminster","lat":50.94169,"lon":-2.63455,"postcode":"BA20 1AE","la":"Somerset","era":"other","nn":142,"risk":16,"cat":"green"},{"name":"The White Hart","lat":51.08873,"lon":-2.51456,"postcode":"BA7 7BQ","la":"Somerset","era":"trad","nn":592,"risk":40,"cat":"amber"},{"name":"The White Hart Inn","lat":51.19327,"lon":-2.36376,"postcode":"BA11 5DP","la":"Somerset","era":"trad","nn":2067,"risk":52,"cat":"amber"},{"name":"The White Post Inn","lat":51.27143,"lon":-2.47999,"postcode":"BA3 4QA","la":"Somerset","era":"trad","nn":382,"risk":38,"cat":"amber"},{"name":"The Woolpack Inn","lat":51.26503,"lon":-2.2867,"postcode":"BA11 6SP","la":"Somerset","era":"trad","nn":250,"risk":37,"cat":"amber"},{"name":"The Yellow Wagtail","lat":50.95388,"lon":-2.61688,"postcode":"BA21 5QA","la":"Somerset","era":"other","nn":459,"risk":24,"cat":"green"},{"name":"Tintinhull Working Mens Club","lat":50.97306,"lon":-2.7135,"postcode":"BA22 8PY","la":"Somerset","era":"trad","nn":244,"risk":37,"cat":"amber"},{"name":"Tor Rugby Club","lat":51.15753,"lon":-2.71599,"postcode":"BA6 9GY","la":"Somerset","era":"other","nn":632,"risk":37,"cat":"amber"},{"name":"Town Hall","lat":51.14675,"lon":-2.71732,"postcode":"BA6 9EL","la":"Somerset","era":"other","nn":59,"risk":16,"cat":"green"},{"name":"Tramways","lat":51.20678,"lon":-2.65396,"postcode":"BA5 2HN","la":"Somerset","era":"trad","nn":101,"risk":16,"cat":"green"},{"name":"Tuckers Grave Inn","lat":51.29446,"lon":-2.35779,"postcode":"BA3 5XF","la":"Somerset","era":"trad","nn":1532,"risk":49,"cat":"amber"},{"name":"Uncle Toms Cabin","lat":51.05689,"lon":-2.40832,"postcode":"BA9 9JU","la":"Somerset","era":"other","nn":246,"risk":17,"cat":"green"},{"name":"Victoria Field Social Club Ltd","lat":51.12414,"lon":-2.73822,"postcode":"BA16 0HB","la":"Somerset","era":"other","nn":8,"risk":16,"cat":"green"},{"name":"Vobster Inn","lat":51.24039,"lon":-2.42458,"postcode":"BA3 5RJ","la":"Somerset","era":"trad","nn":1779,"risk":50,"cat":"amber"},{"name":"Waggon & Horses Inn","lat":51.15954,"lon":-2.70751,"postcode":"BA6 9AJ","la":"Somerset","era":"trad","nn":632,"risk":40,"cat":"amber"},{"name":"Waldegrave Arms","lat":51.27577,"lon":-2.57851,"postcode":"BA3 4LL","la":"Somerset","era":"trad","nn":1476,"risk":48,"cat":"amber"},{"name":"Wells (Somerset) Golf Club Ltd","lat":51.21306,"lon":-2.6173,"postcode":"BA5 3DS","la":"Somerset","era":"other","nn":168,"risk":37,"cat":"amber"},{"name":"Wells Cricket Club","lat":51.21378,"lon":-2.61518,"postcode":"BA5 3DJ","la":"Somerset","era":"other","nn":168,"risk":37,"cat":"amber"},{"name":"Wells Operatic Society","lat":51.20839,"lon":-2.65227,"postcode":"BA5 2PS","la":"Somerset","era":"mod","nn":114,"risk":16,"cat":"green"},{"name":"Wells RFC","lat":51.21014,"lon":-2.66146,"postcode":"BA5 2FB","la":"Somerset","era":"other","nn":641,"risk":20,"cat":"green"},{"name":"Wells Sports Club","lat":51.20351,"lon":-2.65131,"postcode":"BA5 1TU","la":"Somerset","era":"other","nn":215,"risk":17,"cat":"green"},{"name":"White Horse Inn","lat":51.02087,"lon":-2.43917,"postcode":"BA8 0BL","la":"Somerset","era":"trad","nn":1235,"risk":47,"cat":"amber"},{"name":"White Post Inn","lat":50.98363,"lon":-2.56743,"postcode":"BA22 8AR","la":"Somerset","era":"trad","nn":1845,"risk":51,"cat":"amber"},{"name":"Wincanton Masonic Club","lat":51.05577,"lon":-2.4116,"postcode":"BA9 9AA","la":"Somerset","era":"trad","nn":72,"risk":16,"cat":"green"},{"name":"Wincanton Sports Ground","lat":51.05114,"lon":-2.41048,"postcode":"BA9 9EJ","la":"Somerset","era":"other","nn":468,"risk":19,"cat":"green"},{"name":"Wookey Hole Inn","lat":51.22454,"lon":-2.67078,"postcode":"BA5 1BP","la":"Somerset","era":"trad","nn":1728,"risk":50,"cat":"amber"},{"name":"Yeovil Bowls and Squash Club","lat":50.94565,"lon":-2.63609,"postcode":"BA21 4AS","la":"Somerset","era":"other","nn":78,"risk":16,"cat":"green"},{"name":"Yeovil Conservative Club T/A Duke of York","lat":50.94502,"lon":-2.63658,"postcode":"BA20 2QL","la":"Somerset","era":"trad","nn":78,"risk":16,"cat":"green"},{"name":"Yeovil Ex-Services & Social Club","lat":50.947,"lon":-2.64473,"postcode":"BA21 3AZ","la":"Somerset","era":"mod","nn":585,"risk":20,"cat":"green"},{"name":"Yeovil Masonic Hall","lat":50.94042,"lon":-2.63432,"postcode":"BA20 1TQ","la":"Somerset","era":"trad","nn":0,"risk":15,"cat":"green"},{"name":"Yeovil Sports & Social Club","lat":50.95182,"lon":-2.64809,"postcode":"BA21 3DX","la":"Somerset","era":"mod","nn":585,"risk":37,"cat":"amber"},{"name":"Yonder Brewing & Blending Limited","lat":51.23162,"lon":-2.56975,"postcode":"BA3 4UL","la":"Somerset","era":"other","nn":1780,"risk":50,"cat":"amber"},{"name":"AJS Nightclub Ltd","lat":51.20418,"lon":-2.18137,"postcode":"BA12 9NP","la":"Wiltshire","era":"other","nn":74,"risk":16,"cat":"green"},{"name":"Albany Palace","lat":51.32016,"lon":-2.20597,"postcode":"BA14 8AQ","la":"Wiltshire","era":"other","nn":91,"risk":16,"cat":"green"},{"name":"Bath Arms","lat":51.17907,"lon":-2.19703,"postcode":"BA12 8AJ","la":"Wiltshire","era":"trad","nn":1420,"risk":48,"cat":"amber"},{"name":"Bell and Crown","lat":51.08516,"lon":-2.31258,"postcode":"BA12 6NJ","la":"Wiltshire","era":"trad","nn":793,"risk":38,"cat":"amber"},{"name":"Bell Inn","lat":51.13932,"lon":-1.99001,"postcode":"BA12 0QP","la":"Wiltshire","era":"trad","nn":3141,"risk":60,"cat":"amber"},{"name":"Boston Shaker","lat":51.20482,"lon":-2.18166,"postcode":"BA12 9AP","la":"Wiltshire","era":"other","nn":74,"risk":16,"cat":"green"},{"name":"Bradford on Avon Rugby Club Ltd","lat":51.35073,"lon":-2.27878,"postcode":"BA15 2HR","la":"Wiltshire","era":"other","nn":855,"risk":39,"cat":"amber"},{"name":"Codford Village Hall & Bar","lat":51.15743,"lon":-2.04573,"postcode":"BA12 0PP","la":"Wiltshire","era":"other","nn":1535,"risk":49,"cat":"amber"},{"name":"Cross Guns Inn","lat":51.33879,"lon":-2.28099,"postcode":"BA15 2HB","la":"Wiltshire","era":"trad","nn":897,"risk":42,"cat":"amber"},{"name":"Dilton Marsh Social Club","lat":51.24735,"lon":-2.21169,"postcode":"BA13 4DG","la":"Wiltshire","era":"mod","nn":888,"risk":39,"cat":"amber"},{"name":"Dog And Fox Inn","lat":51.35425,"lon":-2.26236,"postcode":"BA15 1RT","la":"Wiltshire","era":"trad","nn":1011,"risk":45,"cat":"amber"},{"name":"Ericourt Inns Ltd","lat":51.0906,"lon":-2.27028,"postcode":"BA12 6JE","la":"Wiltshire","era":"trad","nn":432,"risk":36,"cat":"amber"},{"name":"Gloucester Road Conservative Club","lat":51.31591,"lon":-2.21678,"postcode":"BA14 0AD","la":"Wiltshire","era":"other","nn":152,"risk":16,"cat":"green"},{"name":"Holt Bowling Club","lat":51.35875,"lon":-2.19148,"postcode":"BA14 6QR","la":"Wiltshire","era":"other","nn":1051,"risk":45,"cat":"amber"},{"name":"Horse And Groom","lat":51.26266,"lon":-2.18041,"postcode":"BA13 3DY","la":"Wiltshire","era":"trad","nn":0,"risk":15,"cat":"green"},{"name":"La Campagna Restaurant & Bar","lat":51.22971,"lon":-2.19299,"postcode":"BA12 0AG","la":"Wiltshire","era":"other","nn":2202,"risk":53,"cat":"amber"},{"name":"Lion And Fiddle","lat":51.3295,"lon":-2.18471,"postcode":"BA14 7QQ","la":"Wiltshire","era":"trad","nn":566,"risk":39,"cat":"amber"},{"name":"Live@thelamb ltd","lat":51.31653,"lon":-2.20827,"postcode":"BA14 8BN","la":"Wiltshire","era":"other","nn":195,"risk":17,"cat":"green"},{"name":"Longs Arms","lat":51.30973,"lon":-2.13436,"postcode":"BA14 6EU","la":"Wiltshire","era":"trad","nn":3189,"risk":60,"cat":"amber"},{"name":"Longs Arms","lat":51.29422,"lon":-2.19425,"postcode":"BA14 6AB","la":"Wiltshire","era":"trad","nn":1370,"risk":47,"cat":"amber"},{"name":"Ludlow Arms Public House","lat":51.26376,"lon":-2.18227,"postcode":"BA13 3AX","la":"Wiltshire","era":"trad","nn":123,"risk":16,"cat":"green"},{"name":"Masons Arms","lat":51.20396,"lon":-2.17811,"postcode":"BA12 9BN","la":"Wiltshire","era":"trad","nn":123,"risk":16,"cat":"green"},{"name":"Mere Social Club","lat":51.09111,"lon":-2.26415,"postcode":"BA12 6ET","la":"Wiltshire","era":"mod","nn":432,"risk":36,"cat":"amber"},{"name":"Merkur Slots","lat":51.32061,"lon":-2.20706,"postcode":"BA14 8EJ","la":"Wiltshire","era":"other","nn":91,"risk":16,"cat":"green"},{"name":"Mount Pleasant Social Club","lat":51.35059,"lon":-2.24813,"postcode":"BA15 1SJ","la":"Wiltshire","era":"mod","nn":0,"risk":15,"cat":"green"},{"name":"Newtown Social Club","lat":51.31802,"lon":-2.21418,"postcode":"BA14 9AG","la":"Wiltshire","era":"mod","nn":52,"risk":16,"cat":"green"},{"name":"Old Ham Tree","lat":51.35422,"lon":-2.20476,"postcode":"BA14 6PY","la":"Wiltshire","era":"other","nn":89,"risk":36,"cat":"amber"},{"name":"Players Club","lat":51.27609,"lon":-2.20358,"postcode":"BA13 4JT","la":"Wiltshire","era":"other","nn":21,"risk":33,"cat":"amber"},{"name":"Polish Social Club","lat":51.31456,"lon":-2.21649,"postcode":"BA14 0AL","la":"Wiltshire","era":"mod","nn":140,"risk":16,"cat":"green"},{"name":"Railway Inn","lat":51.26601,"lon":-2.1946,"postcode":"BA13 4HW","la":"Wiltshire","era":"trad","nn":861,"risk":26,"cat":"green"},{"name":"Rose And Crown","lat":51.20309,"lon":-2.17549,"postcode":"BA12 9BZ","la":"Wiltshire","era":"trad","nn":207,"risk":17,"cat":"green"},{"name":"Rose And Crown","lat":51.31936,"lon":-2.21317,"postcode":"BA14 9AA","la":"Wiltshire","era":"trad","nn":164,"risk":16,"cat":"green"},{"name":"Royal Oak","lat":51.20754,"lon":-2.25959,"postcode":"BA12 7PR","la":"Wiltshire","era":"trad","nn":838,"risk":41,"cat":"amber"},{"name":"South Wraxall Club","lat":51.37692,"lon":-2.24105,"postcode":"BA15 2RZ","la":"Wiltshire","era":"other","nn":463,"risk":39,"cat":"amber"},{"name":"Southwick Sports And Social Club","lat":51.29468,"lon":-2.23914,"postcode":"BA14 9QN","la":"Wiltshire","era":"mod","nn":807,"risk":41,"cat":"amber"},{"name":"Spread Eagle Inn","lat":51.10485,"lon":-2.32154,"postcode":"BA12 6QE","la":"Wiltshire","era":"trad","nn":1664,"risk":49,"cat":"amber"},{"name":"Stourton & Kilmington Home Guard Clb","lat":51.11959,"lon":-2.32557,"postcode":"BA12 6QY","la":"Wiltshire","era":"other","nn":1664,"risk":49,"cat":"amber"},{"name":"The Anchor And Hope","lat":51.31388,"lon":-2.21479,"postcode":"BA14 0DF","la":"Wiltshire","era":"trad","nn":140,"risk":16,"cat":"green"},{"name":"The Anchor Hotel","lat":51.2047,"lon":-2.17941,"postcode":"BA12 9AZ","la":"Wiltshire","era":"trad","nn":0,"risk":15,"cat":"green"},{"name":"The Angel Hotel","lat":51.26001,"lon":-2.1831,"postcode":"BA13 3BY","la":"Wiltshire","era":"trad","nn":205,"risk":17,"cat":"green"},{"name":"The Barge Inn & Tasty Trio","lat":51.34028,"lon":-2.2519,"postcode":"BA15 2EA","la":"Wiltshire","era":"trad","nn":183,"risk":17,"cat":"green"},{"name":"The Bath Arms","lat":51.2047,"lon":-2.17941,"postcode":"BA12 9AZ","la":"Wiltshire","era":"trad","nn":0,"risk":15,"cat":"green"},{"name":"The Bath Arms","lat":51.17403,"lon":-2.27366,"postcode":"BA12 7LY","la":"Wiltshire","era":"trad","nn":2900,"risk":58,"cat":"amber"},{"name":"The Black Horse","lat":51.3097,"lon":-2.22329,"postcode":"BA14 0DU","la":"Wiltshire","era":"trad","nn":718,"risk":23,"cat":"green"},{"name":"The Boathouse","lat":51.33532,"lon":-2.23645,"postcode":"BA15 1UD","la":"Wiltshire","era":"other","nn":1088,"risk":45,"cat":"amber"},{"name":"The Bradley Hare","lat":51.14898,"lon":-2.28529,"postcode":"BA12 7HW","la":"Wiltshire","era":"other","nn":2900,"risk":58,"cat":"amber"},{"name":"The Bunch Of Grapes","lat":51.34806,"lon":-2.2496,"postcode":"BA15 1JY","la":"Wiltshire","era":"other","nn":123,"risk":16,"cat":"green"},{"name":"The Canal Tavern","lat":51.3419,"lon":-2.2515,"postcode":"BA15 1LE","la":"Wiltshire","era":"other","nn":183,"risk":17,"cat":"green"},{"name":"The Carriers Arms","lat":51.14581,"lon":-2.03383,"postcode":"BA12 0SQ","la":"Wiltshire","era":"trad","nn":1535,"risk":49,"cat":"amber"},{"name":"The Castle Inn","lat":51.35059,"lon":-2.24813,"postcode":"BA15 1SJ","la":"Wiltshire","era":"trad","nn":0,"risk":15,"cat":"green"},{"name":"The Cock Inn","lat":51.20343,"lon":-2.19663,"postcode":"BA12 8JZ","la":"Wiltshire","era":"trad","nn":740,"risk":23,"cat":"green"},{"name":"The Courthouse","lat":51.32074,"lon":-2.20847,"postcode":"BA14 8AN","la":"Wiltshire","era":"other","nn":0,"risk":15,"cat":"green"},{"name":"The Cross Keys","lat":51.21651,"lon":-2.25826,"postcode":"BA12 7PB","la":"Wiltshire","era":"trad","nn":1002,"risk":45,"cat":"amber"},{"name":"The Crown Inn","lat":51.26268,"lon":-2.18265,"postcode":"BA13 3DE","la":"Wiltshire","era":"trad","nn":123,"risk":16,"cat":"green"},{"name":"The Dandy Lion","lat":51.34832,"lon":-2.25132,"postcode":"BA15 1LL","la":"Wiltshire","era":"trad","nn":0,"risk":15,"cat":"green"},{"name":"The Duke Inn and Tasty Trio","lat":51.2711,"lon":-2.12308,"postcode":"BA13 4RW","la":"Wiltshire","era":"trad","nn":1905,"risk":51,"cat":"amber"},{"name":"The Dursley Arms","lat":51.31254,"lon":-2.20626,"postcode":"BA14 0NS","la":"Wiltshire","era":"trad","nn":444,"risk":18,"cat":"green"},{"name":"The Farmhouse Inn","lat":51.29986,"lon":-2.23102,"postcode":"BA14 9QD","la":"Wiltshire","era":"other","nn":807,"risk":41,"cat":"amber"},{"name":"The George","lat":51.35016,"lon":-2.24025,"postcode":"BA15 1AQ","la":"Wiltshire","era":"trad","nn":550,"risk":19,"cat":"green"},{"name":"The George Inn","lat":51.16678,"lon":-2.19145,"postcode":"BA12 7DG","la":"Wiltshire","era":"trad","nn":1420,"risk":48,"cat":"amber"},{"name":"The Greyhound","lat":51.3155,"lon":-2.21055,"postcode":"BA14 0NH","la":"Wiltshire","era":"trad","nn":195,"risk":17,"cat":"green"},{"name":"The Hollies","lat":51.24924,"lon":-2.19819,"postcode":"BA13 3SF","la":"Wiltshire","era":"other","nn":963,"risk":42,"cat":"amber"},{"name":"The Kings Arms","lat":51.38814,"lon":-2.28266,"postcode":"BA15 2QH","la":"Wiltshire","era":"trad","nn":1680,"risk":50,"cat":"amber"},{"name":"The Kings Arms","lat":51.32074,"lon":-2.20847,"postcode":"BA14 8AN","la":"Wiltshire","era":"trad","nn":0,"risk":15,"cat":"green"},{"name":"The Kings Arms Inn","lat":51.33918,"lon":-2.20011,"postcode":"BA14 7NZ","la":"Wiltshire","era":"trad","nn":671,"risk":38,"cat":"amber"},{"name":"The Lamb On The Strand","lat":51.33666,"lon":-2.11858,"postcode":"BA14 6LL","la":"Wiltshire","era":"other","nn":1776,"risk":50,"cat":"amber"},{"name":"The Longs Arms","lat":51.38108,"lon":-2.24126,"postcode":"BA15 2SB","la":"Wiltshire","era":"trad","nn":463,"risk":39,"cat":"amber"},{"name":"The New Inn","lat":51.33038,"lon":-2.26808,"postcode":"BA15 2AE","la":"Wiltshire","era":"trad","nn":513,"risk":39,"cat":"amber"},{"name":"The Old Bear Inn","lat":51.34482,"lon":-2.20838,"postcode":"BA14 6PB","la":"Wiltshire","era":"trad","nn":180,"risk":34,"cat":"amber"},{"name":"The Organ Inn","lat":51.20549,"lon":-2.18353,"postcode":"BA12 9AQ","la":"Wiltshire","era":"trad","nn":132,"risk":16,"cat":"green"},{"name":"The Plough","lat":51.3424,"lon":-2.24726,"postcode":"BA15 1EG","la":"Wiltshire","era":"trad","nn":300,"risk":17,"cat":"green"},{"name":"The Poplars Inn","lat":51.31026,"lon":-2.25873,"postcode":"BA14 9LN","la":"Wiltshire","era":"trad","nn":2204,"risk":53,"cat":"amber"},{"name":"The Prestbury Sports Bar","lat":51.20621,"lon":-2.18203,"postcode":"BA12 9AL","la":"Wiltshire","era":"other","nn":132,"risk":16,"cat":"green"},{"name":"The Red Admiral","lat":51.32448,"lon":-2.18343,"postcode":"BA14 7GW","la":"Wiltshire","era":"other","nn":566,"risk":39,"cat":"amber"},{"name":"The Red Lion","lat":51.1825,"lon":-2.10995,"postcode":"BA12 0EA","la":"Wiltshire","era":"trad","nn":4630,"risk":70,"cat":"red"},{"name":"The Royal Oak","lat":51.28224,"lon":-2.19887,"postcode":"BA13 4LA","la":"Wiltshire","era":"trad","nn":759,"risk":38,"cat":"amber"},{"name":"The Seven Stars","lat":51.34697,"lon":-2.28951,"postcode":"BA15 2LQ","la":"Wiltshire","era":"other","nn":0,"risk":33,"cat":"amber"},{"name":"The Stallards Inn","lat":51.31817,"lon":-2.21488,"postcode":"BA14 9AJ","la":"Wiltshire","era":"trad","nn":52,"risk":16,"cat":"green"},{"name":"The Staverton Social Club","lat":51.34368,"lon":-2.20653,"postcode":"BA14 6PA","la":"Wiltshire","era":"mod","nn":180,"risk":34,"cat":"amber"},{"name":"The Stumble Inn","lat":51.34832,"lon":-2.25132,"postcode":"BA15 1LL","la":"Wiltshire","era":"trad","nn":0,"risk":15,"cat":"green"},{"name":"The Three Daggers","lat":51.27842,"lon":-2.09831,"postcode":"BA13 4PG","la":"Wiltshire","era":"other","nn":1905,"risk":51,"cat":"amber"},{"name":"The Three Horseshoes","lat":51.22915,"lon":-2.25073,"postcode":"BA13 4AN","la":"Wiltshire","era":"trad","nn":1499,"risk":48,"cat":"amber"},{"name":"The Toll Gate","lat":51.3535,"lon":-2.20418,"postcode":"BA14 6PX","la":"Wiltshire","era":"other","nn":89,"risk":36,"cat":"amber"},{"name":"The Twelve Bells","lat":51.32437,"lon":-2.21181,"postcode":"BA14 8LS","la":"Wiltshire","era":"other","nn":466,"risk":19,"cat":"green"},{"name":"The Weavers","lat":51.24661,"lon":-2.22439,"postcode":"BA13 4DZ","la":"Wiltshire","era":"other","nn":888,"risk":42,"cat":"amber"},{"name":"The White Hart","lat":51.21085,"lon":-2.27039,"postcode":"BA12 7PH","la":"Wiltshire","era":"trad","nn":838,"risk":41,"cat":"amber"},{"name":"Three Horseshoes Inn","lat":51.34519,"lon":-2.25148,"postcode":"BA15 1LA","la":"Wiltshire","era":"trad","nn":117,"risk":16,"cat":"green"},{"name":"Timbrells Yard","lat":51.3461,"lon":-2.25233,"postcode":"BA15 1DE","la":"Wiltshire","era":"mod","nn":117,"risk":16,"cat":"green"},{"name":"Trowbridge Masonic Hall Association","lat":51.32128,"lon":-2.2021,"postcode":"BA14 8DP","la":"Wiltshire","era":"trad","nn":179,"risk":17,"cat":"green"},{"name":"Trowbridge Rugby Football Club","lat":51.33239,"lon":-2.16958,"postcode":"BA14 6JB","la":"Wiltshire","era":"other","nn":1099,"risk":46,"cat":"amber"},{"name":"Venom Night Club","lat":51.27595,"lon":-2.20336,"postcode":"BA13 4JT","la":"Wiltshire","era":"other","nn":21,"risk":33,"cat":"amber"},{"name":"Walnut Tree Inn","lat":51.08494,"lon":-2.26197,"postcode":"BA12 6BH","la":"Wiltshire","era":"trad","nn":702,"risk":38,"cat":"amber"},{"name":"Warminster Conservative Club","lat":51.19956,"lon":-2.17055,"postcode":"BA12 9LB","la":"Wiltshire","era":"other","nn":522,"risk":19,"cat":"green"},{"name":"Warminster Cricket Club","lat":51.20073,"lon":-2.18692,"postcode":"BA12 8LJ","la":"Wiltshire","era":"other","nn":144,"risk":16,"cat":"green"},{"name":"Warminster Masonic Hall","lat":51.2047,"lon":-2.17941,"postcode":"BA12 9AZ","la":"Wiltshire","era":"trad","nn":0,"risk":15,"cat":"green"},{"name":"Warminster Rugby Football Club","lat":51.19766,"lon":-2.20582,"postcode":"BA12 7RG","la":"Wiltshire","era":"other","nn":906,"risk":42,"cat":"amber"},{"name":"Warminster Town Football Club","lat":51.20085,"lon":-2.18487,"postcode":"BA12 9NS","la":"Wiltshire","era":"other","nn":144,"risk":16,"cat":"green"},{"name":"Wesley Road Club","lat":51.31592,"lon":-2.21378,"postcode":"BA14 0AX","la":"Wiltshire","era":"other","nn":208,"risk":17,"cat":"green"},{"name":"West Wilts Conservative Club","lat":51.32175,"lon":-2.20455,"postcode":"BA14 8DG","la":"Wiltshire","era":"other","nn":179,"risk":17,"cat":"green"},{"name":"West Wiltshire Golf Club","lat":51.21138,"lon":-2.17643,"postcode":"BA12 0AU","la":"Wiltshire","era":"other","nn":694,"risk":20,"cat":"green"},{"name":"Westbury Conservative Club","lat":51.26266,"lon":-2.18041,"postcode":"BA13 3DY","la":"Wiltshire","era":"other","nn":0,"risk":15,"cat":"green"},{"name":"Westbury Labour Club","lat":51.26048,"lon":-2.18595,"postcode":"BA13 3HA","la":"Wiltshire","era":"other","nn":205,"risk":17,"cat":"green"},{"name":"Westbury Rugby Football Club","lat":51.272,"lon":-2.16157,"postcode":"BA13 4LU","la":"Wiltshire","era":"other","nn":1672,"risk":50,"cat":"amber"},{"name":"Westwood Social Club","lat":51.33158,"lon":-2.2752,"postcode":"BA15 2AP","la":"Wiltshire","era":"mod","nn":513,"risk":36,"cat":"amber"},{"name":"Wiltshire Yeoman","lat":51.32315,"lon":-2.22778,"postcode":"BA14 9DD","la":"Wiltshire","era":"other","nn":1054,"risk":45,"cat":"amber"},{"name":"Winsley Social Club","lat":51.34697,"lon":-2.28951,"postcode":"BA15 2LQ","la":"Wiltshire","era":"mod","nn":0,"risk":33,"cat":"amber"},{"name":"Zinc","lat":51.32064,"lon":-2.20845,"postcode":"BA14 8AN","la":"Wiltshire","era":"other","nn":11,"risk":15,"cat":"green"}]