[{"name":"Abstrakt","lat":54.89633,"lon":-2.9392,"postcode":"CA3 8RN","la":"Cumberland","era":"other","nn":17,"risk":23,"cat":"green"},{"name":"Amante Ltd","lat":54.89258,"lon":-2.93335,"postcode":"CA3 8ES","la":"Cumberland","era":"other","nn":12,"risk":23,"cat":"green"},{"name":"Anchor Vaults","lat":54.54688,"lon":-3.59095,"postcode":"CA28 7JB","la":"Cumberland","era":"trad","nn":76,"risk":23,"cat":"green"},{"name":"Arroyo Arms","lat":54.8819,"lon":-2.88938,"postcode":"CA1 3SB","la":"Cumberland","era":"trad","nn":702,"risk":48,"cat":"amber"},{"name":"Ballers","lat":54.89116,"lon":-2.9308,"postcode":"CA1 1RP","la":"Cumberland","era":"other","nn":0,"risk":23,"cat":"green"},{"name":"Bar Solo","lat":54.89178,"lon":-2.93182,"postcode":"CA1 1QP","la":"Cumberland","era":"mod","nn":0,"risk":23,"cat":"green"},{"name":"Barra Jacks","lat":54.5462,"lon":-3.59104,"postcode":"CA28 7HZ","la":"Cumberland","era":"other","nn":76,"risk":23,"cat":"green"},{"name":"Below","lat":54.89129,"lon":-2.93235,"postcode":"CA1 1QS","la":"Cumberland","era":"other","nn":0,"risk":23,"cat":"green"},{"name":"Black Bull","lat":54.48139,"lon":-3.52919,"postcode":"CA22 2AG","la":"Cumberland","era":"trad","nn":0,"risk":23,"cat":"green"},{"name":"Blue Bell","lat":54.48121,"lon":-3.52832,"postcode":"CA22 2AE","la":"Cumberland","era":"other","nn":53,"risk":23,"cat":"green"},{"name":"Blue Bell Inn","lat":54.84176,"lon":-2.98356,"postcode":"CA5 7PJ","la":"Cumberland","era":"trad","nn":3585,"risk":70,"cat":"red"},{"name":"Bocata","lat":54.89252,"lon":-2.9335,"postcode":"CA3 8ES","la":"Cumberland","era":"other","nn":12,"risk":23,"cat":"green"},{"name":"Border Rambler","lat":54.89109,"lon":-2.93085,"postcode":"CA1 1RP","la":"Cumberland","era":"trad","nn":9,"risk":23,"cat":"green"},{"name":"Box Arena","lat":54.89149,"lon":-2.93048,"postcode":"CA1 1RL","la":"Cumberland","era":"other","nn":42,"risk":23,"cat":"green"},{"name":"Brewdog Carlisle","lat":54.89067,"lon":-2.93122,"postcode":"CA1 1QS","la":"Cumberland","era":"other","nn":42,"risk":23,"cat":"green"},{"name":"Brewers Fayre - Lakeland Gate","lat":54.8922,"lon":-2.90845,"postcode":"CA1 2WF","la":"Cumberland","era":"other","nn":299,"risk":42,"cat":"amber"},{"name":"Brickyard","lat":54.89624,"lon":-2.93898,"postcode":"CA3 8RN","la":"Cumberland","era":"mod","nn":17,"risk":23,"cat":"green"},{"name":"Caledonian","lat":54.89178,"lon":-2.93182,"postcode":"CA1 1QP","la":"Cumberland","era":"other","nn":0,"risk":23,"cat":"green"},{"name":"Candlestick","lat":54.54995,"lon":-3.58833,"postcode":"CA28 7UX","la":"Cumberland","era":"other","nn":0,"risk":23,"cat":"green"},{"name":"Carlisle Cricket Club","lat":54.90395,"lon":-2.93372,"postcode":"CA3 9AN","la":"Cumberland","era":"other","nn":166,"risk":24,"cat":"green"},{"name":"Carlisle Ex-Servicemens Club Ltd","lat":54.89547,"lon":-2.9321,"postcode":"CA1 1HZ","la":"Cumberland","era":"other","nn":119,"risk":24,"cat":"green"},{"name":"Carlisle Racecourse","lat":54.8583,"lon":-2.92847,"postcode":"CA2 4TS","la":"Cumberland","era":"other","nn":911,"risk":49,"cat":"amber"},{"name":"Carlisle South End Constitutional Club Ltd","lat":54.88796,"lon":-2.92615,"postcode":"CA1 2EF","la":"Cumberland","era":"other","nn":89,"risk":23,"cat":"green"},{"name":"Castle Knights","lat":54.54382,"lon":-3.5826,"postcode":"CA28 7RP","la":"Cumberland","era":"other","nn":104,"risk":23,"cat":"green"},{"name":"Cat Inn","lat":54.48304,"lon":-3.52806,"postcode":"CA22 2DR","la":"Cumberland","era":"trad","nn":41,"risk":23,"cat":"green"},{"name":"Cleator Cricket Club","lat":54.50825,"lon":-3.52624,"postcode":"CA23 3DD","la":"Cumberland","era":"other","nn":1161,"risk":53,"cat":"amber"},{"name":"Club 135","lat":54.55055,"lon":-3.58735,"postcode":"CA28 7UZ","la":"Cumberland","era":"other","nn":77,"risk":23,"cat":"green"},{"name":"Club Britannia","lat":54.89329,"lon":-2.93355,"postcode":"CA3 8EJ","la":"Cumberland","era":"trad","nn":18,"risk":23,"cat":"green"},{"name":"Crown And Thistle","lat":54.90523,"lon":-2.93506,"postcode":"CA3 9DS","la":"Cumberland","era":"trad","nn":162,"risk":24,"cat":"green"},{"name":"Crown Inn","lat":54.80904,"lon":-2.919,"postcode":"CA4 0PT","la":"Westmorland and Furness","era":"trad","nn":3724,"risk":66,"cat":"red"},{"name":"Deja Vu","lat":54.89116,"lon":-2.9308,"postcode":"CA1 1RP","la":"Cumberland","era":"other","nn":0,"risk":23,"cat":"green"},{"name":"Distington Community and Amateur Spo","lat":54.59503,"lon":-3.54521,"postcode":"CA14 5XG","la":"Cumberland","era":"other","nn":2369,"risk":62,"cat":"red"},{"name":"Dog & Partridge Inn","lat":54.51762,"lon":-3.601,"postcode":"CA28 9UG","la":"Cumberland","era":"trad","nn":1463,"risk":55,"cat":"amber"},{"name":"Egremont & Dist Conservative Club","lat":54.4823,"lon":-3.52611,"postcode":"CA22 2DX","la":"Cumberland","era":"other","nn":151,"risk":24,"cat":"green"},{"name":"Egremont Bowling Club","lat":54.4862,"lon":-3.52946,"postcode":"CA22 2PR","la":"Cumberland","era":"other","nn":0,"risk":23,"cat":"green"},{"name":"Egremont Cricket Club","lat":54.48763,"lon":-3.53986,"postcode":"CA22 2QH","la":"Cumberland","era":"other","nn":436,"risk":26,"cat":"green"},{"name":"Egremont Rangers RLFC","lat":54.4862,"lon":-3.52946,"postcode":"CA22 2PR","la":"Cumberland","era":"other","nn":0,"risk":23,"cat":"green"},{"name":"Egremont Rugby Union Football Club","lat":54.47777,"lon":-3.52501,"postcode":"CA22 2RQ","la":"Cumberland","era":"other","nn":438,"risk":26,"cat":"green"},{"name":"Egremont Veterans Club","lat":54.4831,"lon":-3.5287,"postcode":"CA22 2DB","la":"Cumberland","era":"other","nn":41,"risk":23,"cat":"green"},{"name":"Fox & Hounds Inn","lat":54.52895,"lon":-3.43874,"postcode":"CA23 3AR","la":"Cumberland","era":"trad","nn":3774,"risk":72,"cat":"red"},{"name":"Frizington White Star Football Club","lat":54.54154,"lon":-3.49425,"postcode":"CA26 3SA","la":"Cumberland","era":"other","nn":161,"risk":44,"cat":"amber"},{"name":"Globe","lat":54.41864,"lon":-3.43927,"postcode":"CA20 1AL","la":"Cumberland","era":"other","nn":17,"risk":28,"cat":"green"},{"name":"Gosling Bridge Inn","lat":54.91735,"lon":-2.9423,"postcode":"CA3 0AT","la":"Cumberland","era":"trad","nn":1353,"risk":55,"cat":"amber"},{"name":"Greenbank P & M Club","lat":54.52644,"lon":-3.58417,"postcode":"CA28 9QT","la":"Cumberland","era":"other","nn":431,"risk":31,"cat":"amber"},{"name":"Harbour Master","lat":54.55011,"lon":-3.58874,"postcode":"CA28 7UJ","la":"Cumberland","era":"other","nn":31,"risk":23,"cat":"green"},{"name":"Haven Club","lat":54.54001,"lon":-3.55944,"postcode":"CA28 8TX","la":"Cumberland","era":"other","nn":1,"risk":25,"cat":"green"},{"name":"House of Vodka","lat":54.89129,"lon":-2.93235,"postcode":"CA1 1QS","la":"Cumberland","era":"mod","nn":0,"risk":23,"cat":"green"},{"name":"Howard Arms Hotel","lat":54.94188,"lon":-2.73565,"postcode":"CA8 1NG","la":"Cumberland","era":"trad","nn":102,"risk":43,"cat":"amber"},{"name":"Insomnia Carlisle Ltd","lat":54.89116,"lon":-2.9308,"postcode":"CA1 1RP","la":"Cumberland","era":"other","nn":0,"risk":23,"cat":"green"},{"name":"Jax Cumbria LTD","lat":54.89116,"lon":-2.9308,"postcode":"CA1 1RP","la":"Cumberland","era":"other","nn":0,"risk":23,"cat":"green"},{"name":"Joe Bananas","lat":54.54906,"lon":-3.58625,"postcode":"CA28 7EU","la":"Cumberland","era":"other","nn":60,"risk":23,"cat":"green"},{"name":"Josephine Bell Catering","lat":54.87913,"lon":-2.89925,"postcode":"CA1 3PQ","la":"Cumberland","era":"other","nn":702,"risk":45,"cat":"amber"},{"name":"KellBank","lat":54.41743,"lon":-3.42949,"postcode":"CA20 1JA","la":"Cumberland","era":"other","nn":634,"risk":45,"cat":"amber"},{"name":"Kells ARLFC","lat":54.54126,"lon":-3.59373,"postcode":"CA28 9EJ","la":"Cumberland","era":"other","nn":430,"risk":26,"cat":"green"},{"name":"King George IV","lat":54.38668,"lon":-3.3124,"postcode":"CA19 1TS","la":"Cumberland","era":"trad","nn":7156,"risk":80,"cat":"red"},{"name":"Kings Arms","lat":54.48168,"lon":-3.52832,"postcode":"CA22 2AD","la":"Cumberland","era":"trad","nn":53,"risk":23,"cat":"green"},{"name":"La'al Club","lat":54.48259,"lon":-3.53308,"postcode":"CA22 2BD","la":"Cumberland","era":"other","nn":264,"risk":25,"cat":"green"},{"name":"Le Gall","lat":54.89308,"lon":-2.93379,"postcode":"CA3 8LG","la":"Cumberland","era":"other","nn":7,"risk":23,"cat":"green"},{"name":"Lion","lat":54.5307,"lon":-3.58989,"postcode":"CA28 9LL","la":"Cumberland","era":"trad","nn":600,"risk":32,"cat":"amber"},{"name":"Lion & Lamb","lat":54.41871,"lon":-3.43904,"postcode":"CA20 1AL","la":"Cumberland","era":"trad","nn":17,"risk":40,"cat":"amber"},{"name":"Littles Arms","lat":54.51636,"lon":-3.50414,"postcode":"CA23 3EH","la":"Cumberland","era":"trad","nn":269,"risk":45,"cat":"amber"},{"name":"Lowca Community Club","lat":54.57988,"lon":-3.57105,"postcode":"CA28 6PT","la":"Cumberland","era":"other","nn":2369,"risk":62,"cat":"red"},{"name":"Lowther Arms Inn","lat":54.86635,"lon":-2.86272,"postcode":"CA4 8DL","la":"Cumberland","era":"trad","nn":1285,"risk":54,"cat":"amber"},{"name":"Lux Lounge Bar","lat":54.89281,"lon":-2.93244,"postcode":"CA1 1DH","la":"Cumberland","era":"mod","nn":20,"risk":23,"cat":"green"},{"name":"Mamoa Bar and Lounge","lat":54.89547,"lon":-2.93757,"postcode":"CA3 8RY","la":"Cumberland","era":"mod","nn":76,"risk":23,"cat":"green"},{"name":"Marchon Sports & Social Club","lat":54.54309,"lon":-3.58361,"postcode":"CA28 7TE","la":"Cumberland","era":"mod","nn":0,"risk":23,"cat":"green"},{"name":"Masonic Club","lat":54.48037,"lon":-3.53164,"postcode":"CA22 2LS","la":"Cumberland","era":"trad","nn":195,"risk":24,"cat":"green"},{"name":"Masonic Hall","lat":54.54781,"lon":-3.58378,"postcode":"CA28 7NZ","la":"Cumberland","era":"trad","nn":50,"risk":23,"cat":"green"},{"name":"Metal Bridge Inn","lat":54.97264,"lon":-3.00799,"postcode":"CA6 4HG","la":"Cumberland","era":"trad","nn":3068,"risk":67,"cat":"red"},{"name":"Milbourne Arms","lat":54.89261,"lon":-2.94308,"postcode":"CA2 5XB","la":"Cumberland","era":"trad","nn":194,"risk":24,"cat":"green"},{"name":"Mirehouse Labour Social Club","lat":54.52512,"lon":-3.56972,"postcode":"CA28 8HP","la":"Cumberland","era":"mod","nn":610,"risk":44,"cat":"amber"},{"name":"Moffats","lat":54.52213,"lon":-3.51695,"postcode":"CA25 5HP","la":"Cumberland","era":"other","nn":85,"risk":41,"cat":"amber"},{"name":"Moor Row Working Mens Club","lat":54.51375,"lon":-3.54154,"postcode":"CA24 3JN","la":"Cumberland","era":"trad","nn":976,"risk":50,"cat":"amber"},{"name":"Moresby RUFC Club","lat":54.55975,"lon":-3.54909,"postcode":"CA28 8XW","la":"Cumberland","era":"other","nn":2026,"risk":59,"cat":"amber"},{"name":"Near Boot Inn","lat":54.91212,"lon":-2.92051,"postcode":"CA3 0JA","la":"Cumberland","era":"trad","nn":1205,"risk":54,"cat":"amber"},{"name":"No. 15 Gin Bar","lat":54.89296,"lon":-2.93227,"postcode":"CA1 1DH","la":"Cumberland","era":"other","nn":20,"risk":23,"cat":"green"},{"name":"Oddfellows Arms","lat":54.48823,"lon":-3.58986,"postcode":"CA27 0AD","la":"Cumberland","era":"trad","nn":375,"risk":43,"cat":"amber"},{"name":"O'Halloran's Restaurant","lat":54.48501,"lon":-3.53484,"postcode":"CA22 2QN","la":"Cumberland","era":"other","nn":291,"risk":25,"cat":"green"},{"name":"Old Captains House","lat":54.5053,"lon":-3.54564,"postcode":"CA22 2TN","la":"Cumberland","era":"other","nn":976,"risk":50,"cat":"amber"},{"name":"Old Vicarage Brewery & Bar","lat":54.98686,"lon":-2.7268,"postcode":"CA8 2AZ","la":"Cumberland","era":"other","nn":5009,"risk":80,"cat":"red"},{"name":"Open Mind","lat":54.89243,"lon":-2.93361,"postcode":"CA3 8LU","la":"Cumberland","era":"other","nn":12,"risk":23,"cat":"green"},{"name":"Paradiso Bar and Lounge Ltd","lat":54.89275,"lon":-2.93386,"postcode":"CA3 8LP","la":"Cumberland","era":"mod","nn":35,"risk":23,"cat":"green"},{"name":"Pentonbridge Inn","lat":55.07964,"lon":-2.88162,"postcode":"CA6 5QB","la":"Cumberland","era":"trad","nn":8434,"risk":80,"cat":"red"},{"name":"Premier Inn - Border Gate","lat":54.85947,"lon":-2.87885,"postcode":"CA4 0AD","la":"Cumberland","era":"trad","nn":1218,"risk":54,"cat":"amber"},{"name":"Puncheon Inn","lat":54.54796,"lon":-3.58935,"postcode":"CA28 7AX","la":"Cumberland","era":"trad","nn":81,"risk":23,"cat":"green"},{"name":"Queens Hotel","lat":54.4916,"lon":-3.59011,"postcode":"CA27 0DE","la":"Cumberland","era":"trad","nn":73,"risk":41,"cat":"amber"},{"name":"QZone","lat":54.88301,"lon":-2.93124,"postcode":"CA2 4AS","la":"Cumberland","era":"other","nn":261,"risk":25,"cat":"green"},{"name":"Rack Shack","lat":54.54706,"lon":-3.59266,"postcode":"CA28 7LS","la":"Cumberland","era":"other","nn":97,"risk":23,"cat":"green"},{"name":"Ratty Arms","lat":54.35568,"lon":-3.40921,"postcode":"CA18 1SN","la":"Cumberland","era":"trad","nn":3926,"risk":73,"cat":"red"},{"name":"Red Admiral","lat":54.4244,"lon":-3.45111,"postcode":"CA20 1BP","la":"Cumberland","era":"other","nn":999,"risk":50,"cat":"amber"},{"name":"Rouge Carlisle Ltd","lat":54.89116,"lon":-2.9308,"postcode":"CA1 1RP","la":"Cumberland","era":"other","nn":0,"risk":23,"cat":"green"},{"name":"Royal Oak","lat":54.88719,"lon":-2.8732,"postcode":"CA4 8BP","la":"Cumberland","era":"trad","nn":1190,"risk":54,"cat":"amber"},{"name":"SASRA Complex","lat":54.39779,"lon":-3.47717,"postcode":"CA20 1PJ","la":"Cumberland","era":"other","nn":330,"risk":30,"cat":"green"},{"name":"Seascale Bowling Club","lat":54.39661,"lon":-3.48184,"postcode":"CA20 1PU","la":"Cumberland","era":"other","nn":137,"risk":29,"cat":"green"},{"name":"Shackles Off Youth & Community","lat":54.39681,"lon":-3.48393,"postcode":"CA20 1QT","la":"Cumberland","era":"other","nn":137,"risk":29,"cat":"green"},{"name":"Shakers","lat":54.54937,"lon":-3.58702,"postcode":"CA28 7ET","la":"Cumberland","era":"other","nn":60,"risk":23,"cat":"green"},{"name":"Shipwrights Arms","lat":54.55117,"lon":-3.5868,"postcode":"CA28 7XE","la":"Cumberland","era":"trad","nn":0,"risk":23,"cat":"green"},{"name":"Snecklifter","lat":54.54937,"lon":-3.58798,"postcode":"CA28 7EL","la":"Cumberland","era":"other","nn":62,"risk":23,"cat":"green"},{"name":"Solway Hall","lat":54.54663,"lon":-3.58588,"postcode":"CA28 7SH","la":"Cumberland","era":"other","nn":41,"risk":23,"cat":"green"},{"name":"Spinners Arms","lat":54.87056,"lon":-2.95331,"postcode":"CA2 6BD","la":"Cumberland","era":"trad","nn":1977,"risk":59,"cat":"amber"},{"name":"St Bees Village Hall","lat":54.49224,"lon":-3.58985,"postcode":"CA27 0BN","la":"Cumberland","era":"other","nn":73,"risk":41,"cat":"amber"},{"name":"St Beghs Social Centre","lat":54.54309,"lon":-3.58361,"postcode":"CA28 7TE","la":"Cumberland","era":"mod","nn":0,"risk":23,"cat":"green"},{"name":"St Benedicts RUFC","lat":54.52783,"lon":-3.57794,"postcode":"CA28 9SW","la":"Cumberland","era":"other","nn":431,"risk":31,"cat":"amber"},{"name":"St Marys Catholic Mens Club","lat":54.53383,"lon":-3.59778,"postcode":"CA28 9PG","la":"Cumberland","era":"other","nn":617,"risk":44,"cat":"amber"},{"name":"Stanley Arms Hotel","lat":54.44077,"lon":-3.47992,"postcode":"CA20 1DN","la":"Cumberland","era":"trad","nn":2227,"risk":61,"cat":"red"},{"name":"Sun Inn","lat":54.53598,"lon":-3.5682,"postcode":"CA28 8QD","la":"Cumberland","era":"trad","nn":97,"risk":26,"cat":"green"},{"name":"Sunnyhill","lat":54.55456,"lon":-3.5792,"postcode":"CA28 6AB","la":"Cumberland","era":"other","nn":618,"risk":27,"cat":"green"},{"name":"The Apple Tree","lat":54.89433,"lon":-2.93373,"postcode":"CA3 8EQ","la":"Cumberland","era":"other","nn":116,"risk":23,"cat":"green"},{"name":"The Beehive","lat":54.89425,"lon":-2.91516,"postcode":"CA1 1LH","la":"Cumberland","era":"other","nn":485,"risk":29,"cat":"green"},{"name":"The Belted Will Inn","lat":54.92957,"lon":-2.65611,"postcode":"CA8 2NJ","la":"Cumberland","era":"trad","nn":3870,"risk":72,"cat":"red"},{"name":"The Black Lion","lat":54.85012,"lon":-2.92949,"postcode":"CA2 4TX","la":"Cumberland","era":"trad","nn":911,"risk":49,"cat":"amber"},{"name":"The Black Lion","lat":54.99621,"lon":-2.81792,"postcode":"CA6 6EH","la":"Cumberland","era":"trad","nn":5906,"risk":80,"cat":"red"},{"name":"The Blacksmith's Arms (Talkin) Ltd","lat":54.9092,"lon":-2.70521,"postcode":"CA8 1LE","la":"Cumberland","era":"trad","nn":2080,"risk":60,"cat":"amber"},{"name":"The Boardroom","lat":54.8952,"lon":-2.93954,"postcode":"CA3 8TT","la":"Cumberland","era":"other","nn":121,"risk":24,"cat":"green"},{"name":"The Celtic Bar","lat":54.52255,"lon":-3.51585,"postcode":"CA25 5HR","la":"Cumberland","era":"other","nn":85,"risk":41,"cat":"amber"},{"name":"The Club House at Eden","lat":54.91796,"lon":-2.84069,"postcode":"CA6 4RA","la":"Cumberland","era":"mod","nn":1864,"risk":58,"cat":"amber"},{"name":"The Cranemakers","lat":54.88827,"lon":-2.92486,"postcode":"CA1 2JZ","la":"Cumberland","era":"other","nn":89,"risk":23,"cat":"green"},{"name":"The Crescent Bar","lat":54.89234,"lon":-2.93225,"postcode":"CA1 1QN","la":"Cumberland","era":"other","nn":54,"risk":23,"cat":"green"},{"name":"The Crossings Inn","lat":55.04033,"lon":-2.75388,"postcode":"CA6 6LG","la":"Cumberland","era":"trad","nn":6192,"risk":80,"cat":"red"},{"name":"The Crown","lat":54.52617,"lon":-3.52853,"postcode":"CA25 5JU","la":"Cumberland","era":"trad","nn":872,"risk":46,"cat":"amber"},{"name":"The Crown & Thistle","lat":54.94532,"lon":-3.0012,"postcode":"CA6 4AA","la":"Cumberland","era":"trad","nn":3068,"risk":67,"cat":"red"},{"name":"The Crown Inn","lat":54.9055,"lon":-2.93755,"postcode":"CA3 9HS","la":"Cumberland","era":"trad","nn":162,"risk":24,"cat":"green"},{"name":"The Drovers Rest","lat":54.91775,"lon":-3.02546,"postcode":"CA5 6DB","la":"Cumberland","era":"other","nn":1900,"risk":58,"cat":"amber"},{"name":"The Duke of Cumberland","lat":54.89121,"lon":-2.71411,"postcode":"CA8 9LU","la":"Cumberland","era":"trad","nn":2080,"risk":60,"cat":"amber"},{"name":"The Fat Gadgie","lat":54.89314,"lon":-2.93384,"postcode":"CA3 8LG","la":"Cumberland","era":"other","nn":7,"risk":23,"cat":"green"},{"name":"The Frizington Veterans Club","lat":54.5425,"lon":-3.49238,"postcode":"CA26 3PU","la":"Cumberland","era":"other","nn":161,"risk":44,"cat":"amber"},{"name":"The Globe","lat":54.53669,"lon":-3.56733,"postcode":"CA28 8QX","la":"Cumberland","era":"other","nn":97,"risk":26,"cat":"green"},{"name":"The Globe Tavern","lat":55.0092,"lon":-2.97363,"postcode":"CA6 5PS","la":"Cumberland","era":"other","nn":4618,"risk":78,"cat":"red"},{"name":"The Greyhound Inn","lat":54.92226,"lon":-3.05413,"postcode":"CA5 6AN","la":"Cumberland","era":"trad","nn":1900,"risk":58,"cat":"amber"},{"name":"The Greyhound Inn","lat":54.84459,"lon":-2.8299,"postcode":"CA4 0DQ","la":"Cumberland","era":"trad","nn":3205,"risk":68,"cat":"red"},{"name":"The Griffin","lat":54.89095,"lon":-2.93317,"postcode":"CA1 1QX","la":"Cumberland","era":"trad","nn":64,"risk":23,"cat":"green"},{"name":"The Harraby Inn","lat":54.88141,"lon":-2.91035,"postcode":"CA1 2QN","la":"Cumberland","era":"trad","nn":754,"risk":48,"cat":"amber"},{"name":"The Howard Arms","lat":54.8954,"lon":-2.93396,"postcode":"CA3 8ED","la":"Cumberland","era":"trad","nn":119,"risk":24,"cat":"green"},{"name":"The Keekle","lat":54.53246,"lon":-3.54206,"postcode":"CA25 5RQ","la":"Cumberland","era":"other","nn":1119,"risk":53,"cat":"amber"},{"name":"The Kings Head","lat":54.89523,"lon":-2.93645,"postcode":"CA3 8RF","la":"Cumberland","era":"trad","nn":76,"risk":23,"cat":"green"},{"name":"The Lowther Club","lat":54.54658,"lon":-3.58461,"postcode":"CA28 7RF","la":"Cumberland","era":"other","nn":70,"risk":23,"cat":"green"},{"name":"The Magpie Inn","lat":54.89276,"lon":-2.90388,"postcode":"CA1 2UE","la":"Cumberland","era":"trad","nn":299,"risk":30,"cat":"green"},{"name":"The Museum Inn","lat":54.89594,"lon":-2.98098,"postcode":"CA2 7QJ","la":"Cumberland","era":"trad","nn":960,"risk":49,"cat":"amber"},{"name":"The Nags Head","lat":54.94201,"lon":-2.73407,"postcode":"CA8 1RW","la":"Cumberland","era":"trad","nn":102,"risk":43,"cat":"amber"},{"name":"The Nosey Cow Inn","lat":54.86727,"lon":-2.8922,"postcode":"CA1 3DP","la":"Cumberland","era":"trad","nn":1218,"risk":54,"cat":"amber"},{"name":"The Old Fire Station","lat":54.89697,"lon":-2.93613,"postcode":"CA3 8QP","la":"Cumberland","era":"other","nn":191,"risk":24,"cat":"green"},{"name":"The Otter Inn","lat":54.90707,"lon":-2.81852,"postcode":"CA4 8QQ","la":"Cumberland","era":"trad","nn":1468,"risk":55,"cat":"amber"},{"name":"The Pheasant Inn","lat":54.86281,"lon":-2.77107,"postcode":"CA8 9EX","la":"Cumberland","era":"trad","nn":2675,"risk":64,"cat":"red"},{"name":"The Plough Inn","lat":54.83343,"lon":-2.87917,"postcode":"CA4 0RL","la":"Cumberland","era":"trad","nn":2895,"risk":65,"cat":"red"},{"name":"The Pour House","lat":54.54785,"lon":-3.58811,"postcode":"CA28 7DG","la":"Cumberland","era":"other","nn":0,"risk":23,"cat":"green"},{"name":"The Queens","lat":54.89922,"lon":-2.83697,"postcode":"CA4 8PA","la":"Cumberland","era":"trad","nn":1468,"risk":55,"cat":"amber"},{"name":"The Reiver","lat":54.88733,"lon":-2.97984,"postcode":"CA2 7TB","la":"Cumberland","era":"other","nn":960,"risk":49,"cat":"amber"},{"name":"The Ribton","lat":54.53755,"lon":-3.5698,"postcode":"CA28 8PU","la":"Cumberland","era":"other","nn":185,"risk":26,"cat":"green"},{"name":"The Rock","lat":54.88145,"lon":-2.92818,"postcode":"CA2 4HH","la":"Cumberland","era":"other","nn":261,"risk":30,"cat":"green"},{"name":"The Royal Oak Inn","lat":54.90162,"lon":-3.0432,"postcode":"CA5 6EZ","la":"Cumberland","era":"trad","nn":2122,"risk":60,"cat":"amber"},{"name":"The Royal Standard","lat":54.54978,"lon":-3.59641,"postcode":"CA28 7LY","la":"Cumberland","era":"trad","nn":387,"risk":25,"cat":"green"},{"name":"The Shepherds Inn","lat":54.89348,"lon":-2.89239,"postcode":"CA1 2RS","la":"Cumberland","era":"trad","nn":739,"risk":48,"cat":"amber"},{"name":"The Source Collective","lat":54.89093,"lon":-2.94386,"postcode":"CA2 5ND","la":"Cumberland","era":"mod","nn":194,"risk":24,"cat":"green"},{"name":"The Sportsman Inn","lat":54.89344,"lon":-2.93691,"postcode":"CA3 8AQ","la":"Cumberland","era":"trad","nn":199,"risk":24,"cat":"green"},{"name":"The Stag Inn","lat":54.92656,"lon":-2.8659,"postcode":"CA6 4QN","la":"Cumberland","era":"trad","nn":1873,"risk":58,"cat":"amber"},{"name":"The Stone Inn","lat":54.91167,"lon":-2.77,"postcode":"CA8 9HR","la":"Cumberland","era":"trad","nn":2773,"risk":65,"cat":"red"},{"name":"The Strand","lat":54.54898,"lon":-3.58999,"postcode":"CA28 7JU","la":"Cumberland","era":"other","nn":120,"risk":24,"cat":"green"},{"name":"The String Of Horses","lat":54.88678,"lon":-2.76755,"postcode":"CA8 9EG","la":"Cumberland","era":"trad","nn":2675,"risk":64,"cat":"red"},{"name":"The Stump","lat":54.54502,"lon":-3.59533,"postcode":"CA28 9AG","la":"Cumberland","era":"other","nn":285,"risk":25,"cat":"green"},{"name":"The Tavern","lat":54.54995,"lon":-3.58833,"postcode":"CA28 7UX","la":"Cumberland","era":"other","nn":0,"risk":23,"cat":"green"},{"name":"The Thin White Duke","lat":54.89316,"lon":-2.93372,"postcode":"CA3 8LG","la":"Cumberland","era":"trad","nn":8,"risk":23,"cat":"green"},{"name":"The Three Tuns","lat":54.54821,"lon":-3.58413,"postcode":"CA28 7NU","la":"Cumberland","era":"other","nn":50,"risk":23,"cat":"green"},{"name":"The Wellington Inn","lat":54.87306,"lon":-3.04745,"postcode":"CA5 6LZ","la":"Cumberland","era":"trad","nn":3186,"risk":67,"cat":"red"},{"name":"The Wheatsheaf","lat":54.48139,"lon":-3.52919,"postcode":"CA22 2AG","la":"Cumberland","era":"trad","nn":0,"risk":23,"cat":"green"},{"name":"The White Mare","lat":54.44579,"lon":-3.51326,"postcode":"CA21 2XS","la":"Cumberland","era":"other","nn":2227,"risk":61,"cat":"red"},{"name":"Tribe Bar Ltd","lat":54.89803,"lon":-2.94241,"postcode":"CA3 8UZ","la":"Cumberland","era":"mod","nn":279,"risk":25,"cat":"green"},{"name":"Turf Tavern","lat":54.89945,"lon":-2.9323,"postcode":"CA1 1JG","la":"Cumberland","era":"other","nn":368,"risk":25,"cat":"green"},{"name":"Vine Hotel","lat":54.54752,"lon":-3.59139,"postcode":"CA28 7JG","la":"Cumberland","era":"other","nn":77,"risk":23,"cat":"green"},{"name":"Walkabout","lat":54.89116,"lon":-2.9308,"postcode":"CA1 1RP","la":"Cumberland","era":"other","nn":0,"risk":23,"cat":"green"},{"name":"Wath Brow Hornets R L F C","lat":54.51647,"lon":-3.49998,"postcode":"CA23 3AE","la":"Cumberland","era":"other","nn":269,"risk":45,"cat":"amber"},{"name":"Westcliff Hotel","lat":54.39265,"lon":-3.48264,"postcode":"CA20 1NS","la":"Cumberland","era":"other","nn":443,"risk":31,"cat":"amber"},{"name":"Wetherspoons","lat":54.55117,"lon":-3.5868,"postcode":"CA28 7XE","la":"Cumberland","era":"other","nn":0,"risk":23,"cat":"green"},{"name":"Wheatsheaf Inn","lat":54.88077,"lon":-2.83536,"postcode":"CA4 8HD","la":"Cumberland","era":"trad","nn":2055,"risk":60,"cat":"amber"},{"name":"Whitehaven Amateur Football Club","lat":54.5396,"lon":-3.58552,"postcode":"CA28 9DD","la":"Cumberland","era":"other","nn":86,"risk":23,"cat":"green"},{"name":"Whitehaven RL Supporters","lat":54.54001,"lon":-3.55945,"postcode":"CA28 8TX","la":"Cumberland","era":"other","nn":1,"risk":25,"cat":"green"},{"name":"Whitehaven RLFC","lat":54.54013,"lon":-3.5865,"postcode":"CA28 9DD","la":"Cumberland","era":"other","nn":0,"risk":23,"cat":"green"},{"name":"Whitehaven RUFC","lat":54.54486,"lon":-3.5894,"postcode":"CA28 7QR","la":"Cumberland","era":"other","nn":182,"risk":24,"cat":"green"},{"name":"Whitehaven Rugby League Supporters C","lat":54.54694,"lon":-3.58551,"postcode":"CA28 7RB","la":"Cumberland","era":"other","nn":41,"risk":23,"cat":"green"},{"name":"Whitehaven Social Welfare Centre","lat":54.54013,"lon":-3.5865,"postcode":"CA28 9DD","la":"Cumberland","era":"mod","nn":0,"risk":23,"cat":"green"},{"name":"Whittington Cat","lat":54.54785,"lon":-3.58811,"postcode":"CA28 7DG","la":"Cumberland","era":"other","nn":0,"risk":23,"cat":"green"},{"name":"William Rufus (Lloyds No 1)","lat":54.89094,"lon":-2.93167,"postcode":"CA1 1QS","la":"Cumberland","era":"other","nn":0,"risk":23,"cat":"green"},{"name":"Woodrow Wilson","lat":54.89094,"lon":-2.93167,"postcode":"CA1 1QS","la":"Cumberland","era":"other","nn":0,"risk":23,"cat":"green"},{"name":"Yellow Earl","lat":54.54769,"lon":-3.58715,"postcode":"CA28 7AH","la":"Cumberland","era":"other","nn":64,"risk":23,"cat":"green"},{"name":"Yellowjacket","lat":54.89269,"lon":-2.93142,"postcode":"CA1 1DN","la":"Cumberland","era":"other","nn":62,"risk":23,"cat":"green"},{"name":"Greenhead Hotel","lat":54.98065,"lon":-2.53217,"postcode":"CA8 7HB","la":"Northumberland","era":"trad","nn":4506,"risk":70,"cat":"red"},{"name":"Kirkstyle Inn","lat":54.88044,"lon":-2.50254,"postcode":"CA8 7PB","la":"Northumberland","era":"trad","nn":6665,"risk":73,"cat":"red"},{"name":"Alston Masonic Club","lat":54.81281,"lon":-2.4407,"postcode":"CA9 3JF","la":"Westmorland and Furness","era":"trad","nn":22,"risk":20,"cat":"green"},{"name":"Alston Moor Golf Club","lat":54.7896,"lon":-2.42478,"postcode":"CA9 3DB","la":"Westmorland and Furness","era":"other","nn":2625,"risk":58,"cat":"amber"},{"name":"Appleby Bowling Club","lat":54.57804,"lon":-2.48857,"postcode":"CA16 6XN","la":"Westmorland and Furness","era":"other","nn":157,"risk":18,"cat":"green"},{"name":"Appleby Eden Cricket Club","lat":54.57809,"lon":-2.49301,"postcode":"CA16 6QR","la":"Westmorland and Furness","era":"other","nn":136,"risk":18,"cat":"green"},{"name":"Appleby Masonic Club","lat":54.57729,"lon":-2.49063,"postcode":"CA16 6XF","la":"Westmorland and Furness","era":"trad","nn":0,"risk":17,"cat":"green"},{"name":"Arms Hotel (Shap) ltd","lat":54.52635,"lon":-2.67493,"postcode":"CA10 3NU","la":"Westmorland and Furness","era":"trad","nn":314,"risk":37,"cat":"amber"},{"name":"Beehive Inn","lat":54.6497,"lon":-2.74037,"postcode":"CA10 2BX","la":"Westmorland and Furness","era":"trad","nn":951,"risk":44,"cat":"amber"},{"name":"Boot and Shoe Inn","lat":54.66922,"lon":-2.86956,"postcode":"CA11 0TP","la":"Westmorland and Furness","era":"trad","nn":2627,"risk":58,"cat":"amber"},{"name":"Butchers Arms","lat":54.52333,"lon":-2.58785,"postcode":"CA10 3JP","la":"Westmorland and Furness","era":"trad","nn":5382,"risk":75,"cat":"red"},{"name":"Chapel Farm Caravan Park","lat":54.4817,"lon":-2.46753,"postcode":"CA16 6QE","la":"Westmorland and Furness","era":"other","nn":3891,"risk":67,"cat":"red"},{"name":"Clickham Inn","lat":54.67028,"lon":-2.82874,"postcode":"CA11 0BP","la":"Westmorland and Furness","era":"trad","nn":1550,"risk":51,"cat":"amber"},{"name":"Conservative Club","lat":54.66242,"lon":-2.75045,"postcode":"CA11 7AB","la":"Westmorland and Furness","era":"other","nn":69,"risk":18,"cat":"green"},{"name":"Cross Keys Inn","lat":54.43331,"lon":-2.5928,"postcode":"CA10 3UY","la":"Westmorland and Furness","era":"trad","nn":137,"risk":38,"cat":"amber"},{"name":"Cross Keys Inn","lat":50.16,"lon":-5.53,"postcode":"CA11 8TP","la":"Westmorland and Furness","era":"trad","nn":2414,"risk":57,"cat":"amber"},{"name":"Cumberland Hotel","lat":54.81227,"lon":-2.44171,"postcode":"CA9 3HX","la":"Westmorland and Furness","era":"other","nn":69,"risk":20,"cat":"green"},{"name":"Dockray Hall","lat":54.66282,"lon":-2.75344,"postcode":"CA11 7DE","la":"Westmorland and Furness","era":"other","nn":97,"risk":18,"cat":"green"},{"name":"Dog Beck","lat":54.66186,"lon":-2.75002,"postcode":"CA11 8JH","la":"Westmorland and Furness","era":"other","nn":69,"risk":18,"cat":"green"},{"name":"Drybeck Farm Events","lat":54.82393,"lon":-2.76303,"postcode":"CA4 9ST","la":"Cumberland","era":"other","nn":1893,"risk":58,"cat":"amber"},{"name":"Eden Arts","lat":54.65929,"lon":-2.7465,"postcode":"CA11 8HY","la":"Westmorland and Furness","era":"other","nn":353,"risk":20,"cat":"green"},{"name":"Fell Bar","lat":54.66316,"lon":-2.75128,"postcode":"CA11 7AY","la":"Westmorland and Furness","era":"other","nn":0,"risk":17,"cat":"green"},{"name":"George & Dragon Clifton","lat":54.63,"lon":-2.71978,"postcode":"CA10 2ER","la":"Westmorland and Furness","era":"trad","nn":1154,"risk":48,"cat":"amber"},{"name":"George Hotel","lat":54.46752,"lon":-2.58446,"postcode":"CA10 3RJ","la":"Westmorland and Furness","era":"trad","nn":3711,"risk":66,"cat":"red"},{"name":"Ghyll Barn","lat":54.6149,"lon":-2.51391,"postcode":"CA16 6BY","la":"Westmorland and Furness","era":"other","nn":312,"risk":39,"cat":"amber"},{"name":"Green Room, Lounge Bar","lat":54.64106,"lon":-2.65203,"postcode":"CA10 2DW","la":"Westmorland and Furness","era":"mod","nn":270,"risk":37,"cat":"amber"},{"name":"Grey Goat","lat":54.6654,"lon":-2.75121,"postcode":"CA11 7TH","la":"Westmorland and Furness","era":"other","nn":54,"risk":18,"cat":"green"},{"name":"Hare & Hounds","lat":54.57729,"lon":-2.49063,"postcode":"CA16 6XF","la":"Westmorland and Furness","era":"trad","nn":0,"risk":17,"cat":"green"},{"name":"Herdwick Inn","lat":54.6404,"lon":-2.89068,"postcode":"CA11 0QU","la":"Westmorland and Furness","era":"trad","nn":1870,"risk":53,"cat":"amber"},{"name":"Hopkinsons Caravan Park","lat":54.64733,"lon":-2.91716,"postcode":"CA11 0XB","la":"Westmorland and Furness","era":"other","nn":1870,"risk":53,"cat":"amber"},{"name":"Horse & Farrier","lat":54.63166,"lon":-2.83925,"postcode":"CA11 0HL","la":"Westmorland and Furness","era":"trad","nn":2439,"risk":57,"cat":"amber"},{"name":"Katy Edgars Outside Catering LTD  trading as The Fox Inn","lat":54.70636,"lon":-2.59051,"postcode":"CA10 1QA","la":"Westmorland and Furness","era":"trad","nn":2716,"risk":59,"cat":"amber"},{"name":"Keswick Golf Club","lat":54.62152,"lon":-3.03963,"postcode":"CA12 4SX","la":"Westmorland and Furness","era":"other","nn":809,"risk":40,"cat":"amber"},{"name":"Kirkby Stephen Sports & Social Club","lat":54.4727,"lon":-2.34831,"postcode":"CA17 4QN","la":"Westmorland and Furness","era":"mod","nn":42,"risk":18,"cat":"green"},{"name":"Lakeside Inn","lat":54.64171,"lon":-2.65607,"postcode":"CA10 2DW","la":"Westmorland and Furness","era":"trad","nn":0,"risk":35,"cat":"amber"},{"name":"Leisure Bowl","lat":54.64171,"lon":-2.65607,"postcode":"CA10 2DW","la":"Westmorland and Furness","era":"other","nn":0,"risk":35,"cat":"amber"},{"name":"Lowther Castle Inn","lat":54.60137,"lon":-2.70897,"postcode":"CA10 2HX","la":"Westmorland and Furness","era":"trad","nn":1573,"risk":51,"cat":"amber"},{"name":"Mardale Inn","lat":54.5564,"lon":-2.75201,"postcode":"CA10 2RQ","la":"Westmorland and Furness","era":"trad","nn":5595,"risk":75,"cat":"red"},{"name":"Masonic Hall also trading as TJ Catering","lat":54.66717,"lon":-2.75463,"postcode":"CA11 7QN","la":"Westmorland and Furness","era":"trad","nn":70,"risk":18,"cat":"green"},{"name":"Masons Arms","lat":54.61539,"lon":-2.51869,"postcode":"CA16 6BN","la":"Westmorland and Furness","era":"trad","nn":312,"risk":39,"cat":"amber"},{"name":"Nateby Inn","lat":54.45507,"lon":-2.34932,"postcode":"CA17 4JP","la":"Westmorland and Furness","era":"trad","nn":902,"risk":44,"cat":"amber"},{"name":"New Inn at Hoff","lat":54.55205,"lon":-2.50452,"postcode":"CA16 6TA","la":"Westmorland and Furness","era":"trad","nn":2838,"risk":60,"cat":"amber"},{"name":"Old Forge Micropub","lat":54.4745,"lon":-2.34884,"postcode":"CA17 4RE","la":"Westmorland and Furness","era":"trad","nn":55,"risk":18,"cat":"green"},{"name":"Pennine Hotel","lat":54.47337,"lon":-2.34832,"postcode":"CA17 4QT","la":"Westmorland and Furness","era":"other","nn":74,"risk":18,"cat":"green"},{"name":"Penrith Cricket Club","lat":54.65654,"lon":-2.74924,"postcode":"CA11 8PE","la":"Westmorland and Furness","era":"other","nn":353,"risk":20,"cat":"green"},{"name":"Penrith Rugby Club","lat":54.65913,"lon":-2.7347,"postcode":"CA11 8RQ","la":"Westmorland and Furness","era":"other","nn":759,"risk":40,"cat":"amber"},{"name":"Pooley Bridge Inn","lat":54.61248,"lon":-2.81934,"postcode":"CA10 2NN","la":"Westmorland and Furness","era":"trad","nn":0,"risk":35,"cat":"amber"},{"name":"Royal British Legion Club Appleby","lat":54.57627,"lon":-2.48996,"postcode":"CA16 6XG","la":"Westmorland and Furness","era":"trad","nn":122,"risk":18,"cat":"green"},{"name":"Royal Oak Inn","lat":54.57405,"lon":-2.48221,"postcode":"CA16 6UN","la":"Westmorland and Furness","era":"trad","nn":557,"risk":21,"cat":"green"},{"name":"Sandford Arms","lat":54.53972,"lon":-2.42051,"postcode":"CA16 6NR","la":"Westmorland and Furness","era":"trad","nn":5514,"risk":75,"cat":"red"},{"name":"Squirrel Inn","lat":54.63014,"lon":-2.73771,"postcode":"CA10 2JB","la":"Westmorland and Furness","era":"trad","nn":1154,"risk":48,"cat":"amber"},{"name":"Station Hotel","lat":54.66263,"lon":-2.75647,"postcode":"CA11 7JB","la":"Westmorland and Furness","era":"other","nn":139,"risk":18,"cat":"green"},{"name":"Strickland Arms","lat":54.59938,"lon":-2.68478,"postcode":"CA10 3DF","la":"Westmorland and Furness","era":"trad","nn":1573,"risk":51,"cat":"amber"},{"name":"Tebay Sports Social & Railway Club","lat":54.43453,"lon":-2.59312,"postcode":"CA10 3SP","la":"Westmorland and Furness","era":"other","nn":137,"risk":38,"cat":"amber"},{"name":"The Angel Inn","lat":54.81263,"lon":-2.44083,"postcode":"CA9 3HU","la":"Westmorland and Furness","era":"trad","nn":22,"risk":20,"cat":"green"},{"name":"The Bay Horse Inn","lat":54.4898,"lon":-2.3325,"postcode":"CA17 4HS","la":"Westmorland and Furness","era":"trad","nn":2003,"risk":54,"cat":"amber"},{"name":"The Beacon Social Club","lat":54.66626,"lon":-2.75545,"postcode":"CA11 7LY","la":"Westmorland and Furness","era":"mod","nn":53,"risk":18,"cat":"green"},{"name":"The Black Bull Hotel","lat":54.47257,"lon":-2.34893,"postcode":"CA17 4QW","la":"Westmorland and Furness","era":"trad","nn":42,"risk":18,"cat":"green"},{"name":"The Black Swan Hotel","lat":54.42957,"lon":-2.42907,"postcode":"CA17 4NG","la":"Westmorland and Furness","era":"trad","nn":2941,"risk":60,"cat":"amber"},{"name":"The Black Swan Inn","lat":54.6605,"lon":-2.6084,"postcode":"CA10 1QW","la":"Westmorland and Furness","era":"trad","nn":2406,"risk":57,"cat":"amber"},{"name":"The Blue Bell Inn","lat":54.83483,"lon":-2.68614,"postcode":"CA8 9DH","la":"Westmorland and Furness","era":"trad","nn":2353,"risk":56,"cat":"amber"},{"name":"The Board & Elbow Ltd","lat":54.66369,"lon":-2.75337,"postcode":"CA11 7HS","la":"Westmorland and Furness","era":"other","nn":65,"risk":18,"cat":"green"},{"name":"The Castlegate Arms","lat":54.66346,"lon":-2.75487,"postcode":"CA11 7HY","la":"Westmorland and Furness","era":"trad","nn":100,"risk":18,"cat":"green"},{"name":"The Crown and Cushion","lat":54.57732,"lon":-2.49138,"postcode":"CA16 6XB","la":"Westmorland and Furness","era":"trad","nn":48,"risk":18,"cat":"green"},{"name":"The Crown Inn","lat":54.76379,"lon":-2.69259,"postcode":"CA10 1DQ","la":"Westmorland and Furness","era":"trad","nn":0,"risk":37,"cat":"amber"},{"name":"The Crown Inn","lat":54.52894,"lon":-2.6769,"postcode":"CA10 3NL","la":"Westmorland and Furness","era":"trad","nn":314,"risk":37,"cat":"amber"},{"name":"The Crown Inn","lat":54.61231,"lon":-2.82141,"postcode":"CA10 2NP","la":"Westmorland and Furness","era":"trad","nn":135,"risk":36,"cat":"amber"},{"name":"The Dog and Gun Inn","lat":54.71095,"lon":-2.87675,"postcode":"CA11 9SE","la":"Westmorland and Furness","era":"trad","nn":4663,"risk":72,"cat":"red"},{"name":"The Druids Arms","lat":54.66522,"lon":-2.75043,"postcode":"CA11 7TJ","la":"Westmorland and Furness","era":"trad","nn":54,"risk":18,"cat":"green"},{"name":"The Dukes Head","lat":54.80739,"lon":-2.76998,"postcode":"CA4 9PB","la":"Westmorland and Furness","era":"trad","nn":284,"risk":39,"cat":"amber"},{"name":"The Engine Shed","lat":54.46271,"lon":-2.35403,"postcode":"CA17 4SZ","la":"Westmorland and Furness","era":"other","nn":901,"risk":41,"cat":"amber"},{"name":"The Fat Lamb","lat":54.41075,"lon":-2.39715,"postcode":"CA17 4LL","la":"Westmorland and Furness","era":"other","nn":2941,"risk":60,"cat":"amber"},{"name":"The Fetherston Arms","lat":54.76379,"lon":-2.69259,"postcode":"CA10 1DQ","la":"Westmorland and Furness","era":"trad","nn":0,"risk":37,"cat":"amber"},{"name":"The Fox and Pheasant","lat":54.80606,"lon":-2.7662,"postcode":"CA4 9PY","la":"Westmorland and Furness","era":"trad","nn":284,"risk":39,"cat":"amber"},{"name":"The Globe Inn","lat":54.75332,"lon":-2.82784,"postcode":"CA11 9QT","la":"Westmorland and Furness","era":"trad","nn":5662,"risk":75,"cat":"red"},{"name":"The Golden Fleece Inn","lat":54.5265,"lon":-2.31915,"postcode":"CA17 4BL","la":"Westmorland and Furness","era":"trad","nn":39,"risk":38,"cat":"amber"},{"name":"The Greyhound","lat":54.52185,"lon":-2.6712,"postcode":"CA10 3PW","la":"Westmorland and Furness","era":"trad","nn":555,"risk":39,"cat":"amber"},{"name":"The Highland Drove","lat":54.72434,"lon":-2.69731,"postcode":"CA11 9NA","la":"Westmorland and Furness","era":"other","nn":2874,"risk":60,"cat":"amber"},{"name":"The Horse & Farrier","lat":54.61929,"lon":-3.05159,"postcode":"CA12 4SQ","la":"Westmorland and Furness","era":"trad","nn":0,"risk":35,"cat":"amber"},{"name":"The Kings Arms","lat":54.6449,"lon":-2.79895,"postcode":"CA11 0EP","la":"Westmorland and Furness","era":"trad","nn":2190,"risk":55,"cat":"amber"},{"name":"The Kings Arms Hotel","lat":54.63894,"lon":-2.60511,"postcode":"CA10 1SB","la":"Westmorland and Furness","era":"trad","nn":2406,"risk":57,"cat":"amber"},{"name":"The La'l Nook","lat":54.47199,"lon":-2.34891,"postcode":"CA17 4QJ","la":"Westmorland and Furness","era":"other","nn":65,"risk":18,"cat":"green"},{"name":"The Loose Moose","lat":54.66427,"lon":-2.75324,"postcode":"CA11 7HL","la":"Westmorland and Furness","era":"other","nn":65,"risk":18,"cat":"green"},{"name":"The Lounge Hotel & Bar","lat":54.66333,"lon":-2.75077,"postcode":"CA11 7AJ","la":"Westmorland and Furness","era":"mod","nn":37,"risk":18,"cat":"green"},{"name":"The Midland Hotel","lat":54.74986,"lon":-2.70427,"postcode":"CA10 1BG","la":"Westmorland and Furness","era":"other","nn":1720,"risk":52,"cat":"amber"},{"name":"The Midland Hotel","lat":54.57986,"lon":-2.48777,"postcode":"CA16 6TS","la":"Westmorland and Furness","era":"other","nn":210,"risk":19,"cat":"green"},{"name":"The Mill Inn","lat":54.66356,"lon":-2.98884,"postcode":"CA11 0XR","la":"Westmorland and Furness","era":"trad","nn":4119,"risk":69,"cat":"red"},{"name":"The New Crown Inn","lat":54.60313,"lon":-2.56406,"postcode":"CA16 6AU","la":"Westmorland and Furness","era":"trad","nn":982,"risk":44,"cat":"amber"},{"name":"The New Inn 1730","lat":54.60434,"lon":-2.49777,"postcode":"CA16 6JS","la":"Westmorland and Furness","era":"trad","nn":1568,"risk":51,"cat":"amber"},{"name":"The Pinny","lat":54.66496,"lon":-2.75192,"postcode":"CA11 7TA","la":"Westmorland and Furness","era":"trad","nn":0,"risk":17,"cat":"green"},{"name":"The Punch Bowl","lat":54.60671,"lon":-2.75341,"postcode":"CA10 2PF","la":"Westmorland and Furness","era":"other","nn":0,"risk":37,"cat":"amber"},{"name":"The Queens Head","lat":54.63283,"lon":-2.77207,"postcode":"CA10 2JF","la":"Westmorland and Furness","era":"trad","nn":2190,"risk":55,"cat":"amber"},{"name":"The Queens Head Inn","lat":54.60671,"lon":-2.75341,"postcode":"CA10 2PF","la":"Westmorland and Furness","era":"trad","nn":0,"risk":37,"cat":"amber"},{"name":"The Quiet Site Shop and Bar and The Quiet Bite","lat":54.60446,"lon":-2.8827,"postcode":"CA11 0LS","la":"Westmorland and Furness","era":"mod","nn":897,"risk":44,"cat":"amber"},{"name":"The Robin Hood","lat":54.66316,"lon":-2.75128,"postcode":"CA11 7AY","la":"Westmorland and Furness","era":"other","nn":0,"risk":17,"cat":"green"},{"name":"The Robin Hood Inn","lat":54.81811,"lon":-2.66361,"postcode":"CA4 9RZ","la":"Westmorland and Furness","era":"trad","nn":2353,"risk":56,"cat":"amber"},{"name":"The Royal","lat":54.66674,"lon":-2.75542,"postcode":"CA11 7PZ","la":"Westmorland and Furness","era":"trad","nn":53,"risk":18,"cat":"green"},{"name":"The Royal Hotel","lat":54.58546,"lon":-2.94152,"postcode":"CA11 0JY","la":"Westmorland and Furness","era":"trad","nn":2060,"risk":54,"cat":"amber"},{"name":"The Salutation Inn","lat":54.61929,"lon":-3.05159,"postcode":"CA12 4SQ","la":"Westmorland and Furness","era":"trad","nn":0,"risk":35,"cat":"amber"},{"name":"The Shepherds Inn","lat":54.73015,"lon":-2.60015,"postcode":"CA10 1HE","la":"Westmorland and Furness","era":"trad","nn":2716,"risk":59,"cat":"amber"},{"name":"The Shepherds Inn","lat":54.69538,"lon":-2.66978,"postcode":"CA10 1LW","la":"Westmorland and Furness","era":"trad","nn":3673,"risk":66,"cat":"red"},{"name":"The Stag Inn","lat":54.62032,"lon":-2.48294,"postcode":"CA16 6DB","la":"Westmorland and Furness","era":"trad","nn":2017,"risk":54,"cat":"amber"},{"name":"The Sun Inn","lat":54.61248,"lon":-2.81934,"postcode":"CA10 2NN","la":"Westmorland and Furness","era":"trad","nn":0,"risk":35,"cat":"amber"},{"name":"The Sun Inn","lat":54.67934,"lon":-2.81042,"postcode":"CA11 0AP","la":"Westmorland and Furness","era":"trad","nn":1550,"risk":51,"cat":"amber"},{"name":"The Taggy Man","lat":54.47407,"lon":-2.34927,"postcode":"CA17 4QS","la":"Westmorland and Furness","era":"other","nn":55,"risk":18,"cat":"green"},{"name":"The Three Greyhounds","lat":54.51306,"lon":-2.49425,"postcode":"CA16 6EX","la":"Westmorland and Furness","era":"trad","nn":3891,"risk":67,"cat":"red"},{"name":"The Turk's Head","lat":54.81273,"lon":-2.43902,"postcode":"CA9 3HS","la":"Westmorland and Furness","era":"trad","nn":103,"risk":21,"cat":"green"},{"name":"The Warehouse","lat":54.66496,"lon":-2.75192,"postcode":"CA11 7TA","la":"Westmorland and Furness","era":"other","nn":0,"risk":17,"cat":"green"},{"name":"The White Horse Inn","lat":54.63155,"lon":-3.02446,"postcode":"CA12 4SY","la":"Westmorland and Furness","era":"trad","nn":1482,"risk":50,"cat":"amber"},{"name":"The White Horse Inn","lat":54.58451,"lon":-2.58908,"postcode":"CA10 3BU","la":"Westmorland and Furness","era":"trad","nn":2404,"risk":57,"cat":"amber"},{"name":"The Wilding","lat":54.52672,"lon":-2.31869,"postcode":"CA17 4AX","la":"Westmorland and Furness","era":"other","nn":39,"risk":38,"cat":"amber"},{"name":"Travellers Rest","lat":54.54406,"lon":-2.9589,"postcode":"CA11 0QQ","la":"Westmorland and Furness","era":"other","nn":4738,"risk":73,"cat":"red"},{"name":"Troutbeck Inn","lat":54.63508,"lon":-2.94789,"postcode":"CA11 0SJ","la":"Westmorland and Furness","era":"trad","nn":2401,"risk":57,"cat":"amber"},{"name":"Ullswater Holiday Park","lat":54.59782,"lon":-2.87482,"postcode":"CA11 0LR","la":"Westmorland and Furness","era":"other","nn":897,"risk":44,"cat":"amber"},{"name":"Upper Eden Rugby Club","lat":54.47076,"lon":-2.35235,"postcode":"CA17 4TF","la":"Westmorland and Furness","era":"other","nn":261,"risk":19,"cat":"green"},{"name":"Victoria Inn","lat":54.81185,"lon":-2.4385,"postcode":"CA9 3SE","la":"Westmorland and Furness","era":"trad","nn":103,"risk":21,"cat":"green"},{"name":"Woolpack","lat":54.66496,"lon":-2.75192,"postcode":"CA11 7TA","la":"Westmorland and Furness","era":"trad","nn":0,"risk":17,"cat":"green"}]