[{"name":"The Falcon Inn","lat":51.5727,"lon":-0.49865,"postcode":"UB9 5BE","la":"Buckinghamshire","era":"trad","nn":46,"risk":35,"cat":"amber"},{"name":"The King Denham","lat":51.56857,"lon":-0.50124,"postcode":"UB9 5AE","la":"Buckinghamshire","era":"trad","nn":493,"risk":38,"cat":"amber"},{"name":"The Swan Inn","lat":51.57311,"lon":-0.49862,"postcode":"UB9 5BH","la":"Buckinghamshire","era":"trad","nn":46,"risk":35,"cat":"amber"},{"name":"Toby Carvery","lat":51.57307,"lon":-0.52793,"postcode":"UB9 4LJ","la":"Buckinghamshire","era":"other","nn":1831,"risk":53,"cat":"amber"},{"name":"Crown Northolt","lat":51.54467,"lon":-0.37062,"postcode":"UB5 6AA","la":"Ealing","era":"trad","nn":548,"risk":34,"cat":"amber"},{"name":"Dicey Reillys","lat":51.5287,"lon":-0.35757,"postcode":"UB6 9QN","la":"Ealing","era":"other","nn":215,"risk":27,"cat":"green"},{"name":"Ealing Golf Club","lat":51.53268,"lon":-0.32074,"postcode":"UB6 8TS","la":"Ealing","era":"other","nn":170,"risk":26,"cat":"green"},{"name":"Everyone Active","lat":51.53204,"lon":-0.33387,"postcode":"UB6 8TJ","la":"Ealing","era":"other","nn":385,"risk":28,"cat":"green"},{"name":"Greenford Arms","lat":51.52792,"lon":-0.35283,"postcode":"UB6 9PR","la":"Ealing","era":"trad","nn":58,"risk":25,"cat":"green"},{"name":"Greenford Conservative Club","lat":51.53812,"lon":-0.34787,"postcode":"UB6 8PY","la":"Ealing","era":"other","nn":289,"risk":27,"cat":"green"},{"name":"Greenford Tennis Club","lat":51.53198,"lon":-0.35808,"postcode":"UB6 9QY","la":"Ealing","era":"other","nn":366,"risk":28,"cat":"green"},{"name":"Hanwell Town FC","lat":51.53302,"lon":-0.32852,"postcode":"UB6 8UT","la":"Ealing","era":"other","nn":301,"risk":30,"cat":"green"},{"name":"Horsenden Hill Activity Centre","lat":51.54912,"lon":-0.32335,"postcode":"UB6 0RD","la":"Ealing","era":"trad","nn":434,"risk":33,"cat":"amber"},{"name":"Larkspur Rovers Football Club","lat":51.55018,"lon":-0.37973,"postcode":"UB5 5FE","la":"Ealing","era":"other","nn":855,"risk":36,"cat":"amber"},{"name":"Lavish Lounge","lat":51.49682,"lon":-0.37575,"postcode":"UB2 4JS","la":"Ealing","era":"mod","nn":660,"risk":30,"cat":"green"},{"name":"London Marathon Playing Field","lat":51.54067,"lon":-0.35107,"postcode":"UB6 8PN","la":"Ealing","era":"other","nn":359,"risk":30,"cat":"green"},{"name":"Moloneys","lat":51.5499,"lon":-0.3394,"postcode":"UB6 0HH","la":"Ealing","era":"other","nn":162,"risk":26,"cat":"green"},{"name":"Monsoon Banqueting Suite (Bar Only)","lat":51.50345,"lon":-0.38092,"postcode":"UB2 4BG","la":"Ealing","era":"mod","nn":375,"risk":30,"cat":"green"},{"name":"Myllet Arms","lat":51.53297,"lon":-0.32315,"postcode":"UB6 8TE","la":"Ealing","era":"trad","nn":170,"risk":26,"cat":"green"},{"name":"North Greenford United Football Club","lat":51.54847,"lon":-0.33891,"postcode":"UB6 0NX","la":"Ealing","era":"other","nn":162,"risk":26,"cat":"green"},{"name":"Perivale Residents Association","lat":51.53532,"lon":-0.32623,"postcode":"UB6 8GP","la":"Ealing","era":"other","nn":301,"risk":30,"cat":"green"},{"name":"Piwnica Na Pietrze","lat":51.55593,"lon":-0.3369,"postcode":"UB6 0HY","la":"Ealing","era":"other","nn":33,"risk":25,"cat":"green"},{"name":"Prince Of Wales Southall","lat":51.49933,"lon":-0.39141,"postcode":"UB2 5ED","la":"Ealing","era":"trad","nn":342,"risk":27,"cat":"green"},{"name":"Royal British Legion Club","lat":51.53562,"lon":-0.34903,"postcode":"UB6 9JS","la":"Ealing","era":"trad","nn":177,"risk":26,"cat":"green"},{"name":"The Ballot Box","lat":51.54902,"lon":-0.32963,"postcode":"UB6 7QL","la":"Ealing","era":"other","nn":434,"risk":28,"cat":"green"},{"name":"The Bar","lat":51.54249,"lon":-0.3797,"postcode":"UB5 5AW","la":"Ealing","era":"other","nn":673,"risk":47,"cat":"amber"},{"name":"The Bridge Hotel","lat":51.535,"lon":-0.34668,"postcode":"UB6 8ST","la":"Ealing","era":"other","nn":177,"risk":26,"cat":"green"},{"name":"The Greenwood Hotel","lat":51.55319,"lon":-0.35262,"postcode":"UB5 4LA","la":"Ealing","era":"other","nn":201,"risk":29,"cat":"green"},{"name":"The Hare And Hounds","lat":51.53186,"lon":-0.36716,"postcode":"UB6 9RZ","la":"Ealing","era":"trad","nn":629,"risk":34,"cat":"amber"},{"name":"The Mandeville Arms Harvester","lat":51.54874,"lon":-0.36614,"postcode":"UB5 4LU","la":"Ealing","era":"trad","nn":548,"risk":46,"cat":"amber"},{"name":"The Office","lat":51.55213,"lon":-0.35026,"postcode":"UB5 4RR","la":"Ealing","era":"other","nn":201,"risk":31,"cat":"amber"},{"name":"The Old Oak Tree Pub","lat":51.49515,"lon":-0.38764,"postcode":"UB2 5PJ","la":"Ealing","era":"trad","nn":534,"risk":29,"cat":"green"},{"name":"The Plough","lat":51.49511,"lon":-0.36598,"postcode":"UB2 4LG","la":"Ealing","era":"trad","nn":702,"risk":47,"cat":"amber"},{"name":"The Plough","lat":51.51353,"lon":-0.37305,"postcode":"UB1 2JN","la":"Ealing","era":"trad","nn":352,"risk":48,"cat":"amber"},{"name":"The Raging Ball","lat":51.52797,"lon":-0.3547,"postcode":"UB6 9PN","la":"Ealing","era":"other","nn":102,"risk":26,"cat":"green"},{"name":"The Railway Hotel","lat":51.54326,"lon":-0.34494,"postcode":"UB6 0AP","la":"Ealing","era":"trad","nn":513,"risk":29,"cat":"green"},{"name":"The Scotsman Pub & Restaurant","lat":51.50234,"lon":-0.39242,"postcode":"UB2 5DE","la":"Ealing","era":"other","nn":342,"risk":27,"cat":"green"},{"name":"The Terrace","lat":51.51053,"lon":-0.37141,"postcode":"UB1 3DN","la":"Ealing","era":"other","nn":352,"risk":48,"cat":"amber"},{"name":"The Three Wishes","lat":51.52753,"lon":-0.3534,"postcode":"UB6 9PH","la":"Ealing","era":"other","nn":58,"risk":25,"cat":"green"},{"name":"The Underground Bar","lat":51.50043,"lon":-0.38331,"postcode":"UB2 4DB","la":"Ealing","era":"other","nn":375,"risk":28,"cat":"green"},{"name":"Tiffty's Tavern","lat":51.55616,"lon":-0.3366,"postcode":"UB6 0HY","la":"Ealing","era":"other","nn":33,"risk":25,"cat":"green"},{"name":"West Middlesex Golf Club (Bar Only)","lat":51.51293,"lon":-0.35441,"postcode":"UB1 3EE","la":"Ealing","era":"mod","nn":977,"risk":52,"cat":"amber"},{"name":"Airport Bowl - Barcelos - Airport Lounge Bar","lat":51.48102,"lon":-0.42538,"postcode":"UB3 5AL","la":"Hillingdon","era":"mod","nn":826,"risk":51,"cat":"amber"},{"name":"Atik","lat":51.54408,"lon":-0.47408,"postcode":"UB8 1LE","la":"Hillingdon","era":"other","nn":116,"risk":26,"cat":"green"},{"name":"Bar Italia","lat":51.54844,"lon":-0.48103,"postcode":"UB8 1JT","la":"Hillingdon","era":"mod","nn":84,"risk":26,"cat":"green"},{"name":"Bar@Stockley","lat":51.51326,"lon":-0.44417,"postcode":"UB11 1AQ","la":"Hillingdon","era":"other","nn":921,"risk":37,"cat":"amber"},{"name":"Barnhill Community Centre","lat":51.53213,"lon":-0.40612,"postcode":"UB4 9HG","la":"Hillingdon","era":"other","nn":979,"risk":37,"cat":"amber"},{"name":"Blues Bar","lat":51.50899,"lon":-0.47368,"postcode":"UB7 7BT","la":"Hillingdon","era":"other","nn":133,"risk":31,"cat":"amber"},{"name":"Breakspear Arms","lat":51.57935,"lon":-0.44843,"postcode":"UB9 6LT","la":"Hillingdon","era":"trad","nn":969,"risk":52,"cat":"amber"},{"name":"Brook House Football Club","lat":51.5322,"lon":-0.42028,"postcode":"UB4 8BZ","la":"Hillingdon","era":"mod","nn":0,"risk":28,"cat":"green"},{"name":"Captain Morgans","lat":51.50463,"lon":-0.42106,"postcode":"UB3 1AX","la":"Hillingdon","era":"other","nn":142,"risk":26,"cat":"green"},{"name":"Carpenters Arms","lat":51.52639,"lon":-0.4371,"postcode":"UB4 8JJ","la":"Hillingdon","era":"trad","nn":260,"risk":47,"cat":"amber"},{"name":"Charville Social Club","lat":51.53607,"lon":-0.42854,"postcode":"UB4 8LF","la":"Hillingdon","era":"mod","nn":510,"risk":31,"cat":"amber"},{"name":"Coach & Horses","lat":51.56459,"lon":-0.44314,"postcode":"UB10 8LJ","la":"Hillingdon","era":"trad","nn":0,"risk":30,"cat":"green"},{"name":"Crown & Treaty","lat":51.55,"lon":-0.4844,"postcode":"UB8 1LU","la":"Hillingdon","era":"trad","nn":291,"risk":27,"cat":"green"},{"name":"De Burgh Arms Hotel","lat":51.51018,"lon":-0.47368,"postcode":"UB7 7DQ","la":"Hillingdon","era":"trad","nn":133,"risk":31,"cat":"amber"},{"name":"Five Rivers Bar","lat":51.52281,"lon":-0.42117,"postcode":"UB4 0RJ","la":"Hillingdon","era":"other","nn":285,"risk":30,"cat":"green"},{"name":"Gardeners Arms","lat":51.54689,"lon":-0.4722,"postcode":"UB8 1NW","la":"Hillingdon","era":"trad","nn":332,"risk":28,"cat":"green"},{"name":"General Elliott","lat":51.54097,"lon":-0.49098,"postcode":"UB8 2UR","la":"Hillingdon","era":"other","nn":304,"risk":27,"cat":"green"},{"name":"George & Dragon","lat":51.51479,"lon":-0.47376,"postcode":"UB7 7BE","la":"Hillingdon","era":"trad","nn":397,"risk":33,"cat":"amber"},{"name":"Goals Soccer Centre","lat":51.5098,"lon":-0.39951,"postcode":"UB4 0LP","la":"Hillingdon","era":"other","nn":964,"risk":50,"cat":"amber"},{"name":"Harefield Community Accociation","lat":51.59156,"lon":-0.48362,"postcode":"UB9 6AP","la":"Hillingdon","era":"other","nn":329,"risk":48,"cat":"amber"},{"name":"Harefield Cricket Club","lat":51.60302,"lon":-0.47798,"postcode":"UB9 6NE","la":"Hillingdon","era":"other","nn":0,"risk":28,"cat":"green"},{"name":"Harefield Hospital Bowling Club","lat":51.60947,"lon":-0.48139,"postcode":"UB9 6LD","la":"Hillingdon","era":"other","nn":567,"risk":32,"cat":"amber"},{"name":"Harefield United Football Club","lat":51.60302,"lon":-0.47798,"postcode":"UB9 6NE","la":"Hillingdon","era":"other","nn":0,"risk":28,"cat":"green"},{"name":"Hayes & Harlington Community Associa","lat":51.50204,"lon":-0.42441,"postcode":"UB3 4HR","la":"Hillingdon","era":"other","nn":369,"risk":28,"cat":"green"},{"name":"Hayes & Harlington Conservative Asso","lat":51.51348,"lon":-0.42034,"postcode":"UB3 2LE","la":"Hillingdon","era":"other","nn":569,"risk":29,"cat":"green"},{"name":"Hayes Bowls Club","lat":51.50796,"lon":-0.41934,"postcode":"UB3 2FB","la":"Hillingdon","era":"other","nn":200,"risk":27,"cat":"green"},{"name":"Hayes Cricket Club (Bar)","lat":51.51965,"lon":-0.42302,"postcode":"UB3 2RJ","la":"Hillingdon","era":"other","nn":374,"risk":30,"cat":"green"},{"name":"Hayes Rugby Football Club","lat":51.5322,"lon":-0.42028,"postcode":"UB4 8BZ","la":"Hillingdon","era":"other","nn":0,"risk":28,"cat":"green"},{"name":"Hayes Working Mens Club","lat":51.50511,"lon":-0.41357,"postcode":"UB3 3NB","la":"Hillingdon","era":"trad","nn":384,"risk":28,"cat":"green"},{"name":"Hillingdon Abbots RFC","lat":51.538,"lon":-0.43522,"postcode":"UB4 8PS","la":"Hillingdon","era":"other","nn":510,"risk":49,"cat":"amber"},{"name":"Hillingdon Canal Club","lat":51.54234,"lon":-0.48717,"postcode":"UB8 2QX","la":"Hillingdon","era":"other","nn":208,"risk":27,"cat":"green"},{"name":"Hillingdon Golf Club Bar","lat":51.5376,"lon":-0.46137,"postcode":"UB10 0JR","la":"Hillingdon","era":"other","nn":241,"risk":27,"cat":"green"},{"name":"Hillingdon Manor Cricket Club","lat":51.53472,"lon":-0.45787,"postcode":"UB10 0PN","la":"Hillingdon","era":"other","nn":244,"risk":27,"cat":"green"},{"name":"Hole 19 Ltd","lat":51.56797,"lon":-0.46898,"postcode":"UB10 8AQ","la":"Hillingdon","era":"other","nn":1548,"risk":59,"cat":"amber"},{"name":"Home and Bar Restaurant","lat":51.56459,"lon":-0.44314,"postcode":"UB10 8LJ","la":"Hillingdon","era":"mod","nn":0,"risk":30,"cat":"green"},{"name":"Ickenham Cricket Club","lat":51.57012,"lon":-0.44684,"postcode":"UB10 8UT","la":"Hillingdon","era":"other","nn":641,"risk":32,"cat":"amber"},{"name":"Inhibitions Night Club","lat":51.50917,"lon":-0.43259,"postcode":"UB3 1EJ","la":"Hillingdon","era":"other","nn":0,"risk":25,"cat":"green"},{"name":"Ivy Leaf Club","lat":51.51168,"lon":-0.47659,"postcode":"UB7 7RJ","la":"Hillingdon","era":"other","nn":261,"risk":32,"cat":"amber"},{"name":"Ivy Leaf Memorial Club","lat":51.54367,"lon":-0.4826,"postcode":"UB8 2AP","la":"Hillingdon","era":"other","nn":110,"risk":26,"cat":"green"},{"name":"King William IV","lat":51.48995,"lon":-0.45751,"postcode":"UB7 0HT","la":"Hillingdon","era":"trad","nn":394,"risk":48,"cat":"amber"},{"name":"Kings Arms","lat":51.60456,"lon":-0.4836,"postcode":"UB9 6BJ","la":"Hillingdon","era":"trad","nn":284,"risk":30,"cat":"green"},{"name":"Loco's bar","lat":51.53296,"lon":-0.47201,"postcode":"UB8 3PH","la":"Hillingdon","era":"other","nn":0,"risk":25,"cat":"green"},{"name":"Loco's Food","lat":51.53296,"lon":-0.47201,"postcode":"UB8 3PH","la":"Hillingdon","era":"other","nn":0,"risk":25,"cat":"green"},{"name":"Mecca Bingo","lat":51.51838,"lon":-0.40869,"postcode":"UB4 0SD","la":"Hillingdon","era":"other","nn":709,"risk":33,"cat":"amber"},{"name":"Millers Tap; 88th Street; Value Mighty and Sin City Burger?","lat":51.54468,"lon":-0.47544,"postcode":"UB8 1LB","la":"Hillingdon","era":"other","nn":116,"risk":26,"cat":"green"},{"name":"Pub Punjabi","lat":51.51043,"lon":-0.41372,"postcode":"UB3 3HE","la":"Hillingdon","era":"other","nn":300,"risk":27,"cat":"green"},{"name":"Queens Head","lat":51.54542,"lon":-0.48059,"postcode":"UB8 1AB","la":"Hillingdon","era":"trad","nn":0,"risk":25,"cat":"green"},{"name":"RNA Uxbridge","lat":51.55119,"lon":-0.44784,"postcode":"UB10 9PG","la":"Hillingdon","era":"other","nn":37,"risk":43,"cat":"amber"},{"name":"Royal Naval Association","lat":51.55113,"lon":-0.44837,"postcode":"UB10 9PG","la":"Hillingdon","era":"trad","nn":37,"risk":43,"cat":"amber"},{"name":"Swallow Inn","lat":51.55363,"lon":-0.45022,"postcode":"UB10 9NR","la":"Hillingdon","era":"trad","nn":305,"risk":45,"cat":"amber"},{"name":"The Adam & Eve PH","lat":51.5216,"lon":-0.41753,"postcode":"UB4 0RR","la":"Hillingdon","era":"other","nn":285,"risk":30,"cat":"green"},{"name":"The Botwell Inn","lat":51.50837,"lon":-0.41654,"postcode":"UB3 3EB","la":"Hillingdon","era":"trad","nn":200,"risk":27,"cat":"green"},{"name":"The Brookhouse","lat":51.53216,"lon":-0.42048,"postcode":"UB4 8BZ","la":"Hillingdon","era":"other","nn":15,"risk":28,"cat":"green"},{"name":"The Cat And Fiddle Ph","lat":51.49719,"lon":-0.47298,"postcode":"UB7 7UF","la":"Hillingdon","era":"other","nn":962,"risk":52,"cat":"amber"},{"name":"The Crown","lat":51.48874,"lon":-0.47797,"postcode":"UB7 0AJ","la":"Hillingdon","era":"trad","nn":53,"risk":46,"cat":"amber"},{"name":"The Crown","lat":51.53103,"lon":-0.48213,"postcode":"UB8 2NL","la":"Hillingdon","era":"trad","nn":130,"risk":29,"cat":"green"},{"name":"The Crown P H","lat":51.52281,"lon":-0.45692,"postcode":"UB8 3QH","la":"Hillingdon","era":"trad","nn":383,"risk":48,"cat":"amber"},{"name":"The Dolphin Pub","lat":51.54416,"lon":-0.48788,"postcode":"UB8 2UB","la":"Hillingdon","era":"other","nn":208,"risk":27,"cat":"green"},{"name":"The Fig Tree","lat":51.54542,"lon":-0.48059,"postcode":"UB8 1AB","la":"Hillingdon","era":"other","nn":0,"risk":25,"cat":"green"},{"name":"The Five Bells","lat":51.48918,"lon":-0.47823,"postcode":"UB7 0AQ","la":"Hillingdon","era":"other","nn":53,"risk":43,"cat":"amber"},{"name":"The Good Yarn","lat":51.54775,"lon":-0.48055,"postcode":"UB8 1JX","la":"Hillingdon","era":"other","nn":0,"risk":25,"cat":"green"},{"name":"The Great Western","lat":51.49729,"lon":-0.43058,"postcode":"UB3 1NF","la":"Hillingdon","era":"other","nn":679,"risk":35,"cat":"amber"},{"name":"The Harefield","lat":51.60202,"lon":-0.4832,"postcode":"UB9 6BY","la":"Hillingdon","era":"other","nn":284,"risk":30,"cat":"green"},{"name":"The Hut PH","lat":51.52054,"lon":-0.45276,"postcode":"UB8 3LH","la":"Hillingdon","era":"other","nn":383,"risk":45,"cat":"amber"},{"name":"The Kings Arms","lat":51.47947,"lon":-0.49184,"postcode":"UB7 0EG","la":"Hillingdon","era":"trad","nn":166,"risk":29,"cat":"green"},{"name":"The Malt Shovel Ph","lat":51.52915,"lon":-0.48558,"postcode":"UB8 2JE","la":"Hillingdon","era":"other","nn":233,"risk":44,"cat":"amber"},{"name":"The Metropolitan","lat":51.54542,"lon":-0.48059,"postcode":"UB8 1AB","la":"Hillingdon","era":"other","nn":0,"risk":25,"cat":"green"},{"name":"The Music Box (Pub)","lat":51.50299,"lon":-0.44005,"postcode":"UB3 1QT","la":"Hillingdon","era":"other","nn":859,"risk":36,"cat":"amber"},{"name":"The Old Crown","lat":51.50503,"lon":-0.41912,"postcode":"UB3 4BG","la":"Hillingdon","era":"trad","nn":142,"risk":26,"cat":"green"},{"name":"The Pheasant PH","lat":51.4852,"lon":-0.43948,"postcode":"UB3 5LX","la":"Hillingdon","era":"other","nn":316,"risk":32,"cat":"amber"},{"name":"The Plough","lat":51.49349,"lon":-0.45786,"postcode":"UB7 0HW","la":"Hillingdon","era":"trad","nn":394,"risk":48,"cat":"amber"},{"name":"The River Garden","lat":51.58882,"lon":-0.48183,"postcode":"UB9 6PE","la":"Hillingdon","era":"other","nn":329,"risk":48,"cat":"amber"},{"name":"The Royal British Legion","lat":51.53274,"lon":-0.45146,"postcode":"UB10 0LQ","la":"Hillingdon","era":"trad","nn":495,"risk":34,"cat":"amber"},{"name":"The Titchenham Inn","lat":51.56448,"lon":-0.44496,"postcode":"UB10 8DF","la":"Hillingdon","era":"trad","nn":127,"risk":31,"cat":"amber"},{"name":"The Vine Inn Ph","lat":51.53543,"lon":-0.4612,"postcode":"UB10 0JQ","la":"Hillingdon","era":"trad","nn":241,"risk":27,"cat":"green"},{"name":"The Wishing Well - wet pub only","lat":51.52552,"lon":-0.43361,"postcode":"UB4 8JF","la":"Hillingdon","era":"other","nn":260,"risk":32,"cat":"amber"},{"name":"Three Steps","lat":51.52987,"lon":-0.48241,"postcode":"UB8 2DX","la":"Hillingdon","era":"other","nn":130,"risk":29,"cat":"green"},{"name":"Three Tuns","lat":51.54534,"lon":-0.47851,"postcode":"UB8 1JN","la":"Hillingdon","era":"other","nn":145,"risk":26,"cat":"green"},{"name":"Uxbridge And District Conservative Club","lat":51.55168,"lon":-0.47958,"postcode":"UB8 1PJ","la":"Hillingdon","era":"other","nn":375,"risk":28,"cat":"green"},{"name":"Uxbridge Ex-Services Club","lat":51.54312,"lon":-0.48128,"postcode":"UB8 2LT","la":"Hillingdon","era":"other","nn":110,"risk":26,"cat":"green"},{"name":"Uxbridge Football Club Bar","lat":51.51335,"lon":-0.45847,"postcode":"UB7 8HX","la":"Hillingdon","era":"other","nn":892,"risk":49,"cat":"amber"},{"name":"Uxbridge Sports Club","lat":51.55151,"lon":-0.47133,"postcode":"UB8 1NR","la":"Hillingdon","era":"other","nn":518,"risk":29,"cat":"green"},{"name":"Walnut Tree","lat":51.52636,"lon":-0.39402,"postcode":"UB4 9BL","la":"Hillingdon","era":"other","nn":720,"risk":50,"cat":"amber"},{"name":"Wheatsheaf","lat":51.48546,"lon":-0.43493,"postcode":"UB3 5DU","la":"Hillingdon","era":"trad","nn":316,"risk":32,"cat":"amber"},{"name":"Whelans","lat":51.54775,"lon":-0.48055,"postcode":"UB8 1JX","la":"Hillingdon","era":"other","nn":0,"risk":25,"cat":"green"},{"name":"White Hart","lat":51.48922,"lon":-0.43582,"postcode":"UB3 5DP","la":"Hillingdon","era":"trad","nn":423,"risk":33,"cat":"amber"},{"name":"White Horse Inn","lat":51.4808,"lon":-0.49074,"postcode":"UB7 0EE","la":"Hillingdon","era":"trad","nn":166,"risk":29,"cat":"green"},{"name":"Woolpack","lat":51.50917,"lon":-0.43259,"postcode":"UB3 1EJ","la":"Hillingdon","era":"trad","nn":0,"risk":25,"cat":"green"},{"name":"Yeading Community Centre","lat":51.52647,"lon":-0.3836,"postcode":"UB4 9BH","la":"Hillingdon","era":"other","nn":720,"risk":50,"cat":"amber"},{"name":"The Coy Carp","lat":51.60804,"lon":-0.49914,"postcode":"UB9 6HZ","la":"Three Rivers","era":"other","nn":1016,"risk":59,"cat":"amber"}]