[{"name":"Ashton-In-Makerfield Golf Club Ltd","lat":53.48269,"lon":-2.66028,"postcode":"WN4 0YT","la":"St. Helens","era":"other","nn":0,"risk":45,"cat":"amber"},{"name":"Billinge FC","lat":53.4879,"lon":-2.70878,"postcode":"WN5 7TX","la":"St. Helens","era":"other","nn":174,"risk":31,"cat":"amber"},{"name":"Blue Bell Inn","lat":53.49867,"lon":-2.66896,"postcode":"WN4 0QF","la":"St. Helens","era":"trad","nn":447,"risk":33,"cat":"amber"},{"name":"Clare Chapman Catering","lat":53.48269,"lon":-2.66028,"postcode":"WN4 0YT","la":"St. Helens","era":"other","nn":0,"risk":45,"cat":"amber"},{"name":"Eagle & Child","lat":53.50103,"lon":-2.70598,"postcode":"WN5 7HD","la":"St. Helens","era":"trad","nn":557,"risk":46,"cat":"amber"},{"name":"Forresters Arms","lat":53.49627,"lon":-2.70859,"postcode":"WN5 7PA","la":"St. Helens","era":"trad","nn":224,"risk":31,"cat":"amber"},{"name":"Garswood Conservative Club","lat":53.48902,"lon":-2.67278,"postcode":"WN4 0SA","la":"St. Helens","era":"other","nn":83,"risk":43,"cat":"amber"},{"name":"Garswood United A.F.C","lat":53.49768,"lon":-2.68129,"postcode":"WN4 0XH","la":"St. Helens","era":"other","nn":213,"risk":44,"cat":"amber"},{"name":"Masons Arms","lat":53.48737,"lon":-2.71126,"postcode":"WN5 7TY","la":"St. Helens","era":"trad","nn":174,"risk":44,"cat":"amber"},{"name":"Simms Road Inn","lat":53.49579,"lon":-2.68078,"postcode":"WN4 0XH","la":"St. Helens","era":"trad","nn":213,"risk":29,"cat":"green"},{"name":"The Billinge Arms","lat":53.49448,"lon":-2.71013,"postcode":"WN5 7PB","la":"St. Helens","era":"trad","nn":224,"risk":29,"cat":"green"},{"name":"The Railway Inn","lat":53.48895,"lon":-2.67152,"postcode":"WN4 0SA","la":"St. Helens","era":"trad","nn":83,"risk":43,"cat":"amber"},{"name":"Beacon Park Golf Centre","lat":53.55859,"lon":-2.74927,"postcode":"WN8 7RU","la":"West Lancashire","era":"other","nn":1407,"risk":60,"cat":"amber"},{"name":"Britannia Inn","lat":53.54185,"lon":-2.7277,"postcode":"WN8 0PB","la":"West Lancashire","era":"trad","nn":441,"risk":36,"cat":"amber"},{"name":"Dean Wood Golf Club House","lat":53.54907,"lon":-2.71775,"postcode":"WN8 0QZ","la":"West Lancashire","era":"other","nn":557,"risk":51,"cat":"amber"},{"name":"Delph Tavern","lat":53.53442,"lon":-2.71799,"postcode":"WN5 8UJ","la":"West Lancashire","era":"other","nn":407,"risk":30,"cat":"green"},{"name":"Derby Arms","lat":53.54834,"lon":-2.79399,"postcode":"WN8 8AF","la":"West Lancashire","era":"trad","nn":582,"risk":34,"cat":"amber"},{"name":"Grimshaw Lane Inn","lat":53.54468,"lon":-2.77079,"postcode":"WN8 9NP","la":"West Lancashire","era":"trad","nn":418,"risk":30,"cat":"green"},{"name":"Hare And Hounds","lat":53.5406,"lon":-2.75107,"postcode":"WN8 9AA","la":"West Lancashire","era":"trad","nn":392,"risk":33,"cat":"amber"},{"name":"Newburgh Sports Club","lat":53.58329,"lon":-2.78398,"postcode":"WN8 7NB","la":"West Lancashire","era":"other","nn":387,"risk":50,"cat":"amber"},{"name":"Pesto at the Dicconson Arms","lat":53.59052,"lon":-2.72462,"postcode":"WN6 9DY","la":"West Lancashire","era":"trad","nn":1746,"risk":62,"cat":"red"},{"name":"Rigbye Arms","lat":53.60173,"lon":-2.74697,"postcode":"WN6 9QB","la":"West Lancashire","era":"trad","nn":1931,"risk":64,"cat":"red"},{"name":"St Teresas Catholic Club","lat":53.54847,"lon":-2.72612,"postcode":"WN8 0PY","la":"West Lancashire","era":"other","nn":557,"risk":36,"cat":"amber"},{"name":"Tawd Vale Inn","lat":53.55525,"lon":-2.79201,"postcode":"WN8 8QZ","la":"West Lancashire","era":"trad","nn":566,"risk":36,"cat":"amber"},{"name":"The Bridge Inn","lat":53.57485,"lon":-2.72292,"postcode":"WN6 9AR","la":"West Lancashire","era":"trad","nn":1482,"risk":60,"cat":"amber"},{"name":"The Buffs Community Club","lat":53.54349,"lon":-2.76479,"postcode":"WN8 9AL","la":"West Lancashire","era":"other","nn":340,"risk":30,"cat":"green"},{"name":"The Busy Bee","lat":53.55254,"lon":-2.79926,"postcode":"WN8 8PQ","la":"West Lancashire","era":"other","nn":542,"risk":34,"cat":"amber"},{"name":"The Duck","lat":53.86121,"lon":-2.56928,"postcode":"WN8 9HR","la":"West Lancashire","era":"other","nn":1269,"risk":59,"cat":"amber"},{"name":"The Elmridge Arms","lat":53.54804,"lon":-2.76101,"postcode":"WN8 6DF","la":"West Lancashire","era":"trad","nn":564,"risk":31,"cat":"amber"},{"name":"The Market Gate","lat":53.54885,"lon":-2.80461,"postcode":"WN8 8LP","la":"West Lancashire","era":"other","nn":200,"risk":29,"cat":"green"},{"name":"The Miners Peg","lat":53.55329,"lon":-2.77923,"postcode":"WN8 6LH","la":"West Lancashire","era":"other","nn":499,"risk":49,"cat":"amber"},{"name":"The Plough And Harrow","lat":53.54044,"lon":-2.74515,"postcode":"WN8 0AA","la":"West Lancashire","era":"trad","nn":392,"risk":48,"cat":"amber"},{"name":"The Polaris","lat":53.54179,"lon":-2.76052,"postcode":"WN8 9AZ","la":"West Lancashire","era":"other","nn":251,"risk":29,"cat":"green"},{"name":"The Red Lion","lat":53.58614,"lon":-2.7806,"postcode":"WN8 7NF","la":"West Lancashire","era":"trad","nn":387,"risk":50,"cat":"amber"},{"name":"The Viking","lat":53.54989,"lon":-2.77431,"postcode":"WN8 6LJ","la":"West Lancashire","era":"trad","nn":499,"risk":34,"cat":"amber"},{"name":"The Winchester Skelmersdale Ex-Servi","lat":53.54531,"lon":-2.81109,"postcode":"WN8 8BX","la":"West Lancashire","era":"trad","nn":582,"risk":37,"cat":"amber"},{"name":"Up Holland Labour Club","lat":53.54185,"lon":-2.75672,"postcode":"WN8 9AR","la":"West Lancashire","era":"other","nn":251,"risk":29,"cat":"green"},{"name":"Up Holland Village Club","lat":53.54035,"lon":-2.72151,"postcode":"WN8 0ND","la":"West Lancashire","era":"other","nn":97,"risk":31,"cat":"amber"},{"name":"Victoria Hotel","lat":53.55016,"lon":-2.80669,"postcode":"WN8 8LA","la":"West Lancashire","era":"trad","nn":200,"risk":29,"cat":"green"},{"name":"Wardens Club","lat":53.55135,"lon":-2.81614,"postcode":"WN8 8TX","la":"West Lancashire","era":"other","nn":639,"risk":37,"cat":"amber"},{"name":"White Lion","lat":53.59857,"lon":-2.6975,"postcode":"WN6 9RE","la":"West Lancashire","era":"trad","nn":2001,"risk":64,"cat":"red"},{"name":"White Lion Hotel","lat":53.53949,"lon":-2.7218,"postcode":"WN8 0ND","la":"West Lancashire","era":"trad","nn":97,"risk":31,"cat":"amber"},{"name":"@31","lat":53.54655,"lon":-2.63339,"postcode":"WN1 1LR","la":"Wigan","era":"other","nn":3,"risk":22,"cat":"green"},{"name":"Abram Village Club","lat":53.50854,"lon":-2.59237,"postcode":"WN2 5RJ","la":"Wigan","era":"trad","nn":1019,"risk":52,"cat":"amber"},{"name":"AFC Hindley Juniors","lat":53.52747,"lon":-2.57425,"postcode":"WN2 3RX","la":"Wigan","era":"other","nn":506,"risk":26,"cat":"green"},{"name":"Albion Ale House","lat":53.58608,"lon":-2.66314,"postcode":"WN6 0HL","la":"Wigan","era":"other","nn":31,"risk":22,"cat":"green"},{"name":"Ale House","lat":53.49901,"lon":-2.51701,"postcode":"WN7 1LP","la":"Wigan","era":"other","nn":111,"risk":23,"cat":"green"},{"name":"Ashton Jubilee Club","lat":53.49399,"lon":-2.64302,"postcode":"WN4 9SL","la":"Wigan","era":"other","nn":323,"risk":24,"cat":"green"},{"name":"Ashton Masonic Properties Ltd","lat":53.50156,"lon":-2.64741,"postcode":"WN4 0AA","la":"Wigan","era":"trad","nn":91,"risk":23,"cat":"green"},{"name":"Ashton Town F C","lat":53.49287,"lon":-2.62295,"postcode":"WN4 8SL","la":"Wigan","era":"other","nn":269,"risk":29,"cat":"green"},{"name":"Aspull Royal British Legion","lat":53.57118,"lon":-2.58062,"postcode":"WN2 1YT","la":"Wigan","era":"trad","nn":865,"risk":33,"cat":"amber"},{"name":"Aspull Rugby Union Football Club","lat":53.56448,"lon":-2.58729,"postcode":"WN2 1PJ","la":"Wigan","era":"other","nn":0,"risk":39,"cat":"amber"},{"name":"Baby Platinum","lat":53.54406,"lon":-2.63019,"postcode":"WN1 1BT","la":"Wigan","era":"other","nn":0,"risk":22,"cat":"green"},{"name":"Bath Springs","lat":53.50283,"lon":-2.64981,"postcode":"WN4 0DD","la":"Wigan","era":"other","nn":158,"risk":23,"cat":"green"},{"name":"Bedford Sports & Social Club","lat":53.49271,"lon":-2.50376,"postcode":"WN7 2EQ","la":"Wigan","era":"mod","nn":232,"risk":24,"cat":"green"},{"name":"Belle Vue Inn","lat":53.55309,"lon":-2.65384,"postcode":"WN6 7NF","la":"Wigan","era":"trad","nn":0,"risk":22,"cat":"green"},{"name":"Bickershaw Village Community Club","lat":53.51503,"lon":-2.57565,"postcode":"WN2 5TE","la":"Wigan","era":"other","nn":1320,"risk":54,"cat":"amber"},{"name":"Bird Ith Hand","lat":53.55029,"lon":-2.64254,"postcode":"WN6 7DY","la":"Wigan","era":"other","nn":229,"risk":24,"cat":"green"},{"name":"Bird I'th Hand","lat":53.53526,"lon":-2.58389,"postcode":"WN2 3BG","la":"Wigan","era":"other","nn":168,"risk":23,"cat":"green"},{"name":"Bispham Hall Recreation Club","lat":53.52153,"lon":-2.71807,"postcode":"WN5 7DW","la":"Wigan","era":"other","nn":849,"risk":33,"cat":"amber"},{"name":"Black Bull Hotel","lat":53.58664,"lon":-2.66313,"postcode":"WN6 0HW","la":"Wigan","era":"trad","nn":45,"risk":22,"cat":"green"},{"name":"Bold Hotel","lat":53.52937,"lon":-2.64382,"postcode":"WN3 5HL","la":"Wigan","era":"other","nn":0,"risk":22,"cat":"green"},{"name":"Brian Boru Irish Club","lat":53.48759,"lon":-2.6393,"postcode":"WN4 9AX","la":"Wigan","era":"other","nn":62,"risk":22,"cat":"green"},{"name":"Brickmakers Arms","lat":53.55105,"lon":-2.64739,"postcode":"WN6 7LN","la":"Wigan","era":"trad","nn":327,"risk":24,"cat":"green"},{"name":"Bryn Labour Club","lat":53.49912,"lon":-2.64621,"postcode":"WN4 9SX","la":"Wigan","era":"other","nn":283,"risk":24,"cat":"green"},{"name":"Canal Turn","lat":53.49249,"lon":-2.49978,"postcode":"WN7 2AP","la":"Wigan","era":"other","nn":44,"risk":22,"cat":"green"},{"name":"Castle On Th'll","lat":53.5403,"lon":-2.56592,"postcode":"WN2 4BW","la":"Wigan","era":"other","nn":570,"risk":26,"cat":"green"},{"name":"Crown Hotel","lat":53.55945,"lon":-2.60163,"postcode":"WN2 1DP","la":"Wigan","era":"trad","nn":1077,"risk":52,"cat":"amber"},{"name":"Doc's Alehouse Ltd","lat":53.55046,"lon":-2.63271,"postcode":"WN1 1QJ","la":"Wigan","era":"mod","nn":115,"risk":23,"cat":"green"},{"name":"Dog & Partridge","lat":53.53189,"lon":-2.57609,"postcode":"WN2 3EE","la":"Wigan","era":"other","nn":359,"risk":24,"cat":"green"},{"name":"Dog & Partridge","lat":53.54536,"lon":-2.6327,"postcode":"WN1 1JU","la":"Wigan","era":"other","nn":0,"risk":22,"cat":"green"},{"name":"Earls Function Suite","lat":53.54394,"lon":-2.60299,"postcode":"WN2 2EN","la":"Wigan","era":"other","nn":125,"risk":23,"cat":"green"},{"name":"East Leigh Labour Club","lat":53.49088,"lon":-2.50141,"postcode":"WN7 3AE","la":"Wigan","era":"other","nn":170,"risk":23,"cat":"green"},{"name":"Edington Arms","lat":53.54187,"lon":-2.57559,"postcode":"WN2 2QJ","la":"Wigan","era":"trad","nn":648,"risk":27,"cat":"green"},{"name":"Ellesmere","lat":53.53621,"lon":-2.57113,"postcode":"WN2 3NJ","la":"Wigan","era":"other","nn":248,"risk":24,"cat":"green"},{"name":"Envy","lat":53.54511,"lon":-2.63112,"postcode":"WN1 1DE","la":"Wigan","era":"other","nn":50,"risk":22,"cat":"green"},{"name":"Fishergate Inn","lat":53.53714,"lon":-2.68662,"postcode":"WN5 8HD","la":"Wigan","era":"trad","nn":74,"risk":22,"cat":"green"},{"name":"Formby's","lat":53.53637,"lon":-2.58561,"postcode":"WN2 3DF","la":"Wigan","era":"other","nn":72,"risk":22,"cat":"green"},{"name":"Fox and Goose","lat":53.55231,"lon":-2.6274,"postcode":"WN1 1XR","la":"Wigan","era":"trad","nn":219,"risk":24,"cat":"green"},{"name":"FY Gym","lat":53.49247,"lon":-2.49879,"postcode":"WN7 2AX","la":"Wigan","era":"other","nn":66,"risk":22,"cat":"green"},{"name":"Garswood Hall Bowling & Community Club","lat":53.49683,"lon":-2.64195,"postcode":"WN4 8LU","la":"Wigan","era":"other","nn":323,"risk":24,"cat":"green"},{"name":"Gathurst Golf Club Ltd","lat":53.57143,"lon":-2.70122,"postcode":"WN6 8EW","la":"Wigan","era":"other","nn":542,"risk":46,"cat":"amber"},{"name":"Georgia Browns","lat":53.53598,"lon":-2.57703,"postcode":"WN2 3AE","la":"Wigan","era":"other","nn":39,"risk":22,"cat":"green"},{"name":"Globe Inn","lat":53.58528,"lon":-2.66161,"postcode":"WN6 0HF","la":"Wigan","era":"trad","nn":45,"risk":22,"cat":"green"},{"name":"Goose Green Cricket Club","lat":53.52341,"lon":-2.67537,"postcode":"WN3 6FA","la":"Wigan","era":"other","nn":422,"risk":30,"cat":"green"},{"name":"Highfield Cricket Club","lat":53.5292,"lon":-2.67304,"postcode":"WN3 6BL","la":"Wigan","era":"other","nn":353,"risk":27,"cat":"green"},{"name":"Hilton Park","lat":53.50383,"lon":-2.51781,"postcode":"WN7 1SJ","la":"Wigan","era":"other","nn":399,"risk":25,"cat":"green"},{"name":"Hindley Community Sports & Social Club","lat":53.53491,"lon":-2.57416,"postcode":"WN2 3LW","la":"Wigan","era":"mod","nn":224,"risk":24,"cat":"green"},{"name":"Hindley Masonic Hall","lat":53.5345,"lon":-2.58022,"postcode":"WN2 3AY","la":"Wigan","era":"trad","nn":256,"risk":24,"cat":"green"},{"name":"Hogans Bar","lat":53.49771,"lon":-2.52506,"postcode":"WN7 4AJ","la":"Wigan","era":"other","nn":171,"risk":23,"cat":"green"},{"name":"Holy Family Cyms Club","lat":53.5168,"lon":-2.59906,"postcode":"WN2 5JE","la":"Wigan","era":"other","nn":241,"risk":44,"cat":"amber"},{"name":"Ibiza Bar","lat":53.54422,"lon":-2.63165,"postcode":"WN1 1DY","la":"Wigan","era":"other","nn":0,"risk":22,"cat":"green"},{"name":"Ince Rose Bridge Sports & Community Club","lat":53.54342,"lon":-2.60131,"postcode":"WN2 2DZ","la":"Wigan","era":"trad","nn":125,"risk":25,"cat":"green"},{"name":"Indiependence 2 & Attic","lat":53.54475,"lon":-2.63158,"postcode":"WN1 1BS","la":"Wigan","era":"other","nn":25,"risk":22,"cat":"green"},{"name":"Jazz Loft","lat":53.50013,"lon":-2.51869,"postcode":"WN7 1QR","la":"Wigan","era":"other","nn":51,"risk":22,"cat":"green"},{"name":"Kitt Green Tavern","lat":53.54403,"lon":-2.6826,"postcode":"WN5 0BG","la":"Wigan","era":"other","nn":57,"risk":22,"cat":"green"},{"name":"Lamberhead Green WM Club","lat":53.53621,"lon":-2.68534,"postcode":"WN5 8JW","la":"Wigan","era":"trad","nn":101,"risk":23,"cat":"green"},{"name":"Le Moose","lat":53.5446,"lon":-2.63185,"postcode":"WN1 1DY","la":"Wigan","era":"other","nn":25,"risk":22,"cat":"green"},{"name":"Leigh Arms","lat":53.49576,"lon":-2.51991,"postcode":"WN7 4LR","la":"Wigan","era":"trad","nn":71,"risk":22,"cat":"green"},{"name":"Leigh Bowling Club No2 Limited","lat":53.49822,"lon":-2.50632,"postcode":"WN7 2HA","la":"Wigan","era":"other","nn":629,"risk":26,"cat":"green"},{"name":"Leigh Catholic Association Club","lat":53.49753,"lon":-2.51576,"postcode":"WN7 1AG","la":"Wigan","era":"other","nn":74,"risk":22,"cat":"green"},{"name":"Leigh Cricket, Tennis & Bowling Club","lat":53.48497,"lon":-2.52267,"postcode":"WN7 3LH","la":"Wigan","era":"other","nn":445,"risk":30,"cat":"green"},{"name":"LEIGH EAST SOCIAL CLUB (AR)","lat":53.49298,"lon":-2.53011,"postcode":"WN7 4GY","la":"Wigan","era":"mod","nn":423,"risk":25,"cat":"green"},{"name":"Leigh Labour Club","lat":53.50024,"lon":-2.51793,"postcode":"WN7 1EU","la":"Wigan","era":"other","nn":51,"risk":22,"cat":"green"},{"name":"Leigh Liberal Club","lat":53.49809,"lon":-2.51634,"postcode":"WN7 1AY","la":"Wigan","era":"other","nn":74,"risk":22,"cat":"green"},{"name":"Leigh Masonic Hall Ltd","lat":53.4942,"lon":-2.51827,"postcode":"WN7 4LQ","la":"Wigan","era":"trad","nn":205,"risk":23,"cat":"green"},{"name":"Leigh Miners Rangers ARLFC","lat":53.49371,"lon":-2.48653,"postcode":"WN7 2LZ","la":"Wigan","era":"other","nn":822,"risk":33,"cat":"amber"},{"name":"Leigh Miners Welfare Institute & Recreational Grounds Ltd","lat":53.49575,"lon":-2.52573,"postcode":"WN7 4DW","la":"Wigan","era":"other","nn":79,"risk":23,"cat":"green"},{"name":"Leigh Rugby Union Football Club","lat":53.48104,"lon":-2.52141,"postcode":"WN7 3NA","la":"Wigan","era":"other","nn":445,"risk":45,"cat":"amber"},{"name":"Market Tavern","lat":53.53617,"lon":-2.57753,"postcode":"WN2 3AN","la":"Wigan","era":"other","nn":0,"risk":22,"cat":"green"},{"name":"Monty\u2019s Sports and Cabaret Club","lat":53.49227,"lon":-2.50034,"postcode":"WN7 2EF","la":"Wigan","era":"other","nn":44,"risk":22,"cat":"green"},{"name":"Morty\u2019s and Vibe","lat":53.54406,"lon":-2.63019,"postcode":"WN1 1BT","la":"Wigan","era":"other","nn":0,"risk":22,"cat":"green"},{"name":"New Inn","lat":53.52697,"lon":-2.65749,"postcode":"WN3 6RB","la":"Wigan","era":"trad","nn":331,"risk":24,"cat":"green"},{"name":"Newtown & Central Conservative Club Ltd","lat":53.53642,"lon":-2.66379,"postcode":"WN5 9DD","la":"Wigan","era":"other","nn":672,"risk":29,"cat":"green"},{"name":"Newtown Working Mens Club","lat":53.54008,"lon":-2.65445,"postcode":"WN5 0TT","la":"Wigan","era":"trad","nn":194,"risk":28,"cat":"green"},{"name":"Norley Hall Cricket Club","lat":53.54402,"lon":-2.68174,"postcode":"WN5 0BA","la":"Wigan","era":"other","nn":57,"risk":22,"cat":"green"},{"name":"Number 15","lat":53.53646,"lon":-2.68279,"postcode":"WN5 8AT","la":"Wigan","era":"other","nn":87,"risk":23,"cat":"green"},{"name":"Old Pear Tree","lat":53.54732,"lon":-2.63802,"postcode":"WN1 1HG","la":"Wigan","era":"other","nn":241,"risk":24,"cat":"green"},{"name":"Old Springs","lat":53.55095,"lon":-2.68897,"postcode":"WN5 0JJ","la":"Wigan","era":"other","nn":877,"risk":33,"cat":"amber"},{"name":"Orrell Red Triangle Cricket Club","lat":53.52706,"lon":-2.70323,"postcode":"WN5 7XE","la":"Wigan","era":"other","nn":136,"risk":23,"cat":"green"},{"name":"Orrell St James ARLFC","lat":53.53618,"lon":-2.69041,"postcode":"WN5 8HU","la":"Wigan","era":"other","nn":239,"risk":24,"cat":"green"},{"name":"Oscars","lat":53.49618,"lon":-2.51912,"postcode":"WN7 4LP","la":"Wigan","era":"other","nn":71,"risk":22,"cat":"green"},{"name":"Our Lady's Parish Centre","lat":53.50057,"lon":-2.66301,"postcode":"WN4 0LZ","la":"Wigan","era":"other","nn":447,"risk":30,"cat":"green"},{"name":"Owd Kess's","lat":53.5181,"lon":-2.60197,"postcode":"WN2 5DL","la":"Wigan","era":"other","nn":241,"risk":44,"cat":"amber"},{"name":"Pemberton Conservative Club","lat":53.53648,"lon":-2.68682,"postcode":"WN5 8HY","la":"Wigan","era":"other","nn":74,"risk":22,"cat":"green"},{"name":"Pemberton Masonic Club","lat":53.536,"lon":-2.68386,"postcode":"WN5 8JP","la":"Wigan","era":"trad","nn":87,"risk":23,"cat":"green"},{"name":"Plantation Bar & Grill","lat":53.48823,"lon":-2.63759,"postcode":"WN4 9AR","la":"Wigan","era":"mod","nn":0,"risk":22,"cat":"green"},{"name":"Plough & Harrow","lat":53.57271,"lon":-2.6933,"postcode":"WN6 8EA","la":"Wigan","era":"trad","nn":542,"risk":46,"cat":"amber"},{"name":"Potters Bar","lat":53.5856,"lon":-2.66121,"postcode":"WN6 0JS","la":"Wigan","era":"other","nn":45,"risk":22,"cat":"green"},{"name":"Powerbeck Gym","lat":53.5043,"lon":-2.53523,"postcode":"WN7 5DW","la":"Wigan","era":"other","nn":491,"risk":28,"cat":"green"},{"name":"Presidential American Bar","lat":53.48822,"lon":-2.63543,"postcode":"WN4 8PB","la":"Wigan","era":"other","nn":68,"risk":22,"cat":"green"},{"name":"Prince of Wales Hotel","lat":53.55309,"lon":-2.65384,"postcode":"WN6 7NF","la":"Wigan","era":"trad","nn":0,"risk":22,"cat":"green"},{"name":"Pure","lat":53.54536,"lon":-2.6327,"postcode":"WN1 1JU","la":"Wigan","era":"other","nn":0,"risk":22,"cat":"green"},{"name":"Queen Arms","lat":53.53942,"lon":-2.65174,"postcode":"WN5 9AU","la":"Wigan","era":"trad","nn":194,"risk":26,"cat":"green"},{"name":"Queens","lat":53.48823,"lon":-2.63759,"postcode":"WN4 9AR","la":"Wigan","era":"trad","nn":0,"risk":22,"cat":"green"},{"name":"Railway Hotel","lat":53.53119,"lon":-2.66887,"postcode":"WN5 8DF","la":"Wigan","era":"trad","nn":353,"risk":24,"cat":"green"},{"name":"Railway Tavern","lat":53.52121,"lon":-2.52976,"postcode":"WN7 5PU","la":"Wigan","era":"trad","nn":1007,"risk":52,"cat":"amber"},{"name":"Real Ale Revolution","lat":53.52143,"lon":-2.66993,"postcode":"WN3 6JA","la":"Wigan","era":"other","nn":422,"risk":42,"cat":"amber"},{"name":"Real Crafty","lat":53.55063,"lon":-2.63099,"postcode":"WN1 2AD","la":"Wigan","era":"mod","nn":115,"risk":23,"cat":"green"},{"name":"Red Lion Hotel","lat":53.51222,"lon":-2.52793,"postcode":"WN7 5JR","la":"Wigan","era":"trad","nn":204,"risk":43,"cat":"amber"},{"name":"Red Lion Hotel","lat":53.48651,"lon":-2.63726,"postcode":"WN4 9AG","la":"Wigan","era":"trad","nn":96,"risk":23,"cat":"green"},{"name":"Reef Bar and Terrace","lat":53.54422,"lon":-2.63165,"postcode":"WN1 1DY","la":"Wigan","era":"mod","nn":0,"risk":22,"cat":"green"},{"name":"Robin Hood","lat":53.48883,"lon":-2.63558,"postcode":"WN4 8AA","la":"Wigan","era":"other","nn":68,"risk":22,"cat":"green"},{"name":"Robin Hood","lat":53.52767,"lon":-2.71044,"postcode":"WN5 7AZ","la":"Wigan","era":"other","nn":318,"risk":24,"cat":"green"},{"name":"Running Horses","lat":53.52903,"lon":-2.71467,"postcode":"WN5 7AA","la":"Wigan","era":"trad","nn":0,"risk":22,"cat":"green"},{"name":"Sacred Heart Parish Centre","lat":53.527,"lon":-2.54787,"postcode":"WN2 4HD","la":"Wigan","era":"other","nn":732,"risk":47,"cat":"amber"},{"name":"Sacred Heart Social Centre","lat":53.55361,"lon":-2.64495,"postcode":"WN6 7AR","la":"Wigan","era":"mod","nn":327,"risk":24,"cat":"green"},{"name":"Sage","lat":53.49704,"lon":-2.52062,"postcode":"WN7 4AX","la":"Wigan","era":"other","nn":138,"risk":23,"cat":"green"},{"name":"Spinners Arms","lat":53.49814,"lon":-2.53426,"postcode":"WN7 4SB","la":"Wigan","era":"trad","nn":299,"risk":24,"cat":"green"},{"name":"Spring View Cricket & Recreation Club","lat":53.54053,"lon":-2.6223,"postcode":"WN1 3AJ","la":"Wigan","era":"other","nn":461,"risk":25,"cat":"green"},{"name":"St James Club","lat":53.52903,"lon":-2.71467,"postcode":"WN5 7AA","la":"Wigan","era":"other","nn":0,"risk":22,"cat":"green"},{"name":"St Judes Parish Centre","lat":53.5271,"lon":-2.64635,"postcode":"WN3 5JE","la":"Wigan","era":"other","nn":304,"risk":24,"cat":"green"},{"name":"St Oswalds Catholic Club","lat":53.48604,"lon":-2.64033,"postcode":"WN4 9LH","la":"Wigan","era":"other","nn":161,"risk":23,"cat":"green"},{"name":"St Patricks Arlfc","lat":53.54377,"lon":-2.61793,"postcode":"WN1 3BN","la":"Wigan","era":"other","nn":305,"risk":24,"cat":"green"},{"name":"St Peter's Pavilion","lat":53.53701,"lon":-2.58583,"postcode":"WN2 3DN","la":"Wigan","era":"trad","nn":72,"risk":22,"cat":"green"},{"name":"St Thomas's Sports and Social Club","lat":53.54701,"lon":-2.67555,"postcode":"WN5 0ET","la":"Wigan","era":"mod","nn":441,"risk":25,"cat":"green"},{"name":"St Wilfrids Parish Centre","lat":53.58636,"lon":-2.66138,"postcode":"WN6 0JT","la":"Wigan","era":"other","nn":85,"risk":23,"cat":"green"},{"name":"St Williams Social Club","lat":53.5399,"lon":-2.60861,"postcode":"WN2 2DF","la":"Wigan","era":"mod","nn":452,"risk":25,"cat":"green"},{"name":"Standish Labour Club","lat":53.58755,"lon":-2.66331,"postcode":"WN6 0JN","la":"Wigan","era":"other","nn":101,"risk":23,"cat":"green"},{"name":"Standish Unity Club","lat":53.58628,"lon":-2.66282,"postcode":"WN6 0HQ","la":"Wigan","era":"other","nn":31,"risk":22,"cat":"green"},{"name":"Stubshaw Cross Community & Sports Club","lat":53.49497,"lon":-2.625,"postcode":"WN4 8TP","la":"Wigan","era":"trad","nn":269,"risk":41,"cat":"amber"},{"name":"Tap n Barrell","lat":53.54657,"lon":-2.63342,"postcode":"WN1 1LR","la":"Wigan","era":"other","nn":3,"risk":22,"cat":"green"},{"name":"The Anvil","lat":53.54563,"lon":-2.63572,"postcode":"WN1 1ND","la":"Wigan","era":"other","nn":106,"risk":23,"cat":"green"},{"name":"The Bailiff Bar","lat":53.54338,"lon":-2.61336,"postcode":"WN1 3DL","la":"Wigan","era":"other","nn":305,"risk":24,"cat":"green"},{"name":"The Berkeley","lat":53.54528,"lon":-2.63192,"postcode":"WN1 1LD","la":"Wigan","era":"other","nn":17,"risk":22,"cat":"green"},{"name":"The Boulevard","lat":53.54544,"lon":-2.63199,"postcode":"WN1 1LD","la":"Wigan","era":"other","nn":17,"risk":22,"cat":"green"},{"name":"The Britannia","lat":53.49207,"lon":-2.52216,"postcode":"WN7 4HW","la":"Wigan","era":"trad","nn":0,"risk":22,"cat":"green"},{"name":"The Centurion","lat":53.49207,"lon":-2.52216,"postcode":"WN7 4HW","la":"Wigan","era":"other","nn":0,"risk":22,"cat":"green"},{"name":"The Colliery","lat":53.50155,"lon":-2.64878,"postcode":"WN4 0DH","la":"Wigan","era":"other","nn":91,"risk":23,"cat":"green"},{"name":"The Douglas Bank","lat":53.55309,"lon":-2.65384,"postcode":"WN6 7NF","la":"Wigan","era":"other","nn":0,"risk":22,"cat":"green"},{"name":"The George","lat":53.54536,"lon":-2.6327,"postcode":"WN1 1JU","la":"Wigan","era":"trad","nn":0,"risk":22,"cat":"green"},{"name":"The Gerrard Arms","lat":53.56266,"lon":-2.56468,"postcode":"WN2 1PZ","la":"Wigan","era":"trad","nn":1416,"risk":54,"cat":"amber"},{"name":"The Goose Green","lat":53.52992,"lon":-2.65828,"postcode":"WN3 6PZ","la":"Wigan","era":"other","nn":331,"risk":24,"cat":"green"},{"name":"The Hawk Hotel","lat":53.5243,"lon":-2.64208,"postcode":"WN3 5ND","la":"Wigan","era":"other","nn":419,"risk":27,"cat":"green"},{"name":"The Hideaway","lat":53.48714,"lon":-2.63875,"postcode":"WN4 9AF","la":"Wigan","era":"other","nn":62,"risk":22,"cat":"green"},{"name":"The Hingemakers Arms","lat":53.48566,"lon":-2.63692,"postcode":"WN4 9DY","la":"Wigan","era":"trad","nn":96,"risk":23,"cat":"green"},{"name":"The Local","lat":53.53617,"lon":-2.57753,"postcode":"WN2 3AN","la":"Wigan","era":"other","nn":0,"risk":22,"cat":"green"},{"name":"The Lock","lat":53.49528,"lon":-2.52205,"postcode":"WN7 4DA","la":"Wigan","era":"other","nn":151,"risk":23,"cat":"green"},{"name":"The Old Bank Coffee & Wine Bar","lat":53.53316,"lon":-2.7122,"postcode":"WN5 8TG","la":"Wigan","era":"other","nn":407,"risk":25,"cat":"green"},{"name":"The Old Courts Art Centre","lat":53.54588,"lon":-2.63417,"postcode":"WN1 1NA","la":"Wigan","era":"other","nn":90,"risk":23,"cat":"green"},{"name":"The Old Walkabout","lat":53.54409,"lon":-2.63025,"postcode":"WN1 1BT","la":"Wigan","era":"other","nn":5,"risk":22,"cat":"green"},{"name":"The Railway Hotel","lat":53.49637,"lon":-2.52633,"postcode":"WN7 4ED","la":"Wigan","era":"trad","nn":79,"risk":23,"cat":"green"},{"name":"The Shamrock","lat":53.58933,"lon":-2.66834,"postcode":"WN6 0HY","la":"Wigan","era":"other","nn":386,"risk":25,"cat":"green"},{"name":"The Squirrel","lat":53.54284,"lon":-2.60388,"postcode":"WN2 2EA","la":"Wigan","era":"other","nn":136,"risk":23,"cat":"green"},{"name":"The Swinley","lat":53.55412,"lon":-2.62606,"postcode":"WN1 2LQ","la":"Wigan","era":"other","nn":219,"risk":24,"cat":"green"},{"name":"The Victoria Inn","lat":53.57485,"lon":-2.59312,"postcode":"WN2 1YA","la":"Wigan","era":"trad","nn":920,"risk":48,"cat":"amber"},{"name":"The Vinyard Cocktail Bar Ltd","lat":53.48807,"lon":-2.63701,"postcode":"WN4 9AR","la":"Wigan","era":"mod","nn":42,"risk":22,"cat":"green"},{"name":"The Wiend Bar","lat":53.5459,"lon":-2.63142,"postcode":"WN1 1PF","la":"Wigan","era":"other","nn":64,"risk":22,"cat":"green"},{"name":"Two Left Feet Tap & Brewery","lat":53.57327,"lon":-2.60972,"postcode":"WN2 1PE","la":"Wigan","era":"mod","nn":1110,"risk":52,"cat":"amber"},{"name":"Victoria Inn","lat":53.52716,"lon":-2.55895,"postcode":"WN2 4QF","la":"Wigan","era":"trad","nn":732,"risk":47,"cat":"amber"},{"name":"Village on the Green","lat":53.56448,"lon":-2.58729,"postcode":"WN2 1PJ","la":"Wigan","era":"other","nn":0,"risk":39,"cat":"amber"},{"name":"Void","lat":53.54422,"lon":-2.63165,"postcode":"WN1 1DY","la":"Wigan","era":"other","nn":0,"risk":22,"cat":"green"},{"name":"Waggon & Horses","lat":53.50039,"lon":-2.53177,"postcode":"WN7 5AY","la":"Wigan","era":"trad","nn":299,"risk":24,"cat":"green"},{"name":"Wellfield Hotel","lat":53.5612,"lon":-2.64969,"postcode":"WN6 8NQ","la":"Wigan","era":"other","nn":900,"risk":31,"cat":"amber"},{"name":"Westleigh Village Club","lat":53.51078,"lon":-2.52601,"postcode":"WN7 5JE","la":"Wigan","era":"other","nn":204,"risk":28,"cat":"green"},{"name":"Whelley Ex Servicemans Club","lat":53.54634,"lon":-2.62088,"postcode":"WN1 3LU","la":"Wigan","era":"other","nn":346,"risk":24,"cat":"green"},{"name":"Whelley Sports and Community Club","lat":53.55102,"lon":-2.6164,"postcode":"WN1 3PZ","la":"Wigan","era":"other","nn":362,"risk":25,"cat":"green"},{"name":"White Lion","lat":53.4985,"lon":-2.51874,"postcode":"WN7 1QL","la":"Wigan","era":"trad","nn":128,"risk":23,"cat":"green"},{"name":"White Lion & Railway","lat":53.55421,"lon":-2.61533,"postcode":"WN1 3UE","la":"Wigan","era":"trad","nn":362,"risk":25,"cat":"green"},{"name":"Wigan & St. Helens Sailing Club","lat":53.52983,"lon":-2.64198,"postcode":"WN3 5HJ","la":"Wigan","era":"other","nn":132,"risk":23,"cat":"green"},{"name":"Wigan Bowling Green Ltd","lat":53.55623,"lon":-2.62783,"postcode":"WN1 2ND","la":"Wigan","era":"other","nn":262,"risk":24,"cat":"green"},{"name":"Wigan Bridge Club","lat":53.55274,"lon":-2.63475,"postcode":"WN1 1TT","la":"Wigan","era":"other","nn":282,"risk":24,"cat":"green"},{"name":"Wigan Central","lat":53.54312,"lon":-2.63351,"postcode":"WN3 4DY","la":"Wigan","era":"other","nn":174,"risk":23,"cat":"green"},{"name":"Wigan Little Theatre","lat":53.54727,"lon":-2.62709,"postcode":"WN1 3SL","la":"Wigan","era":"other","nn":324,"risk":24,"cat":"green"},{"name":"Wigan Roller Rink","lat":53.53959,"lon":-2.64027,"postcode":"WN3 5BD","la":"Wigan","era":"other","nn":555,"risk":26,"cat":"green"},{"name":"Wigan Sports Club","lat":53.55065,"lon":-2.63717,"postcode":"WN1 1RU","la":"Wigan","era":"other","nn":168,"risk":23,"cat":"green"},{"name":"Wigan St Cuthberts & Norley Hall Sports & Community Club","lat":53.54312,"lon":-2.6768,"postcode":"WN5 9XL","la":"Wigan","era":"other","nn":341,"risk":24,"cat":"green"},{"name":"Wigan St Judes Amateur Rugby Club","lat":53.53463,"lon":-2.64107,"postcode":"WN3 5UB","la":"Wigan","era":"other","nn":536,"risk":26,"cat":"green"},{"name":"Wigan Subscription Bowling Green Ltd","lat":53.55127,"lon":-2.63949,"postcode":"WN1 1SA","la":"Wigan","era":"other","nn":168,"risk":23,"cat":"green"},{"name":"Wily Fox Brewery","lat":53.55305,"lon":-2.67201,"postcode":"WN5 0LP","la":"Wigan","era":"trad","nn":711,"risk":47,"cat":"amber"},{"name":"Winstanley Tennis Club","lat":53.5282,"lon":-2.70248,"postcode":"WN5 7XN","la":"Wigan","era":"other","nn":136,"risk":23,"cat":"green"},{"name":"Worsley Mesnes Club","lat":53.52937,"lon":-2.64382,"postcode":"WN3 5HL","la":"Wigan","era":"other","nn":0,"risk":22,"cat":"green"}]