[{"name":"73 and Pizza","lat":53.25739,"lon":-2.13902,"postcode":"SK11 8JG","la":"Cheshire East","era":"other","nn":570,"risk":26,"cat":"green"},{"name":"Alderley Edge Union Club","lat":53.3019,"lon":-2.23454,"postcode":"SK9 7NL","la":"Cheshire East","era":"other","nn":358,"risk":42,"cat":"amber"},{"name":"Alfreds","lat":53.25663,"lon":-2.1235,"postcode":"SK11 7NA","la":"Cheshire East","era":"other","nn":0,"risk":22,"cat":"green"},{"name":"Blacksmiths Arms","lat":53.25953,"lon":-2.18529,"postcode":"SK11 9PG","la":"Cheshire East","era":"trad","nn":1763,"risk":56,"cat":"amber"},{"name":"Brewers Arms","lat":53.25619,"lon":-2.13007,"postcode":"SK11 6QE","la":"Cheshire East","era":"trad","nn":264,"risk":24,"cat":"green"},{"name":"Britannia Inn","lat":53.26612,"lon":-2.10753,"postcode":"SK10 2PN","la":"Cheshire East","era":"trad","nn":286,"risk":29,"cat":"green"},{"name":"Bull and Bird","lat":53.25722,"lon":-2.12562,"postcode":"SK11 6NN","la":"Cheshire East","era":"trad","nn":113,"risk":22,"cat":"green"},{"name":"Cask Tavern","lat":53.34865,"lon":-2.11976,"postcode":"SK12 1RE","la":"Cheshire East","era":"other","nn":0,"risk":22,"cat":"green"},{"name":"Coach & Four","lat":53.32304,"lon":-2.23519,"postcode":"SK9 1PA","la":"Cheshire East","era":"trad","nn":256,"risk":23,"cat":"green"},{"name":"De Trafford Arms","lat":53.29898,"lon":-2.23679,"postcode":"SK9 7AA","la":"Cheshire East","era":"trad","nn":358,"risk":42,"cat":"amber"},{"name":"East Cheshire Sub-Aqua Club","lat":53.25504,"lon":-2.12058,"postcode":"SK11 7HL","la":"Cheshire East","era":"other","nn":196,"risk":23,"cat":"green"},{"name":"Flute & Firkin","lat":53.34891,"lon":-2.11929,"postcode":"SK12 1RD","la":"Cheshire East","era":"other","nn":42,"risk":22,"cat":"green"},{"name":"Frankies Wine Bar","lat":53.358,"lon":-2.03824,"postcode":"SK12 2BB","la":"Cheshire East","era":"other","nn":1,"risk":24,"cat":"green"},{"name":"George & Dragon","lat":53.25814,"lon":-2.12265,"postcode":"SK11 6JL","la":"Cheshire East","era":"trad","nn":119,"risk":22,"cat":"green"},{"name":"Harrington Arms","lat":53.22402,"lon":-2.16662,"postcode":"SK11 9RJ","la":"Cheshire East","era":"trad","nn":2521,"risk":62,"cat":"red"},{"name":"Harrington Arms","lat":53.18895,"lon":-2.12516,"postcode":"SK11 0PH","la":"Cheshire East","era":"trad","nn":3328,"risk":67,"cat":"red"},{"name":"Hickory's Smokehouse","lat":53.34309,"lon":-2.12656,"postcode":"SK12 1LQ","la":"Cheshire East","era":"other","nn":529,"risk":25,"cat":"green"},{"name":"Horse & Jockey","lat":53.31409,"lon":-2.25349,"postcode":"SK9 6EG","la":"Cheshire East","era":"trad","nn":490,"risk":45,"cat":"amber"},{"name":"Ivy Leaf Hotel","lat":53.25394,"lon":-2.15169,"postcode":"SK11 8NA","la":"Cheshire East","era":"other","nn":796,"risk":30,"cat":"green"},{"name":"Jolly Sailor","lat":53.25707,"lon":-2.12278,"postcode":"SK11 6HN","la":"Cheshire East","era":"other","nn":2,"risk":22,"cat":"green"},{"name":"Kings Arms","lat":53.31916,"lon":-2.23753,"postcode":"SK9 1PZ","la":"Cheshire East","era":"trad","nn":411,"risk":25,"cat":"green"},{"name":"La Dulce Vendimia","lat":53.25969,"lon":-2.12523,"postcode":"SK11 6LB","la":"Cheshire East","era":"other","nn":23,"risk":22,"cat":"green"},{"name":"Last Orders","lat":53.25425,"lon":-2.12654,"postcode":"SK11 6UA","la":"Cheshire East","era":"other","nn":135,"risk":23,"cat":"green"},{"name":"Leather Smithy Inn","lat":53.23967,"lon":-2.07778,"postcode":"SK11 0NE","la":"Cheshire East","era":"trad","nn":755,"risk":47,"cat":"amber"},{"name":"Macclesfield Conservative Club","lat":53.26491,"lon":-2.13913,"postcode":"SK10 3BT","la":"Cheshire East","era":"other","nn":512,"risk":25,"cat":"green"},{"name":"Macclesfield Masonic Club","lat":53.26166,"lon":-2.13367,"postcode":"SK10 1BW","la":"Cheshire East","era":"trad","nn":48,"risk":22,"cat":"green"},{"name":"Miller & Carter","lat":53.32727,"lon":-2.22786,"postcode":"SK9 1BU","la":"Cheshire East","era":"trad","nn":124,"risk":23,"cat":"green"},{"name":"Olivers Club","lat":53.32572,"lon":-2.2321,"postcode":"SK9 1HY","la":"Cheshire East","era":"other","nn":5,"risk":22,"cat":"green"},{"name":"Park Tavern","lat":53.25379,"lon":-2.12842,"postcode":"SK11 6UB","la":"Cheshire East","era":"other","nn":135,"risk":23,"cat":"green"},{"name":"Porters","lat":53.25774,"lon":-2.12707,"postcode":"SK11 6UT","la":"Cheshire East","era":"other","nn":113,"risk":22,"cat":"green"},{"name":"Prestbury Golf Club (Bar)","lat":53.27999,"lon":-2.15854,"postcode":"SK10 4BJ","la":"Cheshire East","era":"other","nn":1344,"risk":54,"cat":"amber"},{"name":"Puss In Boots","lat":53.25812,"lon":-2.11291,"postcode":"SK10 1NF","la":"Cheshire East","era":"other","nn":314,"risk":24,"cat":"green"},{"name":"R & G's Beer Vault","lat":53.26127,"lon":-2.12527,"postcode":"SK10 1EX","la":"Cheshire East","era":"other","nn":88,"risk":22,"cat":"green"},{"name":"Red Willow","lat":53.25663,"lon":-2.1235,"postcode":"SK11 7NA","la":"Cheshire East","era":"trad","nn":0,"risk":22,"cat":"green"},{"name":"Red Willow Kitchen","lat":53.25663,"lon":-2.1235,"postcode":"SK11 7NA","la":"Cheshire East","era":"other","nn":0,"risk":22,"cat":"green"},{"name":"Revolution Wilmslow","lat":53.32567,"lon":-2.23212,"postcode":"SK9 1HY","la":"Cheshire East","era":"other","nn":5,"risk":22,"cat":"green"},{"name":"Rising Sun","lat":53.24399,"lon":-2.14869,"postcode":"SK11 7XD","la":"Cheshire East","era":"other","nn":660,"risk":46,"cat":"amber"},{"name":"Robin Hood Inn","lat":53.28139,"lon":-2.07451,"postcode":"SK10 5XE","la":"Cheshire East","era":"trad","nn":1834,"risk":57,"cat":"amber"},{"name":"Springwood Park","lat":53.28401,"lon":-2.1219,"postcode":"SK10 2XA","la":"Cheshire East","era":"other","nn":429,"risk":42,"cat":"amber"},{"name":"St Dunstan Inn","lat":53.24136,"lon":-2.08877,"postcode":"SK11 0BU","la":"Cheshire East","era":"trad","nn":755,"risk":47,"cat":"amber"},{"name":"Suburban Green","lat":53.26077,"lon":-2.12997,"postcode":"SK11 6DU","la":"Cheshire East","era":"other","nn":225,"risk":23,"cat":"green"},{"name":"Sutton Hall","lat":53.23971,"lon":-2.11598,"postcode":"SK11 0HE","la":"Cheshire East","era":"other","nn":416,"risk":45,"cat":"amber"},{"name":"Tempranillo","lat":53.2594,"lon":-2.12498,"postcode":"SK11 6LQ","la":"Cheshire East","era":"other","nn":36,"risk":22,"cat":"green"},{"name":"The Bate Hall","lat":53.26084,"lon":-2.12659,"postcode":"SK11 6BX","la":"Cheshire East","era":"other","nn":100,"risk":22,"cat":"green"},{"name":"The Black Swan","lat":53.20969,"lon":-2.27045,"postcode":"SK11 9EQ","la":"Cheshire East","era":"trad","nn":1834,"risk":57,"cat":"amber"},{"name":"The Brocklehurst Arms","lat":53.2732,"lon":-2.12689,"postcode":"SK10 2HA","la":"Cheshire East","era":"trad","nn":1067,"risk":52,"cat":"amber"},{"name":"The Broken Cross Club","lat":53.25977,"lon":-2.15865,"postcode":"SK11 8TU","la":"Cheshire East","era":"trad","nn":9,"risk":39,"cat":"amber"},{"name":"The Bulls Head","lat":53.34635,"lon":-2.21542,"postcode":"SK9 3EW","la":"Cheshire East","era":"trad","nn":0,"risk":42,"cat":"amber"},{"name":"The Bulls Head","lat":53.25974,"lon":-2.15878,"postcode":"SK11 8TU","la":"Cheshire East","era":"trad","nn":9,"risk":39,"cat":"amber"},{"name":"The Bulls Head","lat":53.30112,"lon":-2.1784,"postcode":"SK10 4QH","la":"Cheshire East","era":"trad","nn":2262,"risk":60,"cat":"amber"},{"name":"The Bulls Head","lat":53.29,"lon":-2.09805,"postcode":"SK10 5BD","la":"Cheshire East","era":"trad","nn":872,"risk":45,"cat":"amber"},{"name":"The Butley Ash","lat":53.29489,"lon":-2.1347,"postcode":"SK10 4EA","la":"Cheshire East","era":"other","nn":1019,"risk":51,"cat":"amber"},{"name":"The Carters Arms","lat":53.32275,"lon":-2.23902,"postcode":"SK9 5HZ","la":"Cheshire East","era":"trad","nn":256,"risk":23,"cat":"green"},{"name":"The Cat & Fiddle","lat":53.2529,"lon":-2.0292,"postcode":"SK11 0AR","la":"Cheshire East","era":"other","nn":1,"risk":42,"cat":"amber"},{"name":"The Churchill Tree","lat":53.27158,"lon":-2.23297,"postcode":"SK10 4ZG","la":"Cheshire East","era":"other","nn":3057,"risk":66,"cat":"red"},{"name":"The Cock And Pheasant","lat":53.29022,"lon":-2.1215,"postcode":"SK10 5EJ","la":"Cheshire East","era":"other","nn":686,"risk":44,"cat":"amber"},{"name":"The Conservative Club","lat":53.32764,"lon":-2.2343,"postcode":"SK9 5EG","la":"Cheshire East","era":"other","nn":0,"risk":22,"cat":"green"},{"name":"The Cotton Tree","lat":53.29835,"lon":-2.09231,"postcode":"SK10 5RE","la":"Cheshire East","era":"other","nn":169,"risk":25,"cat":"green"},{"name":"The Crag Inn","lat":53.21748,"lon":-2.0256,"postcode":"SK11 0BD","la":"Cheshire East","era":"trad","nn":2300,"risk":60,"cat":"amber"},{"name":"The Dandy Cock Inn","lat":53.35957,"lon":-2.03779,"postcode":"SK12 2AA","la":"Cheshire East","era":"trad","nn":177,"risk":25,"cat":"green"},{"name":"The Davenport Arms","lat":53.20909,"lon":-2.22561,"postcode":"SK11 9HF","la":"Cheshire East","era":"trad","nn":2216,"risk":60,"cat":"amber"},{"name":"The Dolphin Inn","lat":53.25335,"lon":-2.11669,"postcode":"SK11 7HS","la":"Cheshire East","era":"trad","nn":320,"risk":24,"cat":"green"},{"name":"The Drum And Monkey","lat":53.30521,"lon":-2.22861,"postcode":"SK9 7LD","la":"Cheshire East","era":"trad","nn":539,"risk":30,"cat":"green"},{"name":"The Earl Of Mercia","lat":53.25979,"lon":-2.12492,"postcode":"SK11 6LB","la":"Cheshire East","era":"other","nn":2,"risk":22,"cat":"green"},{"name":"The Egerton Arms","lat":53.27188,"lon":-2.28654,"postcode":"SK11 9BB","la":"Cheshire East","era":"trad","nn":2212,"risk":60,"cat":"amber"},{"name":"The Farmers Arms","lat":53.34865,"lon":-2.11976,"postcode":"SK12 1RE","la":"Cheshire East","era":"trad","nn":0,"risk":22,"cat":"green"},{"name":"The Flower Pot Inn","lat":53.24888,"lon":-2.14307,"postcode":"SK11 7UF","la":"Cheshire East","era":"trad","nn":660,"risk":31,"cat":"amber"},{"name":"The Freemasons Arms","lat":53.34635,"lon":-2.21542,"postcode":"SK9 3EW","la":"Cheshire East","era":"trad","nn":0,"risk":42,"cat":"amber"},{"name":"The Hanging Gate Inn Ltd","lat":53.22233,"lon":-2.07149,"postcode":"SK11 0NG","la":"Cheshire East","era":"trad","nn":1330,"risk":53,"cat":"amber"},{"name":"The Holly Bush","lat":53.29796,"lon":-2.09702,"postcode":"SK10 5PW","la":"Cheshire East","era":"trad","nn":59,"risk":22,"cat":"green"},{"name":"The Honey Bee","lat":53.34295,"lon":-2.26833,"postcode":"SK9 4LT","la":"Cheshire East","era":"other","nn":1548,"risk":55,"cat":"amber"},{"name":"The King William Hotel","lat":53.32821,"lon":-2.22889,"postcode":"SK9 1BQ","la":"Cheshire East","era":"trad","nn":124,"risk":23,"cat":"green"},{"name":"The Kingfisher Wetherspoon","lat":53.34752,"lon":-2.12363,"postcode":"SK12 1NJ","la":"Cheshire East","era":"trad","nn":175,"risk":23,"cat":"green"},{"name":"The Lord Clyde","lat":53.28512,"lon":-2.11572,"postcode":"SK10 5AH","la":"Cheshire East","era":"other","nn":429,"risk":42,"cat":"amber"},{"name":"The Merlin","lat":53.3125,"lon":-2.23661,"postcode":"SK9 7QL","la":"Cheshire East","era":"other","nn":744,"risk":44,"cat":"amber"},{"name":"The Mulberry Bush","lat":53.26727,"lon":-2.11428,"postcode":"SK10 2RW","la":"Cheshire East","era":"other","nn":467,"risk":27,"cat":"green"},{"name":"The Nags Head","lat":53.2603,"lon":-2.12326,"postcode":"SK11 6JT","la":"Cheshire East","era":"trad","nn":97,"risk":22,"cat":"green"},{"name":"The Oakwood","lat":53.3097,"lon":-2.25276,"postcode":"SK9 7RU","la":"Cheshire East","era":"trad","nn":490,"risk":45,"cat":"amber"},{"name":"The Old Boys & Park Green Club","lat":53.26058,"lon":-2.12464,"postcode":"SK10 1HG","la":"Cheshire East","era":"other","nn":88,"risk":22,"cat":"green"},{"name":"The Old Millstone","lat":53.25967,"lon":-2.12426,"postcode":"SK11 6JZ","la":"Cheshire East","era":"trad","nn":45,"risk":22,"cat":"green"},{"name":"The Plough Inn","lat":53.26126,"lon":-2.1334,"postcode":"SK10 1AU","la":"Cheshire East","era":"trad","nn":48,"risk":22,"cat":"green"},{"name":"The Poachers","lat":53.29816,"lon":-2.08979,"postcode":"SK10 5RE","la":"Cheshire East","era":"other","nn":169,"risk":28,"cat":"green"},{"name":"The Rams Head","lat":53.3582,"lon":-2.04248,"postcode":"SK12 2AE","la":"Cheshire East","era":"trad","nn":282,"risk":26,"cat":"green"},{"name":"The Red Lion","lat":53.22473,"lon":-2.28176,"postcode":"SK11 9EA","la":"Cheshire East","era":"trad","nn":1834,"risk":57,"cat":"amber"},{"name":"The Rose & Crown Inn","lat":53.19921,"lon":-2.0418,"postcode":"SK11 0BJ","la":"Cheshire East","era":"trad","nn":1985,"risk":58,"cat":"amber"},{"name":"The Royal British Legion","lat":53.34818,"lon":-2.12123,"postcode":"SK12 1JY","la":"Cheshire East","era":"trad","nn":111,"risk":22,"cat":"green"},{"name":"The Ryles Arms","lat":53.22275,"lon":-2.09146,"postcode":"SK11 0NN","la":"Cheshire East","era":"trad","nn":1330,"risk":53,"cat":"amber"},{"name":"The Ship","lat":53.34847,"lon":-2.24693,"postcode":"SK9 4JE","la":"Cheshire East","era":"trad","nn":1548,"risk":55,"cat":"amber"},{"name":"The Ship Inn","lat":53.18378,"lon":-2.05681,"postcode":"SK11 0QE","la":"Cheshire East","era":"trad","nn":1985,"risk":58,"cat":"amber"},{"name":"The Silk Trader","lat":53.2565,"lon":-2.11891,"postcode":"SK11 7AD","la":"Cheshire East","era":"other","nn":126,"risk":23,"cat":"green"},{"name":"The Snow Goose","lat":53.25706,"lon":-2.1228,"postcode":"SK11 6HN","la":"Cheshire East","era":"other","nn":2,"risk":22,"cat":"green"},{"name":"The Society Rooms","lat":53.25663,"lon":-2.1235,"postcode":"SK11 7NA","la":"Cheshire East","era":"mod","nn":0,"risk":22,"cat":"green"},{"name":"The Spinners Arms","lat":53.29776,"lon":-2.09619,"postcode":"SK10 5PW","la":"Cheshire East","era":"trad","nn":59,"risk":22,"cat":"green"},{"name":"The Stanley Arms Hotel","lat":53.25291,"lon":-2.02922,"postcode":"SK11 0AR","la":"Cheshire East","era":"trad","nn":1,"risk":42,"cat":"amber"},{"name":"The Three Crowns","lat":53.26768,"lon":-2.10412,"postcode":"SK10 2PF","la":"Cheshire East","era":"trad","nn":286,"risk":41,"cat":"amber"},{"name":"The Unicorn Inn","lat":53.33044,"lon":-2.19068,"postcode":"SK9 2LN","la":"Cheshire East","era":"trad","nn":1532,"risk":55,"cat":"amber"},{"name":"The Vale Inn","lat":53.29882,"lon":-2.10485,"postcode":"SK10 5JT","la":"Cheshire East","era":"trad","nn":529,"risk":30,"cat":"green"},{"name":"The Wharf Inn","lat":53.25681,"lon":-2.11708,"postcode":"SK11 7AW","la":"Cheshire East","era":"trad","nn":126,"risk":23,"cat":"green"},{"name":"The White Lion","lat":53.35934,"lon":-2.03053,"postcode":"SK12 2HA","la":"Cheshire East","era":"trad","nn":483,"risk":28,"cat":"green"},{"name":"The Windmill Inn","lat":53.30668,"lon":-2.11475,"postcode":"SK10 5SJ","la":"Cheshire East","era":"trad","nn":1094,"risk":52,"cat":"amber"},{"name":"The Wine Cellar","lat":53.32797,"lon":-2.23115,"postcode":"SK9 1AA","la":"Cheshire East","era":"other","nn":153,"risk":23,"cat":"green"},{"name":"Toby Carvery","lat":53.31887,"lon":-2.13487,"postcode":"SK10 4NA","la":"Cheshire East","era":"other","nn":1903,"risk":57,"cat":"amber"},{"name":"Waggon and Horses","lat":53.35785,"lon":-2.21961,"postcode":"SK9 3JZ","la":"Cheshire East","era":"trad","nn":1308,"risk":53,"cat":"amber"},{"name":"Wet - Led Bar","lat":53.25979,"lon":-2.1249,"postcode":"SK11 6LB","la":"Cheshire East","era":"other","nn":2,"risk":22,"cat":"green"},{"name":"White Horse Hotel","lat":53.35799,"lon":-2.03823,"postcode":"SK12 2BB","la":"Cheshire East","era":"trad","nn":1,"risk":24,"cat":"green"},{"name":"Wilmslow British Legion Club","lat":53.32764,"lon":-2.2343,"postcode":"SK9 5EG","la":"Cheshire East","era":"other","nn":0,"risk":22,"cat":"green"},{"name":"Wilmslow Tavern","lat":53.33677,"lon":-2.21392,"postcode":"SK9 2HA","la":"Cheshire East","era":"other","nn":1070,"risk":52,"cat":"amber"},{"name":"Ye Olde Admiral Rodney","lat":53.2907,"lon":-2.14916,"postcode":"SK10 4HP","la":"Cheshire East","era":"other","nn":1068,"risk":52,"cat":"amber"},{"name":"Ye Olde Kings Head","lat":53.24329,"lon":-2.11419,"postcode":"SK11 0HD","la":"Cheshire East","era":"trad","nn":416,"risk":45,"cat":"amber"},{"name":"Anchor Inn","lat":53.28339,"lon":-1.7607,"postcode":"SK17 8RB","la":"Derbyshire Dales","era":"trad","nn":951,"risk":53,"cat":"amber"},{"name":"Bull In The Thorn","lat":53.19481,"lon":-1.80902,"postcode":"SK17 9QQ","la":"Derbyshire Dales","era":"trad","nn":504,"risk":49,"cat":"amber"},{"name":"Church Inn","lat":53.22802,"lon":-1.83158,"postcode":"SK17 9SL","la":"Derbyshire Dales","era":"trad","nn":2601,"risk":67,"cat":"red"},{"name":"Cressbrook Institute And Social Club","lat":53.25331,"lon":-1.74386,"postcode":"SK17 8SY","la":"Derbyshire Dales","era":"mod","nn":1934,"risk":62,"cat":"red"},{"name":"Duke Of York","lat":53.20499,"lon":-1.82476,"postcode":"SK17 9QG","la":"Derbyshire Dales","era":"trad","nn":1543,"risk":59,"cat":"amber"},{"name":"George Inn","lat":53.27838,"lon":-1.77229,"postcode":"SK17 8NU","la":"Derbyshire Dales","era":"trad","nn":98,"risk":32,"cat":"amber"},{"name":"Horse And Jockey","lat":53.27609,"lon":-1.77476,"postcode":"SK17 8JZ","la":"Derbyshire Dales","era":"trad","nn":303,"risk":46,"cat":"amber"},{"name":"Jug And Glass Inn","lat":53.15,"lon":-1.76697,"postcode":"SK17 0BA","la":"Derbyshire Dales","era":"trad","nn":2017,"risk":63,"cat":"red"},{"name":"Pack Horse Inn","lat":53.18377,"lon":-1.85048,"postcode":"SK17 0DB","la":"Derbyshire Dales","era":"trad","nn":1228,"risk":57,"cat":"amber"},{"name":"Queen Anne Inn","lat":53.29804,"lon":-1.736,"postcode":"SK17 8RF","la":"Derbyshire Dales","era":"trad","nn":1787,"risk":61,"cat":"red"},{"name":"Queens Arms","lat":53.23607,"lon":-1.78393,"postcode":"SK17 9UD","la":"Derbyshire Dales","era":"trad","nn":2326,"risk":65,"cat":"red"},{"name":"Red Lion Inn","lat":53.27395,"lon":-1.75526,"postcode":"SK17 8QU","la":"Derbyshire Dales","era":"trad","nn":1110,"risk":56,"cat":"amber"},{"name":"Royal British Legion Club","lat":53.14122,"lon":-1.80912,"postcode":"SK17 0AW","la":"Derbyshire Dales","era":"trad","nn":2467,"risk":66,"cat":"red"},{"name":"Royal Oak Public House","lat":53.19044,"lon":-1.81098,"postcode":"SK17 9QJ","la":"Derbyshire Dales","era":"trad","nn":504,"risk":49,"cat":"amber"},{"name":"The Anglers Rest","lat":53.25668,"lon":-1.78988,"postcode":"SK17 8SN","la":"Derbyshire Dales","era":"other","nn":2326,"risk":65,"cat":"red"},{"name":"The Star Inn","lat":53.27877,"lon":-1.77361,"postcode":"SK17 8LD","la":"Derbyshire Dales","era":"trad","nn":98,"risk":44,"cat":"amber"},{"name":"Three Stags Heads Inn","lat":53.27684,"lon":-1.72978,"postcode":"SK17 8RW","la":"Derbyshire Dales","era":"trad","nn":1584,"risk":60,"cat":"amber"},{"name":"Waterloo Inn","lat":53.1322,"lon":-1.77282,"postcode":"SK17 0DH","la":"Derbyshire Dales","era":"trad","nn":2017,"risk":63,"cat":"red"},{"name":"Anchor Inn","lat":53.46126,"lon":-1.96976,"postcode":"SK13 1NR","la":"High Peak","era":"trad","nn":212,"risk":27,"cat":"green"},{"name":"BAR 2","lat":53.44343,"lon":-1.94823,"postcode":"SK13 8DA","la":"High Peak","era":"mod","nn":18,"risk":25,"cat":"green"},{"name":"Beer and Bean","lat":53.25959,"lon":-1.9146,"postcode":"SK17 6AT","la":"High Peak","era":"other","nn":16,"risk":25,"cat":"green"},{"name":"Beer Shed","lat":53.3661,"lon":-2.00155,"postcode":"SK22 4AA","la":"High Peak","era":"other","nn":50,"risk":28,"cat":"green"},{"name":"Blazing Rag","lat":53.25129,"lon":-1.91134,"postcode":"SK17 9NT","la":"High Peak","era":"other","nn":408,"risk":28,"cat":"green"},{"name":"Bulls Head Inn","lat":53.47293,"lon":-1.96714,"postcode":"SK13 1JY","la":"High Peak","era":"trad","nn":963,"risk":52,"cat":"amber"},{"name":"Buxworth Cricket Club","lat":53.33354,"lon":-1.96357,"postcode":"SK23 7NS","la":"High Peak","era":"other","nn":329,"risk":47,"cat":"amber"},{"name":"Cask and Cocktails","lat":53.44398,"lon":-1.95,"postcode":"SK13 8BW","la":"High Peak","era":"other","nn":47,"risk":26,"cat":"green"},{"name":"Cask and Kitchen","lat":53.44364,"lon":-1.95044,"postcode":"SK13 8BP","la":"High Peak","era":"mod","nn":0,"risk":25,"cat":"green"},{"name":"Cave Bar and Club","lat":53.44387,"lon":-1.95068,"postcode":"SK13 7AG","la":"High Peak","era":"mod","nn":29,"risk":25,"cat":"green"},{"name":"Cavendish Views Catering","lat":53.25902,"lon":-1.92817,"postcode":"SK17 6XF","la":"High Peak","era":"other","nn":765,"risk":31,"cat":"amber"},{"name":"Chapel Bowling Club","lat":53.32054,"lon":-1.91496,"postcode":"SK23 0LA","la":"High Peak","era":"other","nn":289,"risk":27,"cat":"green"},{"name":"Chinley Bar & Lounge","lat":53.33904,"lon":-1.94311,"postcode":"SK23 6BE","la":"High Peak","era":"mod","nn":401,"risk":45,"cat":"amber"},{"name":"Commercial Inn","lat":53.44488,"lon":-1.93922,"postcode":"SK13 7SH","la":"High Peak","era":"trad","nn":0,"risk":25,"cat":"green"},{"name":"Crystal ballroom","lat":53.44396,"lon":-1.94829,"postcode":"SK13 8BS","la":"High Peak","era":"other","nn":0,"risk":25,"cat":"green"},{"name":"Devonshire Arms","lat":53.30893,"lon":-1.82703,"postcode":"SK17 8EJ","la":"High Peak","era":"trad","nn":4173,"risk":77,"cat":"red"},{"name":"Eagle Hotel","lat":53.25625,"lon":-1.91487,"postcode":"SK17 6EQ","la":"High Peak","era":"trad","nn":84,"risk":26,"cat":"green"},{"name":"Edwards Wine Bar","lat":53.46145,"lon":-1.96658,"postcode":"SK13 1AA","la":"High Peak","era":"other","nn":212,"risk":29,"cat":"green"},{"name":"George and Dragon","lat":53.43333,"lon":-1.99222,"postcode":"SK13 5EZ","la":"High Peak","era":"trad","nn":586,"risk":49,"cat":"amber"},{"name":"Glossop Labour Club","lat":53.44266,"lon":-1.95159,"postcode":"SK13 8AT","la":"High Peak","era":"other","nn":84,"risk":26,"cat":"green"},{"name":"Glossop Rugby Club","lat":53.43774,"lon":-1.98738,"postcode":"SK13 5HG","la":"High Peak","era":"other","nn":586,"risk":49,"cat":"amber"},{"name":"Hanging Gate","lat":53.31815,"lon":-1.94105,"postcode":"SK23 9UH","la":"High Peak","era":"other","nn":1299,"risk":57,"cat":"amber"},{"name":"Hare and Hounds","lat":53.43685,"lon":-1.96845,"postcode":"SK13 6LS","la":"High Peak","era":"trad","nn":1084,"risk":55,"cat":"amber"},{"name":"Harvey Leonards","lat":53.44396,"lon":-1.94829,"postcode":"SK13 8BS","la":"High Peak","era":"other","nn":0,"risk":25,"cat":"green"},{"name":"Howard Arms","lat":53.44347,"lon":-1.94796,"postcode":"SK13 8DA","la":"High Peak","era":"trad","nn":18,"risk":25,"cat":"green"},{"name":"Hunters Inn","lat":53.42628,"lon":-2.00743,"postcode":"SK13 5DL","la":"High Peak","era":"trad","nn":1277,"risk":57,"cat":"amber"},{"name":"Kinder Lodge","lat":53.37844,"lon":-1.94652,"postcode":"SK22 2JG","la":"High Peak","era":"other","nn":81,"risk":31,"cat":"amber"},{"name":"Kings Head","lat":53.25693,"lon":-1.9143,"postcode":"SK17 6EJ","la":"High Peak","era":"trad","nn":40,"risk":25,"cat":"green"},{"name":"Kirsty Yates","lat":53.37612,"lon":-2.01732,"postcode":"SK22 4QE","la":"High Peak","era":"other","nn":397,"risk":48,"cat":"amber"},{"name":"Lantern Pike Inn","lat":53.39095,"lon":-1.94977,"postcode":"SK22 2NG","la":"High Peak","era":"trad","nn":1231,"risk":56,"cat":"amber"},{"name":"Lubens","lat":53.25712,"lon":-1.9148,"postcode":"SK17 6EW","la":"High Peak","era":"other","nn":40,"risk":25,"cat":"green"},{"name":"Masons Arms","lat":53.36768,"lon":-2.00108,"postcode":"SK22 4BR","la":"High Peak","era":"trad","nn":178,"risk":29,"cat":"green"},{"name":"Meehans Irish Bar","lat":53.44329,"lon":-1.9523,"postcode":"SK13 8AZ","la":"High Peak","era":"other","nn":0,"risk":25,"cat":"green"},{"name":"MILTONS TAP","lat":53.25949,"lon":-1.91039,"postcode":"SK17 6BJ","la":"High Peak","era":"mod","nn":130,"risk":26,"cat":"green"},{"name":"Navigation Inn","lat":53.33547,"lon":-1.96733,"postcode":"SK23 7NE","la":"High Peak","era":"trad","nn":329,"risk":47,"cat":"amber"},{"name":"Nineteenth Hole","lat":53.26406,"lon":-1.89647,"postcode":"SK17 7EN","la":"High Peak","era":"other","nn":803,"risk":48,"cat":"amber"},{"name":"Norfolk Arms Hotel","lat":53.44364,"lon":-1.95044,"postcode":"SK13 8BP","la":"High Peak","era":"trad","nn":0,"risk":25,"cat":"green"},{"name":"Old Pack Horse","lat":53.32471,"lon":-1.90695,"postcode":"SK23 0NT","la":"High Peak","era":"trad","nn":569,"risk":32,"cat":"amber"},{"name":"Pack Horse Inn","lat":53.37867,"lon":-1.99783,"postcode":"SK22 4QQ","la":"High Peak","era":"trad","nn":1026,"risk":55,"cat":"amber"},{"name":"Parks Inn","lat":53.23705,"lon":-1.90663,"postcode":"SK17 9JD","la":"High Peak","era":"trad","nn":72,"risk":43,"cat":"amber"},{"name":"Pear Tree Inn","lat":53.4604,"lon":-1.98242,"postcode":"SK13 1PY","la":"High Peak","era":"trad","nn":480,"risk":29,"cat":"green"},{"name":"Pico Lounge","lat":53.44256,"lon":-1.94888,"postcode":"SK13 8HS","la":"High Peak","era":"mod","nn":0,"risk":25,"cat":"green"},{"name":"Queens","lat":53.29852,"lon":-1.88737,"postcode":"SK17 8BJ","la":"High Peak","era":"trad","nn":3059,"risk":69,"cat":"red"},{"name":"Queens Head Hotel","lat":53.25466,"lon":-1.91568,"postcode":"SK17 6EU","la":"High Peak","era":"trad","nn":57,"risk":26,"cat":"green"},{"name":"Red Willow Buxton","lat":53.25961,"lon":-1.91408,"postcode":"SK17 6AT","la":"High Peak","era":"trad","nn":35,"risk":25,"cat":"green"},{"name":"Roebuck","lat":53.32355,"lon":-1.9159,"postcode":"SK23 0EN","la":"High Peak","era":"other","nn":39,"risk":25,"cat":"green"},{"name":"Sarah's Kitchen@The Commercial","lat":53.44488,"lon":-1.93922,"postcode":"SK13 7SH","la":"High Peak","era":"mod","nn":0,"risk":25,"cat":"green"},{"name":"Spring Bank Arts Centre","lat":53.36959,"lon":-2.0007,"postcode":"SK22 4AZ","la":"High Peak","era":"other","nn":215,"risk":29,"cat":"green"},{"name":"Surrey Arms","lat":53.43914,"lon":-1.95195,"postcode":"SK13 8JF","la":"High Peak","era":"trad","nn":344,"risk":28,"cat":"green"},{"name":"Tap House and Cellar","lat":53.25911,"lon":-1.91507,"postcode":"SK17 6AY","la":"High Peak","era":"mod","nn":52,"risk":26,"cat":"green"},{"name":"The Ale Stop","lat":53.25522,"lon":-1.91563,"postcode":"SK17 6HX","la":"High Peak","era":"other","nn":6,"risk":25,"cat":"green"},{"name":"The Beehive Inn","lat":53.4365,"lon":-1.94555,"postcode":"SK13 8NR","la":"High Peak","era":"trad","nn":516,"risk":29,"cat":"green"},{"name":"The Beehive Inn","lat":53.30413,"lon":-1.94418,"postcode":"SK23 9UT","la":"High Peak","era":"trad","nn":1573,"risk":59,"cat":"amber"},{"name":"The Brook Tavern","lat":53.44189,"lon":-1.94958,"postcode":"SK13 8HT","la":"High Peak","era":"other","nn":88,"risk":26,"cat":"green"},{"name":"The Bulls Head","lat":53.45079,"lon":-1.93911,"postcode":"SK13 7RN","la":"High Peak","era":"trad","nn":60,"risk":26,"cat":"green"},{"name":"The Chieftain","lat":53.45829,"lon":-1.97609,"postcode":"SK13 2DT","la":"High Peak","era":"other","nn":480,"risk":31,"cat":"amber"},{"name":"The Cock","lat":53.32471,"lon":-1.98462,"postcode":"SK23 7JE","la":"High Peak","era":"other","nn":418,"risk":33,"cat":"amber"},{"name":"The Corner Cupboard","lat":53.44373,"lon":-1.95356,"postcode":"SK13 8BH","la":"High Peak","era":"other","nn":97,"risk":26,"cat":"green"},{"name":"The Crossings","lat":53.34915,"lon":-1.98926,"postcode":"SK23 7QS","la":"High Peak","era":"trad","nn":1852,"risk":61,"cat":"red"},{"name":"The Fox Inn","lat":53.37472,"lon":-2.02282,"postcode":"SK22 3AY","la":"High Peak","era":"trad","nn":397,"risk":48,"cat":"amber"},{"name":"The Frog on the Bine","lat":53.25956,"lon":-1.91484,"postcode":"SK17 6AT","la":"High Peak","era":"other","nn":16,"risk":25,"cat":"green"},{"name":"The George Hotel","lat":53.37892,"lon":-1.9456,"postcode":"SK22 2JE","la":"High Peak","era":"trad","nn":81,"risk":31,"cat":"amber"},{"name":"The Globe","lat":53.4436,"lon":-1.95666,"postcode":"SK13 8HJ","la":"High Peak","era":"other","nn":206,"risk":27,"cat":"green"},{"name":"The Hoffman Bar","lat":53.23658,"lon":-1.9059,"postcode":"SK17 9JD","la":"High Peak","era":"other","nn":72,"risk":43,"cat":"amber"},{"name":"The Lamb Inn","lat":53.35804,"lon":-1.92745,"postcode":"SK23 6AL","la":"High Peak","era":"trad","nn":2290,"risk":64,"cat":"red"},{"name":"The Little Mill Inn","lat":53.39886,"lon":-1.98255,"postcode":"SK22 1EB","la":"High Peak","era":"trad","nn":2135,"risk":63,"cat":"red"},{"name":"The New Inn","lat":53.32163,"lon":-1.92238,"postcode":"SK23 9SR","la":"High Peak","era":"trad","nn":480,"risk":31,"cat":"amber"},{"name":"The New Lamp","lat":53.46462,"lon":-1.9712,"postcode":"SK13 1BY","la":"High Peak","era":"other","nn":385,"risk":28,"cat":"green"},{"name":"The Oakwood","lat":53.44329,"lon":-1.9523,"postcode":"SK13 8AZ","la":"High Peak","era":"trad","nn":0,"risk":25,"cat":"green"},{"name":"The Old Cell","lat":53.3236,"lon":-1.91532,"postcode":"SK23 0EN","la":"High Peak","era":"other","nn":39,"risk":25,"cat":"green"},{"name":"The Old Clubhouse","lat":53.25873,"lon":-1.91669,"postcode":"SK17 6XN","la":"High Peak","era":"other","nn":116,"risk":26,"cat":"green"},{"name":"The Old Hall Inn","lat":53.33544,"lon":-1.94296,"postcode":"SK23 6EJ","la":"High Peak","era":"trad","nn":0,"risk":43,"cat":"amber"},{"name":"The Old Sun Inn","lat":53.25432,"lon":-1.91503,"postcode":"SK17 6HA","la":"High Peak","era":"trad","nn":41,"risk":25,"cat":"green"},{"name":"The Pack Horse","lat":53.38015,"lon":-1.94568,"postcode":"SK22 2EP","la":"High Peak","era":"trad","nn":137,"risk":31,"cat":"amber"},{"name":"The Paper Mill Inn","lat":53.33544,"lon":-1.94296,"postcode":"SK23 6EJ","la":"High Peak","era":"trad","nn":0,"risk":43,"cat":"amber"},{"name":"The Peels Arms","lat":53.46324,"lon":-1.95577,"postcode":"SK13 1EX","la":"High Peak","era":"trad","nn":743,"risk":48,"cat":"amber"},{"name":"The Pride of the Peaks","lat":53.36566,"lon":-2.00174,"postcode":"SK22 4AA","la":"High Peak","era":"other","nn":50,"risk":28,"cat":"green"},{"name":"The Queens Arms","lat":53.44972,"lon":-1.93815,"postcode":"SK13 7RZ","la":"High Peak","era":"trad","nn":135,"risk":26,"cat":"green"},{"name":"The Railway","lat":53.3298,"lon":-1.98425,"postcode":"SK23 7AA","la":"High Peak","era":"trad","nn":114,"risk":31,"cat":"amber"},{"name":"The Railway @ Buxton","lat":53.25967,"lon":-1.90846,"postcode":"SK17 6BS","la":"High Peak","era":"trad","nn":130,"risk":26,"cat":"green"},{"name":"The Rock Tavern","lat":53.36364,"lon":-2.003,"postcode":"SK22 3HW","la":"High Peak","era":"other","nn":240,"risk":29,"cat":"green"},{"name":"The Royal Bar & Grill","lat":53.32313,"lon":-1.91541,"postcode":"SK23 0HH","la":"High Peak","era":"other","nn":53,"risk":26,"cat":"green"},{"name":"The Shady Oak","lat":53.30901,"lon":-1.97701,"postcode":"SK23 7HD","la":"High Peak","era":"trad","nn":1818,"risk":60,"cat":"amber"},{"name":"The Smithy Fold","lat":53.44256,"lon":-1.94888,"postcode":"SK13 8HS","la":"High Peak","era":"trad","nn":0,"risk":25,"cat":"green"},{"name":"The Sportsman Inn","lat":53.3776,"lon":-1.93826,"postcode":"SK22 2LE","la":"High Peak","era":"trad","nn":509,"risk":34,"cat":"amber"},{"name":"THE SWAN INN","lat":53.25403,"lon":-1.91541,"postcode":"SK17 6HB","la":"High Peak","era":"trad","nn":41,"risk":25,"cat":"green"},{"name":"The Sycamore Inn","lat":53.37968,"lon":-1.98108,"postcode":"SK22 1AB","la":"High Peak","era":"trad","nn":1116,"risk":55,"cat":"amber"},{"name":"The Vault","lat":53.2552,"lon":-1.91554,"postcode":"SK17 6EU","la":"High Peak","era":"other","nn":6,"risk":25,"cat":"green"},{"name":"The Victoria Lounge","lat":53.44369,"lon":-1.95163,"postcode":"SK13 7AA","la":"High Peak","era":"other","nn":63,"risk":26,"cat":"green"},{"name":"The View@Glossop and District Golf Club","lat":53.44465,"lon":-1.92063,"postcode":"SK13 7PU","la":"High Peak","era":"other","nn":1231,"risk":56,"cat":"amber"},{"name":"The Whaley Nook","lat":53.32831,"lon":-1.98281,"postcode":"SK23 7HR","la":"High Peak","era":"other","nn":78,"risk":31,"cat":"amber"},{"name":"The Wheatsheaf","lat":53.45097,"lon":-1.93825,"postcode":"SK13 7RS","la":"High Peak","era":"trad","nn":60,"risk":28,"cat":"green"},{"name":"The Wye Bridge House","lat":53.25953,"lon":-1.90586,"postcode":"SK17 7DJ","la":"High Peak","era":"other","nn":173,"risk":26,"cat":"green"},{"name":"Trackside@Buxton Brewery Ltd","lat":53.243,"lon":-1.8972,"postcode":"SK17 9RZ","la":"High Peak","era":"other","nn":912,"risk":49,"cat":"amber"},{"name":"White Hart","lat":53.32896,"lon":-1.98326,"postcode":"SK23 7HN","la":"High Peak","era":"trad","nn":78,"risk":31,"cat":"amber"},{"name":"BUTCHERS ARMS","lat":53.14816,"lon":-1.87661,"postcode":"SK17 0LL","la":"Staffordshire Moorlands","era":"trad","nn":2472,"risk":69,"cat":"red"},{"name":"ROYAL OAK","lat":53.16263,"lon":-2.10139,"postcode":"SK11 0SE","la":"Staffordshire Moorlands","era":"trad","nn":3328,"risk":75,"cat":"red"},{"name":"THE GREYHOUND INN","lat":53.126,"lon":-1.8737,"postcode":"SK17 0JN","la":"Staffordshire Moorlands","era":"trad","nn":2189,"risk":67,"cat":"red"},{"name":"THE MANIFOLD INN","lat":53.13106,"lon":-1.842,"postcode":"SK17 0EX","la":"Staffordshire Moorlands","era":"trad","nn":2189,"risk":67,"cat":"red"},{"name":"Ye Olde Cheshire Cheese","lat":53.18099,"lon":-1.86831,"postcode":"SK17 0NS","la":"Staffordshire Moorlands","era":"other","nn":1228,"risk":60,"cat":"amber"},{"name":"Abney Scout & Guide Centre","lat":53.39776,"lon":-2.20999,"postcode":"SK8 2PD","la":"Stockport","era":"other","nn":295,"risk":25,"cat":"green"},{"name":"Aggies Bar Ltd","lat":53.39323,"lon":-2.06431,"postcode":"SK6 7AD","la":"Stockport","era":"mod","nn":30,"risk":23,"cat":"green"},{"name":"Andrew Arms","lat":53.41546,"lon":-2.0523,"postcode":"SK6 5JD","la":"Stockport","era":"trad","nn":771,"risk":48,"cat":"amber"},{"name":"Archive Bar And Bottle","lat":53.37559,"lon":-2.18865,"postcode":"SK8 5AU","la":"Stockport","era":"mod","nn":78,"risk":24,"cat":"green"},{"name":"Arden Arms","lat":53.41162,"lon":-2.15539,"postcode":"SK1 2LX","la":"Stockport","era":"trad","nn":83,"risk":24,"cat":"green"},{"name":"Avro Golf Club","lat":53.33318,"lon":-2.16807,"postcode":"SK7 1RN","la":"Stockport","era":"other","nn":759,"risk":33,"cat":"amber"},{"name":"Bakers Vaults","lat":53.41182,"lon":-2.1566,"postcode":"SK1 1ES","la":"Stockport","era":"other","nn":54,"risk":23,"cat":"green"},{"name":"Bents Lane Social Institute Ltd","lat":53.42161,"lon":-2.11336,"postcode":"SK6 2NJ","la":"Stockport","era":"mod","nn":238,"risk":25,"cat":"green"},{"name":"Bevi","lat":53.3937,"lon":-2.0639,"postcode":"SK6 7AD","la":"Stockport","era":"other","nn":30,"risk":23,"cat":"green"},{"name":"Bosden Farm Pub & Dining","lat":53.39121,"lon":-2.10669,"postcode":"SK2 5XT","la":"Stockport","era":"other","nn":1358,"risk":55,"cat":"amber"},{"name":"Bramhall Park Lawn Tennis Club","lat":53.37701,"lon":-2.16842,"postcode":"SK7 3JN","la":"Stockport","era":"trad","nn":800,"risk":46,"cat":"amber"},{"name":"Bramhall Queensgate Sports Club","lat":53.35368,"lon":-2.16172,"postcode":"SK7 1JT","la":"Stockport","era":"trad","nn":508,"risk":44,"cat":"amber"},{"name":"Bredbury Conservative Club","lat":53.4237,"lon":-2.10318,"postcode":"SK6 1AS","la":"Stockport","era":"other","nn":315,"risk":25,"cat":"green"},{"name":"Brinnington Ward Labour Club","lat":53.42759,"lon":-2.13369,"postcode":"SK5 8EP","la":"Stockport","era":"trad","nn":1040,"risk":53,"cat":"amber"},{"name":"Brookdale Club Ltd","lat":53.37403,"lon":-2.15744,"postcode":"SK7 3AB","la":"Stockport","era":"other","nn":367,"risk":31,"cat":"amber"},{"name":"Browns Bar & Lounge","lat":53.37819,"lon":-2.11726,"postcode":"SK7 4PS","la":"Stockport","era":"mod","nn":0,"risk":23,"cat":"green"},{"name":"Bullock Smithy (Hazel Grove)","lat":53.37819,"lon":-2.11726,"postcode":"SK7 4PS","la":"Stockport","era":"trad","nn":0,"risk":23,"cat":"green"},{"name":"Burgess Hospitality (D&P) LTD","lat":53.41151,"lon":-2.21363,"postcode":"SK4 3AG","la":"Stockport","era":"other","nn":0,"risk":23,"cat":"green"},{"name":"Buzz Bingo","lat":53.41138,"lon":-2.1504,"postcode":"SK1 2NA","la":"Stockport","era":"other","nn":332,"risk":25,"cat":"green"},{"name":"Cassidy's","lat":53.42321,"lon":-2.18547,"postcode":"SK4 4AG","la":"Stockport","era":"other","nn":68,"risk":24,"cat":"green"},{"name":"Cheadle & Gatley Conservative Club","lat":53.39488,"lon":-2.21171,"postcode":"SK8 2AA","la":"Stockport","era":"trad","nn":0,"risk":23,"cat":"green"},{"name":"Cheadle Heath Club & Institute","lat":53.40295,"lon":-2.18902,"postcode":"SK3 0NS","la":"Stockport","era":"trad","nn":607,"risk":30,"cat":"green"},{"name":"Cheadle Hulme Conservative Club","lat":53.37431,"lon":-2.18855,"postcode":"SK8 5AT","la":"Stockport","era":"trad","nn":71,"risk":24,"cat":"green"},{"name":"Cheadle Social Club","lat":53.39373,"lon":-2.21376,"postcode":"SK8 1BQ","la":"Stockport","era":"other","nn":121,"risk":24,"cat":"green"},{"name":"Cheshire Line Tavern","lat":53.40182,"lon":-2.21729,"postcode":"SK8 2NZ","la":"Stockport","era":"other","nn":662,"risk":28,"cat":"green"},{"name":"Cork Of The North","lat":53.42309,"lon":-2.1841,"postcode":"SK4 4NZ","la":"Stockport","era":"other","nn":42,"risk":23,"cat":"green"},{"name":"Cross Keys","lat":53.38663,"lon":-2.17865,"postcode":"SK8 5QA","la":"Stockport","era":"trad","nn":404,"risk":46,"cat":"amber"},{"name":"Crown Inn","lat":53.40505,"lon":-2.15412,"postcode":"SK1 3ER","la":"Stockport","era":"trad","nn":140,"risk":24,"cat":"green"},{"name":"Crown Inn","lat":53.42359,"lon":-2.1095,"postcode":"SK6 2AA","la":"Stockport","era":"trad","nn":0,"risk":23,"cat":"green"},{"name":"Crown Inn","lat":53.42354,"lon":-2.18335,"postcode":"SK4 4NZ","la":"Stockport","era":"trad","nn":71,"risk":24,"cat":"green"},{"name":"Crown Inn","lat":53.40944,"lon":-2.16613,"postcode":"SK4 1AR","la":"Stockport","era":"trad","nn":105,"risk":24,"cat":"green"},{"name":"Davenport Arms","lat":53.33988,"lon":-2.17027,"postcode":"SK7 1PS","la":"Stockport","era":"trad","nn":0,"risk":26,"cat":"green"},{"name":"Davenport Lawn Tennis Club","lat":53.38483,"lon":-2.14453,"postcode":"SK2 7EE","la":"Stockport","era":"other","nn":266,"risk":25,"cat":"green"},{"name":"Devonshire Arms","lat":53.39279,"lon":-2.02575,"postcode":"SK6 5PP","la":"Stockport","era":"trad","nn":1159,"risk":54,"cat":"amber"},{"name":"Dr Feelgood","lat":53.41113,"lon":-2.15649,"postcode":"SK1 1EW","la":"Stockport","era":"other","nn":13,"risk":23,"cat":"green"},{"name":"Duke Of York","lat":53.39513,"lon":-2.14848,"postcode":"SK2 6LR","la":"Stockport","era":"trad","nn":192,"risk":24,"cat":"green"},{"name":"Duke Of York","lat":53.41362,"lon":-2.09611,"postcode":"SK6 3AN","la":"Stockport","era":"trad","nn":250,"risk":25,"cat":"green"},{"name":"Edgeley Conservative Club","lat":53.4019,"lon":-2.16853,"postcode":"SK3 9AN","la":"Stockport","era":"other","nn":71,"risk":24,"cat":"green"},{"name":"Egerton Arms","lat":53.41041,"lon":-2.15807,"postcode":"SK1 1HD","la":"Stockport","era":"trad","nn":0,"risk":23,"cat":"green"},{"name":"Element Games North West Gaming Centre Stockport","lat":53.39564,"lon":-2.15124,"postcode":"SK2 6PT","la":"Stockport","era":"other","nn":192,"risk":24,"cat":"green"},{"name":"Flying Coach","lat":53.38092,"lon":-2.12343,"postcode":"SK7 4DJ","la":"Stockport","era":"trad","nn":33,"risk":23,"cat":"green"},{"name":"Foundry 301","lat":53.37831,"lon":-2.11744,"postcode":"SK7 4PS","la":"Stockport","era":"mod","nn":18,"risk":23,"cat":"green"},{"name":"Friendship Inn","lat":53.41394,"lon":-2.09238,"postcode":"SK6 3AA","la":"Stockport","era":"trad","nn":117,"risk":24,"cat":"green"},{"name":"Gardeners Arms","lat":53.40403,"lon":-2.1376,"postcode":"SK2 5AB","la":"Stockport","era":"trad","nn":259,"risk":30,"cat":"green"},{"name":"Garrick Theatre","lat":53.40829,"lon":-2.16176,"postcode":"SK3 0EJ","la":"Stockport","era":"other","nn":167,"risk":24,"cat":"green"},{"name":"Gatley Golf Club Ltd","lat":53.38046,"lon":-2.23471,"postcode":"SK8 3TW","la":"Stockport","era":"other","nn":1160,"risk":54,"cat":"amber"},{"name":"Genting Casino","lat":53.41042,"lon":-2.15807,"postcode":"SK1 1HD","la":"Stockport","era":"other","nn":0,"risk":23,"cat":"green"},{"name":"George And Dragon","lat":53.3948,"lon":-2.21421,"postcode":"SK8 1AX","la":"Stockport","era":"trad","nn":0,"risk":23,"cat":"green"},{"name":"Grange Club","lat":53.39878,"lon":-2.1803,"postcode":"SK3 0TL","la":"Stockport","era":"other","nn":217,"risk":25,"cat":"green"},{"name":"Grapevine","lat":53.41377,"lon":-2.08605,"postcode":"SK6 4EA","la":"Stockport","era":"other","nn":221,"risk":25,"cat":"green"},{"name":"Great Moor Conservative Club","lat":53.3886,"lon":-2.13476,"postcode":"SK2 7HA","la":"Stockport","era":"other","nn":262,"risk":25,"cat":"green"},{"name":"Grey Horse Public House","lat":53.43509,"lon":-2.16592,"postcode":"SK5 7AS","la":"Stockport","era":"trad","nn":83,"risk":24,"cat":"green"},{"name":"Grove Ale House","lat":53.38103,"lon":-2.12296,"postcode":"SK7 4HH","la":"Stockport","era":"other","nn":0,"risk":23,"cat":"green"},{"name":"Grove Lane Baptist Church","lat":53.3592,"lon":-2.18976,"postcode":"SK8 7NP","la":"Stockport","era":"other","nn":992,"risk":50,"cat":"amber"},{"name":"Hare And Hounds","lat":53.40411,"lon":-2.03018,"postcode":"SK6 5LW","la":"Stockport","era":"trad","nn":1292,"risk":55,"cat":"amber"},{"name":"Hazel Grove & District Conservative Club","lat":53.37835,"lon":-2.119,"postcode":"SK7 5NU","la":"Stockport","era":"other","nn":83,"risk":24,"cat":"green"},{"name":"Hazel Grove Bowling & Tennis Club","lat":53.38047,"lon":-2.11644,"postcode":"SK7 4JG","la":"Stockport","era":"other","nn":214,"risk":25,"cat":"green"},{"name":"Hazel Grove Reform Club","lat":53.37949,"lon":-2.12257,"postcode":"SK7 4EW","la":"Stockport","era":"other","nn":56,"risk":23,"cat":"green"},{"name":"Heald Green Social Club & Institute Ltd","lat":53.37281,"lon":-2.21841,"postcode":"SK8 3DQ","la":"Stockport","era":"mod","nn":1376,"risk":55,"cat":"amber"},{"name":"Heaton Mersey Conservative Club","lat":53.41236,"lon":-2.20552,"postcode":"SK4 3BS","la":"Stockport","era":"other","nn":0,"risk":26,"cat":"green"},{"name":"Heaton Mersey Sports & Social Club","lat":53.41398,"lon":-2.21033,"postcode":"SK4 3AZ","la":"Stockport","era":"mod","nn":350,"risk":26,"cat":"green"},{"name":"Heaton Norris Pavillion & Community Centre","lat":53.41522,"lon":-2.16382,"postcode":"SK4 1JA","la":"Stockport","era":"trad","nn":49,"risk":23,"cat":"green"},{"name":"High Lane Conservative Club","lat":53.365,"lon":-2.07535,"postcode":"SK6 8DR","la":"Stockport","era":"other","nn":171,"risk":42,"cat":"amber"},{"name":"Houldsworth Arms","lat":53.43677,"lon":-2.16145,"postcode":"SK5 7AE","la":"Stockport","era":"trad","nn":0,"risk":23,"cat":"green"},{"name":"Houldsworth Golf Club Ltd","lat":53.43961,"lon":-2.16689,"postcode":"SK5 6BN","la":"Stockport","era":"other","nn":438,"risk":26,"cat":"green"},{"name":"Houldsworth Working Mens Club","lat":53.43747,"lon":-2.16133,"postcode":"SK5 6BD","la":"Stockport","era":"trad","nn":77,"risk":24,"cat":"green"},{"name":"James Watts","lat":53.39479,"lon":-2.21421,"postcode":"SK8 1AX","la":"Stockport","era":"other","nn":0,"risk":23,"cat":"green"},{"name":"Jolly Crofter","lat":53.4027,"lon":-2.16348,"postcode":"SK3 9AB","la":"Stockport","era":"other","nn":98,"risk":24,"cat":"green"},{"name":"Jolly Sailor","lat":53.38526,"lon":-2.15273,"postcode":"SK3 8TE","la":"Stockport","era":"other","nn":429,"risk":26,"cat":"green"},{"name":"Kings Tap Also T/a Chik Box , K-Town Chicken & Locked And Lo","lat":53.37698,"lon":-2.18928,"postcode":"SK8 5AF","la":"Stockport","era":"other","nn":159,"risk":24,"cat":"green"},{"name":"Ladybridge Park Residents Club","lat":53.38477,"lon":-2.18389,"postcode":"SK8 5PX","la":"Stockport","era":"other","nn":404,"risk":43,"cat":"amber"},{"name":"Marple & Mellor Conservative Club","lat":53.39221,"lon":-2.06328,"postcode":"SK6 7AY","la":"Stockport","era":"other","nn":131,"risk":24,"cat":"green"},{"name":"Marple Social And Forces Club","lat":53.39317,"lon":-2.05849,"postcode":"SK6 6BX","la":"Stockport","era":"mod","nn":262,"risk":25,"cat":"green"},{"name":"Mee Thyme","lat":53.38104,"lon":-2.12296,"postcode":"SK7 4HH","la":"Stockport","era":"other","nn":0,"risk":23,"cat":"green"},{"name":"Miller & Carter Heaton Chapel","lat":53.42546,"lon":-2.1766,"postcode":"SK4 5BP","la":"Stockport","era":"trad","nn":425,"risk":26,"cat":"green"},{"name":"M\u00d86B","lat":53.41045,"lon":-2.15784,"postcode":"SK1 1HD","la":"Stockport","era":"other","nn":16,"risk":23,"cat":"green"},{"name":"Moor Top","lat":53.41752,"lon":-2.18981,"postcode":"SK4 4DU","la":"Stockport","era":"other","nn":611,"risk":27,"cat":"green"},{"name":"Moorish","lat":53.38702,"lon":-2.13182,"postcode":"SK2 7HE","la":"Stockport","era":"other","nn":58,"risk":23,"cat":"green"},{"name":"Navigation Hotel","lat":53.42668,"lon":-2.0971,"postcode":"SK6 1NL","la":"Stockport","era":"other","nn":0,"risk":23,"cat":"green"},{"name":"Navigation Inn","lat":53.41873,"lon":-2.16181,"postcode":"SK4 1TY","la":"Stockport","era":"trad","nn":11,"risk":23,"cat":"green"},{"name":"Navigation Inn","lat":53.39439,"lon":-2.06187,"postcode":"SK6 6BD","la":"Stockport","era":"trad","nn":154,"risk":24,"cat":"green"},{"name":"Nelson Tavern","lat":53.40543,"lon":-2.15915,"postcode":"SK1 3UH","la":"Stockport","era":"trad","nn":75,"risk":24,"cat":"green"},{"name":"Newbridge Lane Conservative Club","lat":53.41368,"lon":-2.14328,"postcode":"SK1 2PB","la":"Stockport","era":"other","nn":537,"risk":27,"cat":"green"},{"name":"No 42","lat":53.39346,"lon":-2.06408,"postcode":"SK6 7AD","la":"Stockport","era":"other","nn":30,"risk":23,"cat":"green"},{"name":"Nomads Bar Ltd @ Cheadle Heath Sports Club","lat":53.39619,"lon":-2.19078,"postcode":"SK8 2ET","la":"Stockport","era":"other","nn":548,"risk":32,"cat":"amber"},{"name":"Nook & Broom Bramhall Also T/a K-Town, Chik Box And Locked And Loaded, Pizza Amore, Dough Masters","lat":53.35782,"lon":-2.166,"postcode":"SK7 1AL","la":"Stockport","era":"trad","nn":45,"risk":41,"cat":"amber"},{"name":"North Reddish Working Men's Club","lat":53.45002,"lon":-2.15654,"postcode":"SK5 6PY","la":"Stockport","era":"trad","nn":676,"risk":48,"cat":"amber"},{"name":"Northumberland Arms","lat":53.40853,"lon":-2.05272,"postcode":"SK6 5HD","la":"Stockport","era":"trad","nn":260,"risk":42,"cat":"amber"},{"name":"Notion","lat":53.41229,"lon":-2.15675,"postcode":"SK1 1TY","la":"Stockport","era":"other","nn":54,"risk":23,"cat":"green"},{"name":"O'Hare's Bar And Restaurant","lat":53.37907,"lon":-2.11866,"postcode":"SK7 4PL","la":"Stockport","era":"mod","nn":83,"risk":24,"cat":"green"},{"name":"Pale","lat":53.42287,"lon":-2.18462,"postcode":"SK4 4AG","la":"Stockport","era":"other","nn":42,"risk":23,"cat":"green"},{"name":"Parish Room /St Georges","lat":53.39783,"lon":-2.15241,"postcode":"SK2 6NU","la":"Stockport","era":"trad","nn":57,"risk":23,"cat":"green"},{"name":"Parkside Social Club","lat":53.38379,"lon":-2.16388,"postcode":"SK7 3DT","la":"Stockport","era":"mod","nn":757,"risk":46,"cat":"amber"},{"name":"Petersgate Tap","lat":53.41001,"lon":-2.15802,"postcode":"SK1 1EB","la":"Stockport","era":"mod","nn":45,"risk":23,"cat":"green"},{"name":"Pineapple Inn","lat":53.40237,"lon":-2.16508,"postcode":"SK3 9AD","la":"Stockport","era":"trad","nn":112,"risk":24,"cat":"green"},{"name":"Platform One","lat":53.41393,"lon":-2.09062,"postcode":"SK6 4BN","la":"Stockport","era":"other","nn":117,"risk":24,"cat":"green"},{"name":"Players Dramatic Society","lat":53.37937,"lon":-2.19839,"postcode":"SK8 5EX","la":"Stockport","era":"other","nn":660,"risk":30,"cat":"green"},{"name":"Powerleague Fives Limited","lat":53.40877,"lon":-2.1887,"postcode":"SK4 2AP","la":"Stockport","era":"other","nn":648,"risk":45,"cat":"amber"},{"name":"Prince Of Wales","lat":53.39075,"lon":-2.2376,"postcode":"SK8 4NF","la":"Stockport","era":"trad","nn":1160,"risk":54,"cat":"amber"},{"name":"Project 53 Stockport Limited","lat":53.41156,"lon":-2.15742,"postcode":"SK1 1EU","la":"Stockport","era":"other","nn":62,"risk":24,"cat":"green"},{"name":"Queens","lat":53.41967,"lon":-2.10927,"postcode":"SK6 2JN","la":"Stockport","era":"trad","nn":112,"risk":24,"cat":"green"},{"name":"R & N Pubs Ltd","lat":53.37492,"lon":-2.1126,"postcode":"SK7 6AD","la":"Stockport","era":"other","nn":478,"risk":26,"cat":"green"},{"name":"Railway","lat":53.41434,"lon":-2.15301,"postcode":"SK1 2BZ","la":"Stockport","era":"trad","nn":336,"risk":25,"cat":"green"},{"name":"Railway Inn","lat":53.42668,"lon":-2.0971,"postcode":"SK6 1NL","la":"Stockport","era":"trad","nn":0,"risk":23,"cat":"green"},{"name":"Raising The Bar","lat":53.34194,"lon":-2.16474,"postcode":"SK7 1QP","la":"Stockport","era":"other","nn":219,"risk":27,"cat":"green"},{"name":"Red Bull","lat":53.40739,"lon":-2.15485,"postcode":"SK1 3AY","la":"Stockport","era":"trad","nn":126,"risk":24,"cat":"green"},{"name":"Reddish Ale","lat":53.43677,"lon":-2.16145,"postcode":"SK5 7AE","la":"Stockport","era":"other","nn":0,"risk":23,"cat":"green"},{"name":"Reddish Conservative Club Ltd","lat":53.44018,"lon":-2.15785,"postcode":"SK5 6UD","la":"Stockport","era":"other","nn":379,"risk":26,"cat":"green"},{"name":"Reddish Reform Club","lat":53.43677,"lon":-2.16145,"postcode":"SK5 7AE","la":"Stockport","era":"other","nn":0,"risk":23,"cat":"green"},{"name":"Reddish Vale Visitor Centre","lat":53.4375,"lon":-2.14751,"postcode":"SK5 7HE","la":"Stockport","era":"other","nn":746,"risk":28,"cat":"green"},{"name":"Reddish Working Men's Club","lat":53.42534,"lon":-2.15994,"postcode":"SK5 7LN","la":"Stockport","era":"trad","nn":741,"risk":46,"cat":"amber"},{"name":"Romiley Conservative Club Ltd","lat":53.41498,"lon":-2.08868,"postcode":"SK6 4AN","la":"Stockport","era":"other","nn":174,"risk":24,"cat":"green"},{"name":"Romiley Cricket Club","lat":53.41708,"lon":-2.07861,"postcode":"SK6 4LE","la":"Stockport","era":"other","nn":432,"risk":26,"cat":"green"},{"name":"Royal Oak","lat":53.39394,"lon":-2.04312,"postcode":"SK6 5PJ","la":"Stockport","era":"trad","nn":1023,"risk":53,"cat":"amber"},{"name":"Sir Robert Peel","lat":53.40145,"lon":-2.16779,"postcode":"SK3 9AR","la":"Stockport","era":"other","nn":0,"risk":23,"cat":"green"},{"name":"St Joseph's Parish Hall","lat":53.40965,"lon":-2.15745,"postcode":"SK1 1EJ","la":"Stockport","era":"other","nn":55,"risk":23,"cat":"green"},{"name":"Star & Garter","lat":53.40298,"lon":-2.1532,"postcode":"SK1 3HD","la":"Stockport","era":"other","nn":239,"risk":25,"cat":"green"},{"name":"Stawberry Gardens","lat":53.40202,"lon":-2.13245,"postcode":"SK2 5BS","la":"Stockport","era":"other","nn":333,"risk":30,"cat":"green"},{"name":"Stockport Cricket Club","lat":53.3948,"lon":-2.15652,"postcode":"SK3 8HD","la":"Stockport","era":"other","nn":323,"risk":25,"cat":"green"},{"name":"Stockport Events","lat":53.40598,"lon":-2.1585,"postcode":"SK1 3XE","la":"Stockport","era":"other","nn":75,"risk":24,"cat":"green"},{"name":"Stockport Georgians Cricket Club","lat":53.38313,"lon":-2.14734,"postcode":"SK2 7DT","la":"Stockport","era":"other","nn":266,"risk":25,"cat":"green"},{"name":"Stockport Labour Party Club","lat":53.41678,"lon":-2.16775,"postcode":"SK4 1QP","la":"Stockport","era":"other","nn":285,"risk":25,"cat":"green"},{"name":"Stockport Rugby Union Football Club","lat":53.37213,"lon":-2.15291,"postcode":"SK7 3AN","la":"Stockport","era":"other","nn":367,"risk":43,"cat":"amber"},{"name":"Sun & Castle","lat":53.40631,"lon":-2.15428,"postcode":"SK1 3DL","la":"Stockport","era":"other","nn":126,"risk":24,"cat":"green"},{"name":"Swan With 2 Necks","lat":53.41209,"lon":-2.16077,"postcode":"SK1 1RY","la":"Stockport","era":"trad","nn":229,"risk":25,"cat":"green"},{"name":"Thatched Tavern","lat":53.43638,"lon":-2.16009,"postcode":"SK5 7AQ","la":"Stockport","era":"other","nn":100,"risk":24,"cat":"green"},{"name":"The Anchor","lat":53.38277,"lon":-2.12555,"postcode":"SK7 4AF","la":"Stockport","era":"trad","nn":249,"risk":25,"cat":"green"},{"name":"The Armoury","lat":53.4028,"lon":-2.16202,"postcode":"SK3 8BD","la":"Stockport","era":"other","nn":98,"risk":24,"cat":"green"},{"name":"The Blossoms","lat":53.39828,"lon":-2.15282,"postcode":"SK2 6NU","la":"Stockport","era":"other","nn":57,"risk":23,"cat":"green"},{"name":"The Bulls Head Marple","lat":53.39348,"lon":-2.06363,"postcode":"SK6 7AA","la":"Stockport","era":"trad","nn":30,"risk":23,"cat":"green"},{"name":"The Chiverton Tap","lat":53.37491,"lon":-2.18891,"postcode":"SK8 5AU","la":"Stockport","era":"mod","nn":71,"risk":24,"cat":"green"},{"name":"The Church Inn","lat":53.36752,"lon":-2.18438,"postcode":"SK8 7EG","la":"Stockport","era":"trad","nn":804,"risk":31,"cat":"amber"},{"name":"The Cocked Hat","lat":53.41103,"lon":-2.15639,"postcode":"SK1 1EW","la":"Stockport","era":"other","nn":13,"risk":23,"cat":"green"},{"name":"The Crown","lat":53.38651,"lon":-2.13201,"postcode":"SK2 7JQ","la":"Stockport","era":"trad","nn":58,"risk":23,"cat":"green"},{"name":"The Crown & Conspirator Bramhall Ltd","lat":53.35771,"lon":-2.16535,"postcode":"SK7 1AF","la":"Stockport","era":"trad","nn":45,"risk":41,"cat":"amber"},{"name":"The Dog And Partridge","lat":53.41151,"lon":-2.21363,"postcode":"SK4 3AG","la":"Stockport","era":"other","nn":0,"risk":23,"cat":"green"},{"name":"The Dog And Partridge","lat":53.38929,"lon":-2.13978,"postcode":"SK2 7AN","la":"Stockport","era":"other","nn":310,"risk":25,"cat":"green"},{"name":"The Grapes","lat":53.41566,"lon":-2.16388,"postcode":"SK4 1LF","la":"Stockport","era":"other","nn":49,"risk":23,"cat":"green"},{"name":"The Grapes","lat":53.37984,"lon":-2.12195,"postcode":"SK7 4DQ","la":"Stockport","era":"other","nn":40,"risk":23,"cat":"green"},{"name":"The Greyhound","lat":53.42046,"lon":-2.11033,"postcode":"SK6 2NL","la":"Stockport","era":"trad","nn":112,"risk":24,"cat":"green"},{"name":"The Heaton","lat":53.41236,"lon":-2.20552,"postcode":"SK4 3BS","la":"Stockport","era":"other","nn":0,"risk":26,"cat":"green"},{"name":"The Horse & Jockey","lat":53.38018,"lon":-2.12179,"postcode":"SK7 4HJ","la":"Stockport","era":"trad","nn":40,"risk":23,"cat":"green"},{"name":"The Horseshoe","lat":53.36572,"lon":-2.07764,"postcode":"SK6 8AA","la":"Stockport","era":"trad","nn":171,"risk":42,"cat":"amber"},{"name":"The Magnet","lat":53.41233,"lon":-2.16734,"postcode":"SK4 1HJ","la":"Stockport","era":"other","nn":1,"risk":23,"cat":"green"},{"name":"The Marple Tavern","lat":53.39247,"lon":-2.07438,"postcode":"SK6 7PZ","la":"Stockport","era":"other","nn":530,"risk":27,"cat":"green"},{"name":"The Midland Pub","lat":53.41233,"lon":-2.16736,"postcode":"SK4 1HJ","la":"Stockport","era":"other","nn":1,"risk":23,"cat":"green"},{"name":"The Moor Club","lat":53.42347,"lon":-2.18207,"postcode":"SK4 4PB","la":"Stockport","era":"other","nn":0,"risk":23,"cat":"green"},{"name":"The Navigation","lat":53.41876,"lon":-2.16165,"postcode":"SK4 1TY","la":"Stockport","era":"other","nn":11,"risk":23,"cat":"green"},{"name":"The Plough","lat":53.3977,"lon":-2.15692,"postcode":"SK2 6QZ","la":"Stockport","era":"trad","nn":267,"risk":25,"cat":"green"},{"name":"The Prince Albert","lat":53.40145,"lon":-2.16779,"postcode":"SK3 9AR","la":"Stockport","era":"trad","nn":0,"risk":23,"cat":"green"},{"name":"The Railway","lat":53.41322,"lon":-2.16724,"postcode":"SK4 1HF","la":"Stockport","era":"trad","nn":98,"risk":24,"cat":"green"},{"name":"The Railway Club (Stockport Branch Of The Lmrca)","lat":53.39857,"lon":-2.18355,"postcode":"SK3 0TR","la":"Stockport","era":"trad","nn":217,"risk":27,"cat":"green"},{"name":"The Railway Marple Ltd","lat":53.3963,"lon":-2.07914,"postcode":"SK6 6EN","la":"Stockport","era":"trad","nn":530,"risk":47,"cat":"amber"},{"name":"The Rectory","lat":53.39287,"lon":-2.21746,"postcode":"SK8 1BX","la":"Stockport","era":"other","nn":123,"risk":24,"cat":"green"},{"name":"The Red Lion","lat":53.39543,"lon":-2.20788,"postcode":"SK8 2AJ","la":"Stockport","era":"trad","nn":261,"risk":25,"cat":"green"},{"name":"The Rising Sun","lat":53.42359,"lon":-2.1095,"postcode":"SK6 2AA","la":"Stockport","era":"other","nn":0,"risk":23,"cat":"green"},{"name":"The Royal Oak","lat":53.39488,"lon":-2.21171,"postcode":"SK8 2AA","la":"Stockport","era":"trad","nn":0,"risk":23,"cat":"green"},{"name":"The Royal Oak","lat":53.40145,"lon":-2.16945,"postcode":"SK3 9AL","la":"Stockport","era":"trad","nn":79,"risk":24,"cat":"green"},{"name":"The Royal Oak","lat":53.36612,"lon":-2.08195,"postcode":"SK6 8AY","la":"Stockport","era":"trad","nn":290,"risk":43,"cat":"amber"},{"name":"The Runaway Brewery","lat":53.40952,"lon":-2.16455,"postcode":"SK4 1AW","la":"Stockport","era":"other","nn":105,"risk":24,"cat":"green"},{"name":"The Shady Oak","lat":53.37873,"lon":-2.1474,"postcode":"SK7 3PG","la":"Stockport","era":"trad","nn":490,"risk":27,"cat":"green"},{"name":"The Stockdove","lat":53.41403,"lon":-2.08264,"postcode":"SK6 4DE","la":"Stockport","era":"other","nn":227,"risk":25,"cat":"green"},{"name":"The Strines Nightingale","lat":53.37881,"lon":-2.04713,"postcode":"SK6 7GE","la":"Stockport","era":"other","nn":1675,"risk":57,"cat":"amber"},{"name":"The Travellers Call","lat":53.42073,"lon":-2.12303,"postcode":"SK6 2DT","la":"Stockport","era":"other","nn":648,"risk":28,"cat":"green"},{"name":"The Victoria","lat":53.40607,"lon":-2.14135,"postcode":"SK1 4HE","la":"Stockport","era":"trad","nn":336,"risk":25,"cat":"green"},{"name":"The Wellington","lat":53.40736,"lon":-2.15978,"postcode":"SK1 3RU","la":"Stockport","era":"trad","nn":167,"risk":24,"cat":"green"},{"name":"The Wheatsheaf Hotel","lat":53.39877,"lon":-2.15249,"postcode":"SK1 3RB","la":"Stockport","era":"trad","nn":59,"risk":23,"cat":"green"},{"name":"The Windsor Castle","lat":53.40641,"lon":-2.05107,"postcode":"SK6 5EJ","la":"Stockport","era":"other","nn":260,"risk":45,"cat":"amber"},{"name":"The Woodley Arms","lat":53.42604,"lon":-2.1005,"postcode":"SK6 1RJ","la":"Stockport","era":"trad","nn":236,"risk":25,"cat":"green"},{"name":"Ukkrainian Social Club","lat":53.39136,"lon":-2.14291,"postcode":"SK2 7AA","la":"Stockport","era":"mod","nn":310,"risk":25,"cat":"green"},{"name":"Union Inn","lat":53.43541,"lon":-2.16478,"postcode":"SK5 7AS","la":"Stockport","era":"trad","nn":83,"risk":24,"cat":"green"},{"name":"Village Point Ltd","lat":53.42347,"lon":-2.18207,"postcode":"SK4 4PB","la":"Stockport","era":"other","nn":0,"risk":23,"cat":"green"},{"name":"Walthew House","lat":53.39964,"lon":-2.15928,"postcode":"SK2 6QS","la":"Stockport","era":"other","nn":267,"risk":25,"cat":"green"},{"name":"West Heaton Bowling, Tennis And Squash Club","lat":53.4219,"lon":-2.19538,"postcode":"SK4 3NQ","la":"Stockport","era":"other","nn":611,"risk":27,"cat":"green"},{"name":"White Hart","lat":53.39395,"lon":-2.21781,"postcode":"SK8 1PX","la":"Stockport","era":"trad","nn":123,"risk":24,"cat":"green"},{"name":"White Hart","lat":53.42812,"lon":-2.09562,"postcode":"SK6 1NP","la":"Stockport","era":"trad","nn":188,"risk":27,"cat":"green"},{"name":"WN Trading Ltd T/A The FingerPost","lat":53.4017,"lon":-2.13744,"postcode":"SK1 4QA","la":"Stockport","era":"other","nn":259,"risk":30,"cat":"green"},{"name":"Woodford British Legion","lat":53.34391,"lon":-2.16466,"postcode":"SK7 1PW","la":"Stockport","era":"other","nn":219,"risk":30,"cat":"green"},{"name":"Woodford Centre","lat":53.33988,"lon":-2.17027,"postcode":"SK7 1PS","la":"Stockport","era":"other","nn":0,"risk":26,"cat":"green"},{"name":"3 Drinks Behind","lat":53.43691,"lon":-2.07104,"postcode":"SK14 5RF","la":"Tameside","era":"other","nn":72,"risk":23,"cat":"green"},{"name":"Astley Arms","lat":53.47649,"lon":-2.10025,"postcode":"SK16 4QF","la":"Tameside","era":"trad","nn":284,"risk":24,"cat":"green"},{"name":"Astley Arms","lat":53.47774,"lon":-2.08684,"postcode":"SK16 4BT","la":"Tameside","era":"trad","nn":204,"risk":24,"cat":"green"},{"name":"Astley Arms","lat":53.47885,"lon":-2.06966,"postcode":"SK15 1TF","la":"Tameside","era":"trad","nn":213,"risk":24,"cat":"green"},{"name":"Back Lane Working Mens Club","lat":53.44966,"lon":-2.0702,"postcode":"SK14 1PP","la":"Tameside","era":"trad","nn":131,"risk":23,"cat":"green"},{"name":"Back To The 80s","lat":53.48385,"lon":-2.05952,"postcode":"SK15 2AA","la":"Tameside","era":"other","nn":16,"risk":22,"cat":"green"},{"name":"Bike 'N' Hound","lat":53.45253,"lon":-2.07834,"postcode":"SK14 2EX","la":"Tameside","era":"trad","nn":67,"risk":23,"cat":"green"},{"name":"Bohemian Lounge Bar","lat":53.48121,"lon":-2.05706,"postcode":"SK15 2JN","la":"Tameside","era":"mod","nn":9,"risk":22,"cat":"green"},{"name":"Bridge Beers","lat":53.48197,"lon":-2.0574,"postcode":"SK15 2JJ","la":"Tameside","era":"other","nn":30,"risk":22,"cat":"green"},{"name":"Bridge Inn","lat":53.48345,"lon":-2.06066,"postcode":"SK15 2AH","la":"Tameside","era":"trad","nn":71,"risk":23,"cat":"green"},{"name":"Broadbottom Cricket Club","lat":53.44273,"lon":-2.01735,"postcode":"SK14 6AG","la":"Tameside","era":"other","nn":434,"risk":45,"cat":"amber"},{"name":"Bulls Head Hotel","lat":53.48418,"lon":-2.05166,"postcode":"SK15 3AJ","la":"Tameside","era":"trad","nn":211,"risk":24,"cat":"green"},{"name":"Celtic Bier Hut","lat":53.47517,"lon":-2.04195,"postcode":"SK15 2QW","la":"Tameside","era":"other","nn":872,"risk":33,"cat":"amber"},{"name":"Cheshire Cheese","lat":53.46283,"lon":-2.0756,"postcode":"SK14 4BH","la":"Tameside","era":"other","nn":74,"risk":23,"cat":"green"},{"name":"Church Inn","lat":53.48585,"lon":-2.05706,"postcode":"SK15 1AJ","la":"Tameside","era":"trad","nn":139,"risk":23,"cat":"green"},{"name":"Crown And Cushion","lat":53.45885,"lon":-2.06787,"postcode":"SK14 4AW","la":"Tameside","era":"trad","nn":315,"risk":24,"cat":"green"},{"name":"Decades Heaven & Hell","lat":53.48383,"lon":-2.05712,"postcode":"SK15 2AA","la":"Tameside","era":"other","nn":31,"risk":22,"cat":"green"},{"name":"Dukinfield Cricket Club","lat":53.46198,"lon":-2.06604,"postcode":"SK14 4JG","la":"Tameside","era":"other","nn":368,"risk":25,"cat":"green"},{"name":"Dukinfield Golf Club","lat":53.46943,"lon":-2.05775,"postcode":"SK16 5GF","la":"Tameside","era":"other","nn":615,"risk":26,"cat":"green"},{"name":"Dukinfield Masonic Hall","lat":53.47946,"lon":-2.08787,"postcode":"SK16 4EN","la":"Tameside","era":"trad","nn":204,"risk":24,"cat":"green"},{"name":"Dukinfield Rugby Union Football Club","lat":53.47285,"lon":-2.09307,"postcode":"SK16 4HH","la":"Tameside","era":"other","nn":271,"risk":24,"cat":"green"},{"name":"Flowery Field Cricket Club","lat":53.45727,"lon":-2.08448,"postcode":"SK14 4RY","la":"Tameside","era":"other","nn":497,"risk":26,"cat":"green"},{"name":"Fox Tavern","lat":53.48766,"lon":-2.06286,"postcode":"SK15 1NQ","la":"Tameside","era":"trad","nn":131,"risk":23,"cat":"green"},{"name":"Gardeners Arms","lat":53.44853,"lon":-2.07076,"postcode":"SK14 1PR","la":"Tameside","era":"trad","nn":131,"risk":23,"cat":"green"},{"name":"Grapes Hotel","lat":53.43645,"lon":-2.07328,"postcode":"SK14 5RU","la":"Tameside","era":"other","nn":157,"risk":23,"cat":"green"},{"name":"Hare And Hounds","lat":53.49347,"lon":-2.0321,"postcode":"SK15 3ET","la":"Tameside","era":"trad","nn":167,"risk":41,"cat":"amber"},{"name":"Hare And Hounds","lat":53.43209,"lon":-2.06218,"postcode":"SK14 3AA","la":"Tameside","era":"trad","nn":490,"risk":26,"cat":"green"},{"name":"Harewood Arms And Greenmill Brewery","lat":53.44092,"lon":-2.01155,"postcode":"SK14 6AX","la":"Tameside","era":"trad","nn":434,"risk":45,"cat":"amber"},{"name":"Hollingworth Conservative Club","lat":53.4644,"lon":-1.98845,"postcode":"SK14 8HY","la":"Tameside","era":"other","nn":412,"risk":25,"cat":"green"},{"name":"Hollingworth Cricket Club","lat":53.46278,"lon":-1.99448,"postcode":"SK14 8NQ","la":"Tameside","era":"other","nn":70,"risk":23,"cat":"green"},{"name":"Hollingworth Liberal Club","lat":53.46237,"lon":-1.99366,"postcode":"SK14 8LN","la":"Tameside","era":"other","nn":70,"risk":23,"cat":"green"},{"name":"Hyde Club","lat":53.44789,"lon":-2.08366,"postcode":"SK14 1DJ","la":"Tameside","era":"other","nn":509,"risk":26,"cat":"green"},{"name":"Hyde Cricket And Squash Club","lat":53.43303,"lon":-2.05496,"postcode":"SK14 3AF","la":"Tameside","era":"other","nn":490,"risk":46,"cat":"amber"},{"name":"Hyde Snooker & Social Club","lat":53.45249,"lon":-2.08186,"postcode":"SK14 1BA","la":"Tameside","era":"mod","nn":215,"risk":24,"cat":"green"},{"name":"Jacks Bar","lat":53.45197,"lon":-2.07873,"postcode":"SK14 2EX","la":"Tameside","era":"other","nn":39,"risk":22,"cat":"green"},{"name":"Jolly Carter","lat":53.45165,"lon":-2.07617,"postcode":"SK14 2ND","la":"Tameside","era":"other","nn":0,"risk":22,"cat":"green"},{"name":"Judges Bar","lat":53.48258,"lon":-2.0566,"postcode":"SK15 2JL","la":"Tameside","era":"other","nn":0,"risk":22,"cat":"green"},{"name":"King William IV Hotel","lat":53.46431,"lon":-2.06125,"postcode":"SK14 4HJ","la":"Tameside","era":"trad","nn":409,"risk":25,"cat":"green"},{"name":"Lancashire Ward No 2 Conservative Club","lat":53.48463,"lon":-2.05658,"postcode":"SK15 1AH","la":"Tameside","era":"other","nn":96,"risk":23,"cat":"green"},{"name":"Legendz","lat":53.48146,"lon":-2.05817,"postcode":"SK15 1RR","la":"Tameside","era":"other","nn":71,"risk":23,"cat":"green"},{"name":"Masons Arms","lat":53.47706,"lon":-2.07563,"postcode":"SK16 5NT","la":"Tameside","era":"trad","nn":339,"risk":25,"cat":"green"},{"name":"Matteo Events Catering At Oaklands Masonic Hall","lat":53.45069,"lon":-2.05899,"postcode":"SK14 3DE","la":"Tameside","era":"trad","nn":350,"risk":25,"cat":"green"},{"name":"Mottram Cricket Club","lat":53.45224,"lon":-2.01436,"postcode":"SK14 6JA","la":"Tameside","era":"trad","nn":788,"risk":48,"cat":"amber"},{"name":"Mottram Wood","lat":53.45372,"lon":-2.026,"postcode":"SK14 3AU","la":"Tameside","era":"trad","nn":788,"risk":48,"cat":"amber"},{"name":"Newton Cricket Club","lat":53.45368,"lon":-2.06066,"postcode":"SK14 3BZ","la":"Tameside","era":"other","nn":350,"risk":25,"cat":"green"},{"name":"Newton Ward Conservative Club","lat":53.46222,"lon":-2.07509,"postcode":"SK14 4BH","la":"Tameside","era":"other","nn":75,"risk":23,"cat":"green"},{"name":"Old Fleece Hotel","lat":53.48407,"lon":-2.06037,"postcode":"SK15 2AL","la":"Tameside","era":"trad","nn":28,"risk":22,"cat":"green"},{"name":"Old Hunters Tavern","lat":53.48229,"lon":-2.05136,"postcode":"SK15 2JR","la":"Tameside","era":"other","nn":0,"risk":22,"cat":"green"},{"name":"Pyramid Snooker Hall","lat":53.47986,"lon":-2.094,"postcode":"SK16 4NQ","la":"Tameside","era":"trad","nn":64,"risk":23,"cat":"green"},{"name":"Queen Adelaide Hotel","lat":53.43792,"lon":-2.06993,"postcode":"SK14 5RF","la":"Tameside","era":"trad","nn":64,"risk":23,"cat":"green"},{"name":"Queens Hotel","lat":53.45165,"lon":-2.07617,"postcode":"SK14 2ND","la":"Tameside","era":"trad","nn":0,"risk":22,"cat":"green"},{"name":"Reindeer Inn","lat":53.48813,"lon":-2.04037,"postcode":"SK15 3DW","la":"Tameside","era":"trad","nn":296,"risk":24,"cat":"green"},{"name":"Relics And Rust  Lifestyle Shop","lat":53.45608,"lon":-2.06883,"postcode":"SK14 2JW","la":"Tameside","era":"other","nn":315,"risk":24,"cat":"green"},{"name":"Ridge Hill WMC","lat":53.48651,"lon":-2.0633,"postcode":"SK15 1NF","la":"Tameside","era":"other","nn":131,"risk":23,"cat":"green"},{"name":"SK15 Bar And Bistro","lat":53.48393,"lon":-2.05793,"postcode":"SK15 2AB","la":"Tameside","era":"mod","nn":27,"risk":22,"cat":"green"},{"name":"St Peters Social Club","lat":53.48257,"lon":-2.05661,"postcode":"SK15 2JL","la":"Tameside","era":"mod","nn":0,"risk":22,"cat":"green"},{"name":"Staly Ward No 2 Conservative Club","lat":53.48284,"lon":-2.05668,"postcode":"SK15 2JL","la":"Tameside","era":"other","nn":30,"risk":22,"cat":"green"},{"name":"Stalybridge Cricket Club","lat":53.47543,"lon":-2.06954,"postcode":"SK16 5JL","la":"Tameside","era":"other","nn":293,"risk":24,"cat":"green"},{"name":"Stalybridge Station Buffet Bar","lat":53.48445,"lon":-2.06306,"postcode":"SK15 1RF","la":"Tameside","era":"other","nn":156,"risk":23,"cat":"green"},{"name":"Stamford Arms","lat":53.50904,"lon":-2.02807,"postcode":"SK15 3PY","la":"Tameside","era":"trad","nn":409,"risk":30,"cat":"green"},{"name":"Stamford Golf Club","lat":53.48585,"lon":-2.0427,"postcode":"SK15 3DN","la":"Tameside","era":"other","nn":296,"risk":24,"cat":"green"},{"name":"Stanley Square Conservative Club Stalybridge","lat":53.47977,"lon":-2.06683,"postcode":"SK15 1SR","la":"Tameside","era":"other","nn":213,"risk":24,"cat":"green"},{"name":"Stayley Cricket Club","lat":53.49492,"lon":-2.03276,"postcode":"SK15 3JJ","la":"Tameside","era":"other","nn":167,"risk":41,"cat":"amber"},{"name":"Sykes Bar","lat":53.48396,"lon":-2.05753,"postcode":"SK15 2AB","la":"Tameside","era":"other","nn":27,"risk":22,"cat":"green"},{"name":"Tame Valley Hotel","lat":53.48124,"lon":-2.08097,"postcode":"SK16 5LX","la":"Tameside","era":"other","nn":497,"risk":26,"cat":"green"},{"name":"The Albion","lat":53.45171,"lon":-2.07816,"postcode":"SK14 2LX","la":"Tameside","era":"other","nn":15,"risk":22,"cat":"green"},{"name":"The Albion Hotel","lat":53.47581,"lon":-2.08268,"postcode":"SK16 4BZ","la":"Tameside","era":"other","nn":199,"risk":24,"cat":"green"},{"name":"The Angel Inn","lat":53.47522,"lon":-2.09206,"postcode":"SK16 4TH","la":"Tameside","era":"trad","nn":271,"risk":24,"cat":"green"},{"name":"The British Protection","lat":53.47816,"lon":-2.05413,"postcode":"SK15 2HB","la":"Tameside","era":"other","nn":190,"risk":24,"cat":"green"},{"name":"The Buxton Inn","lat":53.43909,"lon":-2.06761,"postcode":"SK14 5NG","la":"Tameside","era":"trad","nn":201,"risk":24,"cat":"green"},{"name":"The Chapel House","lat":53.47852,"lon":-2.09764,"postcode":"SK16 4QD","la":"Tameside","era":"other","nn":283,"risk":24,"cat":"green"},{"name":"The Cheshire Cheese","lat":53.4362,"lon":-2.07567,"postcode":"SK14 5RY","la":"Tameside","era":"other","nn":161,"risk":23,"cat":"green"},{"name":"The Cheshire Ring","lat":53.45296,"lon":-2.08643,"postcode":"SK14 2BJ","la":"Tameside","era":"other","nn":160,"risk":23,"cat":"green"},{"name":"The Commercial Hotel","lat":53.47941,"lon":-2.0934,"postcode":"SK16 4JU","la":"Tameside","era":"other","nn":64,"risk":23,"cat":"green"},{"name":"The Cotton Bale","lat":53.45169,"lon":-2.07838,"postcode":"SK14 2LX","la":"Tameside","era":"other","nn":0,"risk":22,"cat":"green"},{"name":"The Cracking Pint","lat":53.48223,"lon":-2.05749,"postcode":"SK15 2JJ","la":"Tameside","era":"trad","nn":30,"risk":22,"cat":"green"},{"name":"The Dining Room Gee Cross","lat":53.4375,"lon":-2.07059,"postcode":"SK14 5RF","la":"Tameside","era":"trad","nn":64,"risk":23,"cat":"green"},{"name":"The Forester","lat":53.47419,"lon":-2.06411,"postcode":"SK16 5EW","la":"Tameside","era":"other","nn":385,"risk":25,"cat":"green"},{"name":"The George And Dragon","lat":53.46293,"lon":-2.0767,"postcode":"SK14 4TQ","la":"Tameside","era":"trad","nn":74,"risk":23,"cat":"green"},{"name":"The Gun Inn","lat":53.46183,"lon":-1.99452,"postcode":"SK14 8LN","la":"Tameside","era":"trad","nn":0,"risk":22,"cat":"green"},{"name":"The Joshua Bradley","lat":53.43565,"lon":-2.08144,"postcode":"SK14 5EZ","la":"Tameside","era":"other","nn":387,"risk":25,"cat":"green"},{"name":"The Lodge Hotel","lat":53.47323,"lon":-2.07198,"postcode":"SK16 5JY","la":"Tameside","era":"other","nn":293,"risk":24,"cat":"green"},{"name":"The Lord Stamford","lat":53.47901,"lon":-2.05663,"postcode":"SK15 2DX","la":"Tameside","era":"other","nn":190,"risk":24,"cat":"green"},{"name":"The New Inn","lat":53.46183,"lon":-1.99452,"postcode":"SK14 8LN","la":"Tameside","era":"trad","nn":0,"risk":22,"cat":"green"},{"name":"The Old Thirteenth Cheshire Astley Volunteer Rifleman Corps","lat":53.48419,"lon":-2.06074,"postcode":"SK15 2AL","la":"Tameside","era":"other","nn":0,"risk":22,"cat":"green"},{"name":"The Olde Town House","lat":53.45128,"lon":-2.07435,"postcode":"SK14 2RB","la":"Tameside","era":"other","nn":128,"risk":23,"cat":"green"},{"name":"The Organ Inn","lat":53.48229,"lon":-2.05136,"postcode":"SK15 2JR","la":"Tameside","era":"trad","nn":0,"risk":22,"cat":"green"},{"name":"The Q Inn","lat":53.48419,"lon":-2.06074,"postcode":"SK15 2AL","la":"Tameside","era":"trad","nn":0,"risk":22,"cat":"green"},{"name":"The Rising Moon","lat":53.46677,"lon":-2.04688,"postcode":"SK14 4EG","la":"Tameside","era":"other","nn":778,"risk":33,"cat":"amber"},{"name":"The Shepherds Call","lat":53.44738,"lon":-2.07603,"postcode":"SK14 1HB","la":"Tameside","era":"other","nn":371,"risk":25,"cat":"green"},{"name":"The Society Rooms (Wetherspoons)","lat":53.48119,"lon":-2.05719,"postcode":"SK15 2JN","la":"Tameside","era":"mod","nn":9,"risk":22,"cat":"green"},{"name":"The Sportsman Inn And El Cuba Libre","lat":53.45217,"lon":-2.07221,"postcode":"SK14 2NN","la":"Tameside","era":"trad","nn":173,"risk":23,"cat":"green"},{"name":"The Stocks Inn","lat":53.48229,"lon":-2.04755,"postcode":"SK15 2LW","la":"Tameside","era":"trad","nn":252,"risk":24,"cat":"green"},{"name":"The White Gates Inn","lat":53.4529,"lon":-2.08884,"postcode":"SK14 2BT","la":"Tameside","era":"trad","nn":160,"risk":23,"cat":"green"},{"name":"The White House","lat":53.48377,"lon":-2.05973,"postcode":"SK15 2AG","la":"Tameside","era":"other","nn":16,"risk":22,"cat":"green"},{"name":"Waggon & Horses Hotel","lat":53.46731,"lon":-2.02744,"postcode":"SK15 2SU","la":"Tameside","era":"trad","nn":1289,"risk":54,"cat":"amber"},{"name":"Wheatsheaf Inn","lat":53.47528,"lon":-2.0798,"postcode":"SK16 4AJ","la":"Tameside","era":"trad","nn":199,"risk":24,"cat":"green"},{"name":"White Lion","lat":53.45169,"lon":-2.07838,"postcode":"SK14 2LX","la":"Tameside","era":"trad","nn":0,"risk":22,"cat":"green"},{"name":"Works 4U At The Peacock","lat":53.49083,"lon":-2.06061,"postcode":"SK15 1EB","la":"Tameside","era":"mod","nn":382,"risk":25,"cat":"green"}]