[{"name":"Alford & District Conserv Club","lat":53.26283,"lon":0.17793,"postcode":"LN13 9DN","la":"East Lindsey","era":"other","nn":33,"risk":20,"cat":"green"},{"name":"Alford Town Football Club","lat":53.26408,"lon":0.18265,"postcode":"LN13 9EQ","la":"East Lindsey","era":"other","nn":2,"risk":20,"cat":"green"},{"name":"Anchor House","lat":53.26409,"lon":0.18264,"postcode":"LN13 9EQ","la":"East Lindsey","era":"trad","nn":2,"risk":20,"cat":"green"},{"name":"Bar Eleven","lat":53.15256,"lon":-0.21348,"postcode":"LN10 6ST","la":"East Lindsey","era":"mod","nn":165,"risk":26,"cat":"green"},{"name":"Beach Lodge Hotel","lat":53.33636,"lon":0.26947,"postcode":"LN12 2AS","la":"East Lindsey","era":"other","nn":123,"risk":21,"cat":"green"},{"name":"Black Horse Inn","lat":53.32865,"lon":-0.14473,"postcode":"LN11 9TJ","la":"East Lindsey","era":"trad","nn":4213,"risk":72,"cat":"red"},{"name":"Blocktails Cocktail Bar","lat":53.36652,"lon":-0.00545,"postcode":"LN11 9PY","la":"East Lindsey","era":"other","nn":0,"risk":20,"cat":"green"},{"name":"Brackenborough  Hotel","lat":53.39081,"lon":-0.0173,"postcode":"LN11 0SZ","la":"East Lindsey","era":"other","nn":2227,"risk":58,"cat":"amber"},{"name":"Carousel Club","lat":53.34224,"lon":0.26215,"postcode":"LN12 1AD","la":"East Lindsey","era":"other","nn":74,"risk":20,"cat":"green"},{"name":"Cedar Bar & Restaurant","lat":53.35101,"lon":0.25188,"postcode":"LN12 1QN","la":"East Lindsey","era":"mod","nn":392,"risk":22,"cat":"green"},{"name":"Charlies","lat":53.10593,"lon":-0.1755,"postcode":"LN4 4RB","la":"East Lindsey","era":"other","nn":0,"risk":20,"cat":"green"},{"name":"Coach And Horses","lat":53.25292,"lon":-0.14668,"postcode":"LN9 5QF","la":"East Lindsey","era":"trad","nn":3548,"risk":67,"cat":"red"},{"name":"Cobbles Bar & Bar Castillejar","lat":53.36689,"lon":-0.0052,"postcode":"LN11 9PU","la":"East Lindsey","era":"mod","nn":44,"risk":20,"cat":"green"},{"name":"Covenham Water Sports Association","lat":53.4503,"lon":0.03216,"postcode":"LN11 0PA","la":"East Lindsey","era":"other","nn":1960,"risk":56,"cat":"amber"},{"name":"Cross Keys Inn","lat":53.45423,"lon":-0.00349,"postcode":"LN11 0XG","la":"East Lindsey","era":"trad","nn":1844,"risk":55,"cat":"amber"},{"name":"Dreams Pub","lat":53.33182,"lon":0.27292,"postcode":"LN12 2PE","la":"East Lindsey","era":"other","nn":447,"risk":23,"cat":"green"},{"name":"Falcon Bar","lat":53.35586,"lon":0.24825,"postcode":"LN12 1QJ","la":"East Lindsey","era":"other","nn":0,"risk":20,"cat":"green"},{"name":"Galleon Cabaret Bar","lat":53.35586,"lon":0.24825,"postcode":"LN12 1QJ","la":"East Lindsey","era":"other","nn":0,"risk":20,"cat":"green"},{"name":"Giggling Goose","lat":53.096,"lon":-0.20312,"postcode":"LN4 4JG","la":"East Lindsey","era":"other","nn":75,"risk":25,"cat":"green"},{"name":"Green Man Inn Limited","lat":53.29206,"lon":-0.08605,"postcode":"LN11 9XG","la":"East Lindsey","era":"trad","nn":2312,"risk":58,"cat":"amber"},{"name":"Harper's Shack","lat":53.44685,"lon":0.12524,"postcode":"LN11 7PS","la":"East Lindsey","era":"other","nn":508,"risk":41,"cat":"amber"},{"name":"Heros Bar","lat":53.09831,"lon":-0.17786,"postcode":"LN4 4SY","la":"East Lindsey","era":"other","nn":0,"risk":20,"cat":"green"},{"name":"Horncastle Farmers Club","lat":53.20889,"lon":-0.11679,"postcode":"LN9 5HB","la":"East Lindsey","era":"other","nn":138,"risk":21,"cat":"green"},{"name":"Horncastle Town Football Club","lat":53.20632,"lon":-0.11569,"postcode":"LN9 6EB","la":"East Lindsey","era":"other","nn":59,"risk":20,"cat":"green"},{"name":"Jesters","lat":53.3401,"lon":0.26354,"postcode":"LN12 2AF","la":"East Lindsey","era":"other","nn":0,"risk":20,"cat":"green"},{"name":"Joseph Morton","lat":53.3653,"lon":-0.0044,"postcode":"LN11 9EZ","la":"East Lindsey","era":"other","nn":48,"risk":20,"cat":"green"},{"name":"Leagate Inn","lat":53.11075,"lon":-0.14821,"postcode":"LN4 4RS","la":"East Lindsey","era":"trad","nn":1495,"risk":53,"cat":"amber"},{"name":"London Road Pavilion & Grounds","lat":53.35806,"lon":-0.0053,"postcode":"LN11 9QP","la":"East Lindsey","era":"trad","nn":622,"risk":24,"cat":"green"},{"name":"Louth Hotel","lat":53.34156,"lon":0.2613,"postcode":"LN12 1AF","la":"East Lindsey","era":"other","nn":42,"risk":20,"cat":"green"},{"name":"Louth Independent Conservative Club","lat":53.36642,"lon":-0.00339,"postcode":"LN11 9AU","la":"East Lindsey","era":"other","nn":2,"risk":20,"cat":"green"},{"name":"Louth Town And Country Club","lat":53.36764,"lon":-0.0051,"postcode":"LN11 9NL","la":"East Lindsey","era":"other","nn":51,"risk":20,"cat":"green"},{"name":"Mablethorpe Conservative Club","lat":53.33761,"lon":0.26504,"postcode":"LN12 2AJ","la":"East Lindsey","era":"other","nn":143,"risk":21,"cat":"green"},{"name":"Masonic Hall","lat":53.26267,"lon":0.17925,"postcode":"LN13 9DP","la":"East Lindsey","era":"trad","nn":90,"risk":20,"cat":"green"},{"name":"Masonic Hall","lat":53.20879,"lon":-0.11351,"postcode":"LN9 5BW","la":"East Lindsey","era":"trad","nn":78,"risk":20,"cat":"green"},{"name":"Masons Arms & Chuck Burger","lat":53.36652,"lon":-0.00545,"postcode":"LN11 9PY","la":"East Lindsey","era":"trad","nn":0,"risk":20,"cat":"green"},{"name":"My Fathers Moustache","lat":53.37333,"lon":-0.0009,"postcode":"LN11 0HF","la":"East Lindsey","era":"other","nn":628,"risk":24,"cat":"green"},{"name":"New Inn","lat":53.42128,"lon":0.18773,"postcode":"LN11 7RZ","la":"East Lindsey","era":"trad","nn":175,"risk":41,"cat":"amber"},{"name":"New Orleans (Louth) Club","lat":53.36676,"lon":-0.00115,"postcode":"LN11 9BJ","la":"East Lindsey","era":"other","nn":124,"risk":21,"cat":"green"},{"name":"Officers Mess","lat":53.09833,"lon":-0.17785,"postcode":"LN4 4SY","la":"East Lindsey","era":"other","nn":2,"risk":20,"cat":"green"},{"name":"Olivers Wine Bar","lat":53.36558,"lon":-0.00385,"postcode":"LN11 9BA","la":"East Lindsey","era":"other","nn":21,"risk":20,"cat":"green"},{"name":"Owners Lounge","lat":53.35586,"lon":0.24825,"postcode":"LN12 1QJ","la":"East Lindsey","era":"mod","nn":0,"risk":20,"cat":"green"},{"name":"Packet Inn","lat":53.0826,"lon":-0.19476,"postcode":"LN4 4UU","la":"East Lindsey","era":"trad","nn":1283,"risk":51,"cat":"amber"},{"name":"Panacea Louth","lat":53.36641,"lon":-0.0034,"postcode":"LN11 9AU","la":"East Lindsey","era":"other","nn":0,"risk":20,"cat":"green"},{"name":"Pop Up Bar","lat":53.10138,"lon":-0.19337,"postcode":"LN4 4LR","la":"East Lindsey","era":"other","nn":0,"risk":20,"cat":"green"},{"name":"Quayside","lat":53.35586,"lon":0.24825,"postcode":"LN12 1QJ","la":"East Lindsey","era":"other","nn":0,"risk":20,"cat":"green"},{"name":"Recreational Hall","lat":53.37056,"lon":-0.00915,"postcode":"LN11 0EU","la":"East Lindsey","era":"other","nn":421,"risk":23,"cat":"green"},{"name":"Red Lion","lat":53.20913,"lon":-0.11475,"postcode":"LN9 5HT","la":"East Lindsey","era":"trad","nn":68,"risk":20,"cat":"green"},{"name":"Remington Club","lat":53.34193,"lon":0.26115,"postcode":"LN12 1AD","la":"East Lindsey","era":"other","nn":0,"risk":20,"cat":"green"},{"name":"Sally'S Bar","lat":53.3401,"lon":0.26354,"postcode":"LN12 2AF","la":"East Lindsey","era":"other","nn":0,"risk":20,"cat":"green"},{"name":"Seagull Club","lat":53.32261,"lon":0.27437,"postcode":"LN12 2PZ","la":"East Lindsey","era":"other","nn":324,"risk":24,"cat":"green"},{"name":"Seaholme Bar & Grill Ltd","lat":53.33525,"lon":0.26933,"postcode":"LN12 2AW","la":"East Lindsey","era":"mod","nn":4,"risk":20,"cat":"green"},{"name":"Sebastopol Inn","lat":53.24541,"lon":-0.22308,"postcode":"LN9 5RS","la":"East Lindsey","era":"trad","nn":4884,"risk":76,"cat":"red"},{"name":"Sergeants Mess Building 35","lat":53.09831,"lon":-0.17786,"postcode":"LN4 4SY","la":"East Lindsey","era":"other","nn":0,"risk":20,"cat":"green"},{"name":"Shampers Wine Bar","lat":53.34038,"lon":0.26331,"postcode":"LN12 2AF","la":"East Lindsey","era":"other","nn":34,"risk":20,"cat":"green"},{"name":"Ship Inn","lat":53.20853,"lon":-0.1146,"postcode":"LN9 5HU","la":"East Lindsey","era":"trad","nn":0,"risk":20,"cat":"green"},{"name":"Smarties Bar","lat":53.36641,"lon":-0.0034,"postcode":"LN11 9AU","la":"East Lindsey","era":"other","nn":0,"risk":20,"cat":"green"},{"name":"Spitfire Bar","lat":53.10138,"lon":-0.19337,"postcode":"LN4 4LR","la":"East Lindsey","era":"other","nn":0,"risk":20,"cat":"green"},{"name":"Sutton On Sea Social Club","lat":53.31755,"lon":0.28072,"postcode":"LN12 2LT","la":"East Lindsey","era":"mod","nn":382,"risk":27,"cat":"green"},{"name":"Tattershall Park","lat":53.0954,"lon":-0.20362,"postcode":"LN4 4JG","la":"East Lindsey","era":"other","nn":75,"risk":25,"cat":"green"},{"name":"The Abbey Lodge Inn","lat":53.14134,"lon":-0.21571,"postcode":"LN10 6UQ","la":"East Lindsey","era":"trad","nn":1171,"risk":50,"cat":"amber"},{"name":"The Axe & Cleaver","lat":53.4461,"lon":0.1328,"postcode":"LN11 7PR","la":"East Lindsey","era":"other","nn":480,"risk":41,"cat":"amber"},{"name":"The Axe And Cleaver","lat":53.26651,"lon":0.26809,"postcode":"LN13 9RG","la":"East Lindsey","era":"other","nn":2489,"risk":60,"cat":"amber"},{"name":"The Barre","lat":53.3667,"lon":-0.00301,"postcode":"LN11 9AU","la":"East Lindsey","era":"other","nn":39,"risk":20,"cat":"green"},{"name":"The Bay Horse","lat":53.44591,"lon":0.14004,"postcode":"LN11 7QN","la":"East Lindsey","era":"trad","nn":480,"risk":41,"cat":"amber"},{"name":"The Beach Bar","lat":53.31409,"lon":0.28309,"postcode":"LN12 2ET","la":"East Lindsey","era":"other","nn":416,"risk":40,"cat":"amber"},{"name":"The Beck","lat":53.34487,"lon":0.26113,"postcode":"LN12 1LU","la":"East Lindsey","era":"other","nn":227,"risk":21,"cat":"green"},{"name":"The Black Horse","lat":53.10473,"lon":-0.18832,"postcode":"LN4 4LE","la":"East Lindsey","era":"trad","nn":151,"risk":21,"cat":"green"},{"name":"The Black Swan","lat":53.20621,"lon":-0.11482,"postcode":"LN9 6EF","la":"East Lindsey","era":"trad","nn":59,"risk":20,"cat":"green"},{"name":"The Black Swan","lat":53.10758,"lon":-0.16998,"postcode":"LN4 4RF","la":"East Lindsey","era":"trad","nn":0,"risk":22,"cat":"green"},{"name":"The Blue Bell Inn","lat":53.11739,"lon":-0.17923,"postcode":"LN4 4PE","la":"East Lindsey","era":"trad","nn":1254,"risk":51,"cat":"amber"},{"name":"The Blue Bell Inn","lat":53.26028,"lon":-0.06327,"postcode":"LN9 6LQ","la":"East Lindsey","era":"trad","nn":3845,"risk":69,"cat":"red"},{"name":"The Boars Head","lat":53.36269,"lon":-4e-05,"postcode":"LN11 9EQ","la":"East Lindsey","era":"trad","nn":45,"risk":20,"cat":"green"},{"name":"The Book In Hand Pub","lat":53.34193,"lon":0.26115,"postcode":"LN12 1AD","la":"East Lindsey","era":"other","nn":0,"risk":20,"cat":"green"},{"name":"The Brown Cow","lat":53.36309,"lon":-1e-05,"postcode":"LN11 9EG","la":"East Lindsey","era":"other","nn":45,"risk":20,"cat":"green"},{"name":"The Cartwheel Club","lat":53.31417,"lon":0.25023,"postcode":"LN12 2QQ","la":"East Lindsey","era":"other","nn":1786,"risk":55,"cat":"amber"},{"name":"The Castle Inn","lat":53.10758,"lon":-0.16998,"postcode":"LN4 4RF","la":"East Lindsey","era":"trad","nn":0,"risk":22,"cat":"green"},{"name":"The Club House","lat":53.31488,"lon":-0.06988,"postcode":"LN11 9SE","la":"East Lindsey","era":"other","nn":2755,"risk":61,"cat":"red"},{"name":"The Crossroads Inn","lat":53.31556,"lon":-0.24824,"postcode":"LN8 5RW","la":"East Lindsey","era":"trad","nn":3743,"risk":68,"cat":"red"},{"name":"The Crown Inn","lat":53.20916,"lon":-0.12044,"postcode":"LN9 5JF","la":"East Lindsey","era":"trad","nn":0,"risk":20,"cat":"green"},{"name":"The Crown Inn","lat":53.42128,"lon":0.1851,"postcode":"LN11 7RL","la":"East Lindsey","era":"trad","nn":175,"risk":41,"cat":"amber"},{"name":"The Dunes","lat":53.34342,"lon":0.26353,"postcode":"LN12 1RG","la":"East Lindsey","era":"other","nn":127,"risk":21,"cat":"green"},{"name":"The Durham Ox","lat":53.21314,"lon":-0.13758,"postcode":"LN9 5RB","la":"East Lindsey","era":"other","nn":1224,"risk":51,"cat":"amber"},{"name":"The Ebrington Arms","lat":53.14716,"lon":-0.14691,"postcode":"LN10 6YT","la":"East Lindsey","era":"trad","nn":3951,"risk":70,"cat":"red"},{"name":"The Elder Tree Inn","lat":53.20172,"lon":-0.2155,"postcode":"LN10 5EX","la":"East Lindsey","era":"trad","nn":4884,"risk":76,"cat":"red"},{"name":"The Fairhaven Club & Hotel","lat":53.33669,"lon":0.26654,"postcode":"LN12 2AL","la":"East Lindsey","era":"other","nn":143,"risk":21,"cat":"green"},{"name":"The Ferryboat","lat":53.35831,"lon":0.24821,"postcode":"LN12 1QQ","la":"East Lindsey","era":"other","nn":273,"risk":22,"cat":"green"},{"name":"The Fighting Cocks","lat":53.20916,"lon":-0.12044,"postcode":"LN9 5JF","la":"East Lindsey","era":"other","nn":0,"risk":20,"cat":"green"},{"name":"The Fortescue Arms","lat":53.10502,"lon":-0.19054,"postcode":"LN4 4LJ","la":"East Lindsey","era":"trad","nn":151,"risk":26,"cat":"green"},{"name":"The Gas Lamp Lounge","lat":53.37237,"lon":0.01108,"postcode":"LN11 7AD","la":"East Lindsey","era":"mod","nn":171,"risk":38,"cat":"amber"},{"name":"The George Inn","lat":53.26166,"lon":0.18014,"postcode":"LN13 9DS","la":"East Lindsey","era":"trad","nn":127,"risk":21,"cat":"green"},{"name":"The Greyhound Inn","lat":53.36523,"lon":-0.00651,"postcode":"LN11 9EX","la":"East Lindsey","era":"trad","nn":97,"risk":20,"cat":"green"},{"name":"The Half Moon Hotel & Restaurant","lat":53.26064,"lon":0.17697,"postcode":"LN13 9DG","la":"East Lindsey","era":"other","nn":220,"risk":21,"cat":"green"},{"name":"The Heneage Arms","lat":53.34497,"lon":-0.22079,"postcode":"LN8 6LX","la":"East Lindsey","era":"trad","nn":3743,"risk":68,"cat":"red"},{"name":"The Horse & Jockey","lat":53.1051,"lon":-0.17386,"postcode":"LN4 4SG","la":"East Lindsey","era":"trad","nn":143,"risk":21,"cat":"green"},{"name":"The Ivy","lat":53.28699,"lon":-0.30256,"postcode":"LN8 5QU","la":"East Lindsey","era":"other","nn":0,"risk":40,"cat":"amber"},{"name":"The Jungle Club","lat":53.32046,"lon":0.27766,"postcode":"LN12 2LD","la":"East Lindsey","era":"other","nn":324,"risk":22,"cat":"green"},{"name":"The Kings Head","lat":53.20853,"lon":-0.1146,"postcode":"LN9 5HU","la":"East Lindsey","era":"trad","nn":0,"risk":20,"cat":"green"},{"name":"The Kings Head","lat":53.36326,"lon":0.20814,"postcode":"LN12 1PB","la":"East Lindsey","era":"trad","nn":2715,"risk":61,"cat":"red"},{"name":"The Kings Head Hotel","lat":53.36581,"lon":-0.0054,"postcode":"LN11 9JQ","la":"East Lindsey","era":"trad","nn":79,"risk":20,"cat":"green"},{"name":"The Kirkstead Club","lat":53.32575,"lon":0.26887,"postcode":"LN12 2QD","la":"East Lindsey","era":"other","nn":285,"risk":24,"cat":"green"},{"name":"The Mall","lat":53.15184,"lon":-0.21706,"postcode":"LN10 6QL","la":"East Lindsey","era":"other","nn":94,"risk":25,"cat":"green"},{"name":"The Manby Arms","lat":53.366,"lon":0.09243,"postcode":"LN11 8SU","la":"East Lindsey","era":"trad","nn":3877,"risk":69,"cat":"red"},{"name":"The Massingberd Arms","lat":53.26139,"lon":0.05204,"postcode":"LN11 8QS","la":"East Lindsey","era":"trad","nn":3864,"risk":69,"cat":"red"},{"name":"The Mill House","lat":53.43938,"lon":0.00892,"postcode":"LN11 0PB","la":"East Lindsey","era":"trad","nn":1844,"risk":55,"cat":"amber"},{"name":"The Millers Daughter","lat":53.36792,"lon":-0.00449,"postcode":"LN11 0LT","la":"East Lindsey","era":"trad","nn":51,"risk":20,"cat":"green"},{"name":"The Pack Horse","lat":53.36739,"lon":-0.00272,"postcode":"LN11 9PL","la":"East Lindsey","era":"trad","nn":79,"risk":20,"cat":"green"},{"name":"The Plough Inn","lat":53.42871,"lon":-0.18016,"postcode":"LN8 6DE","la":"East Lindsey","era":"trad","nn":3534,"risk":67,"cat":"red"},{"name":"The Prussian Queen","lat":53.39475,"lon":0.18315,"postcode":"LN11 7TP","la":"East Lindsey","era":"trad","nn":2952,"risk":63,"cat":"red"},{"name":"The Queens Head","lat":53.33897,"lon":0.05552,"postcode":"LN11 8LL","la":"East Lindsey","era":"trad","nn":1253,"risk":51,"cat":"amber"},{"name":"The Railway Tavern","lat":53.28206,"lon":0.11257,"postcode":"LN13 0DR","la":"East Lindsey","era":"trad","nn":3733,"risk":68,"cat":"red"},{"name":"The Red Lion","lat":53.24417,"lon":0.27055,"postcode":"LN13 9SD","la":"East Lindsey","era":"trad","nn":2489,"risk":60,"cat":"amber"},{"name":"The Red Lion","lat":53.31741,"lon":0.14683,"postcode":"LN13 0NB","la":"East Lindsey","era":"trad","nn":1876,"risk":55,"cat":"amber"},{"name":"The Royal Oak Inn","lat":53.33447,"lon":0.03821,"postcode":"LN11 8LZ","la":"East Lindsey","era":"trad","nn":1253,"risk":51,"cat":"amber"},{"name":"The Seacroft Club","lat":53.32583,"lon":0.27316,"postcode":"LN12 2PN","la":"East Lindsey","era":"other","nn":285,"risk":24,"cat":"green"},{"name":"The Session House","lat":53.26257,"lon":0.17768,"postcode":"LN13 9DN","la":"East Lindsey","era":"other","nn":33,"risk":20,"cat":"green"},{"name":"The Ship","lat":53.20853,"lon":-0.1146,"postcode":"LN9 5HU","la":"East Lindsey","era":"trad","nn":0,"risk":20,"cat":"green"},{"name":"The Square","lat":53.34229,"lon":0.26382,"postcode":"LN12 1AL","la":"East Lindsey","era":"other","nn":111,"risk":20,"cat":"green"},{"name":"The Turks Head","lat":53.31466,"lon":0.20365,"postcode":"LN13 0JP","la":"East Lindsey","era":"trad","nn":3094,"risk":64,"cat":"red"},{"name":"The Wheatsheaf Inn","lat":53.36612,"lon":-0.00992,"postcode":"LN11 9YD","la":"East Lindsey","era":"trad","nn":247,"risk":21,"cat":"green"},{"name":"The White Bull","lat":53.10593,"lon":-0.1755,"postcode":"LN4 4RB","la":"East Lindsey","era":"trad","nn":0,"risk":20,"cat":"green"},{"name":"The White Hart","lat":53.25981,"lon":0.18044,"postcode":"LN13 9AG","la":"East Lindsey","era":"trad","nn":207,"risk":21,"cat":"green"},{"name":"The White Hart","lat":53.38579,"lon":-0.19751,"postcode":"LN8 6AD","la":"East Lindsey","era":"trad","nn":4553,"risk":74,"cat":"red"},{"name":"The White Horse","lat":53.35795,"lon":0.00765,"postcode":"LN11 8EG","la":"East Lindsey","era":"trad","nn":734,"risk":30,"cat":"green"},{"name":"The Wild Goose","lat":53.33522,"lon":0.26935,"postcode":"LN12 2AW","la":"East Lindsey","era":"other","nn":4,"risk":20,"cat":"green"},{"name":"The Willoughby Arms","lat":53.22356,"lon":0.20239,"postcode":"LN13 9SU","la":"East Lindsey","era":"trad","nn":3142,"risk":64,"cat":"red"},{"name":"The Woodhall Spa Golf Club","lat":53.15528,"lon":-0.20541,"postcode":"LN10 6PU","la":"East Lindsey","era":"other","nn":617,"risk":29,"cat":"green"},{"name":"The Woolpack","lat":53.37166,"lon":0.0088,"postcode":"LN11 0DA","la":"East Lindsey","era":"trad","nn":171,"risk":21,"cat":"green"},{"name":"Three Horseshoes","lat":53.29358,"lon":-0.12074,"postcode":"LN11 9WA","la":"East Lindsey","era":"trad","nn":2312,"risk":58,"cat":"amber"},{"name":"Tonics","lat":53.33315,"lon":0.25994,"postcode":"LN12 2NX","la":"East Lindsey","era":"other","nn":228,"risk":21,"cat":"green"},{"name":"Tow Bar Club","lat":53.35449,"lon":0.25104,"postcode":"LN12 1QH","la":"East Lindsey","era":"mod","nn":239,"risk":21,"cat":"green"},{"name":"Tower Tavern Club","lat":53.33488,"lon":0.26179,"postcode":"LN12 2ED","la":"East Lindsey","era":"other","nn":228,"risk":21,"cat":"green"},{"name":"Turks Head","lat":53.36562,"lon":-0.00354,"postcode":"LN11 9BA","la":"East Lindsey","era":"trad","nn":21,"risk":20,"cat":"green"},{"name":"Turnor Arms","lat":53.28699,"lon":-0.30256,"postcode":"LN8 5QU","la":"East Lindsey","era":"trad","nn":0,"risk":40,"cat":"amber"},{"name":"Waggon And Horses","lat":53.32647,"lon":0.10652,"postcode":"LN11 8JQ","la":"East Lindsey","era":"trad","nn":2861,"risk":62,"cat":"red"},{"name":"Waterfront Club","lat":53.43999,"lon":0.15399,"postcode":"LN11 7RB","la":"East Lindsey","era":"other","nn":1134,"risk":50,"cat":"amber"},{"name":"West Ashby Arms","lat":53.23297,"lon":-0.10506,"postcode":"LN9 5PT","la":"East Lindsey","era":"trad","nn":2728,"risk":61,"cat":"red"},{"name":"White Hart Inn","lat":53.25119,"lon":-0.00349,"postcode":"LN9 6QQ","la":"East Lindsey","era":"trad","nn":3864,"risk":69,"cat":"red"},{"name":"Wolds Craft Drinks","lat":53.36652,"lon":-0.00545,"postcode":"LN11 9PY","la":"East Lindsey","era":"mod","nn":0,"risk":20,"cat":"green"},{"name":"Woodhall Spa & District Conservative Club","lat":53.15235,"lon":-0.21593,"postcode":"LN10 6QN","la":"East Lindsey","era":"other","nn":94,"risk":25,"cat":"green"},{"name":"Woodys Bar And Restaurant","lat":53.30189,"lon":0.1579,"postcode":"LN13 0DD","la":"East Lindsey","era":"mod","nn":1876,"risk":55,"cat":"amber"},{"name":"Ye Olde Whyte Swanne","lat":53.36723,"lon":-0.0039,"postcode":"LN11 9NP","la":"East Lindsey","era":"trad","nn":80,"risk":20,"cat":"green"},{"name":"Adam & Eve","lat":53.23324,"lon":-0.53237,"postcode":"LN2 1NT","la":"Lincoln","era":"other","nn":214,"risk":27,"cat":"green"},{"name":"Anchor Lincoln","lat":53.22387,"lon":-0.54362,"postcode":"LN5 7PJ","la":"Lincoln","era":"trad","nn":0,"risk":25,"cat":"green"},{"name":"Be at One Lincoln","lat":53.23166,"lon":-0.53949,"postcode":"LN2 1HW","la":"Lincoln","era":"other","nn":35,"risk":26,"cat":"green"},{"name":"Bear & Sheep","lat":53.22961,"lon":-0.54188,"postcode":"LN1 1UB","la":"Lincoln","era":"other","nn":30,"risk":26,"cat":"green"},{"name":"BeerHeadZ","lat":53.23503,"lon":-0.53803,"postcode":"LN2 1QA","la":"Lincoln","era":"trad","nn":86,"risk":26,"cat":"green"},{"name":"Buzz Bingo","lat":53.22897,"lon":-0.53981,"postcode":"LN2 1DH","la":"Lincoln","era":"other","nn":0,"risk":25,"cat":"green"},{"name":"Carholme Golf Club","lat":53.23389,"lon":-0.55976,"postcode":"LN1 1SE","la":"Lincoln","era":"other","nn":409,"risk":28,"cat":"green"},{"name":"Carousel","lat":53.23013,"lon":-0.53943,"postcode":"LN2 1AW","la":"Lincoln","era":"other","nn":30,"risk":26,"cat":"green"},{"name":"Castle Ward WMC","lat":53.2396,"lon":-0.54369,"postcode":"LN1 3JN","la":"Lincoln","era":"other","nn":222,"risk":27,"cat":"green"},{"name":"Cloud 9 (Lincs) Ltd","lat":53.23078,"lon":-0.53942,"postcode":"LN2 1JL","la":"Lincoln","era":"other","nn":23,"risk":26,"cat":"green"},{"name":"Cosy Club Lincoln","lat":53.22767,"lon":-0.53937,"postcode":"LN5 7HE","la":"Lincoln","era":"other","nn":130,"risk":26,"cat":"green"},{"name":"Cube & Triangle","lat":53.23009,"lon":-0.53845,"postcode":"LN2 1EH","la":"Lincoln","era":"other","nn":60,"risk":26,"cat":"green"},{"name":"Desire","lat":53.23037,"lon":-0.54046,"postcode":"LN1 1UF","la":"Lincoln","era":"other","nn":0,"risk":25,"cat":"green"},{"name":"Dog & Bone Lincoln","lat":53.22986,"lon":-0.5294,"postcode":"LN2 5BH","la":"Lincoln","era":"other","nn":75,"risk":26,"cat":"green"},{"name":"Eastgate Club","lat":53.23587,"lon":-0.53124,"postcode":"LN2 4AD","la":"Lincoln","era":"other","nn":77,"risk":26,"cat":"green"},{"name":"Gloryholes Golf","lat":53.23013,"lon":-0.5399,"postcode":"LN2 1AL","la":"Lincoln","era":"other","nn":30,"risk":26,"cat":"green"},{"name":"Golden Eagle","lat":53.21646,"lon":-0.54599,"postcode":"LN5 8BD","la":"Lincoln","era":"trad","nn":118,"risk":26,"cat":"green"},{"name":"Gwynnes Sports Club Ltd","lat":53.21737,"lon":-0.54302,"postcode":"LN5 8JX","la":"Lincoln","era":"other","nn":186,"risk":27,"cat":"green"},{"name":"Hartsholme Community Trust","lat":53.21122,"lon":-0.58387,"postcode":"LN6 0DY","la":"Lincoln","era":"trad","nn":83,"risk":44,"cat":"amber"},{"name":"Hartsholme/Lincoln Utd Sports Association","lat":53.21061,"lon":-0.58314,"postcode":"LN6 0DY","la":"Lincoln","era":"trad","nn":83,"risk":44,"cat":"amber"},{"name":"Home","lat":53.23037,"lon":-0.54046,"postcode":"LN1 1UF","la":"Lincoln","era":"other","nn":0,"risk":25,"cat":"green"},{"name":"Huckleberrys Bar & Grill","lat":53.2304,"lon":-0.53946,"postcode":"LN2 1JS","la":"Lincoln","era":"mod","nn":30,"risk":26,"cat":"green"},{"name":"Imp & Angel","lat":53.21956,"lon":-0.54458,"postcode":"LN5 8HX","la":"Lincoln","era":"trad","nn":124,"risk":26,"cat":"green"},{"name":"Lincoln & District Indoor Bowling Club Ltd","lat":53.21157,"lon":-0.55581,"postcode":"LN6 7SW","la":"Lincoln","era":"other","nn":593,"risk":30,"cat":"green"},{"name":"Lincoln Hospital Sports & Social Club","lat":53.2345,"lon":-0.5239,"postcode":"LN2 5RA","la":"Lincoln","era":"mod","nn":420,"risk":28,"cat":"green"},{"name":"Lincoln Jazz Cafe","lat":53.22922,"lon":-0.54237,"postcode":"LN1 1TY","la":"Lincoln","era":"other","nn":54,"risk":26,"cat":"green"},{"name":"Lincoln Labour Club & Institute Ltd","lat":53.22958,"lon":-0.54421,"postcode":"LN1 1XJ","la":"Lincoln","era":"other","nn":74,"risk":26,"cat":"green"},{"name":"Lincoln Moorland Railway Sports & Social Club","lat":53.20139,"lon":-0.56449,"postcode":"LN6 8RT","la":"Lincoln","era":"other","nn":0,"risk":28,"cat":"green"},{"name":"Lincoln RNA Club Ltd","lat":53.22108,"lon":-0.5517,"postcode":"LN6 7BG","la":"Lincoln","era":"other","nn":449,"risk":29,"cat":"green"},{"name":"Lincoln Scout H Q","lat":53.21445,"lon":-0.54831,"postcode":"LN5 8DN","la":"Lincoln","era":"other","nn":272,"risk":27,"cat":"green"},{"name":"Lincoln Sea Cadet Corps","lat":53.2298,"lon":-0.54673,"postcode":"LN1 1YW","la":"Lincoln","era":"other","nn":0,"risk":25,"cat":"green"},{"name":"Lincoln Snooker Club","lat":53.22971,"lon":-0.53973,"postcode":"LN2 1EA","la":"Lincoln","era":"other","nn":41,"risk":26,"cat":"green"},{"name":"Lion & Snake","lat":53.2358,"lon":-0.5382,"postcode":"LN1 3AR","la":"Lincoln","era":"trad","nn":0,"risk":25,"cat":"green"},{"name":"Magna Carta","lat":53.23428,"lon":-0.53839,"postcode":"LN2 1PZ","la":"Lincoln","era":"other","nn":61,"risk":26,"cat":"green"},{"name":"Millers Arms","lat":53.22065,"lon":-0.54499,"postcode":"LN5 7QW","la":"Lincoln","era":"trad","nn":124,"risk":26,"cat":"green"},{"name":"Nosey Parker","lat":53.22023,"lon":-0.55904,"postcode":"LN6 7AS","la":"Lincoln","era":"other","nn":497,"risk":29,"cat":"green"},{"name":"Peacock Inn","lat":53.23467,"lon":-0.53021,"postcode":"LN2 5SH","la":"Lincoln","era":"trad","nn":75,"risk":26,"cat":"green"},{"name":"Popworld Lincoln","lat":53.2307,"lon":-0.53974,"postcode":"LN2 1JG","la":"Lincoln","era":"other","nn":23,"risk":26,"cat":"green"},{"name":"Post Office Club","lat":53.24487,"lon":-0.54908,"postcode":"LN1 3UJ","la":"Lincoln","era":"other","nn":688,"risk":33,"cat":"amber"},{"name":"Prince of Wales Inn","lat":53.2358,"lon":-0.5382,"postcode":"LN1 3AR","la":"Lincoln","era":"trad","nn":0,"risk":25,"cat":"green"},{"name":"Pyewipe Inn","lat":53.24578,"lon":-0.57709,"postcode":"LN1 2BG","la":"Lincoln","era":"trad","nn":1339,"risk":57,"cat":"amber"},{"name":"Royal William IV","lat":53.2289,"lon":-0.54402,"postcode":"LN1 1YX","la":"Lincoln","era":"trad","nn":0,"risk":25,"cat":"green"},{"name":"Ruston Sports & Social Club","lat":53.20139,"lon":-0.56449,"postcode":"LN6 8RT","la":"Lincoln","era":"mod","nn":0,"risk":28,"cat":"green"},{"name":"Sugar Cubes","lat":53.2308,"lon":-0.54144,"postcode":"LN1 1NL","la":"Lincoln","era":"other","nn":66,"risk":26,"cat":"green"},{"name":"Swan Holme Tavern","lat":53.20303,"lon":-0.59772,"postcode":"LN6 3RX","la":"North Kesteven","era":"trad","nn":823,"risk":53,"cat":"amber"},{"name":"The Atmosphere","lat":53.23061,"lon":-0.53873,"postcode":"LN2 1JJ","la":"Lincoln","era":"other","nn":0,"risk":25,"cat":"green"},{"name":"The Authentic Bierkeller/Moka/Void","lat":53.2295,"lon":-0.53921,"postcode":"LN2 1DY","la":"Lincoln","era":"other","nn":41,"risk":26,"cat":"green"},{"name":"The Barge","lat":53.2298,"lon":-0.54673,"postcode":"LN1 1YW","la":"Lincoln","era":"other","nn":0,"risk":25,"cat":"green"},{"name":"The Barrel","lat":53.22123,"lon":-0.60096,"postcode":"LN6 0LW","la":"Lincoln","era":"other","nn":723,"risk":51,"cat":"amber"},{"name":"The Birdcage","lat":53.22984,"lon":-0.53052,"postcode":"LN2 5BQ","la":"Lincoln","era":"other","nn":75,"risk":26,"cat":"green"},{"name":"The Black Swan","lat":53.21527,"lon":-0.60532,"postcode":"LN6 0QB","la":"Lincoln","era":"trad","nn":723,"risk":51,"cat":"amber"},{"name":"The Cardinals Hat","lat":53.23115,"lon":-0.53984,"postcode":"LN2 1HW","la":"Lincoln","era":"other","nn":49,"risk":26,"cat":"green"},{"name":"The Castle Hill Club","lat":53.23459,"lon":-0.53915,"postcode":"LN1 3AA","la":"Lincoln","era":"other","nn":61,"risk":26,"cat":"green"},{"name":"The Crown & Arrows","lat":53.20534,"lon":-0.57628,"postcode":"LN6 7JJ","la":"Lincoln","era":"trad","nn":744,"risk":33,"cat":"amber"},{"name":"The Crows Nest","lat":53.19138,"lon":-0.55692,"postcode":"LN5 9TR","la":"Lincoln","era":"other","nn":865,"risk":52,"cat":"amber"},{"name":"The Gatehouse Inn","lat":53.20439,"lon":-0.55112,"postcode":"LN5 8QJ","la":"Lincoln","era":"other","nn":451,"risk":29,"cat":"green"},{"name":"The Horse & Groom","lat":53.23047,"lon":-0.5478,"postcode":"LN1 1RH","la":"Lincoln","era":"trad","nn":103,"risk":26,"cat":"green"},{"name":"The Ivy Tavern","lat":53.23946,"lon":-0.53854,"postcode":"LN1 3DN","la":"Lincoln","era":"other","nn":343,"risk":28,"cat":"green"},{"name":"The Joiners Arms","lat":53.23243,"lon":-0.54378,"postcode":"LN1 1HU","la":"Lincoln","era":"trad","nn":238,"risk":27,"cat":"green"},{"name":"The Jolly Brewer","lat":53.23026,"lon":-0.53611,"postcode":"LN2 5AQ","la":"Lincoln","era":"other","nn":157,"risk":27,"cat":"green"},{"name":"The Komodo","lat":53.23061,"lon":-0.53873,"postcode":"LN2 1JJ","la":"Lincoln","era":"other","nn":0,"risk":25,"cat":"green"},{"name":"The Lincoln Imp","lat":53.24985,"lon":-0.53718,"postcode":"LN2 2EW","la":"Lincoln","era":"other","nn":966,"risk":52,"cat":"amber"},{"name":"The Mailbox Lincoln, K-Town, Chik Box, Locked & Loaded, Pizza Amore, Dough Masters","lat":53.22942,"lon":-0.54156,"postcode":"LN1 1TR","la":"Lincoln","era":"trad","nn":28,"risk":26,"cat":"green"},{"name":"The Morning Star","lat":53.23521,"lon":-0.53088,"postcode":"LN2 4AW","la":"Lincoln","era":"other","nn":75,"risk":26,"cat":"green"},{"name":"The Plough","lat":53.2023,"lon":-0.55693,"postcode":"LN6 8RJ","la":"Lincoln","era":"trad","nn":451,"risk":34,"cat":"amber"},{"name":"The Plough Boy","lat":53.23761,"lon":-0.544,"postcode":"LN1 3LB","la":"Lincoln","era":"trad","nn":204,"risk":27,"cat":"green"},{"name":"The Queen In The West","lat":53.2338,"lon":-0.55362,"postcode":"LN1 1PR","la":"Lincoln","era":"trad","nn":409,"risk":28,"cat":"green"},{"name":"The Ritz","lat":53.22387,"lon":-0.54362,"postcode":"LN5 7PJ","la":"Lincoln","era":"other","nn":0,"risk":25,"cat":"green"},{"name":"The Scene","lat":53.23025,"lon":-0.54429,"postcode":"LN1 1XP","la":"Lincoln","era":"other","nn":74,"risk":26,"cat":"green"},{"name":"The Shakespeare","lat":53.21752,"lon":-0.5458,"postcode":"LN5 8AS","la":"Lincoln","era":"other","nn":118,"risk":26,"cat":"green"},{"name":"The Square Sail","lat":53.2289,"lon":-0.54402,"postcode":"LN1 1YX","la":"Lincoln","era":"other","nn":0,"risk":25,"cat":"green"},{"name":"The Still","lat":53.22897,"lon":-0.53981,"postcode":"LN2 1DH","la":"Lincoln","era":"other","nn":0,"risk":25,"cat":"green"},{"name":"The Strait and Narrow","lat":53.2319,"lon":-0.53917,"postcode":"LN2 1JD","la":"Lincoln","era":"other","nn":35,"risk":26,"cat":"green"},{"name":"The Strugglers Inn","lat":53.23601,"lon":-0.54144,"postcode":"LN1 3BG","la":"Lincoln","era":"trad","nn":92,"risk":26,"cat":"green"},{"name":"The Swan","lat":53.22928,"lon":-0.54906,"postcode":"LN1 1RD","la":"Lincoln","era":"trad","nn":50,"risk":26,"cat":"green"},{"name":"The Tiny Tavern","lat":53.22196,"lon":-0.54457,"postcode":"LN5 7PY","la":"Lincoln","era":"other","nn":148,"risk":27,"cat":"green"},{"name":"The Treaty of Commerce","lat":53.22608,"lon":-0.54259,"postcode":"LN5 7AF","la":"Lincoln","era":"other","nn":255,"risk":27,"cat":"green"},{"name":"The Victoria","lat":53.23591,"lon":-0.54281,"postcode":"LN1 3BJ","la":"Lincoln","era":"trad","nn":92,"risk":26,"cat":"green"},{"name":"The William Foster","lat":53.22918,"lon":-0.54145,"postcode":"LN1 1TT","la":"Lincoln","era":"other","nn":28,"risk":26,"cat":"green"},{"name":"Towers/Engine Shed/Smash N Stack","lat":53.22884,"lon":-0.54925,"postcode":"LN6 7TS","la":"Lincoln","era":"other","nn":50,"risk":26,"cat":"green"},{"name":"Trebles","lat":53.22897,"lon":-0.53981,"postcode":"LN2 1DH","la":"Lincoln","era":"other","nn":0,"risk":25,"cat":"green"},{"name":"Vice and Co","lat":53.23053,"lon":-0.54056,"postcode":"LN2 1HL","la":"Lincoln","era":"other","nn":18,"risk":26,"cat":"green"},{"name":"Virtually Golf","lat":53.2288,"lon":-0.54377,"postcode":"LN1 1YX","la":"Lincoln","era":"other","nn":20,"risk":26,"cat":"green"},{"name":"Walkabout/88th Street/Value Mighty/Sin City Burger","lat":53.23007,"lon":-0.54034,"postcode":"LN2 1AT","la":"Lincoln","era":"other","nn":30,"risk":26,"cat":"green"},{"name":"White Horse","lat":53.23125,"lon":-0.54056,"postcode":"LN1 1ES","la":"Lincoln","era":"trad","nn":49,"risk":26,"cat":"green"},{"name":"Wig & Mitre","lat":53.22407,"lon":-0.54525,"postcode":"LN2 1TL","la":"Lincoln","era":"other","nn":110,"risk":26,"cat":"green"},{"name":"Witch & Wardrobe","lat":53.22845,"lon":-0.53791,"postcode":"LN2 5DQ","la":"Lincoln","era":"other","nn":130,"risk":26,"cat":"green"},{"name":"Blacksmiths Arms","lat":53.19494,"lon":-0.53377,"postcode":"LN4 2NA","la":"North Kesteven","era":"trad","nn":154,"risk":33,"cat":"amber"},{"name":"Blankney Cricket Club","lat":53.12857,"lon":-0.40607,"postcode":"LN4 3AZ","la":"North Kesteven","era":"other","nn":0,"risk":47,"cat":"amber"},{"name":"Blankney Golf Club","lat":53.12857,"lon":-0.40607,"postcode":"LN4 3AZ","la":"North Kesteven","era":"other","nn":0,"risk":47,"cat":"amber"},{"name":"Bracebridge Heath Cricket Club","lat":53.19827,"lon":-0.54037,"postcode":"LN4 2HL","la":"North Kesteven","era":"other","nn":391,"risk":32,"cat":"amber"},{"name":"Bracebridge Heath Sports & Social Club","lat":53.19477,"lon":-0.53606,"postcode":"LN4 2LD","la":"North Kesteven","era":"mod","nn":154,"risk":33,"cat":"amber"},{"name":"Branston (Lincoln) Home Guard Social Club","lat":53.19353,"lon":-0.47151,"postcode":"LN4 1NB","la":"North Kesteven","era":"mod","nn":198,"risk":49,"cat":"amber"},{"name":"Brant Road Social Club","lat":53.18391,"lon":-0.56058,"postcode":"LN5 9AJ","la":"North Kesteven","era":"mod","nn":865,"risk":53,"cat":"amber"},{"name":"Centurion","lat":53.19025,"lon":-0.59005,"postcode":"LN6 8LB","la":"North Kesteven","era":"other","nn":702,"risk":32,"cat":"amber"},{"name":"Coach & Horses","lat":53.07798,"lon":-0.27376,"postcode":"LN4 4DD","la":"North Kesteven","era":"trad","nn":291,"risk":49,"cat":"amber"},{"name":"Crown Lodge","lat":53.07138,"lon":-0.19917,"postcode":"LN4 4ZL","la":"North Kesteven","era":"trad","nn":1283,"risk":59,"cat":"amber"},{"name":"Ferry Boat Inn","lat":53.22366,"lon":-0.47505,"postcode":"LN4 1AZ","la":"North Kesteven","era":"trad","nn":50,"risk":48,"cat":"amber"},{"name":"Fox and Hounds","lat":53.18335,"lon":-0.60674,"postcode":"LN6 9SP","la":"North Kesteven","era":"trad","nn":600,"risk":49,"cat":"amber"},{"name":"Hykeham Bowls Club","lat":53.18686,"lon":-0.59988,"postcode":"LN6 9RY","la":"North Kesteven","era":"other","nn":88,"risk":28,"cat":"green"},{"name":"Hykeham PFA Sports & Social Club","lat":53.18742,"lon":-0.60082,"postcode":"LN6 9RY","la":"North Kesteven","era":"mod","nn":88,"risk":30,"cat":"green"},{"name":"Hykeham Social Club","lat":53.18393,"lon":-0.59011,"postcode":"LN6 9AA","la":"North Kesteven","era":"mod","nn":224,"risk":31,"cat":"amber"},{"name":"Joiners Arms","lat":53.07625,"lon":-0.55882,"postcode":"LN5 0NH","la":"North Kesteven","era":"trad","nn":2996,"risk":71,"cat":"red"},{"name":"Kings Arms","lat":53.14237,"lon":-0.24486,"postcode":"LN10 6XZ","la":"North Kesteven","era":"trad","nn":1947,"risk":63,"cat":"red"},{"name":"Lion & Royal","lat":53.10716,"lon":-0.52467,"postcode":"LN5 0DZ","la":"North Kesteven","era":"trad","nn":97,"risk":48,"cat":"amber"},{"name":"Marquis of Granby","lat":53.09818,"lon":-0.53277,"postcode":"LN5 0HW","la":"North Kesteven","era":"other","nn":0,"risk":47,"cat":"amber"},{"name":"Metheringham Bowls Club","lat":53.13869,"lon":-0.40584,"postcode":"LN4 3BX","la":"North Kesteven","era":"other","nn":0,"risk":32,"cat":"amber"},{"name":"Mill Lodge","lat":53.21597,"lon":-0.52902,"postcode":"LN4 2RF","la":"North Kesteven","era":"trad","nn":945,"risk":54,"cat":"amber"},{"name":"North Scarle Village Hall","lat":53.19136,"lon":-0.72905,"postcode":"LN6 9ER","la":"North Kesteven","era":"other","nn":181,"risk":48,"cat":"amber"},{"name":"Penny Farthing","lat":53.11323,"lon":-0.33081,"postcode":"LN4 3SA","la":"North Kesteven","era":"other","nn":1370,"risk":59,"cat":"amber"},{"name":"Plough Inn","lat":53.23654,"lon":-0.61964,"postcode":"LN6 5TR","la":"North Kesteven","era":"trad","nn":2063,"risk":64,"cat":"red"},{"name":"Pottergate Golf Club","lat":53.19757,"lon":-0.42069,"postcode":"LN4 1JA","la":"North Kesteven","era":"other","nn":1687,"risk":61,"cat":"red"},{"name":"RAF Digby Sports and Social Club","lat":53.09611,"lon":-0.43627,"postcode":"LN4 3LH","la":"North Kesteven","era":"mod","nn":2571,"risk":68,"cat":"red"},{"name":"Red Lion Pub","lat":53.07944,"lon":-0.39024,"postcode":"LN4 3LZ","la":"North Kesteven","era":"trad","nn":3321,"risk":73,"cat":"red"},{"name":"South Kyme Golf Club","lat":53.03452,"lon":-0.24541,"postcode":"LN4 4AT","la":"North Kesteven","era":"other","nn":3702,"risk":76,"cat":"red"},{"name":"The Bugle Horn","lat":53.12841,"lon":-0.63902,"postcode":"LN5 9HQ","la":"North Kesteven","era":"other","nn":248,"risk":49,"cat":"amber"},{"name":"The Bull","lat":53.19653,"lon":-0.53528,"postcode":"LN4 2LA","la":"North Kesteven","era":"trad","nn":202,"risk":34,"cat":"amber"},{"name":"The Butcher and Beast","lat":53.21238,"lon":-0.45605,"postcode":"LN4 1JS","la":"North Kesteven","era":"other","nn":215,"risk":49,"cat":"amber"},{"name":"The Chequers","lat":53.18253,"lon":-0.42399,"postcode":"LN4 2DS","la":"North Kesteven","era":"other","nn":1687,"risk":61,"cat":"red"},{"name":"The Five Bells","lat":53.13064,"lon":-0.63882,"postcode":"LN5 9JZ","la":"North Kesteven","era":"other","nn":248,"risk":49,"cat":"amber"},{"name":"The Generous Briton","lat":53.07763,"lon":-0.63237,"postcode":"LN5 0RZ","la":"North Kesteven","era":"other","nn":3806,"risk":76,"cat":"red"},{"name":"The Green Man","lat":53.12173,"lon":-0.67245,"postcode":"LN6 9JU","la":"North Kesteven","era":"other","nn":2160,"risk":65,"cat":"red"},{"name":"The Harrows Inn","lat":53.18313,"lon":-0.58704,"postcode":"LN6 8NH","la":"North Kesteven","era":"trad","nn":224,"risk":34,"cat":"amber"},{"name":"The Hunters Leap","lat":53.22332,"lon":-0.47454,"postcode":"LN4 1BA","la":"North Kesteven","era":"other","nn":50,"risk":48,"cat":"amber"},{"name":"The King's Head Navenby","lat":53.10793,"lon":-0.52533,"postcode":"LN5 0EE","la":"North Kesteven","era":"trad","nn":97,"risk":48,"cat":"amber"},{"name":"The Kitchen","lat":53.09818,"lon":-0.53277,"postcode":"LN5 0HW","la":"North Kesteven","era":"mod","nn":0,"risk":47,"cat":"amber"},{"name":"The Lincoln Green","lat":53.19049,"lon":-0.5768,"postcode":"LN6 8DL","la":"North Kesteven","era":"other","nn":884,"risk":53,"cat":"amber"},{"name":"The Lincolnshire Poacher Inn","lat":53.13904,"lon":-0.40249,"postcode":"LN4 3DZ","la":"North Kesteven","era":"trad","nn":100,"risk":33,"cat":"amber"},{"name":"The Londesborough Arms","lat":53.13985,"lon":-0.40188,"postcode":"LN4 3EU","la":"North Kesteven","era":"trad","nn":100,"risk":33,"cat":"amber"},{"name":"The Plough","lat":53.09358,"lon":-0.31209,"postcode":"LN4 3SW","la":"North Kesteven","era":"trad","nn":2517,"risk":67,"cat":"red"},{"name":"The Plough","lat":53.05907,"lon":-0.2828,"postcode":"LN4 4DJ","la":"North Kesteven","era":"trad","nn":2188,"risk":65,"cat":"red"},{"name":"The Plough Inn","lat":53.15556,"lon":-0.70253,"postcode":"LN6 9LW","la":"North Kesteven","era":"trad","nn":3621,"risk":75,"cat":"red"},{"name":"The Railway Inn (Bar)","lat":53.18609,"lon":-0.65019,"postcode":"LN6 9BS","la":"North Kesteven","era":"trad","nn":0,"risk":47,"cat":"amber"},{"name":"The Railway Inn (Restaurant)","lat":53.18609,"lon":-0.65019,"postcode":"LN6 9BS","la":"North Kesteven","era":"trad","nn":0,"risk":47,"cat":"amber"},{"name":"The Red Lion","lat":53.15388,"lon":-0.40965,"postcode":"LN4 2EW","la":"North Kesteven","era":"trad","nn":1643,"risk":61,"cat":"red"},{"name":"The Royal Oak","lat":53.15367,"lon":-0.61996,"postcode":"LN5 9DT","la":"North Kesteven","era":"trad","nn":2854,"risk":70,"cat":"red"},{"name":"The Royal Oak","lat":53.10822,"lon":-0.40347,"postcode":"LN4 3PA","la":"North Kesteven","era":"trad","nn":2269,"risk":66,"cat":"red"},{"name":"The Royal Oak","lat":53.12439,"lon":-0.3221,"postcode":"LN4 3QT","la":"North Kesteven","era":"trad","nn":1370,"risk":59,"cat":"amber"},{"name":"The Ship Inn","lat":53.07871,"lon":-0.27795,"postcode":"LN4 4AU","la":"North Kesteven","era":"trad","nn":291,"risk":49,"cat":"amber"},{"name":"The Star & Garter","lat":53.13869,"lon":-0.40584,"postcode":"LN4 3BX","la":"North Kesteven","era":"other","nn":0,"risk":32,"cat":"amber"},{"name":"The Strugglers Inn","lat":53.19407,"lon":-0.6885,"postcode":"LN6 9DG","la":"North Kesteven","era":"trad","nn":2702,"risk":69,"cat":"red"},{"name":"The Tempest","lat":53.13248,"lon":-0.54329,"postcode":"LN5 0AG","la":"North Kesteven","era":"other","nn":2004,"risk":64,"cat":"red"},{"name":"The Thorold Arms","lat":53.15028,"lon":-0.54798,"postcode":"LN5 9SN","la":"North Kesteven","era":"trad","nn":1787,"risk":62,"cat":"red"},{"name":"The White Hart Scarle Ltd","lat":53.19297,"lon":-0.72938,"postcode":"LN6 9EP","la":"North Kesteven","era":"trad","nn":181,"risk":48,"cat":"amber"},{"name":"Three Horseshoes","lat":53.16594,"lon":-0.54192,"postcode":"LN5 9RF","la":"North Kesteven","era":"trad","nn":361,"risk":47,"cat":"amber"},{"name":"Turks Head","lat":53.21249,"lon":-0.45928,"postcode":"LN4 1RG","la":"North Kesteven","era":"trad","nn":215,"risk":49,"cat":"amber"},{"name":"Waddington Bowls Club","lat":53.16868,"lon":-0.53894,"postcode":"LN5 9NT","la":"North Kesteven","era":"other","nn":43,"risk":45,"cat":"amber"},{"name":"Waggon and Horses","lat":53.19285,"lon":-0.47426,"postcode":"LN4 1NA","la":"North Kesteven","era":"trad","nn":198,"risk":49,"cat":"amber"},{"name":"Wheatsheaf Inn","lat":53.16843,"lon":-0.53844,"postcode":"LN5 9NT","la":"North Kesteven","era":"trad","nn":43,"risk":45,"cat":"amber"},{"name":"White Hart Carlton","lat":53.11093,"lon":-0.64555,"postcode":"LN5 9HR","la":"North Kesteven","era":"trad","nn":1992,"risk":64,"cat":"red"},{"name":"Windmill Farm","lat":53.20128,"lon":-0.60972,"postcode":"LN6 3QZ","la":"North Kesteven","era":"trad","nn":823,"risk":53,"cat":"amber"},{"name":"Bar Six","lat":53.24957,"lon":-0.5962,"postcode":"LN1 2TU","la":"West Lindsey","era":"mod","nn":437,"risk":52,"cat":"amber"},{"name":"Black Bull","lat":53.30561,"lon":-0.48404,"postcode":"LN2 3HZ","la":"West Lindsey","era":"trad","nn":3289,"risk":74,"cat":"red"},{"name":"Bottle And Glass","lat":53.28414,"lon":-0.45,"postcode":"LN2 2UG","la":"West Lindsey","era":"other","nn":3090,"risk":73,"cat":"red"},{"name":"Butchers Arms","lat":53.50027,"lon":-0.42932,"postcode":"LN7 6EH","la":"West Lindsey","era":"trad","nn":3360,"risk":75,"cat":"red"},{"name":"Click'em Inn","lat":53.45848,"lon":-0.16146,"postcode":"LN8 6BS","la":"West Lindsey","era":"trad","nn":3534,"risk":76,"cat":"red"},{"name":"Dambusters Inn","lat":53.30159,"lon":-0.57249,"postcode":"LN1 2SD","la":"West Lindsey","era":"trad","nn":1870,"risk":64,"cat":"red"},{"name":"Dan's Bar","lat":53.38739,"lon":-0.33487,"postcode":"LN8 3EN","la":"West Lindsey","era":"other","nn":40,"risk":34,"cat":"amber"},{"name":"Dough Loco @ The White Hart","lat":53.26519,"lon":-0.49292,"postcode":"LN2 2PG","la":"West Lindsey","era":"trad","nn":254,"risk":48,"cat":"amber"},{"name":"Fox and Hounds","lat":53.25093,"lon":-0.4418,"postcode":"LN3 4DN","la":"West Lindsey","era":"trad","nn":1318,"risk":60,"cat":"amber"},{"name":"George Inn","lat":53.38778,"lon":-0.33702,"postcode":"LN8 3HN","la":"West Lindsey","era":"trad","nn":42,"risk":34,"cat":"amber"},{"name":"Hope Tavern","lat":53.46203,"lon":-0.35539,"postcode":"LN7 6AH","la":"West Lindsey","era":"other","nn":3250,"risk":74,"cat":"red"},{"name":"Inn On The Green","lat":53.34031,"lon":-0.57945,"postcode":"LN1 2XT","la":"West Lindsey","era":"trad","nn":80,"risk":49,"cat":"amber"},{"name":"JRM Bow & Arrow Bar","lat":53.30101,"lon":-0.54438,"postcode":"LN1 2ST","la":"West Lindsey","era":"other","nn":1870,"risk":64,"cat":"red"},{"name":"Lincoln Golf Club","lat":53.30406,"lon":-0.73674,"postcode":"LN1 2EG","la":"West Lindsey","era":"other","nn":2713,"risk":70,"cat":"red"},{"name":"Newtoft Social Club","lat":53.3631,"lon":-0.42889,"postcode":"LN8 3NN","la":"West Lindsey","era":"mod","nn":4855,"risk":85,"cat":"red"},{"name":"Pavilion Bar","lat":53.26756,"lon":-0.65818,"postcode":"LN1 2LP","la":"West Lindsey","era":"trad","nn":179,"risk":47,"cat":"amber"},{"name":"Salutation Inn","lat":53.48674,"lon":-0.32915,"postcode":"LN7 6NP","la":"West Lindsey","era":"trad","nn":1443,"risk":61,"cat":"red"},{"name":"The Anglers","lat":53.26841,"lon":-0.66363,"postcode":"LN1 2HA","la":"West Lindsey","era":"other","nn":374,"risk":49,"cat":"amber"},{"name":"The Aston Arms","lat":53.38805,"lon":-0.33746,"postcode":"LN8 3HL","la":"West Lindsey","era":"trad","nn":42,"risk":34,"cat":"amber"},{"name":"The Black Horse","lat":53.26634,"lon":-0.489,"postcode":"LN2 2PB","la":"West Lindsey","era":"trad","nn":59,"risk":46,"cat":"amber"},{"name":"The Black Horse","lat":53.33972,"lon":-0.57878,"postcode":"LN1 2YW","la":"West Lindsey","era":"trad","nn":80,"risk":49,"cat":"amber"},{"name":"The Blacksmith Arms","lat":53.48049,"lon":-0.26754,"postcode":"LN7 6AZ","la":"West Lindsey","era":"trad","nn":3583,"risk":76,"cat":"red"},{"name":"The Bottle And Glass","lat":53.38008,"lon":-0.49631,"postcode":"LN8 2HE","la":"West Lindsey","era":"other","nn":4855,"risk":85,"cat":"red"},{"name":"The Bull Inn","lat":53.47007,"lon":-0.43115,"postcode":"LN7 6PR","la":"West Lindsey","era":"trad","nn":3360,"risk":75,"cat":"red"},{"name":"The Carpenter's Arms","lat":53.23473,"lon":-0.42881,"postcode":"LN3 4HF","la":"West Lindsey","era":"trad","nn":1897,"risk":64,"cat":"red"},{"name":"The Cherry Tree","lat":53.23629,"lon":-0.45805,"postcode":"LN3 4AS","la":"West Lindsey","era":"other","nn":665,"risk":53,"cat":"amber"},{"name":"The Friendship Inn","lat":53.27351,"lon":-0.74285,"postcode":"LN1 2JZ","la":"West Lindsey","era":"trad","nn":1232,"risk":60,"cat":"amber"},{"name":"The George","lat":53.27553,"lon":-0.40581,"postcode":"LN3 5BJ","la":"West Lindsey","era":"trad","nn":3090,"risk":73,"cat":"red"},{"name":"The Kings Head","lat":53.39852,"lon":-0.26277,"postcode":"LN8 3YA","la":"West Lindsey","era":"trad","nn":4553,"risk":83,"cat":"red"},{"name":"The Nags Head","lat":53.21103,"lon":-0.32457,"postcode":"LN3 5XA","la":"West Lindsey","era":"trad","nn":29,"risk":49,"cat":"amber"},{"name":"The Nags Head Inn","lat":53.38681,"lon":-0.36498,"postcode":"LN8 3JU","la":"West Lindsey","era":"trad","nn":1830,"risk":64,"cat":"red"},{"name":"The Old Angel Inn","lat":53.21105,"lon":-0.32413,"postcode":"LN3 5XE","la":"West Lindsey","era":"trad","nn":29,"risk":49,"cat":"amber"},{"name":"The Plough Inn","lat":53.26583,"lon":-0.48925,"postcode":"LN2 2NR","la":"West Lindsey","era":"trad","nn":59,"risk":46,"cat":"amber"},{"name":"The Riverside Inn","lat":53.18189,"lon":-0.29763,"postcode":"LN3 5TA","la":"West Lindsey","era":"trad","nn":3693,"risk":77,"cat":"red"},{"name":"The Side by Side","lat":53.49698,"lon":-0.31407,"postcode":"LN7 6UB","la":"West Lindsey","era":"other","nn":72,"risk":49,"cat":"amber"},{"name":"The Sun Inn","lat":53.26598,"lon":-0.65859,"postcode":"LN1 2PZ","la":"West Lindsey","era":"trad","nn":179,"risk":47,"cat":"amber"},{"name":"The Tyrwhitt Arms","lat":53.22986,"lon":-0.36274,"postcode":"LN3 4HU","la":"West Lindsey","era":"trad","nn":3293,"risk":74,"cat":"red"},{"name":"The White Hart","lat":53.49642,"lon":-0.31462,"postcode":"LN7 6UB","la":"West Lindsey","era":"trad","nn":72,"risk":49,"cat":"amber"},{"name":"The Wishing Well","lat":53.24192,"lon":-0.45467,"postcode":"LN3 4JL","la":"West Lindsey","era":"other","nn":665,"risk":53,"cat":"amber"},{"name":"The Woodcocks Inn","lat":53.25169,"lon":-0.60174,"postcode":"LN1 2BE","la":"West Lindsey","era":"trad","nn":437,"risk":52,"cat":"amber"},{"name":"White Swan","lat":53.27964,"lon":-0.72742,"postcode":"LN1 2EL","la":"West Lindsey","era":"trad","nn":1232,"risk":60,"cat":"amber"},{"name":"White Swan","lat":53.38748,"lon":-0.33545,"postcode":"LN8 3EN","la":"West Lindsey","era":"trad","nn":40,"risk":34,"cat":"amber"}]