[{"name":"11``The Bell Inn","lat":52.39121,"lon":-2.08683,"postcode":"DY9 9XU","la":"Bromsgrove","era":"trad","nn":1006,"risk":57,"cat":"amber"},{"name":"Belbroughton Club","lat":52.3916,"lon":-2.11963,"postcode":"DY9 9SY","la":"Bromsgrove","era":"other","nn":97,"risk":45,"cat":"amber"},{"name":"Clent Community & Social Club","lat":52.40398,"lon":-2.1163,"postcode":"DY9 9RE","la":"Bromsgrove","era":"mod","nn":398,"risk":50,"cat":"amber"},{"name":"Hagley Cricket Club","lat":52.42416,"lon":-2.11969,"postcode":"DY9 9LG","la":"Bromsgrove","era":"other","nn":880,"risk":53,"cat":"amber"},{"name":"Hagley Golf Club","lat":52.43537,"lon":-2.1014,"postcode":"DY9 9JW","la":"Bromsgrove","era":"other","nn":494,"risk":48,"cat":"amber"},{"name":"Old Halesonians Association @ Old Halesonians Rugby FC","lat":52.4319,"lon":-2.11103,"postcode":"DY9 9JP","la":"Bromsgrove","era":"other","nn":474,"risk":48,"cat":"amber"},{"name":"The Badgers Sett","lat":52.43125,"lon":-2.10412,"postcode":"DY9 9JS","la":"Bromsgrove","era":"other","nn":474,"risk":48,"cat":"amber"},{"name":"The Bell And Cross","lat":52.40741,"lon":-2.11463,"postcode":"DY9 9QL","la":"Bromsgrove","era":"trad","nn":398,"risk":32,"cat":"amber"},{"name":"The Fountain Inn","lat":52.41496,"lon":-2.11403,"postcode":"DY9 9PU","la":"Bromsgrove","era":"trad","nn":245,"risk":31,"cat":"amber"},{"name":"The French Hen","lat":52.41636,"lon":-2.12181,"postcode":"DY9 9PY","la":"Bromsgrove","era":"other","nn":550,"risk":36,"cat":"amber"},{"name":"The Hill Tavern","lat":52.41591,"lon":-2.11077,"postcode":"DY9 9PS","la":"Bromsgrove","era":"other","nn":245,"risk":31,"cat":"amber"},{"name":"The Hollybush","lat":52.3969,"lon":-2.09836,"postcode":"DY9 9UG","la":"Bromsgrove","era":"trad","nn":1006,"risk":57,"cat":"amber"},{"name":"The King Arthur","lat":52.42089,"lon":-2.14345,"postcode":"DY9 0NW","la":"Bromsgrove","era":"trad","nn":187,"risk":46,"cat":"amber"},{"name":"The Lyttleton Arms Hotel","lat":52.42256,"lon":-2.13937,"postcode":"DY9 0NS","la":"Bromsgrove","era":"trad","nn":333,"risk":47,"cat":"amber"},{"name":"The Talbot At Belbroughton","lat":52.39159,"lon":-2.11797,"postcode":"DY9 9TG","la":"Bromsgrove","era":"trad","nn":88,"risk":45,"cat":"amber"},{"name":"The Vine","lat":52.41312,"lon":-2.10518,"postcode":"DY9 9PH","la":"Bromsgrove","era":"other","nn":490,"risk":36,"cat":"amber"},{"name":"Wally J's  - The Station Inn","lat":52.41926,"lon":-2.14411,"postcode":"DY9 0NG","la":"Bromsgrove","era":"trad","nn":187,"risk":46,"cat":"amber"},{"name":"Ye Olde Horseshoe","lat":52.39225,"lon":-2.11869,"postcode":"DY9 9ST","la":"Bromsgrove","era":"trad","nn":88,"risk":45,"cat":"amber"},{"name":"Ale Hub Limited","lat":52.49699,"lon":-2.16806,"postcode":"DY6 9JS","la":"Dudley","era":"mod","nn":14,"risk":20,"cat":"green"},{"name":"Amblecote Institute And Social Club","lat":52.46873,"lon":-2.15119,"postcode":"DY8 4EA","la":"Dudley","era":"mod","nn":88,"risk":21,"cat":"green"},{"name":"Amblecote Royal British Legion","lat":52.46795,"lon":-2.15094,"postcode":"DY8 4DQ","la":"Dudley","era":"trad","nn":88,"risk":21,"cat":"green"},{"name":"Baggeridge Social Welfare Centre","lat":52.52137,"lon":-2.14173,"postcode":"DY3 3AA","la":"Dudley","era":"mod","nn":652,"risk":25,"cat":"green"},{"name":"Bandito Loco at the Yard & Beyond","lat":52.45543,"lon":-2.14461,"postcode":"DY8 1EE","la":"Dudley","era":"mod","nn":0,"risk":20,"cat":"green"},{"name":"Barbridge","lat":52.45655,"lon":-2.14663,"postcode":"DY8 1DP","la":"Dudley","era":"other","nn":62,"risk":21,"cat":"green"},{"name":"BEECH TREE SOCIAL CLUB","lat":52.44496,"lon":-2.11027,"postcode":"DY9 9BY","la":"Dudley","era":"mod","nn":508,"risk":29,"cat":"green"},{"name":"Bird In Hand","lat":52.47549,"lon":-2.15526,"postcode":"DY8 5YS","la":"Dudley","era":"other","nn":142,"risk":21,"cat":"green"},{"name":"Black Country Ales","lat":52.51716,"lon":-2.12763,"postcode":"DY3 2NU","la":"Dudley","era":"other","nn":0,"risk":20,"cat":"green"},{"name":"Black Horse","lat":52.4753,"lon":-2.11829,"postcode":"DY5 2TP","la":"Dudley","era":"trad","nn":213,"risk":22,"cat":"green"},{"name":"Bottle & Cork","lat":52.50899,"lon":-2.0833,"postcode":"DY2 8PB","la":"Dudley","era":"other","nn":71,"risk":21,"cat":"green"},{"name":"Bottle & Glass","lat":52.52214,"lon":-2.07447,"postcode":"DY1 4SQ","la":"Dudley","era":"other","nn":0,"risk":20,"cat":"green"},{"name":"Bramford Arms","lat":52.53475,"lon":-2.09639,"postcode":"DY1 4JH","la":"Dudley","era":"trad","nn":129,"risk":21,"cat":"green"},{"name":"Brier Rose Inn","lat":52.48238,"lon":-2.12116,"postcode":"DY5 3DB","la":"Dudley","era":"trad","nn":161,"risk":21,"cat":"green"},{"name":"Brierley Hill Civic Hall","lat":52.48438,"lon":-2.12232,"postcode":"DY5 3DA","la":"Dudley","era":"other","nn":24,"risk":20,"cat":"green"},{"name":"Brierley Hop House","lat":52.4852,"lon":-2.11407,"postcode":"DY5 1XD","la":"Dudley","era":"other","nn":148,"risk":21,"cat":"green"},{"name":"Britannia Inn","lat":52.52781,"lon":-2.11606,"postcode":"DY3 1UX","la":"Dudley","era":"trad","nn":245,"risk":22,"cat":"green"},{"name":"Britannia Inn","lat":52.50576,"lon":-2.09364,"postcode":"DY1 1QU","la":"Dudley","era":"trad","nn":119,"risk":21,"cat":"green"},{"name":"Brookes Bar and Bistro","lat":52.5116,"lon":-2.08442,"postcode":"DY1 1HA","la":"Dudley","era":"mod","nn":59,"risk":21,"cat":"green"},{"name":"Bulls Head","lat":52.49064,"lon":-2.08563,"postcode":"DY2 0PU","la":"Dudley","era":"trad","nn":162,"risk":21,"cat":"green"},{"name":"Bulls Head","lat":52.54278,"lon":-2.11952,"postcode":"DY3 1JA","la":"Dudley","era":"trad","nn":154,"risk":21,"cat":"green"},{"name":"Bush Inn","lat":52.50308,"lon":-2.07475,"postcode":"DY2 8ED","la":"Dudley","era":"trad","nn":605,"risk":25,"cat":"green"},{"name":"Claptrap The Venue","lat":52.45543,"lon":-2.14461,"postcode":"DY8 1EE","la":"Dudley","era":"other","nn":0,"risk":20,"cat":"green"},{"name":"Club Dudley","lat":52.50722,"lon":-2.097,"postcode":"DY1 2BN","la":"Dudley","era":"other","nn":30,"risk":21,"cat":"green"},{"name":"Cock'N'Bull.Co","lat":52.45555,"lon":-2.14467,"postcode":"DY8 1EE","la":"Dudley","era":"trad","nn":14,"risk":20,"cat":"green"},{"name":"Coluccis Chopshop","lat":52.53587,"lon":-2.09586,"postcode":"DY1 4JN","la":"Dudley","era":"other","nn":129,"risk":21,"cat":"green"},{"name":"Corn Exchange (Brierley Hill)","lat":52.4729,"lon":-2.1154,"postcode":"DY5 2YJ","la":"Dudley","era":"other","nn":174,"risk":22,"cat":"green"},{"name":"Cottage Inn","lat":52.49813,"lon":-2.1628,"postcode":"DY6 8AW","la":"Dudley","era":"trad","nn":123,"risk":21,"cat":"green"},{"name":"Cottage Spring","lat":52.47977,"lon":-2.07469,"postcode":"DY2 9NA","la":"Dudley","era":"other","nn":408,"risk":23,"cat":"green"},{"name":"Darby & Joan Club","lat":52.51859,"lon":-2.13035,"postcode":"DY3 2ND","la":"Dudley","era":"other","nn":149,"risk":21,"cat":"green"},{"name":"Demons Gentlemens Club","lat":52.50958,"lon":-2.08288,"postcode":"DY2 8NZ","la":"Dudley","era":"other","nn":71,"risk":21,"cat":"green"},{"name":"Dr Eamers Distillery & Bar","lat":52.48653,"lon":-2.11427,"postcode":"DY5 1XG","la":"Dudley","era":"other","nn":148,"risk":21,"cat":"green"},{"name":"Dubliners Bar & Cafe","lat":52.5106,"lon":-2.08017,"postcode":"DY2 7AE","la":"Dudley","era":"mod","nn":154,"risk":21,"cat":"green"},{"name":"Dudley CVS","lat":52.48444,"lon":-2.12266,"postcode":"DY5 3DA","la":"Dudley","era":"other","nn":24,"risk":20,"cat":"green"},{"name":"DUDLEY EX-SERVICEMANS CLUB LTD","lat":52.50835,"lon":-2.07696,"postcode":"DY2 7BT","la":"Dudley","era":"other","nn":331,"risk":23,"cat":"green"},{"name":"Dudley Sports & Social Club","lat":52.47687,"lon":-2.13112,"postcode":"DY5 3QJ","la":"Dudley","era":"mod","nn":287,"risk":22,"cat":"green"},{"name":"Dudley Water Sports Centre","lat":52.48317,"lon":-2.0928,"postcode":"DY2 0HB","la":"Dudley","era":"other","nn":565,"risk":24,"cat":"green"},{"name":"Ella's Bar","lat":52.48874,"lon":-2.0812,"postcode":"DY2 9PS","la":"Dudley","era":"other","nn":180,"risk":22,"cat":"green"},{"name":"Five Ways Inn","lat":52.51439,"lon":-2.13165,"postcode":"DY3 2PZ","la":"Dudley","era":"trad","nn":124,"risk":21,"cat":"green"},{"name":"Foley Arms","lat":52.43754,"lon":-2.13253,"postcode":"DY9 0RQ","la":"Dudley","era":"trad","nn":276,"risk":27,"cat":"green"},{"name":"Foresters Arms","lat":52.4607,"lon":-2.17386,"postcode":"DY8 3PL","la":"Dudley","era":"trad","nn":273,"risk":22,"cat":"green"},{"name":"Forge","lat":52.51006,"lon":-2.13277,"postcode":"DY5 4TS","la":"Dudley","era":"trad","nn":488,"risk":24,"cat":"green"},{"name":"Fox & Grapes","lat":52.5008,"lon":-2.12642,"postcode":"DY5 4JQ","la":"Dudley","era":"trad","nn":293,"risk":25,"cat":"green"},{"name":"Garibaldi Inn","lat":52.4541,"lon":-2.15626,"postcode":"DY8 3XE","la":"Dudley","era":"trad","nn":173,"risk":22,"cat":"green"},{"name":"Gate Hangs Well P H","lat":52.48618,"lon":-2.07291,"postcode":"DY2 9PA","la":"Dudley","era":"other","nn":444,"risk":23,"cat":"green"},{"name":"Gigmill","lat":52.45234,"lon":-2.16172,"postcode":"DY8 3UL","la":"Dudley","era":"trad","nn":122,"risk":21,"cat":"green"},{"name":"Glassboys Sports Bar","lat":52.46323,"lon":-2.15019,"postcode":"DY8 4HN","la":"Dudley","era":"other","nn":0,"risk":20,"cat":"green"},{"name":"Glasscutters Arms PH","lat":52.48247,"lon":-2.16606,"postcode":"DY8 5QL","la":"Dudley","era":"trad","nn":265,"risk":22,"cat":"green"},{"name":"Gornal And Sedgley Labour Club","lat":52.52979,"lon":-2.1181,"postcode":"DY3 1UP","la":"Dudley","era":"other","nn":114,"risk":21,"cat":"green"},{"name":"Gornal Athletic F C","lat":52.51606,"lon":-2.12741,"postcode":"DY3 2NR","la":"Dudley","era":"other","nn":123,"risk":21,"cat":"green"},{"name":"Hadcroft","lat":52.45297,"lon":-2.12586,"postcode":"DY9 7HJ","la":"Dudley","era":"other","nn":482,"risk":24,"cat":"green"},{"name":"Hare & Hounds","lat":52.44906,"lon":-2.10695,"postcode":"DY9 9AB","la":"Dudley","era":"trad","nn":143,"risk":26,"cat":"green"},{"name":"Hartshill Sports and Social Club","lat":52.492,"lon":-2.11582,"postcode":"DY5 1LB","la":"Dudley","era":"other","nn":180,"risk":22,"cat":"green"},{"name":"Harvester @ Kingswinford","lat":52.49678,"lon":-2.17442,"postcode":"DY6 9XA","la":"Dudley","era":"trad","nn":189,"risk":22,"cat":"green"},{"name":"Harvester Castle Gate","lat":52.51614,"lon":-2.07224,"postcode":"DY1 4TA","la":"Dudley","era":"trad","nn":643,"risk":25,"cat":"green"},{"name":"HAUL! Beer","lat":52.45893,"lon":-2.14835,"postcode":"DY8 1TA","la":"Dudley","era":"other","nn":56,"risk":21,"cat":"green"},{"name":"High Oak","lat":52.50065,"lon":-2.13242,"postcode":"DY5 4ED","la":"Dudley","era":"trad","nn":114,"risk":24,"cat":"green"},{"name":"Hilly House","lat":52.51211,"lon":-2.10674,"postcode":"DY1 2QH","la":"Dudley","era":"other","nn":676,"risk":28,"cat":"green"},{"name":"Holly Bush Inn","lat":52.45496,"lon":-2.1179,"postcode":"DY9 8AB","la":"Dudley","era":"trad","nn":91,"risk":21,"cat":"green"},{"name":"Horse and Jockey Public House","lat":52.50466,"lon":-2.1781,"postcode":"DY6 0HA","la":"Dudley","era":"trad","nn":51,"risk":21,"cat":"green"},{"name":"Inspire Gym","lat":52.49073,"lon":-2.11417,"postcode":"DY5 1JJ","la":"Dudley","era":"other","nn":180,"risk":22,"cat":"green"},{"name":"Jolly Crispin","lat":52.53078,"lon":-2.11856,"postcode":"DY3 1UL","la":"Dudley","era":"other","nn":114,"risk":21,"cat":"green"},{"name":"Katie Fitzgeralds","lat":52.45815,"lon":-2.15778,"postcode":"DY8 3TB","la":"Dudley","era":"other","nn":215,"risk":22,"cat":"green"},{"name":"Kings Head","lat":52.48063,"lon":-2.12075,"postcode":"DY5 2RG","la":"Dudley","era":"trad","nn":119,"risk":21,"cat":"green"},{"name":"Kingsbridge","lat":52.45996,"lon":-2.16143,"postcode":"DY8 3PZ","la":"Dudley","era":"trad","nn":203,"risk":22,"cat":"green"},{"name":"Kingswinford Beefeater","lat":52.50008,"lon":-2.15195,"postcode":"DY6 8WT","la":"Dudley","era":"trad","nn":614,"risk":25,"cat":"green"},{"name":"Kingswinford Conservative Club","lat":52.49442,"lon":-2.16854,"postcode":"DY6 9LS","la":"Dudley","era":"trad","nn":122,"risk":21,"cat":"green"},{"name":"Kingswinford Snooker Centre","lat":52.50438,"lon":-2.16639,"postcode":"DY6 7AP","la":"Dudley","era":"trad","nn":156,"risk":21,"cat":"green"},{"name":"Leopard Inn","lat":52.49613,"lon":-2.16985,"postcode":"DY6 9NA","la":"Dudley","era":"trad","nn":131,"risk":21,"cat":"green"},{"name":"Little Barrell","lat":52.50898,"lon":-2.08525,"postcode":"DY1 1PY","la":"Dudley","era":"other","nn":89,"risk":21,"cat":"green"},{"name":"Longlands Tavern","lat":52.4534,"lon":-2.15397,"postcode":"DY8 3XU","la":"Dudley","era":"other","nn":173,"risk":22,"cat":"green"},{"name":"Lye Cricket Club","lat":52.45736,"lon":-2.12128,"postcode":"DY9 7DH","la":"Dudley","era":"other","nn":210,"risk":22,"cat":"green"},{"name":"Market Hall Tavern","lat":52.49687,"lon":-2.16808,"postcode":"DY6 9JS","la":"Dudley","era":"other","nn":14,"risk":20,"cat":"green"},{"name":"Marley's Bar Ltd","lat":52.54178,"lon":-2.12247,"postcode":"DY3 1RP","la":"Dudley","era":"mod","nn":70,"risk":21,"cat":"green"},{"name":"Moor Pool & Snooker","lat":52.48112,"lon":-2.12231,"postcode":"DY5 3AH","la":"Dudley","era":"other","nn":119,"risk":21,"cat":"green"},{"name":"Mount Pleasant","lat":52.48846,"lon":-2.17111,"postcode":"DY6 9TH","la":"Dudley","era":"other","nn":379,"risk":23,"cat":"green"},{"name":"Mount Pleasant","lat":52.54493,"lon":-2.12254,"postcode":"DY3 1RH","la":"Dudley","era":"other","nn":75,"risk":21,"cat":"green"},{"name":"Netherton Conservative Club","lat":52.49354,"lon":-2.08613,"postcode":"DY2 0PJ","la":"Dudley","era":"other","nn":171,"risk":22,"cat":"green"},{"name":"Netherton Cricket Ground","lat":52.48954,"lon":-2.0933,"postcode":"DY2 0HU","la":"Dudley","era":"other","nn":533,"risk":24,"cat":"green"},{"name":"Netherton Sports and Social Club","lat":52.49209,"lon":-2.08532,"postcode":"DY2 0PL","la":"Dudley","era":"mod","nn":162,"risk":21,"cat":"green"},{"name":"New Talbot","lat":52.47523,"lon":-2.1344,"postcode":"DY5 3JN","la":"Dudley","era":"trad","nn":156,"risk":21,"cat":"green"},{"name":"Norton Social Club","lat":52.44395,"lon":-2.15562,"postcode":"DY8 2AL","la":"Dudley","era":"mod","nn":771,"risk":31,"cat":"amber"},{"name":"Old Star Inn","lat":52.48538,"lon":-2.13081,"postcode":"DY5 3XD","la":"Dudley","era":"trad","nn":411,"risk":23,"cat":"green"},{"name":"Old Swan Inn","lat":52.49012,"lon":-2.08261,"postcode":"DY2 9PY","la":"Dudley","era":"trad","nn":180,"risk":22,"cat":"green"},{"name":"Old White Horse","lat":52.45073,"lon":-2.15323,"postcode":"DY8 3XZ","la":"Dudley","era":"trad","nn":301,"risk":22,"cat":"green"},{"name":"Parkes Hall Social Club","lat":52.53203,"lon":-2.10216,"postcode":"DY1 3SR","la":"Dudley","era":"mod","nn":471,"risk":26,"cat":"green"},{"name":"Pedmore Cricket Club","lat":52.43585,"lon":-2.12956,"postcode":"DY9 0SR","la":"Dudley","era":"other","nn":276,"risk":40,"cat":"amber"},{"name":"Pen's Ale","lat":52.50218,"lon":-2.13772,"postcode":"DY5 4RP","la":"Dudley","era":"other","nn":383,"risk":23,"cat":"green"},{"name":"Pensnett and Bromley Liberal Club","lat":52.50065,"lon":-2.13074,"postcode":"DY5 4DP","la":"Dudley","era":"other","nn":114,"risk":24,"cat":"green"},{"name":"Plyvine Catering at Bonded Warehouse","lat":52.46082,"lon":-2.14958,"postcode":"DY8 4LU","la":"Dudley","era":"other","nn":0,"risk":20,"cat":"green"},{"name":"Quarry Bank Conservative Club","lat":52.47295,"lon":-2.10549,"postcode":"DY5 2JW","la":"Dudley","era":"other","nn":121,"risk":21,"cat":"green"},{"name":"Quarry Bank Social Club","lat":52.47173,"lon":-2.10146,"postcode":"DY5 2AF","la":"Dudley","era":"mod","nn":178,"risk":22,"cat":"green"},{"name":"Railway Tavern","lat":52.4958,"lon":-2.10461,"postcode":"DY2 0ST","la":"Dudley","era":"trad","nn":440,"risk":23,"cat":"green"},{"name":"Red House Boutique Bar","lat":52.45575,"lon":-2.14376,"postcode":"DY8 1EL","la":"Dudley","era":"mod","nn":65,"risk":21,"cat":"green"},{"name":"Royal British Legion Limited","lat":52.4965,"lon":-2.17167,"postcode":"DY6 9JG","la":"Dudley","era":"trad","nn":131,"risk":21,"cat":"green"},{"name":"Saltwells Inn","lat":52.47983,"lon":-2.09909,"postcode":"DY5 1AX","la":"Dudley","era":"trad","nn":565,"risk":24,"cat":"green"},{"name":"Samson & Lion","lat":52.47969,"lon":-2.14995,"postcode":"DY8 5SP","la":"Dudley","era":"trad","nn":590,"risk":24,"cat":"green"},{"name":"Sedgley Conservative Club","lat":52.54093,"lon":-2.12345,"postcode":"DY3 3LW","la":"Dudley","era":"other","nn":27,"risk":21,"cat":"green"},{"name":"Sedgley Ex Servicemens Club","lat":52.54495,"lon":-2.12132,"postcode":"DY3 1PN","la":"Dudley","era":"other","nn":82,"risk":21,"cat":"green"},{"name":"Sedgley Working Mens Club","lat":52.54219,"lon":-2.11746,"postcode":"DY3 1HU","la":"Dudley","era":"trad","nn":154,"risk":21,"cat":"green"},{"name":"Seven Sisters Bar & Banquet","lat":52.52794,"lon":-2.09647,"postcode":"DY1 3SB","la":"Dudley","era":"mod","nn":596,"risk":30,"cat":"green"},{"name":"Shovel Inn","lat":52.45484,"lon":-2.11923,"postcode":"DY9 7DZ","la":"Dudley","era":"trad","nn":39,"risk":21,"cat":"green"},{"name":"Sisha Bar","lat":52.50972,"lon":-2.08447,"postcode":"DY1 1QQ","la":"Dudley","era":"other","nn":25,"risk":21,"cat":"green"},{"name":"Stourbridge Academy","lat":52.4539,"lon":-2.14308,"postcode":"DY8 1QH","la":"Dudley","era":"other","nn":67,"risk":21,"cat":"green"},{"name":"Stourbridge Cricket Club","lat":52.46323,"lon":-2.15019,"postcode":"DY8 4HN","la":"Dudley","era":"other","nn":0,"risk":20,"cat":"green"},{"name":"Stourbridge Institute Social Club","lat":52.45663,"lon":-2.14797,"postcode":"DY8 1AD","la":"Dudley","era":"mod","nn":67,"risk":21,"cat":"green"},{"name":"Stourbridge Old Edwardian Club","lat":52.45506,"lon":-2.14891,"postcode":"DY8 1BL","la":"Dudley","era":"other","nn":185,"risk":22,"cat":"green"},{"name":"Stourbridge Social Limited","lat":52.45954,"lon":-2.14624,"postcode":"DY8 1JN","la":"Dudley","era":"mod","nn":75,"risk":21,"cat":"green"},{"name":"Swan Grill","lat":52.49469,"lon":-2.08344,"postcode":"DY2 9DH","la":"Dudley","era":"trad","nn":223,"risk":22,"cat":"green"},{"name":"Swan Inn P H","lat":52.49451,"lon":-2.16675,"postcode":"DY6 9LJ","la":"Dudley","era":"trad","nn":122,"risk":21,"cat":"green"},{"name":"Tapri","lat":52.51502,"lon":-2.13317,"postcode":"DY3 2TS","la":"Dudley","era":"other","nn":124,"risk":21,"cat":"green"},{"name":"Tasty Treats, trading at The Queens Cross","lat":52.50641,"lon":-2.09504,"postcode":"DY1 1UA","la":"Dudley","era":"trad","nn":119,"risk":21,"cat":"green"},{"name":"Ten Arches","lat":52.46032,"lon":-2.14113,"postcode":"DY8 4UZ","la":"Dudley","era":"other","nn":358,"risk":23,"cat":"green"},{"name":"Tenth Lock","lat":52.47537,"lon":-2.12152,"postcode":"DY5 2TY","la":"Dudley","era":"other","nn":214,"risk":22,"cat":"green"},{"name":"The Ashwood","lat":52.47651,"lon":-2.16787,"postcode":"DY8 5DQ","la":"Dudley","era":"other","nn":571,"risk":24,"cat":"green"},{"name":"The Bell Inn","lat":52.47614,"lon":-2.12442,"postcode":"DY5 2TZ","la":"Dudley","era":"trad","nn":214,"risk":22,"cat":"green"},{"name":"The Bell Inn","lat":52.4979,"lon":-2.16458,"postcode":"DY6 8AJ","la":"Dudley","era":"trad","nn":123,"risk":21,"cat":"green"},{"name":"The Birch Tree","lat":52.46722,"lon":-2.12815,"postcode":"DY5 2PS","la":"Dudley","era":"other","nn":335,"risk":23,"cat":"green"},{"name":"The Bird in Hand","lat":52.44757,"lon":-2.14039,"postcode":"DY8 2JB","la":"Dudley","era":"other","nn":80,"risk":21,"cat":"green"},{"name":"The Black Bear","lat":52.5211,"lon":-2.11767,"postcode":"DY3 2AE","la":"Dudley","era":"other","nn":400,"risk":23,"cat":"green"},{"name":"The Bonded Warehouse","lat":52.46082,"lon":-2.14958,"postcode":"DY8 4LU","la":"Dudley","era":"other","nn":0,"risk":20,"cat":"green"},{"name":"The Bridge Public House","lat":52.5027,"lon":-2.17007,"postcode":"DY6 9HH","la":"Dudley","era":"other","nn":312,"risk":23,"cat":"green"},{"name":"The Britannia Sports Bar","lat":52.4638,"lon":-2.16023,"postcode":"DY8 4NY","la":"Dudley","era":"trad","nn":434,"risk":23,"cat":"green"},{"name":"The British Oak","lat":52.50556,"lon":-2.16514,"postcode":"DY6 7HS","la":"Dudley","era":"trad","nn":156,"risk":21,"cat":"green"},{"name":"The Bush Inn","lat":52.5168,"lon":-2.13568,"postcode":"DY3 2TG","la":"Dudley","era":"trad","nn":183,"risk":22,"cat":"green"},{"name":"The Cabin","lat":52.5481,"lon":-2.13111,"postcode":"DY3 3QY","la":"Dudley","era":"other","nn":678,"risk":25,"cat":"green"},{"name":"The Castle Pub","lat":52.51184,"lon":-2.08116,"postcode":"DY1 1LQ","la":"Dudley","era":"other","nn":101,"risk":21,"cat":"green"},{"name":"The Chapel House","lat":52.52241,"lon":-2.12317,"postcode":"DY3 2EG","la":"Dudley","era":"other","nn":53,"risk":21,"cat":"green"},{"name":"The Chequers Inn","lat":52.45505,"lon":-2.14396,"postcode":"DY8 1EQ","la":"Dudley","era":"trad","nn":61,"risk":21,"cat":"green"},{"name":"The Church Tavern","lat":52.47248,"lon":-2.10387,"postcode":"DY5 2AA","la":"Dudley","era":"other","nn":121,"risk":21,"cat":"green"},{"name":"The Cottage Spring","lat":52.53626,"lon":-2.10259,"postcode":"DY3 1AD","la":"Dudley","era":"other","nn":452,"risk":23,"cat":"green"},{"name":"The Courthouse","lat":52.51162,"lon":-2.08261,"postcode":"DY1 1LP","la":"Dudley","era":"other","nn":98,"risk":21,"cat":"green"},{"name":"The Crabmill","lat":52.44385,"lon":-2.13765,"postcode":"DY8 2JP","la":"Dudley","era":"trad","nn":52,"risk":21,"cat":"green"},{"name":"The Crafty Jar","lat":52.45843,"lon":-2.1484,"postcode":"DY8 1TS","la":"Dudley","era":"mod","nn":39,"risk":21,"cat":"green"},{"name":"The Crestwood","lat":52.49393,"lon":-2.14645,"postcode":"DY6 8SQ","la":"Dudley","era":"other","nn":779,"risk":31,"cat":"amber"},{"name":"The Cross at Oldswinford","lat":52.44806,"lon":-2.13954,"postcode":"DY8 1NJ","la":"Dudley","era":"trad","nn":80,"risk":21,"cat":"green"},{"name":"The Cross Inn","lat":52.49731,"lon":-2.16774,"postcode":"DY6 8AA","la":"Dudley","era":"trad","nn":41,"risk":21,"cat":"green"},{"name":"The Crown","lat":52.54432,"lon":-2.12206,"postcode":"DY3 1RJ","la":"Dudley","era":"trad","nn":75,"risk":21,"cat":"green"},{"name":"The Crown Inn","lat":52.4438,"lon":-2.13841,"postcode":"DY8 2JU","la":"Dudley","era":"trad","nn":52,"risk":21,"cat":"green"},{"name":"The Dog & Lamp-post","lat":52.48602,"lon":-2.12052,"postcode":"DY5 1LQ","la":"Dudley","era":"other","nn":176,"risk":22,"cat":"green"},{"name":"The Doghouse","lat":52.45635,"lon":-2.1423,"postcode":"DY8 1EX","la":"Dudley","era":"other","nn":119,"risk":21,"cat":"green"},{"name":"The Duke William","lat":52.45765,"lon":-2.14684,"postcode":"DY8 1EP","la":"Dudley","era":"trad","nn":61,"risk":21,"cat":"green"},{"name":"The Elephant & Castle Pub","lat":52.52214,"lon":-2.07447,"postcode":"DY1 4SQ","la":"Dudley","era":"other","nn":0,"risk":20,"cat":"green"},{"name":"The Fountain Inn","lat":52.51833,"lon":-2.12568,"postcode":"DY3 2PE","la":"Dudley","era":"trad","nn":186,"risk":22,"cat":"green"},{"name":"The Fox Inn","lat":52.45449,"lon":-2.11919,"postcode":"DY9 7EW","la":"Dudley","era":"trad","nn":39,"risk":21,"cat":"green"},{"name":"The Full Moon","lat":52.50939,"lon":-2.08413,"postcode":"DY1 1PS","la":"Dudley","era":"other","nn":44,"risk":21,"cat":"green"},{"name":"The Glassworks","lat":52.47549,"lon":-2.15735,"postcode":"DY8 4AD","la":"Dudley","era":"mod","nn":142,"risk":21,"cat":"green"},{"name":"The Griffin","lat":52.5104,"lon":-2.08388,"postcode":"DY1 1NS","la":"Dudley","era":"trad","nn":62,"risk":21,"cat":"green"},{"name":"The High Acres","lat":52.48663,"lon":-2.14831,"postcode":"DY6 8PF","la":"Dudley","era":"other","nn":779,"risk":43,"cat":"amber"},{"name":"The Hop Vault","lat":52.45702,"lon":-2.14722,"postcode":"DY8 1AB","la":"Dudley","era":"other","nn":33,"risk":21,"cat":"green"},{"name":"The Jolly Crispin","lat":52.45444,"lon":-2.14265,"postcode":"DY8 1LT","la":"Dudley","era":"other","nn":67,"risk":21,"cat":"green"},{"name":"The King William","lat":52.50079,"lon":-2.11178,"postcode":"DY1 2EY","la":"Dudley","era":"trad","nn":715,"risk":30,"cat":"green"},{"name":"The Koyla Kitchen","lat":52.46571,"lon":-2.11531,"postcode":"DY5 2JY","la":"Dudley","era":"mod","nn":602,"risk":25,"cat":"green"},{"name":"The Lamp Tavern","lat":52.50705,"lon":-2.09,"postcode":"DY1 1QT","la":"Dudley","era":"other","nn":210,"risk":22,"cat":"green"},{"name":"The Lenches Bridge","lat":52.50184,"lon":-2.14335,"postcode":"DY6 8XD","la":"Dudley","era":"other","nn":383,"risk":23,"cat":"green"},{"name":"The Limes Social Club","lat":52.4826,"lon":-2.12525,"postcode":"DY5 3HD","la":"Dudley","era":"mod","nn":220,"risk":22,"cat":"green"},{"name":"The Marverick","lat":52.47031,"lon":-2.15449,"postcode":"DY8 4BX","la":"Dudley","era":"other","nn":133,"risk":21,"cat":"green"},{"name":"The Mayfair Club","lat":52.47418,"lon":-2.13288,"postcode":"DY5 3JT","la":"Dudley","era":"other","nn":156,"risk":21,"cat":"green"},{"name":"The Meadowlark","lat":52.51779,"lon":-2.11029,"postcode":"DY1 2RR","la":"Dudley","era":"other","nn":620,"risk":30,"cat":"green"},{"name":"The Mill","lat":52.5274,"lon":-2.11963,"postcode":"DY3 2DQ","la":"Dudley","era":"trad","nn":82,"risk":21,"cat":"green"},{"name":"The Mitre","lat":52.45811,"lon":-2.14815,"postcode":"DY8 1TS","la":"Dudley","era":"other","nn":39,"risk":21,"cat":"green"},{"name":"The New Inn","lat":52.4813,"lon":-2.16203,"postcode":"DY8 5QR","la":"Dudley","era":"trad","nn":39,"risk":21,"cat":"green"},{"name":"The New Inn","lat":52.45176,"lon":-2.16018,"postcode":"DY8 3YQ","la":"Dudley","era":"trad","nn":122,"risk":21,"cat":"green"},{"name":"The Old Bulls Head","lat":52.51716,"lon":-2.12763,"postcode":"DY3 2NU","la":"Dudley","era":"trad","nn":0,"risk":20,"cat":"green"},{"name":"The Old Cat","lat":52.48095,"lon":-2.1619,"postcode":"DY8 5RT","la":"Dudley","era":"other","nn":39,"risk":21,"cat":"green"},{"name":"The Old Glasshouse","lat":52.51106,"lon":-2.08377,"postcode":"DY1 1HA","la":"Dudley","era":"other","nn":16,"risk":20,"cat":"green"},{"name":"The Park Tavern","lat":52.49345,"lon":-2.17204,"postcode":"DY6 9QG","la":"Dudley","era":"other","nn":261,"risk":22,"cat":"green"},{"name":"The Plough","lat":52.46012,"lon":-2.16995,"postcode":"DY8 3PD","la":"Dudley","era":"trad","nn":273,"risk":22,"cat":"green"},{"name":"The Portway","lat":52.49223,"lon":-2.16584,"postcode":"DY6 9NW","la":"Dudley","era":"other","nn":0,"risk":20,"cat":"green"},{"name":"The Prince Albert","lat":52.50459,"lon":-2.17885,"postcode":"DY6 0HB","la":"Dudley","era":"trad","nn":0,"risk":20,"cat":"green"},{"name":"The Princess","lat":52.46007,"lon":-2.16442,"postcode":"DY8 3NX","la":"Dudley","era":"trad","nn":0,"risk":20,"cat":"green"},{"name":"The Queens Head","lat":52.48253,"lon":-2.16215,"postcode":"DY8 5QS","la":"Dudley","era":"trad","nn":138,"risk":21,"cat":"green"},{"name":"The Queen's Head","lat":52.45816,"lon":-2.1546,"postcode":"DY8 3TQ","la":"Dudley","era":"trad","nn":109,"risk":21,"cat":"green"},{"name":"The Queensway","lat":52.4415,"lon":-2.11923,"postcode":"DY9 9HN","la":"Dudley","era":"trad","nn":719,"risk":43,"cat":"amber"},{"name":"The Railway","lat":52.45701,"lon":-2.11823,"postcode":"DY9 8DJ","la":"Dudley","era":"trad","nn":210,"risk":22,"cat":"green"},{"name":"The Raven","lat":52.46798,"lon":-2.12337,"postcode":"DY5 2RB","la":"Dudley","era":"other","nn":335,"risk":23,"cat":"green"},{"name":"The Red Cow","lat":52.51438,"lon":-2.12089,"postcode":"DY3 2PR","la":"Dudley","era":"other","nn":479,"risk":24,"cat":"green"},{"name":"The Red Lion","lat":52.4712,"lon":-2.15317,"postcode":"DY8 4BA","la":"Dudley","era":"trad","nn":133,"risk":21,"cat":"green"},{"name":"The Red Lion","lat":52.48917,"lon":-2.07726,"postcode":"DY2 9JA","la":"Dudley","era":"trad","nn":271,"risk":22,"cat":"green"},{"name":"The Red Lion","lat":52.51727,"lon":-2.13068,"postcode":"DY3 2PQ","la":"Dudley","era":"trad","nn":149,"risk":21,"cat":"green"},{"name":"The Red Lion Sedgley Ltd","lat":52.54126,"lon":-2.12186,"postcode":"DY3 1RU","la":"Dudley","era":"trad","nn":62,"risk":21,"cat":"green"},{"name":"The Reindeer Sports Bar and Grill","lat":52.49447,"lon":-2.11369,"postcode":"DY5 1JD","la":"Dudley","era":"mod","nn":311,"risk":23,"cat":"green"},{"name":"The River Rooms","lat":52.46018,"lon":-2.14657,"postcode":"DY8 1JN","la":"Dudley","era":"mod","nn":75,"risk":21,"cat":"green"},{"name":"The Robin Hood","lat":52.47126,"lon":-2.14625,"postcode":"DY8 4EQ","la":"Dudley","era":"other","nn":139,"risk":21,"cat":"green"},{"name":"The Roebuck Inn","lat":52.47134,"lon":-2.11949,"postcode":"DY5 2YG","la":"Dudley","era":"trad","nn":327,"risk":23,"cat":"green"},{"name":"The Rose and Crown","lat":52.48578,"lon":-2.12477,"postcode":"DY5 3DD","la":"Dudley","era":"trad","nn":207,"risk":22,"cat":"green"},{"name":"The Rose and Crown","lat":52.47832,"lon":-2.15998,"postcode":"DY8 5SF","la":"Dudley","era":"trad","nn":320,"risk":23,"cat":"green"},{"name":"The Round Oak","lat":52.47481,"lon":-2.10813,"postcode":"DY5 1SB","la":"Dudley","era":"trad","nn":274,"risk":22,"cat":"green"},{"name":"The Royal British Legion","lat":52.52201,"lon":-2.12359,"postcode":"DY3 2EH","la":"Dudley","era":"trad","nn":53,"risk":21,"cat":"green"},{"name":"The Royal Exchange","lat":52.45807,"lon":-2.15299,"postcode":"DY8 1XW","la":"Dudley","era":"trad","nn":109,"risk":21,"cat":"green"},{"name":"The Saracens Head","lat":52.51119,"lon":-2.08387,"postcode":"DY1 1NJ","la":"Dudley","era":"trad","nn":16,"risk":20,"cat":"green"},{"name":"The Seven Stars","lat":52.54008,"lon":-2.13261,"postcode":"DY3 3LT","la":"Dudley","era":"other","nn":627,"risk":25,"cat":"green"},{"name":"The Shrewsbury Arms","lat":52.50994,"lon":-2.0844,"postcode":"DY1 1DA","la":"Dudley","era":"trad","nn":25,"risk":21,"cat":"green"},{"name":"The Shrubbery Cottage","lat":52.44936,"lon":-2.14434,"postcode":"DY8 1RQ","la":"Dudley","era":"other","nn":334,"risk":23,"cat":"green"},{"name":"The Starving Rascal","lat":52.47256,"lon":-2.14472,"postcode":"DY8 4BN","la":"Dudley","era":"other","nn":69,"risk":21,"cat":"green"},{"name":"The Stourbridge Lion","lat":52.45603,"lon":-2.14478,"postcode":"DY8 1DX","la":"Dudley","era":"trad","nn":54,"risk":21,"cat":"green"},{"name":"The Swan","lat":52.47246,"lon":-2.14573,"postcode":"DY8 4BN","la":"Dudley","era":"trad","nn":69,"risk":21,"cat":"green"},{"name":"The Swan","lat":52.49223,"lon":-2.16584,"postcode":"DY6 9NW","la":"Dudley","era":"trad","nn":0,"risk":20,"cat":"green"},{"name":"The Swan Inn","lat":52.54092,"lon":-2.12306,"postcode":"DY3 3LP","la":"Dudley","era":"trad","nn":27,"risk":21,"cat":"green"},{"name":"The Talbot Hotel","lat":52.4571,"lon":-2.14675,"postcode":"DY8 1DW","la":"Dudley","era":"trad","nn":33,"risk":21,"cat":"green"},{"name":"The Three Crowns","lat":52.47939,"lon":-2.12316,"postcode":"DY5 3AB","la":"Dudley","era":"trad","nn":201,"risk":22,"cat":"green"},{"name":"The Victoria Inn","lat":52.47575,"lon":-2.0866,"postcode":"DY2 0DQ","la":"Dudley","era":"trad","nn":484,"risk":24,"cat":"green"},{"name":"The Waggon and Horses","lat":52.45292,"lon":-2.14768,"postcode":"DY8 1AT","la":"Dudley","era":"trad","nn":253,"risk":22,"cat":"green"},{"name":"The Wall Heath Tavern","lat":52.50459,"lon":-2.17885,"postcode":"DY6 0HB","la":"Dudley","era":"other","nn":0,"risk":20,"cat":"green"},{"name":"The Wheatsheaf","lat":52.49005,"lon":-2.0705,"postcode":"DY2 9HS","la":"Dudley","era":"trad","nn":461,"risk":24,"cat":"green"},{"name":"The White Horse","lat":52.54071,"lon":-2.12186,"postcode":"DY3 1SB","la":"Dudley","era":"trad","nn":62,"risk":21,"cat":"green"},{"name":"The Woodman","lat":52.51779,"lon":-2.13351,"postcode":"DY3 2UD","la":"Dudley","era":"other","nn":183,"risk":22,"cat":"green"},{"name":"The Woodman","lat":52.48016,"lon":-2.08586,"postcode":"DY2 0BP","la":"Dudley","era":"other","nn":493,"risk":24,"cat":"green"},{"name":"The Woodman","lat":52.48917,"lon":-2.17659,"postcode":"DY6 9ST","la":"Dudley","era":"other","nn":379,"risk":23,"cat":"green"},{"name":"Three Crowns Tap House","lat":52.50854,"lon":-2.08811,"postcode":"DY1 1QS","la":"Dudley","era":"other","nn":199,"risk":22,"cat":"green"},{"name":"Tiki Bar at the Yard & Beyond","lat":52.45543,"lon":-2.14461,"postcode":"DY8 1EE","la":"Dudley","era":"mod","nn":0,"risk":20,"cat":"green"},{"name":"Unicorn Inn","lat":52.46007,"lon":-2.16442,"postcode":"DY8 3NX","la":"Dudley","era":"trad","nn":0,"risk":20,"cat":"green"},{"name":"Union Inn","lat":52.49991,"lon":-2.16484,"postcode":"DY6 7QB","la":"Dudley","era":"trad","nn":225,"risk":22,"cat":"green"},{"name":"Upper Gornal Conservative Club","lat":52.52782,"lon":-2.12063,"postcode":"DY3 2DF","la":"Dudley","era":"other","nn":82,"risk":21,"cat":"green"},{"name":"VINE INN","lat":52.47446,"lon":-2.11546,"postcode":"DY5 2TN","la":"Dudley","era":"trad","nn":174,"risk":22,"cat":"green"},{"name":"Voodoo Blue Lounge","lat":52.4845,"lon":-2.12125,"postcode":"DY5 1HA","la":"Dudley","era":"mod","nn":74,"risk":21,"cat":"green"},{"name":"West Mids Police Station","lat":52.4838,"lon":-2.12266,"postcode":"DY5 3DH","la":"Dudley","era":"other","nn":69,"risk":21,"cat":"green"},{"name":"White Horse Inn","lat":52.47013,"lon":-2.10144,"postcode":"DY5 2BA","la":"Dudley","era":"trad","nn":178,"risk":22,"cat":"green"},{"name":"White Lion","lat":52.54328,"lon":-2.11461,"postcode":"DY3 1JF","la":"Dudley","era":"trad","nn":227,"risk":22,"cat":"green"},{"name":"White Swan Public House","lat":52.5074,"lon":-2.09666,"postcode":"DY1 2BW","la":"Dudley","era":"trad","nn":30,"risk":21,"cat":"green"},{"name":"Woodside Inn Ph","lat":52.49212,"lon":-2.10701,"postcode":"DY2 0RL","la":"Dudley","era":"trad","nn":440,"risk":23,"cat":"green"},{"name":"The Hampstall","lat":52.30767,"lon":-2.27961,"postcode":"DY13 0RY","la":"Malvern Hills","era":"other","nn":1941,"risk":65,"cat":"red"},{"name":"The Sun & Slipper","lat":52.3412,"lon":-2.45659,"postcode":"DY14 9JL","la":"Malvern Hills","era":"other","nn":2182,"risk":67,"cat":"red"},{"name":"Admiral Casino","lat":52.52999,"lon":-2.03307,"postcode":"DY4 7EW","la":"Sandwell","era":"other","nn":186,"risk":25,"cat":"green"},{"name":"Albion Inn","lat":52.51436,"lon":-2.05938,"postcode":"DY4 7TF","la":"Sandwell","era":"trad","nn":258,"risk":28,"cat":"green"},{"name":"Legends Sports Bar","lat":52.52925,"lon":-2.06807,"postcode":"DY4 8QL","la":"Sandwell","era":"other","nn":133,"risk":25,"cat":"green"},{"name":"Noah's Ark","lat":52.53045,"lon":-2.0681,"postcode":"DY4 9BQ","la":"Sandwell","era":"other","nn":133,"risk":28,"cat":"green"},{"name":"Rising Sun","lat":52.53404,"lon":-2.04039,"postcode":"DY4 7NH","la":"Sandwell","era":"other","nn":362,"risk":27,"cat":"green"},{"name":"Royal Oak Bar And Grill","lat":52.52435,"lon":-2.04756,"postcode":"DY4 7PR","la":"Sandwell","era":"other","nn":198,"risk":31,"cat":"amber"},{"name":"The Dew Drop Inn","lat":52.53723,"lon":-2.03927,"postcode":"DY4 0HG","la":"Sandwell","era":"trad","nn":362,"risk":29,"cat":"green"},{"name":"The English Oak","lat":52.5348,"lon":-2.05748,"postcode":"DY4 9PF","la":"Sandwell","era":"trad","nn":867,"risk":35,"cat":"amber"},{"name":"The Fountain Inn","lat":52.52879,"lon":-2.06997,"postcode":"DY4 8HE","la":"Sandwell","era":"trad","nn":138,"risk":25,"cat":"green"},{"name":"The Goldmine","lat":52.54309,"lon":-2.04223,"postcode":"DY4 0UW","la":"Sandwell","era":"other","nn":644,"risk":34,"cat":"amber"},{"name":"The Gospel Oak Tavern","lat":52.5465,"lon":-2.04991,"postcode":"DY4 0BT","la":"Sandwell","era":"trad","nn":110,"risk":30,"cat":"green"},{"name":"The Horseley Tavern","lat":52.52579,"lon":-2.04583,"postcode":"DY4 7QT","la":"Sandwell","era":"trad","nn":198,"risk":26,"cat":"green"},{"name":"The Lounge Bar and Restaurant","lat":52.53038,"lon":-2.03574,"postcode":"DY4 7EJ","la":"Sandwell","era":"mod","nn":186,"risk":25,"cat":"green"},{"name":"The Port n Ale","lat":52.5281,"lon":-2.04086,"postcode":"DY4 7DS","la":"Sandwell","era":"other","nn":281,"risk":26,"cat":"green"},{"name":"The Tamebridge","lat":52.52736,"lon":-2.03689,"postcode":"DY4 7JA","la":"Sandwell","era":"other","nn":281,"risk":26,"cat":"green"},{"name":"The Tilted Barrel","lat":52.54177,"lon":-2.06677,"postcode":"DY4 9HU","la":"Sandwell","era":"other","nn":942,"risk":48,"cat":"amber"},{"name":"Tipton Sports Academy Social Club","lat":52.54619,"lon":-2.05146,"postcode":"DY4 0BS","la":"Sandwell","era":"mod","nn":110,"risk":30,"cat":"green"},{"name":"Toby Carvery","lat":52.51436,"lon":-2.0632,"postcode":"DY4 7UF","la":"Sandwell","era":"other","nn":258,"risk":28,"cat":"green"},{"name":"Waggon and Horses","lat":52.52627,"lon":-2.07384,"postcode":"DY4 8EB","la":"Sandwell","era":"trad","nn":384,"risk":27,"cat":"green"},{"name":"Cleobury Mortimer Golf Club","lat":52.38661,"lon":-2.45485,"postcode":"DY14 8HQ","la":"Shropshire","era":"other","nn":1583,"risk":51,"cat":"amber"},{"name":"Cleobury Mortimer Sports And Social Club","lat":52.38166,"lon":-2.48158,"postcode":"DY14 8EH","la":"Shropshire","era":"mod","nn":288,"risk":22,"cat":"green"},{"name":"Live And Let Live","lat":52.34447,"lon":-2.48825,"postcode":"DY14 9AB","la":"Shropshire","era":"other","nn":2182,"risk":56,"cat":"amber"},{"name":"Royal Fountain Inn","lat":52.37874,"lon":-2.4802,"postcode":"DY14 8BS","la":"Shropshire","era":"trad","nn":0,"risk":20,"cat":"green"},{"name":"Talbot Hotel","lat":52.37866,"lon":-2.48265,"postcode":"DY14 8DQ","la":"Shropshire","era":"trad","nn":62,"risk":21,"cat":"green"},{"name":"The Blount Arms (Closed)","lat":52.37671,"lon":-2.43811,"postcode":"DY14 9BE","la":"Shropshire","era":"trad","nn":1583,"risk":51,"cat":"amber"},{"name":"The Button Oak Inn","lat":52.3996,"lon":-2.36558,"postcode":"DY12 3AQ","la":"Shropshire","era":"trad","nn":804,"risk":43,"cat":"amber"},{"name":"The Eagle And Serpent","lat":52.41903,"lon":-2.41599,"postcode":"DY12 3BE","la":"Shropshire","era":"trad","nn":3990,"risk":68,"cat":"red"},{"name":"The Fighting Cocks","lat":52.4417,"lon":-2.48481,"postcode":"DY14 8TZ","la":"Shropshire","era":"other","nn":5303,"risk":75,"cat":"red"},{"name":"The Hopton Crown","lat":52.38298,"lon":-2.53462,"postcode":"DY14 0NB","la":"Shropshire","era":"trad","nn":3560,"risk":65,"cat":"red"},{"name":"The Kings Arms Hotel","lat":52.37874,"lon":-2.4802,"postcode":"DY14 8BS","la":"Shropshire","era":"trad","nn":0,"risk":20,"cat":"green"},{"name":"The Stable Tavern","lat":52.37909,"lon":-2.48205,"postcode":"DY14 8BQ","la":"Shropshire","era":"other","nn":62,"risk":21,"cat":"green"},{"name":"Ashwood Social Club Ltd","lat":52.4928,"lon":-2.2008,"postcode":"DY6 0AQ","la":"South Staffordshire","era":"mod","nn":1247,"risk":58,"cat":"amber"},{"name":"Bay Tree Restaurant","lat":52.44766,"lon":-2.22827,"postcode":"DY7 6HL","la":"South Staffordshire","era":"other","nn":32,"risk":27,"cat":"green"},{"name":"Dudley Kingswinford Rugby Football Club","lat":52.50218,"lon":-2.19072,"postcode":"DY6 0AW","la":"South Staffordshire","era":"trad","nn":0,"risk":27,"cat":"green"},{"name":"Eat, Drink & Sleep Ltd T/a The Red Lion Inn","lat":52.51502,"lon":-2.28018,"postcode":"DY7 5DU","la":"South Staffordshire","era":"trad","nn":1584,"risk":60,"cat":"amber"},{"name":"Emma Baker Catering At DK Rugby Club","lat":52.50218,"lon":-2.19072,"postcode":"DY6 0AW","la":"South Staffordshire","era":"other","nn":0,"risk":27,"cat":"green"},{"name":"Fox Inn","lat":52.4656,"lon":-2.23449,"postcode":"DY7 5BL","la":"South Staffordshire","era":"trad","nn":1539,"risk":60,"cat":"amber"},{"name":"Green Man Inn","lat":52.51271,"lon":-2.20415,"postcode":"DY3 4NR","la":"South Staffordshire","era":"trad","nn":0,"risk":47,"cat":"amber"},{"name":"Himley Cricket Club","lat":52.5185,"lon":-2.17576,"postcode":"DY3 4LB","la":"South Staffordshire","era":"other","nn":0,"risk":47,"cat":"amber"},{"name":"Hinksford Arms","lat":52.5032,"lon":-2.19109,"postcode":"DY6 0BA","la":"South Staffordshire","era":"trad","nn":116,"risk":27,"cat":"green"},{"name":"Kinver Constitutional Club","lat":52.44751,"lon":-2.22788,"postcode":"DY7 6HL","la":"South Staffordshire","era":"other","nn":32,"risk":27,"cat":"green"},{"name":"KSCA Bar Facilities","lat":52.45245,"lon":-2.22741,"postcode":"DY7 6ET","la":"South Staffordshire","era":"mod","nn":191,"risk":28,"cat":"green"},{"name":"Royal Exchange","lat":52.4515,"lon":-2.22976,"postcode":"DY7 6ER","la":"South Staffordshire","era":"trad","nn":191,"risk":28,"cat":"green"},{"name":"Specialist Event Catering At Stourbridge Rugby Club","lat":52.46149,"lon":-2.18086,"postcode":"DY7 6QZ","la":"South Staffordshire","era":"other","nn":229,"risk":31,"cat":"amber"},{"name":"Stourbridge Lawn Tennis & Squash Club","lat":52.43893,"lon":-2.17309,"postcode":"DY7 6PS","la":"South Staffordshire","era":"other","nn":751,"risk":52,"cat":"amber"},{"name":"Stourbridge Rugby Football Club","lat":52.45951,"lon":-2.18181,"postcode":"DY7 6QZ","la":"South Staffordshire","era":"other","nn":229,"risk":31,"cat":"amber"},{"name":"Swindon Cricket Club","lat":52.5092,"lon":-2.1829,"postcode":"DY6 0JG","la":"Dudley","era":"other","nn":581,"risk":24,"cat":"green"},{"name":"The Cat Inn","lat":52.47825,"lon":-2.25727,"postcode":"DY7 5HA","la":"South Staffordshire","era":"trad","nn":2089,"risk":64,"cat":"red"},{"name":"The Cross Inn","lat":52.44651,"lon":-2.22507,"postcode":"DY7 6HZ","la":"South Staffordshire","era":"trad","nn":220,"risk":28,"cat":"green"},{"name":"The Crown Iverley","lat":52.43238,"lon":-2.17042,"postcode":"DY8 2RX","la":"South Staffordshire","era":"trad","nn":751,"risk":52,"cat":"amber"},{"name":"The Dudley Arms","lat":52.5185,"lon":-2.17576,"postcode":"DY3 4LB","la":"South Staffordshire","era":"trad","nn":0,"risk":47,"cat":"amber"},{"name":"The Manor House Of Whittington","lat":52.44363,"lon":-2.21375,"postcode":"DY7 6NY","la":"South Staffordshire","era":"mod","nn":832,"risk":50,"cat":"amber"},{"name":"The Old Bush","lat":52.51271,"lon":-2.20415,"postcode":"DY3 4NR","la":"South Staffordshire","era":"other","nn":0,"risk":47,"cat":"amber"},{"name":"The Plough And Harrow","lat":52.44943,"lon":-2.22968,"postcode":"DY7 6HD","la":"South Staffordshire","era":"trad","nn":58,"risk":27,"cat":"green"},{"name":"The Summerhouse","lat":52.54089,"lon":-2.14474,"postcode":"DY3 4AN","la":"South Staffordshire","era":"other","nn":825,"risk":52,"cat":"amber"},{"name":"The Vine Inn","lat":52.44921,"lon":-2.22385,"postcode":"DY7 6LJ","la":"South Staffordshire","era":"trad","nn":311,"risk":29,"cat":"green"},{"name":"White Harte","lat":52.44893,"lon":-2.22946,"postcode":"DY7 6HD","la":"South Staffordshire","era":"trad","nn":58,"risk":27,"cat":"green"},{"name":"Wollaston Lawn Tennis Club","lat":52.46417,"lon":-2.18085,"postcode":"DY7 6RZ","la":"South Staffordshire","era":"other","nn":298,"risk":31,"cat":"amber"},{"name":"Mitre Oak","lat":52.31415,"lon":-2.23539,"postcode":"DY13 9SG","la":"Wychavon","era":"trad","nn":2506,"risk":66,"cat":"red"},{"name":"The Mare And Colt","lat":52.36054,"lon":-2.23493,"postcode":"DY11 7RF","la":"Wychavon","era":"other","nn":1305,"risk":58,"cat":"amber"},{"name":"The Tap House Hartlebury","lat":52.33499,"lon":-2.22137,"postcode":"DY11 7YJ","la":"Wychavon","era":"other","nn":1057,"risk":56,"cat":"amber"},{"name":"The White Hart","lat":52.33717,"lon":-2.23651,"postcode":"DY11 7TD","la":"Wychavon","era":"trad","nn":1057,"risk":56,"cat":"amber"},{"name":"Bay Horse","lat":52.34149,"lon":-2.25955,"postcode":"DY13 9JA","la":"Wyre Forest","era":"trad","nn":270,"risk":32,"cat":"amber"},{"name":"Bewdley Cricket Club","lat":52.37285,"lon":-2.31236,"postcode":"DY12 2DP","la":"Wyre Forest","era":"other","nn":201,"risk":27,"cat":"green"},{"name":"Bewdley Inn","lat":52.37643,"lon":-2.31114,"postcode":"DY12 1AG","la":"Wyre Forest","era":"trad","nn":242,"risk":27,"cat":"green"},{"name":"Bewdley Institute","lat":52.37544,"lon":-2.31576,"postcode":"DY12 2AE","la":"Wyre Forest","era":"other","nn":43,"risk":26,"cat":"green"},{"name":"Bewdley Pines Golf Club","lat":52.38737,"lon":-2.29457,"postcode":"DY12 1LY","la":"Wyre Forest","era":"other","nn":760,"risk":48,"cat":"amber"},{"name":"Bewdley Town Football Club","lat":52.35648,"lon":-2.31633,"postcode":"DY12 2TJ","la":"Wyre Forest","era":"other","nn":1839,"risk":61,"cat":"red"},{"name":"Chaddesley Corbett Sports Club","lat":52.35152,"lon":-2.17165,"postcode":"DY10 4RE","la":"Wyre Forest","era":"other","nn":933,"risk":52,"cat":"amber"},{"name":"Chester Road Bowling Club","lat":52.39044,"lon":-2.23327,"postcode":"DY10 1TE","la":"Wyre Forest","era":"other","nn":207,"risk":27,"cat":"green"},{"name":"Chester Road Sporting Club","lat":52.38859,"lon":-2.23351,"postcode":"DY10 1TH","la":"Wyre Forest","era":"other","nn":161,"risk":27,"cat":"green"},{"name":"Cookley Sports Club","lat":52.41757,"lon":-2.23462,"postcode":"DY10 3RH","la":"Wyre Forest","era":"other","nn":248,"risk":45,"cat":"amber"},{"name":"Cue & Brew","lat":52.38639,"lon":-2.24615,"postcode":"DY10 1PA","la":"Wyre Forest","era":"other","nn":15,"risk":26,"cat":"green"},{"name":"Fedoras","lat":52.33925,"lon":-2.28004,"postcode":"DY13 9EQ","la":"Wyre Forest","era":"other","nn":14,"risk":26,"cat":"green"},{"name":"Food 4 Thought Churchill And Blakedown Golf Club","lat":52.40481,"lon":-2.18383,"postcode":"DY10 3NB","la":"Wyre Forest","era":"other","nn":278,"risk":45,"cat":"amber"},{"name":"Footprint Catering","lat":52.39578,"lon":-2.26135,"postcode":"DY11 5DL","la":"Wyre Forest","era":"other","nn":723,"risk":36,"cat":"amber"},{"name":"Franche Village Sports & Social Club","lat":52.40101,"lon":-2.26769,"postcode":"DY11 5JN","la":"Wyre Forest","era":"mod","nn":35,"risk":43,"cat":"amber"},{"name":"Gilt Edge Bowls Club","lat":52.35895,"lon":-2.27484,"postcode":"DY11 7DY","la":"Wyre Forest","era":"other","nn":0,"risk":31,"cat":"amber"},{"name":"Golden Lion","lat":52.38815,"lon":-2.24366,"postcode":"DY10 1PX","la":"Wyre Forest","era":"trad","nn":216,"risk":27,"cat":"green"},{"name":"Habberley Tenants Association Club","lat":52.38641,"lon":-2.27983,"postcode":"DY11 6DN","la":"Wyre Forest","era":"other","nn":1006,"risk":55,"cat":"amber"},{"name":"Holly Bush Inn","lat":52.34003,"lon":-2.27613,"postcode":"DY13 9AA","la":"Wyre Forest","era":"trad","nn":117,"risk":26,"cat":"green"},{"name":"Island Pool","lat":52.42064,"lon":-2.21704,"postcode":"DY10 3RX","la":"Wyre Forest","era":"other","nn":742,"risk":51,"cat":"amber"},{"name":"Kidderminster Golf Club","lat":52.38006,"lon":-2.23732,"postcode":"DY10 3HS","la":"Wyre Forest","era":"other","nn":434,"risk":29,"cat":"green"},{"name":"Kidderminster Harriers Supporters Club","lat":52.38144,"lon":-2.24337,"postcode":"DY10 1NB","la":"Wyre Forest","era":"other","nn":327,"risk":28,"cat":"green"},{"name":"Land Oak","lat":52.39245,"lon":-2.23208,"postcode":"DY10 2SA","la":"Wyre Forest","era":"trad","nn":238,"risk":27,"cat":"green"},{"name":"Larchwood Farm","lat":52.35895,"lon":-2.27484,"postcode":"DY11 7DY","la":"Wyre Forest","era":"other","nn":0,"risk":31,"cat":"amber"},{"name":"Laura's Bar","lat":52.3858,"lon":-2.24661,"postcode":"DY10 1AR","la":"Wyre Forest","era":"other","nn":63,"risk":26,"cat":"green"},{"name":"Little Lakes Caravan Site","lat":52.35589,"lon":-2.36134,"postcode":"DY12 2UU","la":"Wyre Forest","era":"other","nn":889,"risk":52,"cat":"amber"},{"name":"Lucy's Catering @ The Swan","lat":52.36147,"lon":-2.15928,"postcode":"DY10 4SD","la":"Wyre Forest","era":"trad","nn":0,"risk":43,"cat":"amber"},{"name":"Lume Cinema","lat":52.38219,"lon":-2.24804,"postcode":"DY10 1JF","la":"Wyre Forest","era":"other","nn":263,"risk":27,"cat":"green"},{"name":"Mo's Bar","lat":52.37561,"lon":-2.31632,"postcode":"DY12 2AP","la":"Wyre Forest","era":"other","nn":43,"risk":26,"cat":"green"},{"name":"NU Bar","lat":52.38458,"lon":-2.24818,"postcode":"DY10 1AE","la":"Wyre Forest","era":"other","nn":26,"risk":26,"cat":"green"},{"name":"Old Waggon And Horses","lat":52.4186,"lon":-2.19332,"postcode":"DY10 3NX","la":"Wyre Forest","era":"trad","nn":1624,"risk":59,"cat":"amber"},{"name":"Pockets Snooker Club","lat":52.38884,"lon":-2.24981,"postcode":"DY10 2AD","la":"Wyre Forest","era":"other","nn":140,"risk":27,"cat":"green"},{"name":"Redstone Social Club","lat":52.33238,"lon":-2.27775,"postcode":"DY13 0LD","la":"Wyre Forest","era":"mod","nn":447,"risk":29,"cat":"green"},{"name":"Rising Sun","lat":52.38091,"lon":-2.29823,"postcode":"DY12 1JE","la":"Wyre Forest","era":"other","nn":287,"risk":30,"cat":"green"},{"name":"Royal British Legion Club","lat":52.33802,"lon":-2.27703,"postcode":"DY13 9EU","la":"Wyre Forest","era":"trad","nn":49,"risk":26,"cat":"green"},{"name":"Royal Forester Inn","lat":52.36204,"lon":-2.37534,"postcode":"DY14 9XW","la":"Wyre Forest","era":"trad","nn":377,"risk":48,"cat":"amber"},{"name":"Severn's Club","lat":52.34096,"lon":-2.28146,"postcode":"DY13 8SB","la":"Wyre Forest","era":"other","nn":0,"risk":26,"cat":"green"},{"name":"Severnside Holiday Park","lat":52.32987,"lon":-2.27176,"postcode":"DY13 9PY","la":"Wyre Forest","era":"other","nn":493,"risk":29,"cat":"green"},{"name":"Shipleys Bingo And Social Club","lat":52.38455,"lon":-2.2478,"postcode":"DY10 1AF","la":"Wyre Forest","era":"other","nn":26,"risk":26,"cat":"green"},{"name":"St Ambrose Catholic Club","lat":52.38911,"lon":-2.24026,"postcode":"DY10 1RP","la":"Wyre Forest","era":"trad","nn":255,"risk":27,"cat":"green"},{"name":"St Georges Social Club","lat":52.39152,"lon":-2.24284,"postcode":"DY10 2EZ","la":"Wyre Forest","era":"other","nn":200,"risk":27,"cat":"green"},{"name":"St Johns Club","lat":52.38857,"lon":-2.25831,"postcode":"DY11 6YD","la":"Wyre Forest","era":"other","nn":306,"risk":28,"cat":"green"},{"name":"Stourport Bowling Club","lat":52.34096,"lon":-2.28146,"postcode":"DY13 8SB","la":"Wyre Forest","era":"other","nn":0,"risk":26,"cat":"green"},{"name":"Stourport Masonic Club","lat":52.33814,"lon":-2.27633,"postcode":"DY13 9HB","la":"Wyre Forest","era":"trad","nn":49,"risk":26,"cat":"green"},{"name":"Stourport Motor Yacht & Bungalow Association","lat":52.34101,"lon":-2.29337,"postcode":"DY13 8RD","la":"Wyre Forest","era":"other","nn":627,"risk":30,"cat":"green"},{"name":"Stourport Sports Club","lat":52.35193,"lon":-2.27628,"postcode":"DY13 8BQ","la":"Wyre Forest","era":"other","nn":682,"risk":35,"cat":"amber"},{"name":"Stourport Swifts Football Club","lat":52.33567,"lon":-2.28284,"postcode":"DY13 0AA","la":"Wyre Forest","era":"other","nn":0,"risk":26,"cat":"green"},{"name":"Stourport Yacht Club","lat":52.33791,"lon":-2.28113,"postcode":"DY13 9EP","la":"Wyre Forest","era":"other","nn":49,"risk":26,"cat":"green"},{"name":"TC's Bar","lat":52.33933,"lon":-2.2802,"postcode":"DY13 8BE","la":"Wyre Forest","era":"other","nn":14,"risk":26,"cat":"green"},{"name":"The Anchor Inn Caunsall","lat":52.42627,"lon":-2.22292,"postcode":"DY11 5YL","la":"Wyre Forest","era":"trad","nn":742,"risk":48,"cat":"amber"},{"name":"The Angel Inn","lat":52.33635,"lon":-2.27876,"postcode":"DY13 9EW","la":"Wyre Forest","era":"trad","nn":97,"risk":26,"cat":"green"},{"name":"The Astley Cross Inn","lat":52.32345,"lon":-2.29183,"postcode":"DY13 0NP","la":"Wyre Forest","era":"trad","nn":175,"risk":47,"cat":"amber"},{"name":"The Bellmans Cross Inn","lat":52.42796,"lon":-2.30874,"postcode":"DY12 1RN","la":"Wyre Forest","era":"trad","nn":2601,"risk":66,"cat":"red"},{"name":"The Bird In Hand","lat":52.34341,"lon":-2.27061,"postcode":"DY13 9BD","la":"Wyre Forest","era":"other","nn":415,"risk":28,"cat":"green"},{"name":"The Black Boy Inn","lat":52.37343,"lon":-2.32338,"postcode":"DY12 2UE","la":"Wyre Forest","era":"trad","nn":470,"risk":29,"cat":"green"},{"name":"The Black Star","lat":52.34078,"lon":-2.27734,"postcode":"DY13 8YP","la":"Wyre Forest","era":"other","nn":117,"risk":26,"cat":"green"},{"name":"The Blue Bell","lat":52.39266,"lon":-2.24513,"postcode":"DY10 2QQ","la":"Wyre Forest","era":"other","nn":200,"risk":27,"cat":"green"},{"name":"The Boars Head","lat":52.38626,"lon":-2.24607,"postcode":"DY10 1EW","la":"Wyre Forest","era":"trad","nn":15,"risk":26,"cat":"green"},{"name":"The Bridge Inn","lat":52.3385,"lon":-2.28222,"postcode":"DY13 8UX","la":"Wyre Forest","era":"trad","nn":51,"risk":26,"cat":"green"},{"name":"The Brinton Arms","lat":52.34789,"lon":-2.28383,"postcode":"DY13 8XX","la":"Wyre Forest","era":"trad","nn":610,"risk":30,"cat":"green"},{"name":"The Bulls Head","lat":52.42122,"lon":-2.23262,"postcode":"DY10 3SA","la":"Wyre Forest","era":"trad","nn":293,"risk":33,"cat":"amber"},{"name":"The Castle Inn","lat":52.38335,"lon":-2.25205,"postcode":"DY11 6TE","la":"Wyre Forest","era":"trad","nn":207,"risk":27,"cat":"green"},{"name":"The Cavalier","lat":52.38937,"lon":-2.22152,"postcode":"DY10 3YT","la":"Wyre Forest","era":"other","nn":794,"risk":34,"cat":"amber"},{"name":"The Chester Tavern","lat":52.38715,"lon":-2.2338,"postcode":"DY10 1TN","la":"Wyre Forest","era":"other","nn":161,"risk":27,"cat":"green"},{"name":"The Cock And Magpie","lat":52.37683,"lon":-2.31533,"postcode":"DY12 2EE","la":"Wyre Forest","era":"other","nn":20,"risk":26,"cat":"green"},{"name":"The Colliers Farm Shop And Cafe","lat":52.34837,"lon":-2.404,"postcode":"DY14 9HA","la":"Wyre Forest","era":"other","nn":1366,"risk":58,"cat":"amber"},{"name":"The Dog Inn","lat":52.37159,"lon":-2.18729,"postcode":"DY10 4LN","la":"Wyre Forest","era":"trad","nn":1682,"risk":60,"cat":"amber"},{"name":"The Duke William Pub","lat":52.36199,"lon":-2.36979,"postcode":"DY14 9XH","la":"Wyre Forest","era":"trad","nn":377,"risk":46,"cat":"amber"},{"name":"The Eagle & Spur","lat":52.41868,"lon":-2.23145,"postcode":"DY10 3TB","la":"Wyre Forest","era":"trad","nn":248,"risk":45,"cat":"amber"},{"name":"The Fox Inn","lat":52.35617,"lon":-2.16022,"postcode":"DY10 4QN","la":"Wyre Forest","era":"trad","nn":593,"risk":35,"cat":"amber"},{"name":"The George Hotel - Wetherspoons","lat":52.3758,"lon":-2.31555,"postcode":"DY12 2AW","la":"Wyre Forest","era":"trad","nn":43,"risk":26,"cat":"green"},{"name":"The Great Western","lat":52.37757,"lon":-2.30774,"postcode":"DY12 1BY","la":"Wyre Forest","era":"other","nn":111,"risk":26,"cat":"green"},{"name":"The Hare & Hounds","lat":52.36102,"lon":-2.20501,"postcode":"DY10 4BU","la":"Wyre Forest","era":"trad","nn":1682,"risk":60,"cat":"amber"},{"name":"The Hare And Hounds","lat":52.40037,"lon":-2.23498,"postcode":"DY10 2UL","la":"Wyre Forest","era":"trad","nn":903,"risk":52,"cat":"amber"},{"name":"The Horn & Trumpet","lat":52.37575,"lon":-2.3176,"postcode":"DY12 2EH","la":"Wyre Forest","era":"other","nn":88,"risk":26,"cat":"green"},{"name":"The King And Castle","lat":52.38413,"lon":-2.24029,"postcode":"DY10 1QX","la":"Wyre Forest","era":"trad","nn":116,"risk":26,"cat":"green"},{"name":"The Kings Arms","lat":52.32439,"lon":-2.2939,"postcode":"DY13 0NN","la":"Wyre Forest","era":"trad","nn":175,"risk":47,"cat":"amber"},{"name":"The Kingsford Pub","lat":52.42414,"lon":-2.27089,"postcode":"DY11 5TA","la":"Wyre Forest","era":"trad","nn":1751,"risk":60,"cat":"amber"},{"name":"The Lock Inn And Smithy's Tea Room","lat":52.40984,"lon":-2.24985,"postcode":"DY10 3RN","la":"Wyre Forest","era":"trad","nn":386,"risk":48,"cat":"amber"},{"name":"The Loom & Shuttle","lat":52.36934,"lon":-2.26384,"postcode":"DY11 7BW","la":"Wyre Forest","era":"other","nn":660,"risk":50,"cat":"amber"},{"name":"The Mug House Inn","lat":52.37691,"lon":-2.31559,"postcode":"DY12 2EE","la":"Wyre Forest","era":"other","nn":20,"risk":26,"cat":"green"},{"name":"The Old Beams","lat":52.33567,"lon":-2.28284,"postcode":"DY13 0AA","la":"Wyre Forest","era":"other","nn":0,"risk":26,"cat":"green"},{"name":"The Old House At Home","lat":52.40291,"lon":-2.18052,"postcode":"DY10 3JE","la":"Wyre Forest","era":"mod","nn":30,"risk":43,"cat":"amber"},{"name":"The Old Rose And Crown","lat":52.33462,"lon":-2.2673,"postcode":"DY13 9PA","la":"Wychavon","era":"trad","nn":609,"risk":31,"cat":"amber"},{"name":"The Old Waggon & Horses","lat":52.38007,"lon":-2.30223,"postcode":"DY12 1DG","la":"Wyre Forest","era":"trad","nn":287,"risk":28,"cat":"green"},{"name":"The Plough Inn","lat":52.36774,"lon":-2.3988,"postcode":"DY14 9TE","la":"Wyre Forest","era":"trad","nn":1714,"risk":60,"cat":"amber"},{"name":"The Port House","lat":52.33818,"lon":-2.28169,"postcode":"DY13 8UY","la":"Wyre Forest","era":"other","nn":49,"risk":26,"cat":"green"},{"name":"The Post House","lat":52.3902,"lon":-2.24707,"postcode":"DY10 2DZ","la":"Wyre Forest","era":"other","nn":137,"risk":27,"cat":"green"},{"name":"The Queens  Head","lat":52.41244,"lon":-2.2536,"postcode":"DY11 5XB","la":"Wyre Forest","era":"trad","nn":386,"risk":48,"cat":"amber"},{"name":"The Radcliffe Arms","lat":52.36739,"lon":-2.27302,"postcode":"DY11 7EJ","la":"Wyre Forest","era":"trad","nn":660,"risk":35,"cat":"amber"},{"name":"The Railway Bell","lat":52.38506,"lon":-2.23951,"postcode":"DY10 1QN","la":"Wyre Forest","era":"trad","nn":116,"risk":26,"cat":"green"},{"name":"The Railway Train","lat":52.38806,"lon":-2.23633,"postcode":"DY10 1SL","la":"Wyre Forest","era":"trad","nn":200,"risk":27,"cat":"green"},{"name":"The Retreat","lat":52.37585,"lon":-2.31457,"postcode":"DY12 2AF","la":"Wyre Forest","era":"other","nn":67,"risk":26,"cat":"green"},{"name":"The Rising Sun","lat":52.3422,"lon":-2.27736,"postcode":"DY13 8DU","la":"Wyre Forest","era":"other","nn":90,"risk":26,"cat":"green"},{"name":"The Rock Cross Inn","lat":52.33882,"lon":-2.39136,"postcode":"DY14 9SD","la":"Wyre Forest","era":"trad","nn":1366,"risk":58,"cat":"amber"},{"name":"The Rock Tavern","lat":52.34388,"lon":-2.26028,"postcode":"DY13 9LR","la":"Wyre Forest","era":"other","nn":270,"risk":45,"cat":"amber"},{"name":"The Running Horse","lat":52.36826,"lon":-2.34732,"postcode":"DY12 2QP","la":"Wyre Forest","era":"trad","nn":280,"risk":48,"cat":"amber"},{"name":"The Sportsman","lat":52.38632,"lon":-2.25571,"postcode":"DY11 6UE","la":"Wyre Forest","era":"other","nn":306,"risk":28,"cat":"green"},{"name":"The Stagborough Arms","lat":52.34664,"lon":-2.29257,"postcode":"DY13 8UQ","la":"Wyre Forest","era":"trad","nn":610,"risk":32,"cat":"amber"},{"name":"The Station Inn","lat":52.38395,"lon":-2.23779,"postcode":"DY10 1UG","la":"Wyre Forest","era":"trad","nn":170,"risk":27,"cat":"green"},{"name":"The Swan","lat":52.3876,"lon":-2.24936,"postcode":"DY10 1DA","la":"Wyre Forest","era":"trad","nn":140,"risk":27,"cat":"green"},{"name":"The Swan","lat":52.36147,"lon":-2.15928,"postcode":"DY10 4SD","la":"Wyre Forest","era":"trad","nn":0,"risk":43,"cat":"amber"},{"name":"The Swan Inn","lat":52.40308,"lon":-2.18086,"postcode":"DY10 3JD","la":"Wyre Forest","era":"trad","nn":30,"risk":43,"cat":"amber"},{"name":"The Talbot","lat":52.37404,"lon":-2.31459,"postcode":"DY12 2DJ","la":"Wyre Forest","era":"trad","nn":174,"risk":27,"cat":"green"},{"name":"The Three Crowns And A Sugar Loaf","lat":52.40095,"lon":-2.2682,"postcode":"DY11 5JN","la":"Wyre Forest","era":"trad","nn":35,"risk":43,"cat":"amber"},{"name":"The Three Lions","lat":52.34289,"lon":-2.27666,"postcode":"DY13 8EB","la":"Wyre Forest","era":"trad","nn":90,"risk":26,"cat":"green"},{"name":"The Watermill","lat":52.38029,"lon":-2.25387,"postcode":"DY11 6TL","la":"Wyre Forest","era":"trad","nn":361,"risk":28,"cat":"green"},{"name":"The Weary Traveller","lat":52.38469,"lon":-2.26282,"postcode":"DY11 6QJ","la":"Wyre Forest","era":"other","nn":515,"risk":29,"cat":"green"},{"name":"The Weavers At Park Lane Ltd","lat":52.38518,"lon":-2.25156,"postcode":"DY11 6TG","la":"Wyre Forest","era":"other","nn":207,"risk":27,"cat":"green"},{"name":"The Wharf","lat":52.33705,"lon":-2.27963,"postcode":"DY13 9EN","la":"Wyre Forest","era":"other","nn":97,"risk":26,"cat":"green"},{"name":"The Wheatsheaf","lat":52.33993,"lon":-2.27971,"postcode":"DY13 8BS","la":"Wyre Forest","era":"trad","nn":74,"risk":26,"cat":"green"},{"name":"The White Swan/Chicken Licken","lat":52.37516,"lon":-2.31663,"postcode":"DY12 2AS","la":"Wyre Forest","era":"trad","nn":54,"risk":26,"cat":"green"},{"name":"Viaduct Tavern","lat":52.37097,"lon":-2.24376,"postcode":"DY10 1XL","la":"Wyre Forest","era":"other","nn":1102,"risk":56,"cat":"amber"},{"name":"Weavers Real Ale House","lat":52.38508,"lon":-2.24188,"postcode":"DY10 1QH","la":"Wyre Forest","era":"other","nn":152,"risk":27,"cat":"green"},{"name":"Wharton Park Golf  & Country  Club","lat":52.36762,"lon":-2.34333,"postcode":"DY12 2QW","la":"Wyre Forest","era":"trad","nn":280,"risk":48,"cat":"amber"},{"name":"Wribbenhall Social Club","lat":52.37788,"lon":-2.30618,"postcode":"DY12 1DA","la":"Wyre Forest","era":"mod","nn":111,"risk":26,"cat":"green"},{"name":"Ye Olde New Inn","lat":52.40627,"lon":-2.36101,"postcode":"DY12 3LF","la":"Wyre Forest","era":"trad","nn":804,"risk":51,"cat":"amber"},{"name":"Ye Olde Seven Stars","lat":52.38901,"lon":-2.2465,"postcode":"DY10 2BG","la":"Wyre Forest","era":"other","nn":137,"risk":27,"cat":"green"}]