[{"name":"Axe & Square","lat":52.55476,"lon":-1.13601,"postcode":"LE8 5RQ","la":"Blaby","era":"other","nn":249,"risk":48,"cat":"amber"},{"name":"Bees Knees","lat":52.61448,"lon":-1.19174,"postcode":"LE19 1LW","la":"Blaby","era":"other","nn":766,"risk":54,"cat":"amber"},{"name":"Bulls Head","lat":52.55295,"lon":-1.13818,"postcode":"LE8 5QX","la":"Blaby","era":"trad","nn":249,"risk":35,"cat":"amber"},{"name":"Bulls Head","lat":52.57418,"lon":-1.16349,"postcode":"LE8 4DN","la":"Blaby","era":"trad","nn":156,"risk":30,"cat":"green"},{"name":"Bulls Head","lat":52.54728,"lon":-1.27745,"postcode":"LE9 4DQ","la":"Blaby","era":"trad","nn":145,"risk":32,"cat":"amber"},{"name":"Civic Community Lounge","lat":52.61258,"lon":-1.18083,"postcode":"LE3 2PP","la":"Blaby","era":"mod","nn":708,"risk":51,"cat":"amber"},{"name":"Cosby Village Club","lat":52.54827,"lon":-1.19426,"postcode":"LE9 1UW","la":"Blaby","era":"other","nn":108,"risk":49,"cat":"amber"},{"name":"Countesthorpe Cricket Club","lat":52.5526,"lon":-1.14516,"postcode":"LE8 5QF","la":"Blaby","era":"other","nn":416,"risk":36,"cat":"amber"},{"name":"Dog And Gun (Wet Sales)","lat":52.55722,"lon":-1.17075,"postcode":"LE8 6NA","la":"Blaby","era":"other","nn":1140,"risk":59,"cat":"amber"},{"name":"Elephant And Castle","lat":52.58695,"lon":-1.25895,"postcode":"LE9 7TP","la":"Blaby","era":"other","nn":355,"risk":51,"cat":"amber"},{"name":"Enderby & District Social Club","lat":52.58613,"lon":-1.21672,"postcode":"LE19 4QF","la":"Blaby","era":"mod","nn":542,"risk":37,"cat":"amber"},{"name":"Everards Meadows Beer Hall","lat":52.594,"lon":-1.18177,"postcode":"LE19 2AN","la":"Blaby","era":"other","nn":1360,"risk":61,"cat":"red"},{"name":"Evergreen Hall","lat":52.52173,"lon":-1.29362,"postcode":"LE10 3PR","la":"Blaby","era":"other","nn":48,"risk":46,"cat":"amber"},{"name":"Fox & Tiger","lat":52.57557,"lon":-1.16317,"postcode":"LE8 4DN","la":"Blaby","era":"trad","nn":102,"risk":29,"cat":"green"},{"name":"Glenhills Sports And Social Club","lat":52.58525,"lon":-1.16512,"postcode":"LE2 9JB","la":"Blaby","era":"mod","nn":1026,"risk":58,"cat":"amber"},{"name":"Gynsills Farm","lat":52.65767,"lon":-1.19109,"postcode":"LE3 8HB","la":"Blaby","era":"other","nn":762,"risk":54,"cat":"amber"},{"name":"Huncote Sports & Social Club","lat":52.58885,"lon":-1.25472,"postcode":"LE9 7TF","la":"Blaby","era":"mod","nn":355,"risk":51,"cat":"amber"},{"name":"Kirby Muxloe Golf Club (Wet Sales)","lat":52.62925,"lon":-1.23141,"postcode":"LE9 2EP","la":"Blaby","era":"other","nn":676,"risk":38,"cat":"amber"},{"name":"Leicester Forest RFC","lat":52.61876,"lon":-1.23268,"postcode":"LE3 3PJ","la":"Blaby","era":"other","nn":0,"risk":48,"cat":"amber"},{"name":"Mill Hill Cask & Coffee","lat":52.59272,"lon":-1.2124,"postcode":"LE19 4AL","la":"Blaby","era":"trad","nn":330,"risk":36,"cat":"amber"},{"name":"Narborough Arms","lat":52.57175,"lon":-1.20442,"postcode":"LE19 2GR","la":"Blaby","era":"trad","nn":347,"risk":36,"cat":"amber"},{"name":"Nemo's Bar & Diner","lat":52.54544,"lon":-1.27603,"postcode":"LE9 4DW","la":"Blaby","era":"mod","nn":226,"risk":33,"cat":"amber"},{"name":"Okapi Kitchen And Blaby Golf Centre","lat":52.56744,"lon":-1.16693,"postcode":"LE8 4DP","la":"Blaby","era":"mod","nn":536,"risk":37,"cat":"amber"},{"name":"Old Newtonians Rugby Football Club Ltd.","lat":52.61876,"lon":-1.23268,"postcode":"LE3 3PJ","la":"Blaby","era":"other","nn":0,"risk":48,"cat":"amber"},{"name":"Railway Inn","lat":52.65345,"lon":-1.19999,"postcode":"LE3 8BR","la":"Blaby","era":"trad","nn":403,"risk":36,"cat":"amber"},{"name":"Red Cow","lat":52.62489,"lon":-1.2194,"postcode":"LE3 3PG","la":"Blaby","era":"other","nn":945,"risk":55,"cat":"amber"},{"name":"Sapcote Social Club","lat":52.53697,"lon":-1.28124,"postcode":"LE9 4FS","la":"Blaby","era":"mod","nn":162,"risk":50,"cat":"amber"},{"name":"Stanton Lakes","lat":52.54617,"lon":-1.26949,"postcode":"LE9 4JA","la":"Blaby","era":"other","nn":450,"risk":34,"cat":"amber"},{"name":"The Bakers Arms","lat":52.57649,"lon":-1.16038,"postcode":"LE8 4FQ","la":"Blaby","era":"trad","nn":114,"risk":29,"cat":"green"},{"name":"The Black Horse (wet Sales Only)","lat":52.57614,"lon":-1.16198,"postcode":"LE8 4FJ","la":"Blaby","era":"trad","nn":102,"risk":29,"cat":"green"},{"name":"The Blue Bell","lat":52.54881,"lon":-1.27781,"postcode":"LE9 4DQ","la":"Blaby","era":"other","nn":96,"risk":32,"cat":"amber"},{"name":"The Bricklayers","lat":52.52137,"lon":-1.29321,"postcode":"LE10 3PP","la":"Blaby","era":"trad","nn":48,"risk":46,"cat":"amber"},{"name":"The Bulls Head","lat":52.54731,"lon":-1.19405,"postcode":"LE9 1RQ","la":"Blaby","era":"trad","nn":108,"risk":49,"cat":"amber"},{"name":"The Bulls Head","lat":52.57404,"lon":-1.1798,"postcode":"LE8 6JX","la":"Blaby","era":"trad","nn":429,"risk":49,"cat":"amber"},{"name":"The Bulls Head","lat":52.60917,"lon":-1.26173,"postcode":"LE9 9RE","la":"Blaby","era":"trad","nn":2233,"risk":67,"cat":"red"},{"name":"The Castle Hotel & Restaurant","lat":52.63765,"lon":-1.22952,"postcode":"LE9 2AP","la":"Blaby","era":"other","nn":377,"risk":36,"cat":"amber"},{"name":"The Dovecote","lat":52.57096,"lon":-1.21417,"postcode":"LE19 2GN","la":"Blaby","era":"other","nn":665,"risk":38,"cat":"amber"},{"name":"The Forge Inn","lat":52.65006,"lon":-1.20717,"postcode":"LE3 8DG","la":"Blaby","era":"trad","nn":224,"risk":48,"cat":"amber"},{"name":"The Glen Parva Manor","lat":52.57826,"lon":-1.15083,"postcode":"LE2 9TL","la":"Blaby","era":"other","nn":675,"risk":36,"cat":"amber"},{"name":"The Heathcote Arms","lat":52.55951,"lon":-1.24569,"postcode":"LE9 3EG","la":"Blaby","era":"trad","nn":1432,"risk":61,"cat":"red"},{"name":"The Nags Head","lat":52.58816,"lon":-1.20942,"postcode":"LE19 4NJ","la":"Blaby","era":"trad","nn":226,"risk":35,"cat":"amber"},{"name":"The Nags Head","lat":52.65082,"lon":-1.2041,"postcode":"LE3 8BQ","la":"Blaby","era":"trad","nn":224,"risk":48,"cat":"amber"},{"name":"The New Inn","lat":52.58983,"lon":-1.21133,"postcode":"LE19 4AG","la":"Blaby","era":"trad","nn":226,"risk":35,"cat":"amber"},{"name":"The Old Inn","lat":52.56789,"lon":-1.2017,"postcode":"LE19 2HX","la":"Blaby","era":"trad","nn":127,"risk":34,"cat":"amber"},{"name":"The Old Vicarage","lat":52.5762,"lon":-1.17455,"postcode":"LE8 6JJ","la":"Blaby","era":"other","nn":429,"risk":31,"cat":"amber"},{"name":"The Plough Inn (Wet Sales Only)","lat":52.56876,"lon":-1.20291,"postcode":"LE19 2HS","la":"Blaby","era":"trad","nn":127,"risk":34,"cat":"amber"},{"name":"The Railway (Wet Sales Only)","lat":52.55339,"lon":-1.15117,"postcode":"LE8 5TD","la":"Blaby","era":"trad","nn":416,"risk":49,"cat":"amber"},{"name":"The Red Lion","lat":52.57184,"lon":-1.23958,"postcode":"LE9 3AU","la":"Blaby","era":"trad","nn":1432,"risk":61,"cat":"red"},{"name":"The Red Lion","lat":52.53551,"lon":-1.28108,"postcode":"LE9 4FG","la":"Blaby","era":"trad","nn":162,"risk":50,"cat":"amber"},{"name":"The Royal Oak","lat":52.6352,"lon":-1.23339,"postcode":"LE9 2AN","la":"Blaby","era":"trad","nn":377,"risk":36,"cat":"amber"},{"name":"The Sharnford Arms","lat":52.52223,"lon":-1.28991,"postcode":"LE10 3PP","la":"Blaby","era":"trad","nn":243,"risk":48,"cat":"amber"},{"name":"The Star Inn","lat":52.54825,"lon":-1.27888,"postcode":"LE9 4LQ","la":"Blaby","era":"trad","nn":96,"risk":32,"cat":"amber"},{"name":"The Wentworth Arms","lat":52.56119,"lon":-1.31252,"postcode":"LE9 7SG","la":"Blaby","era":"trad","nn":1416,"risk":61,"cat":"red"},{"name":"The Winstanley Arms","lat":52.60622,"lon":-1.18084,"postcode":"LE3 2WB","la":"Blaby","era":"trad","nn":708,"risk":53,"cat":"amber"},{"name":"Vipers Rugby Football Club","lat":52.57025,"lon":-1.17338,"postcode":"LE8 6DA","la":"Blaby","era":"other","nn":536,"risk":32,"cat":"amber"},{"name":"Whetstone Golf Club Ltd","lat":52.55652,"lon":-1.18757,"postcode":"LE9 1SJ","la":"Blaby","era":"other","nn":1023,"risk":58,"cat":"amber"},{"name":"Badgers Sett","lat":52.69339,"lon":-1.18556,"postcode":"LE7 7GQ","la":"Charnwood","era":"other","nn":515,"risk":48,"cat":"amber"},{"name":"Barkby United Cricket Club","lat":52.68019,"lon":-1.05729,"postcode":"LE7 3QB","la":"Charnwood","era":"other","nn":433,"risk":47,"cat":"amber"},{"name":"Barrow Conservative Club","lat":52.75372,"lon":-1.14584,"postcode":"LE12 8QA","la":"Charnwood","era":"other","nn":104,"risk":25,"cat":"green"},{"name":"Barrow Town Cricket Club","lat":52.76256,"lon":-1.14012,"postcode":"LE12 8JA","la":"Charnwood","era":"other","nn":1056,"risk":54,"cat":"amber"},{"name":"Beedles Lake Golf Centre","lat":52.7172,"lon":-1.05228,"postcode":"LE7 3WQ","la":"Charnwood","era":"other","nn":544,"risk":45,"cat":"amber"},{"name":"Bell Foundry","lat":52.77264,"lon":-1.20771,"postcode":"LE11 5BL","la":"Charnwood","era":"mod","nn":0,"risk":24,"cat":"green"},{"name":"Bharat Club","lat":52.76907,"lon":-1.20112,"postcode":"LE11 1AS","la":"Charnwood","era":"other","nn":36,"risk":24,"cat":"green"},{"name":"Birstall Social Club","lat":52.67701,"lon":-1.11931,"postcode":"LE4 4JS","la":"Charnwood","era":"mod","nn":156,"risk":25,"cat":"green"},{"name":"Birstall United Social Football Club","lat":52.68309,"lon":-1.11297,"postcode":"LE4 4GR","la":"Charnwood","era":"mod","nn":799,"risk":32,"cat":"amber"},{"name":"Blacksmiths Arms","lat":52.75333,"lon":-1.14725,"postcode":"LE12 8PP","la":"Charnwood","era":"trad","nn":16,"risk":24,"cat":"green"},{"name":"Bradgate Arms","lat":52.69412,"lon":-1.17802,"postcode":"LE7 7HG","la":"Charnwood","era":"trad","nn":515,"risk":48,"cat":"amber"},{"name":"Brush Bowls And Sports Club","lat":52.7571,"lon":-1.23306,"postcode":"LE11 3SU","la":"Charnwood","era":"other","nn":426,"risk":44,"cat":"amber"},{"name":"Bull and Bush","lat":52.76809,"lon":-1.28909,"postcode":"LE12 9JF","la":"Charnwood","era":"trad","nn":364,"risk":26,"cat":"green"},{"name":"Bunk (Loughborough) Limited","lat":52.77171,"lon":-1.20676,"postcode":"LE11 3EA","la":"Charnwood","era":"other","nn":100,"risk":25,"cat":"green"},{"name":"Carillon Rooms","lat":52.7726,"lon":-1.20897,"postcode":"LE11 5AA","la":"Charnwood","era":"mod","nn":63,"risk":24,"cat":"green"},{"name":"Cask Bah","lat":52.77178,"lon":-1.20882,"postcode":"LE11 3ER","la":"Charnwood","era":"other","nn":55,"risk":24,"cat":"green"},{"name":"Champs","lat":52.77261,"lon":-1.20665,"postcode":"LE11 1UA","la":"Charnwood","era":"other","nn":71,"risk":24,"cat":"green"},{"name":"Charnwood Forest Golf Club","lat":52.72882,"lon":-1.2283,"postcode":"LE12 8TA","la":"Charnwood","era":"other","nn":900,"risk":50,"cat":"amber"},{"name":"Coach and Horses Anstey","lat":52.67251,"lon":-1.18662,"postcode":"LE7 7AT","la":"Charnwood","era":"trad","nn":170,"risk":28,"cat":"green"},{"name":"Dan Busters","lat":52.74188,"lon":-1.13392,"postcode":"LE12 8NB","la":"Charnwood","era":"other","nn":1137,"risk":54,"cat":"amber"},{"name":"Dew Drop, Hathern","lat":52.7928,"lon":-1.25781,"postcode":"LE12 5HY","la":"Charnwood","era":"other","nn":129,"risk":25,"cat":"green"},{"name":"Dog & Gun","lat":52.69931,"lon":-1.07618,"postcode":"LE7 1GN","la":"Charnwood","era":"other","nn":124,"risk":25,"cat":"green"},{"name":"Earl Of Stamford","lat":52.67491,"lon":-1.11834,"postcode":"LE4 4DQ","la":"Charnwood","era":"other","nn":0,"risk":24,"cat":"green"},{"name":"Echos Nightclub","lat":52.77341,"lon":-1.20605,"postcode":"LE11 1UA","la":"Charnwood","era":"other","nn":40,"risk":24,"cat":"green"},{"name":"Fat Sams","lat":52.77302,"lon":-1.20278,"postcode":"LE11 1TQ","la":"Charnwood","era":"other","nn":158,"risk":25,"cat":"green"},{"name":"Firefly","lat":52.77264,"lon":-1.20771,"postcode":"LE11 5BL","la":"Charnwood","era":"other","nn":0,"risk":24,"cat":"green"},{"name":"Fosseway Bowls Club","lat":52.69233,"lon":-1.08883,"postcode":"LE7 1NE","la":"Charnwood","era":"other","nn":400,"risk":27,"cat":"green"},{"name":"Fox & Hounds","lat":52.69981,"lon":-1.07454,"postcode":"LE7 1GP","la":"Charnwood","era":"trad","nn":0,"risk":24,"cat":"green"},{"name":"Generous Briton","lat":52.77243,"lon":-1.21741,"postcode":"LE11 3AB","la":"Charnwood","era":"other","nn":234,"risk":26,"cat":"green"},{"name":"Greenfields Sports & Social Club","lat":52.76074,"lon":-1.21694,"postcode":"LE11 3HZ","la":"Charnwood","era":"mod","nn":247,"risk":28,"cat":"green"},{"name":"Gynsill Lawn Tennis Club","lat":52.66816,"lon":-1.18284,"postcode":"LE7 7AN","la":"Charnwood","era":"other","nn":546,"risk":30,"cat":"green"},{"name":"Hall Croft Tap","lat":52.773,"lon":-1.29081,"postcode":"LE12 9AN","la":"Charnwood","era":"mod","nn":97,"risk":25,"cat":"green"},{"name":"Hathern Club","lat":52.79532,"lon":-1.25535,"postcode":"LE12 5HS","la":"Charnwood","era":"other","nn":247,"risk":26,"cat":"green"},{"name":"Hathern Old Cricket Club","lat":52.79702,"lon":-1.25277,"postcode":"LE12 5LJ","la":"Charnwood","era":"other","nn":257,"risk":26,"cat":"green"},{"name":"Hope & Anchor","lat":52.69457,"lon":-1.09346,"postcode":"LE7 1PD","la":"Charnwood","era":"trad","nn":400,"risk":29,"cat":"green"},{"name":"Horse & Groom","lat":52.72018,"lon":-1.04071,"postcode":"LE7 4YR","la":"Charnwood","era":"trad","nn":391,"risk":44,"cat":"amber"},{"name":"Horse & Groom","lat":52.70298,"lon":-1.0423,"postcode":"LE7 3DJ","la":"Charnwood","era":"trad","nn":7,"risk":29,"cat":"green"},{"name":"Horse & Trumpet","lat":52.73234,"lon":-1.11237,"postcode":"LE12 7LP","la":"Charnwood","era":"trad","nn":172,"risk":28,"cat":"green"},{"name":"Jam Garden","lat":52.76903,"lon":-1.20748,"postcode":"LE11 3HB","la":"Charnwood","era":"other","nn":24,"risk":24,"cat":"green"},{"name":"Kings Arms","lat":52.79715,"lon":-1.26049,"postcode":"LE12 5LD","la":"Charnwood","era":"trad","nn":189,"risk":25,"cat":"green"},{"name":"Lingdale Golf Club","lat":52.71129,"lon":-1.22425,"postcode":"LE12 8TF","la":"Charnwood","era":"other","nn":1049,"risk":54,"cat":"amber"},{"name":"Loughborough Arms","lat":52.7725,"lon":-1.20497,"postcode":"LE11 1TG","la":"Charnwood","era":"trad","nn":0,"risk":24,"cat":"green"},{"name":"Loughborough Boat Club","lat":52.79245,"lon":-1.25598,"postcode":"LE12 5JN","la":"Charnwood","era":"other","nn":129,"risk":25,"cat":"green"},{"name":"Loughborough Carillon Sports Club","lat":52.76901,"lon":-1.18651,"postcode":"LE11 1ST","la":"Charnwood","era":"other","nn":964,"risk":48,"cat":"amber"},{"name":"Loughborough Dynamo Sports Club","lat":52.75365,"lon":-1.23581,"postcode":"LE11 3TN","la":"Charnwood","era":"other","nn":426,"risk":44,"cat":"amber"},{"name":"Loughborough Lawn Tennis Club","lat":52.76606,"lon":-1.21322,"postcode":"LE11 3NW","la":"Charnwood","era":"other","nn":352,"risk":26,"cat":"green"},{"name":"Loughborough Students Union Wet Sales Bars x7","lat":52.77258,"lon":-1.21293,"postcode":"LE11 3AA","la":"Charnwood","era":"other","nn":241,"risk":26,"cat":"green"},{"name":"Maxwells","lat":52.77921,"lon":-1.24046,"postcode":"LE11 4RZ","la":"Charnwood","era":"other","nn":571,"risk":48,"cat":"amber"},{"name":"Miller & Carter Rothley","lat":52.71064,"lon":-1.12733,"postcode":"LE7 7NJ","la":"Charnwood","era":"trad","nn":289,"risk":31,"cat":"amber"},{"name":"Moonface Brewery & Tap","lat":52.76988,"lon":-1.20225,"postcode":"LE11 1AU","la":"Charnwood","era":"mod","nn":86,"risk":25,"cat":"green"},{"name":"Mountsorrel Castle Cricket Club","lat":52.72845,"lon":-1.13776,"postcode":"LE12 7AJ","la":"Charnwood","era":"other","nn":0,"risk":26,"cat":"green"},{"name":"Mountsorrel Working Mens Club","lat":52.72845,"lon":-1.13776,"postcode":"LE12 7AJ","la":"Charnwood","era":"trad","nn":0,"risk":26,"cat":"green"},{"name":"Newtown Linford Cricket Club","lat":52.68521,"lon":-1.23409,"postcode":"LE6 0AE","la":"Charnwood","era":"other","nn":0,"risk":41,"cat":"amber"},{"name":"Peacock Inn","lat":52.7688,"lon":-1.20083,"postcode":"LE11 1AL","la":"Charnwood","era":"trad","nn":36,"risk":24,"cat":"green"},{"name":"PPP Catering","lat":52.75217,"lon":-1.25512,"postcode":"LE11 3YA","la":"Charnwood","era":"other","nn":470,"risk":47,"cat":"amber"},{"name":"Queen Victoria","lat":52.70052,"lon":-1.07772,"postcode":"LE7 1GQ","la":"Charnwood","era":"trad","nn":0,"risk":24,"cat":"green"},{"name":"Queniborough Members Club Ltd","lat":52.70304,"lon":-1.04225,"postcode":"LE7 3DB","la":"Charnwood","era":"other","nn":7,"risk":29,"cat":"green"},{"name":"Quorn Mills Park Bowling Club","lat":52.74435,"lon":-1.17359,"postcode":"LE12 8DT","la":"Charnwood","era":"trad","nn":192,"risk":25,"cat":"green"},{"name":"Quorndon Fox","lat":52.74315,"lon":-1.17154,"postcode":"LE12 8DT","la":"Charnwood","era":"trad","nn":0,"risk":24,"cat":"green"},{"name":"Revolution","lat":52.7725,"lon":-1.20497,"postcode":"LE11 1TG","la":"Charnwood","era":"other","nn":0,"risk":24,"cat":"green"},{"name":"Richmond Arms","lat":52.77206,"lon":-1.28535,"postcode":"LE12 9DA","la":"Charnwood","era":"trad","nn":209,"risk":25,"cat":"green"},{"name":"Ring O'Bells","lat":52.77852,"lon":-1.22255,"postcode":"LE11 4JP","la":"Charnwood","era":"other","nn":591,"risk":33,"cat":"amber"},{"name":"Rothley Park Cricket Club","lat":52.70492,"lon":-1.15967,"postcode":"LE7 7LH","la":"Charnwood","era":"other","nn":1119,"risk":54,"cat":"amber"},{"name":"Rothley Sports & Social Club","lat":52.70804,"lon":-1.12758,"postcode":"LE7 7NH","la":"Charnwood","era":"mod","nn":289,"risk":28,"cat":"green"},{"name":"Royal Oak","lat":52.71522,"lon":-1.10421,"postcode":"LE7 4UW","la":"Charnwood","era":"trad","nn":1367,"risk":56,"cat":"amber"},{"name":"Royal Oak","lat":52.76912,"lon":-1.20196,"postcode":"LE11 2AG","la":"Charnwood","era":"trad","nn":0,"risk":24,"cat":"green"},{"name":"Scott's Wine Bar","lat":52.74263,"lon":-1.16743,"postcode":"LE12 8ET","la":"Charnwood","era":"other","nn":0,"risk":24,"cat":"green"},{"name":"Shepshed Cricket Club","lat":52.75759,"lon":-1.29788,"postcode":"LE12 9EU","la":"Charnwood","era":"other","nn":88,"risk":27,"cat":"green"},{"name":"Shepshed Town Bowls Club","lat":52.77107,"lon":-1.29132,"postcode":"LE12 9QE","la":"Charnwood","era":"other","nn":217,"risk":25,"cat":"green"},{"name":"Sileby & District Liberal W M","lat":52.73189,"lon":-1.10992,"postcode":"LE12 7LZ","la":"Charnwood","era":"other","nn":172,"risk":28,"cat":"green"},{"name":"Sileby Conservative Club","lat":52.72688,"lon":-1.11068,"postcode":"LE12 7RS","la":"Charnwood","era":"other","nn":214,"risk":28,"cat":"green"},{"name":"Sileby Town Football Club","lat":52.74397,"lon":-1.10263,"postcode":"LE12 7WL","la":"Charnwood","era":"other","nn":1324,"risk":56,"cat":"amber"},{"name":"Six Hills Bar & Grill","lat":52.74872,"lon":-1.0614,"postcode":"LE7 4TF","la":"Charnwood","era":"mod","nn":1546,"risk":57,"cat":"amber"},{"name":"Soar Bridge Inn","lat":52.75017,"lon":-1.15189,"postcode":"LE12 8PN","la":"Charnwood","era":"trad","nn":0,"risk":24,"cat":"green"},{"name":"Soar Valley Bowls Club","lat":52.72019,"lon":-1.12901,"postcode":"LE7 7NL","la":"Charnwood","era":"other","nn":1037,"risk":54,"cat":"amber"},{"name":"Spot On","lat":52.77408,"lon":-1.2403,"postcode":"LE11 4SL","la":"Charnwood","era":"other","nn":571,"risk":48,"cat":"amber"},{"name":"Swan In The Rushes","lat":52.7733,"lon":-1.20945,"postcode":"LE11 5BE","la":"Charnwood","era":"trad","nn":0,"risk":24,"cat":"green"},{"name":"Syston & District Conservative Club","lat":52.70052,"lon":-1.07772,"postcode":"LE7 1GQ","la":"Charnwood","era":"other","nn":0,"risk":24,"cat":"green"},{"name":"Syston & District Social Club","lat":52.69981,"lon":-1.07454,"postcode":"LE7 1GP","la":"Charnwood","era":"mod","nn":0,"risk":24,"cat":"green"},{"name":"Syston Bowls Club","lat":52.69563,"lon":-1.08204,"postcode":"LE7 1UR","la":"Charnwood","era":"other","nn":231,"risk":26,"cat":"green"},{"name":"Syston Masonic Association","lat":52.69779,"lon":-1.07883,"postcode":"LE7 1GJ","la":"Charnwood","era":"trad","nn":224,"risk":26,"cat":"green"},{"name":"Syston Northfields Lawn Tennis Club","lat":52.7008,"lon":-1.07094,"postcode":"LE7 1HW","la":"Charnwood","era":"other","nn":228,"risk":26,"cat":"green"},{"name":"Syston Rugby Football Club","lat":52.70384,"lon":-1.05027,"postcode":"LE7 3FD","la":"Charnwood","era":"other","nn":546,"risk":30,"cat":"green"},{"name":"Syston Working Mens Club","lat":52.69802,"lon":-1.07553,"postcode":"LE7 1GG","la":"Charnwood","era":"trad","nn":150,"risk":25,"cat":"green"},{"name":"The Amber Rooms","lat":52.7733,"lon":-1.20945,"postcode":"LE11 5BE","la":"Charnwood","era":"mod","nn":0,"risk":24,"cat":"green"},{"name":"The Anchor Inn","lat":52.77335,"lon":-1.12497,"postcode":"LE12 8HT","la":"Charnwood","era":"trad","nn":1354,"risk":56,"cat":"amber"},{"name":"The Anchor Inn","lat":52.79188,"lon":-1.25361,"postcode":"LE12 5JB","la":"Charnwood","era":"trad","nn":171,"risk":25,"cat":"green"},{"name":"The Apple Tree","lat":52.74504,"lon":-1.16592,"postcode":"LE12 8BU","la":"Charnwood","era":"other","nn":287,"risk":26,"cat":"green"},{"name":"The Beacon Inn","lat":52.76036,"lon":-1.21331,"postcode":"LE11 2RB","la":"Charnwood","era":"trad","nn":247,"risk":28,"cat":"green"},{"name":"The Black Swan","lat":52.77334,"lon":-1.28762,"postcode":"LE12 9DL","la":"Charnwood","era":"trad","nn":170,"risk":25,"cat":"green"},{"name":"The Blacksmiths Arms","lat":52.7416,"lon":-1.17188,"postcode":"LE12 8EU","la":"Charnwood","era":"trad","nn":174,"risk":25,"cat":"green"},{"name":"The Blue Ball Shepshed","lat":52.77375,"lon":-1.29006,"postcode":"LE12 9RT","la":"Charnwood","era":"other","nn":97,"risk":25,"cat":"green"},{"name":"The Blue Bell Inn","lat":52.70556,"lon":-1.1412,"postcode":"LE7 7NW","la":"Charnwood","era":"trad","nn":499,"risk":32,"cat":"amber"},{"name":"The Blue Lion","lat":52.73568,"lon":-1.04038,"postcode":"LE7 4UD","la":"Charnwood","era":"trad","nn":1409,"risk":56,"cat":"amber"},{"name":"The Boat Inn, Loughborough","lat":52.77856,"lon":-1.20266,"postcode":"LE11 1JN","la":"Charnwood","era":"trad","nn":559,"risk":28,"cat":"green"},{"name":"The Bradgate","lat":52.68521,"lon":-1.23409,"postcode":"LE6 0AE","la":"Charnwood","era":"other","nn":0,"risk":41,"cat":"amber"},{"name":"The Britannia Inn","lat":52.70272,"lon":-1.04151,"postcode":"LE7 3DB","la":"Charnwood","era":"trad","nn":61,"risk":29,"cat":"green"},{"name":"The Corner House","lat":52.76828,"lon":-1.20949,"postcode":"LE11 3HE","la":"Charnwood","era":"other","nn":143,"risk":25,"cat":"green"},{"name":"The Crown Hotel","lat":52.77472,"lon":-1.28968,"postcode":"LE12 9RE","la":"Charnwood","era":"trad","nn":111,"risk":25,"cat":"green"},{"name":"The Crown Inn","lat":52.67184,"lon":-1.19294,"postcode":"LE7 7FB","la":"Charnwood","era":"trad","nn":286,"risk":28,"cat":"green"},{"name":"The Curzon Arms","lat":52.72209,"lon":-1.21785,"postcode":"LE12 8QZ","la":"Charnwood","era":"trad","nn":413,"risk":44,"cat":"amber"},{"name":"The Fennel Street Club","lat":52.77393,"lon":-1.20591,"postcode":"LE11 1UQ","la":"Charnwood","era":"other","nn":59,"risk":24,"cat":"green"},{"name":"The Fox Cub","lat":52.75345,"lon":-1.14737,"postcode":"LE12 8QA","la":"Charnwood","era":"trad","nn":16,"risk":24,"cat":"green"},{"name":"The Free Trade Inn","lat":52.72872,"lon":-1.10976,"postcode":"LE12 7RW","la":"Charnwood","era":"trad","nn":214,"risk":28,"cat":"green"},{"name":"The Gate Hangs Well","lat":52.70037,"lon":-1.08595,"postcode":"LE7 1NH","la":"Charnwood","era":"other","nn":555,"risk":28,"cat":"green"},{"name":"The Greyhound Inn","lat":52.78553,"lon":-1.12511,"postcode":"LE12 5AG","la":"Charnwood","era":"trad","nn":1354,"risk":56,"cat":"amber"},{"name":"The Griffin","lat":52.7721,"lon":-1.20944,"postcode":"LE11 5AA","la":"Charnwood","era":"trad","nn":55,"risk":24,"cat":"green"},{"name":"The Griffin Inn","lat":52.71165,"lon":-1.18417,"postcode":"LE12 8TJ","la":"Charnwood","era":"trad","nn":1812,"risk":59,"cat":"amber"},{"name":"The Harrow Inn","lat":52.67575,"lon":-1.10158,"postcode":"LE4 8EB","la":"Charnwood","era":"trad","nn":0,"risk":26,"cat":"green"},{"name":"The Horse","lat":52.76004,"lon":-1.3069,"postcode":"LE12 9EF","la":"Charnwood","era":"trad","nn":578,"risk":30,"cat":"green"},{"name":"The Hunting Lodge","lat":52.74887,"lon":-1.14709,"postcode":"LE12 8LZ","la":"Charnwood","era":"other","nn":170,"risk":25,"cat":"green"},{"name":"The Jolly Farmers","lat":52.7578,"lon":-1.29914,"postcode":"LE12 9EP","la":"Charnwood","era":"other","nn":88,"risk":27,"cat":"green"},{"name":"The Kelso","lat":52.76908,"lon":-1.20783,"postcode":"LE11 3HA","la":"Charnwood","era":"other","nn":24,"risk":24,"cat":"green"},{"name":"The Malt Shovel","lat":52.6827,"lon":-1.06221,"postcode":"LE7 3QG","la":"Charnwood","era":"other","nn":433,"risk":47,"cat":"amber"},{"name":"The Midland Railway","lat":52.69483,"lon":-1.07888,"postcode":"LE7 2JS","la":"Charnwood","era":"trad","nn":231,"risk":26,"cat":"green"},{"name":"The Moorings","lat":52.75017,"lon":-1.15189,"postcode":"LE12 8PN","la":"Charnwood","era":"other","nn":0,"risk":24,"cat":"green"},{"name":"The Navigation Inn","lat":52.74746,"lon":-1.14806,"postcode":"LE12 8LQ","la":"Charnwood","era":"trad","nn":170,"risk":25,"cat":"green"},{"name":"The Needle and Pin","lat":52.7733,"lon":-1.20945,"postcode":"LE11 5BE","la":"Charnwood","era":"other","nn":0,"risk":24,"cat":"green"},{"name":"The Newtown Linford Ex-Service, Social Club & Institute","lat":52.68513,"lon":-1.23534,"postcode":"LE6 0AD","la":"Charnwood","era":"mod","nn":85,"risk":42,"cat":"amber"},{"name":"The Old Bulls Head","lat":52.72563,"lon":-1.21601,"postcode":"LE12 8RZ","la":"Charnwood","era":"trad","nn":413,"risk":44,"cat":"amber"},{"name":"The Old Hare & Hounds","lat":52.67166,"lon":-1.18871,"postcode":"LE7 7AA","la":"Charnwood","era":"trad","nn":0,"risk":26,"cat":"green"},{"name":"The Old Plough","lat":52.67561,"lon":-1.1192,"postcode":"LE4 4DP","la":"Charnwood","era":"trad","nn":97,"risk":25,"cat":"green"},{"name":"The Organ Grinder","lat":52.77029,"lon":-1.20446,"postcode":"LE11 2TY","la":"Charnwood","era":"other","nn":141,"risk":25,"cat":"green"},{"name":"The Packe Arms","lat":52.79994,"lon":-1.15054,"postcode":"LE12 5SJ","la":"Charnwood","era":"trad","nn":1544,"risk":57,"cat":"amber"},{"name":"The Paget Arms","lat":52.7745,"lon":-1.21679,"postcode":"LE11 5DP","la":"Charnwood","era":"trad","nn":234,"risk":26,"cat":"green"},{"name":"The Phantom","lat":52.76912,"lon":-1.20196,"postcode":"LE11 2AG","la":"Charnwood","era":"other","nn":0,"risk":24,"cat":"green"},{"name":"The Pharmacie Arms Ltd","lat":52.69938,"lon":-1.07339,"postcode":"LE7 1GP","la":"Charnwood","era":"trad","nn":91,"risk":25,"cat":"green"},{"name":"The Plough","lat":52.71233,"lon":-1.05166,"postcode":"LE7 3ZL","la":"Charnwood","era":"trad","nn":544,"risk":45,"cat":"amber"},{"name":"The Priory","lat":52.75203,"lon":-1.24815,"postcode":"LE11 3YD","la":"Charnwood","era":"other","nn":470,"risk":45,"cat":"amber"},{"name":"The Railway","lat":52.76415,"lon":-1.29578,"postcode":"LE12 9NR","la":"Charnwood","era":"trad","nn":0,"risk":24,"cat":"green"},{"name":"The Royal British Legion Club","lat":52.67491,"lon":-1.11834,"postcode":"LE4 4DQ","la":"Charnwood","era":"trad","nn":0,"risk":24,"cat":"green"},{"name":"The Royal Oak","lat":52.74315,"lon":-1.17154,"postcode":"LE12 8DT","la":"Charnwood","era":"trad","nn":0,"risk":24,"cat":"green"},{"name":"The Royal Oak","lat":52.70945,"lon":-1.13748,"postcode":"LE7 7PF","la":"Charnwood","era":"trad","nn":213,"risk":28,"cat":"green"},{"name":"The Sorrel Fox","lat":52.72799,"lon":-1.13747,"postcode":"LE12 7AJ","la":"Charnwood","era":"trad","nn":55,"risk":27,"cat":"green"},{"name":"The Stadon Club","lat":52.67166,"lon":-1.18871,"postcode":"LE7 7AA","la":"Charnwood","era":"other","nn":0,"risk":26,"cat":"green"},{"name":"The Swan Inn","lat":52.73172,"lon":-1.14271,"postcode":"LE12 7AT","la":"Charnwood","era":"trad","nn":170,"risk":28,"cat":"green"},{"name":"The Tap and Clapper","lat":52.7733,"lon":-1.20945,"postcode":"LE11 5BE","la":"Charnwood","era":"mod","nn":0,"risk":24,"cat":"green"},{"name":"The Three Crowns","lat":52.80622,"lon":-1.10927,"postcode":"LE12 6TZ","la":"Charnwood","era":"trad","nn":128,"risk":42,"cat":"amber"},{"name":"The Three Crowns","lat":52.75259,"lon":-1.14929,"postcode":"LE12 8JS","la":"Charnwood","era":"trad","nn":160,"risk":25,"cat":"green"},{"name":"The Wheel Inn","lat":52.72313,"lon":-1.03754,"postcode":"LE7 4YS","la":"Charnwood","era":"trad","nn":391,"risk":47,"cat":"amber"},{"name":"The Wheeltapper","lat":52.76949,"lon":-1.20609,"postcode":"LE11 2TZ","la":"Charnwood","era":"other","nn":106,"risk":25,"cat":"green"},{"name":"The White Hart","lat":52.74315,"lon":-1.17154,"postcode":"LE12 8DT","la":"Charnwood","era":"trad","nn":0,"risk":24,"cat":"green"},{"name":"The White Horse","lat":52.67455,"lon":-1.11768,"postcode":"LE4 4EF","la":"Charnwood","era":"trad","nn":60,"risk":27,"cat":"green"},{"name":"The White Horse","lat":52.74263,"lon":-1.16743,"postcode":"LE12 8ET","la":"Charnwood","era":"trad","nn":0,"risk":24,"cat":"green"},{"name":"The White Horse Inn","lat":52.75228,"lon":-1.08361,"postcode":"LE12 7LT","la":"Charnwood","era":"trad","nn":1546,"risk":57,"cat":"amber"},{"name":"The White Swan","lat":52.73228,"lon":-1.10633,"postcode":"LE12 7NW","la":"Charnwood","era":"trad","nn":246,"risk":28,"cat":"green"},{"name":"The Windmill Inn","lat":52.80435,"lon":-1.10398,"postcode":"LE12 6TT","la":"Charnwood","era":"trad","nn":412,"risk":44,"cat":"amber"},{"name":"The Woodmans Cuisine, The Woodmans Stroke","lat":52.70837,"lon":-1.13485,"postcode":"LE7 7PD","la":"Charnwood","era":"other","nn":213,"risk":28,"cat":"green"},{"name":"Three Crowns","lat":52.79703,"lon":-1.25769,"postcode":"LE12 5LN","la":"Charnwood","era":"trad","nn":189,"risk":25,"cat":"green"},{"name":"Three Nuns","lat":52.77334,"lon":-1.20547,"postcode":"LE11 1UD","la":"Charnwood","era":"other","nn":0,"risk":24,"cat":"green"},{"name":"Thurmaston Conservative Club","lat":52.67877,"lon":-1.09957,"postcode":"LE4 8BD","la":"Charnwood","era":"other","nn":193,"risk":28,"cat":"green"},{"name":"Thurmaston Progressive Working Mens Club","lat":52.68016,"lon":-1.09785,"postcode":"LE4 8EE","la":"Charnwood","era":"trad","nn":157,"risk":28,"cat":"green"},{"name":"Thurmaston Royal British Legion Club","lat":52.67575,"lon":-1.10158,"postcode":"LE4 8EB","la":"Charnwood","era":"trad","nn":0,"risk":26,"cat":"green"},{"name":"Toby Carvery","lat":52.76263,"lon":-1.22258,"postcode":"LE11 3HU","la":"Charnwood","era":"other","nn":434,"risk":29,"cat":"green"},{"name":"Top House","lat":52.68154,"lon":-1.09735,"postcode":"LE4 8BE","la":"Charnwood","era":"other","nn":157,"risk":28,"cat":"green"},{"name":"Top Railway","lat":52.76415,"lon":-1.29578,"postcode":"LE12 9NR","la":"Charnwood","era":"trad","nn":0,"risk":24,"cat":"green"},{"name":"Waterside Inn","lat":52.73171,"lon":-1.14018,"postcode":"LE12 7BB","la":"Charnwood","era":"trad","nn":170,"risk":28,"cat":"green"},{"name":"Wheatsheaf Inn","lat":52.7165,"lon":-1.21126,"postcode":"LE12 8SS","la":"Charnwood","era":"trad","nn":764,"risk":49,"cat":"amber"},{"name":"Wheatsheaf Inn at Thurcaston","lat":52.69508,"lon":-1.16313,"postcode":"LE7 7JN","la":"Charnwood","era":"trad","nn":1009,"risk":54,"cat":"amber"},{"name":"White Hart","lat":52.77334,"lon":-1.20547,"postcode":"LE11 1UD","la":"Charnwood","era":"trad","nn":0,"risk":24,"cat":"green"},{"name":"Wymeswold Bowls Club","lat":52.80531,"lon":-1.11044,"postcode":"LE12 6TY","la":"Charnwood","era":"other","nn":128,"risk":42,"cat":"amber"},{"name":"Aylestone Saint James RFC","lat":52.63927,"lon":-1.02523,"postcode":"LE7 9SQ","la":"Harborough","era":"trad","nn":1675,"risk":64,"cat":"red"},{"name":"Bakers Arms","lat":52.52576,"lon":-0.909,"postcode":"LE16 7TS","la":"Harborough","era":"trad","nn":1424,"risk":62,"cat":"red"},{"name":"Beer House Micro Pubs Limited","lat":52.478,"lon":-0.91466,"postcode":"LE16 7DX","la":"Harborough","era":"mod","nn":174,"risk":31,"cat":"amber"},{"name":"Black Boy Inn","lat":52.65964,"lon":-0.98059,"postcode":"LE7 9JR","la":"Harborough","era":"trad","nn":3769,"risk":78,"cat":"red"},{"name":"Chequers Inn","lat":52.41028,"lon":-1.16317,"postcode":"LE17 6BL","la":"Harborough","era":"trad","nn":2229,"risk":68,"cat":"red"},{"name":"Cherry Tree Inn","lat":52.39823,"lon":-1.18943,"postcode":"LE17 6DB","la":"Harborough","era":"trad","nn":1571,"risk":63,"cat":"red"},{"name":"Coventry Gliding Club Ltd","lat":52.44052,"lon":-1.04756,"postcode":"LE17 6JJ","la":"Harborough","era":"other","nn":1462,"risk":62,"cat":"red"},{"name":"Fernie Hall","lat":52.4779,"lon":-0.9177,"postcode":"LE16 7DU","la":"Harborough","era":"other","nn":3,"risk":30,"cat":"green"},{"name":"Fifty Eight","lat":52.47748,"lon":-0.91709,"postcode":"LE16 7DU","la":"Harborough","era":"other","nn":62,"risk":30,"cat":"green"},{"name":"Fox Inn","lat":52.45318,"lon":-1.20044,"postcode":"LE17 4BN","la":"Harborough","era":"trad","nn":258,"risk":31,"cat":"amber"},{"name":"Foxton Locks Inn","lat":52.50115,"lon":-0.98236,"postcode":"LE16 7RA","la":"Harborough","era":"trad","nn":998,"risk":57,"cat":"amber"},{"name":"Hart Of Fleckney Bowls Club","lat":52.54114,"lon":-1.04771,"postcode":"LE8 8BG","la":"Harborough","era":"trad","nn":650,"risk":54,"cat":"amber"},{"name":"Joiners Arms","lat":52.50285,"lon":-1.11419,"postcode":"LE17 5QH","la":"Harborough","era":"trad","nn":80,"risk":50,"cat":"amber"},{"name":"Kings Head","lat":52.47915,"lon":-0.92173,"postcode":"LE16 7AA","la":"Harborough","era":"trad","nn":0,"risk":30,"cat":"green"},{"name":"Koggys Wine Bar","lat":52.45562,"lon":-1.19777,"postcode":"LE17 4AP","la":"Harborough","era":"other","nn":0,"risk":30,"cat":"green"},{"name":"Langton Inn","lat":52.51805,"lon":-0.93952,"postcode":"LE16 7TG","la":"Harborough","era":"trad","nn":1198,"risk":60,"cat":"amber"},{"name":"Live At The Lodge Ltd","lat":52.45753,"lon":-1.20034,"postcode":"LE17 4ED","la":"Harborough","era":"other","nn":160,"risk":31,"cat":"amber"},{"name":"Louisa's Place","lat":52.47789,"lon":-0.91774,"postcode":"LE16 7DU","la":"Harborough","era":"other","nn":3,"risk":30,"cat":"green"},{"name":"Lutterworth Club","lat":52.45878,"lon":-1.19918,"postcode":"LE17 4NF","la":"Harborough","era":"other","nn":160,"risk":31,"cat":"amber"},{"name":"Lutterworth Football Club Bar","lat":52.48206,"lon":-1.20646,"postcode":"LE17 4LN","la":"Harborough","era":"other","nn":1645,"risk":64,"cat":"red"},{"name":"Market Harborough Conservative Club Ltd","lat":52.47828,"lon":-0.92459,"postcode":"LE16 9QQ","la":"Harborough","era":"other","nn":159,"risk":31,"cat":"amber"},{"name":"Nags Head","lat":52.47915,"lon":-0.92173,"postcode":"LE16 7AA","la":"Harborough","era":"trad","nn":0,"risk":30,"cat":"green"},{"name":"New Greyhound Inn Ltd","lat":52.61819,"lon":-0.93946,"postcode":"LE7 9AJ","la":"Harborough","era":"trad","nn":0,"risk":47,"cat":"amber"},{"name":"Old Black Horse Inn","lat":52.62434,"lon":-0.99927,"postcode":"LE7 9GD","la":"Harborough","era":"trad","nn":2413,"risk":69,"cat":"red"},{"name":"Old Crown","lat":52.53567,"lon":-1.04434,"postcode":"LE8 8AJ","la":"Harborough","era":"trad","nn":650,"risk":54,"cat":"amber"},{"name":"Old Red Lion","lat":52.52534,"lon":-0.87231,"postcode":"LE16 7UJ","la":"Harborough","era":"trad","nn":2483,"risk":69,"cat":"red"},{"name":"Pig In Muck","lat":52.49652,"lon":-1.28073,"postcode":"LE17 5AY","la":"Harborough","era":"other","nn":2022,"risk":66,"cat":"red"},{"name":"Queens Arms","lat":52.50654,"lon":-1.22666,"postcode":"LE17 5HF","la":"Harborough","era":"trad","nn":1553,"risk":63,"cat":"red"},{"name":"Railway Arms","lat":52.53777,"lon":-0.99403,"postcode":"LE8 0LN","la":"Harborough","era":"trad","nn":571,"risk":51,"cat":"amber"},{"name":"Red Admiral","lat":52.52578,"lon":-1.21664,"postcode":"LE9 6PU","la":"Harborough","era":"other","nn":539,"risk":53,"cat":"amber"},{"name":"Red Arrow","lat":52.45544,"lon":-1.21262,"postcode":"LE17 4QF","la":"Harborough","era":"other","nn":760,"risk":35,"cat":"amber"},{"name":"Red Cow","lat":52.47963,"lon":-0.92245,"postcode":"LE16 7AF","la":"Harborough","era":"other","nn":73,"risk":30,"cat":"green"},{"name":"Royal Oak","lat":52.57538,"lon":-1.03572,"postcode":"LE8 9FJ","la":"Harborough","era":"trad","nn":395,"risk":52,"cat":"amber"},{"name":"Shoulder Of Mutton","lat":52.50434,"lon":-0.96857,"postcode":"LE16 7RB","la":"Harborough","era":"other","nn":998,"risk":57,"cat":"amber"},{"name":"Thai Kitchen","lat":52.56064,"lon":-0.83755,"postcode":"LE16 8UB","la":"Harborough","era":"mod","nn":4575,"risk":84,"cat":"red"},{"name":"The Admiral Nelson","lat":52.47778,"lon":-0.92759,"postcode":"LE16 9AX","la":"Harborough","era":"trad","nn":211,"risk":31,"cat":"amber"},{"name":"The Bell Inn","lat":52.45203,"lon":-1.05799,"postcode":"LE17 6JZ","la":"Harborough","era":"trad","nn":1462,"risk":62,"cat":"red"},{"name":"The Bell Inn","lat":52.52711,"lon":-0.92993,"postcode":"LE16 7TW","la":"Harborough","era":"trad","nn":702,"risk":55,"cat":"amber"},{"name":"The Castle Inn","lat":52.52945,"lon":-0.72485,"postcode":"LE16 8RT","la":"Harborough","era":"trad","nn":485,"risk":53,"cat":"amber"},{"name":"The Chandlers","lat":52.51144,"lon":-1.08219,"postcode":"LE17 6PL","la":"Harborough","era":"other","nn":2290,"risk":68,"cat":"red"},{"name":"The Cherry Tree","lat":52.47528,"lon":-0.91212,"postcode":"LE16 8AE","la":"Harborough","era":"other","nn":190,"risk":31,"cat":"amber"},{"name":"The Coach And Horses","lat":52.54271,"lon":-0.99632,"postcode":"LE8 0NN","la":"Harborough","era":"trad","nn":571,"risk":54,"cat":"amber"},{"name":"The Crown Inn","lat":52.48515,"lon":-1.15772,"postcode":"LE17 5NY","la":"Harborough","era":"trad","nn":2265,"risk":68,"cat":"red"},{"name":"The Crown Inn","lat":52.54434,"lon":-0.95156,"postcode":"LE8 0PJ","la":"Harborough","era":"trad","nn":1709,"risk":64,"cat":"red"},{"name":"The Elms","lat":52.45109,"lon":-1.19669,"postcode":"LE17 4HB","la":"Harborough","era":"trad","nn":344,"risk":32,"cat":"amber"},{"name":"The Foxpond","lat":52.58084,"lon":-1.05069,"postcode":"LE2 4RG","la":"Harborough","era":"trad","nn":830,"risk":55,"cat":"amber"},{"name":"The General Elliott","lat":52.52698,"lon":-1.15354,"postcode":"LE8 6UF","la":"Harborough","era":"other","nn":2905,"risk":72,"cat":"red"},{"name":"The Greyhound","lat":52.45602,"lon":-1.19986,"postcode":"LE17 4EJ","la":"Harborough","era":"trad","nn":67,"risk":30,"cat":"green"},{"name":"The Hollybush","lat":52.49258,"lon":-1.22592,"postcode":"LE17 5HS","la":"Harborough","era":"trad","nn":1553,"risk":63,"cat":"red"},{"name":"The Kings Head","lat":52.53017,"lon":-0.99928,"postcode":"LE8 0QJ","la":"Harborough","era":"trad","nn":917,"risk":56,"cat":"amber"},{"name":"The Langton Arms","lat":52.53197,"lon":-0.93656,"postcode":"LE16 7SY","la":"Harborough","era":"trad","nn":702,"risk":55,"cat":"amber"},{"name":"The Man At Arms","lat":52.46772,"lon":-1.21246,"postcode":"LE17 4SB","la":"Harborough","era":"trad","nn":167,"risk":51,"cat":"amber"},{"name":"The New Greyhound","lat":52.61819,"lon":-0.93946,"postcode":"LE7 9AJ","la":"Harborough","era":"trad","nn":0,"risk":47,"cat":"amber"},{"name":"The Oat Hill","lat":52.47657,"lon":-0.91029,"postcode":"LE16 8AN","la":"Harborough","era":"other","nn":190,"risk":31,"cat":"amber"},{"name":"The Olde Royal Oak","lat":52.46627,"lon":-1.21184,"postcode":"LE17 4SA","la":"Harborough","era":"trad","nn":167,"risk":51,"cat":"amber"},{"name":"The Plough Inn","lat":52.50294,"lon":-1.11301,"postcode":"LE17 5QE","la":"Harborough","era":"trad","nn":80,"risk":50,"cat":"amber"},{"name":"The Queens Head","lat":52.61684,"lon":-0.93839,"postcode":"LE7 9AE","la":"Harborough","era":"trad","nn":166,"risk":48,"cat":"amber"},{"name":"The Real Ale Classroom Ltd","lat":52.45562,"lon":-1.19777,"postcode":"LE17 4AP","la":"Harborough","era":"other","nn":0,"risk":30,"cat":"green"},{"name":"The Rose And Crown","lat":52.62872,"lon":-1.04352,"postcode":"LE7 9PJ","la":"Harborough","era":"trad","nn":1056,"risk":59,"cat":"amber"},{"name":"The Royal","lat":52.53583,"lon":-1.2343,"postcode":"LE9 6QB","la":"Harborough","era":"trad","nn":1097,"risk":60,"cat":"amber"},{"name":"The Royalist","lat":52.47025,"lon":-0.92557,"postcode":"LE16 9PL","la":"Harborough","era":"trad","nn":848,"risk":38,"cat":"amber"},{"name":"The Shambles Public House","lat":52.45559,"lon":-1.19917,"postcode":"LE17 4DW","la":"Harborough","era":"other","nn":67,"risk":30,"cat":"green"},{"name":"The Shires","lat":52.49937,"lon":-1.13377,"postcode":"LE17 5PU","la":"Harborough","era":"other","nn":1381,"risk":62,"cat":"red"},{"name":"The Shoulder Of Mutton","lat":52.49216,"lon":-0.90391,"postcode":"LE16 7EU","la":"Harborough","era":"other","nn":1735,"risk":64,"cat":"red"},{"name":"The Sugar Loaf","lat":52.47851,"lon":-0.92227,"postcode":"LE16 7NJ","la":"Harborough","era":"other","nn":80,"risk":30,"cat":"green"},{"name":"The Swan At Ullesthorpe","lat":52.4852,"lon":-1.25736,"postcode":"LE17 5BT","la":"Harborough","era":"trad","nn":0,"risk":50,"cat":"amber"},{"name":"The Swan Inn","lat":52.4852,"lon":-1.25736,"postcode":"LE17 5BT","la":"Harborough","era":"trad","nn":0,"risk":50,"cat":"amber"},{"name":"The Unicorn Inn","lat":52.45542,"lon":-1.20141,"postcode":"LE17 4AE","la":"Harborough","era":"trad","nn":0,"risk":30,"cat":"green"},{"name":"The White House","lat":52.64353,"lon":-1.04904,"postcode":"LE7 9SE","la":"Harborough","era":"other","nn":809,"risk":55,"cat":"amber"},{"name":"Unicorn Inn","lat":52.45542,"lon":-1.20141,"postcode":"LE17 4AE","la":"Harborough","era":"trad","nn":0,"risk":30,"cat":"green"},{"name":"White Horse","lat":52.52898,"lon":-1.22264,"postcode":"LE9 6PT","la":"Harborough","era":"trad","nn":539,"risk":53,"cat":"amber"},{"name":"Yews Hotel","lat":52.57588,"lon":-1.0415,"postcode":"LE8 9FL","la":"Harborough","era":"other","nn":395,"risk":50,"cat":"amber"},{"name":"Anchor Inn","lat":52.52822,"lon":-1.34823,"postcode":"LE10 2DA","la":"Hinckley and Bosworth","era":"trad","nn":167,"risk":27,"cat":"green"},{"name":"Ashby Road Sports Club","lat":52.55428,"lon":-1.3659,"postcode":"LE10 1SU","la":"Hinckley and Bosworth","era":"other","nn":401,"risk":31,"cat":"amber"},{"name":"Ashby Tavern","lat":52.55072,"lon":-1.36688,"postcode":"LE10 1SL","la":"Hinckley and Bosworth","era":"other","nn":401,"risk":28,"cat":"green"},{"name":"Bagworth And District Working Mens Club","lat":52.67205,"lon":-1.34254,"postcode":"LE67 1BJ","la":"Hinckley and Bosworth","era":"trad","nn":2026,"risk":62,"cat":"red"},{"name":"Barwell Constitutional Club","lat":52.56684,"lon":-1.34456,"postcode":"LE9 8DD","la":"Hinckley and Bosworth","era":"other","nn":0,"risk":26,"cat":"green"},{"name":"Barwell Sports Bar","lat":52.57201,"lon":-1.34371,"postcode":"LE9 8FQ","la":"Hinckley and Bosworth","era":"other","nn":0,"risk":26,"cat":"green"},{"name":"Baton Rouge","lat":52.54051,"lon":-1.37495,"postcode":"LE10 0BA","la":"Hinckley and Bosworth","era":"other","nn":61,"risk":26,"cat":"green"},{"name":"Blacksmiths Arms","lat":52.56736,"lon":-1.34675,"postcode":"LE9 8DQ","la":"Hinckley and Bosworth","era":"trad","nn":89,"risk":26,"cat":"green"},{"name":"Bricklayers Arms","lat":52.66509,"lon":-1.31182,"postcode":"LE67 1AH","la":"Hinckley and Bosworth","era":"trad","nn":197,"risk":47,"cat":"amber"},{"name":"Burbage And District Constitutional Club","lat":52.52973,"lon":-1.34837,"postcode":"LE10 2DE","la":"Hinckley and Bosworth","era":"other","nn":167,"risk":27,"cat":"green"},{"name":"Caterpillar Sports And Social Club","lat":52.62184,"lon":-1.29304,"postcode":"LE9 9JU","la":"Hinckley and Bosworth","era":"mod","nn":446,"risk":49,"cat":"amber"},{"name":"Chequers","lat":52.52591,"lon":-1.34865,"postcode":"LE10 2DN","la":"Hinckley and Bosworth","era":"other","nn":160,"risk":27,"cat":"green"},{"name":"Citizens Club Limited","lat":52.53931,"lon":-1.36694,"postcode":"LE10 1AE","la":"Hinckley and Bosworth","era":"other","nn":332,"risk":28,"cat":"green"},{"name":"Concordia Theatre","lat":52.5427,"lon":-1.37285,"postcode":"LE10 1RE","la":"Hinckley and Bosworth","era":"other","nn":0,"risk":26,"cat":"green"},{"name":"Cross Keys","lat":52.53167,"lon":-1.35021,"postcode":"LE10 2AF","la":"Hinckley and Bosworth","era":"trad","nn":249,"risk":27,"cat":"green"},{"name":"Duke Of Rutland","lat":52.54339,"lon":-1.37388,"postcode":"LE10 1QU","la":"Hinckley and Bosworth","era":"trad","nn":105,"risk":26,"cat":"green"},{"name":"Dyals Venue","lat":52.55409,"lon":-1.34728,"postcode":"LE10 3DR","la":"Hinckley and Bosworth","era":"other","nn":0,"risk":31,"cat":"amber"},{"name":"Earl Shilton Constitutional Club","lat":52.57373,"lon":-1.31623,"postcode":"LE9 7GE","la":"Hinckley and Bosworth","era":"other","nn":220,"risk":27,"cat":"green"},{"name":"Earl Shilton Town Sports Club","lat":52.57889,"lon":-1.31513,"postcode":"LE9 7DS","la":"Hinckley and Bosworth","era":"other","nn":31,"risk":26,"cat":"green"},{"name":"Elbow Room Ale And Cider House","lat":52.53995,"lon":-1.37313,"postcode":"LE10 1AW","la":"Hinckley and Bosworth","era":"other","nn":94,"risk":26,"cat":"green"},{"name":"Electric Chapel Ltd","lat":52.53922,"lon":-1.3753,"postcode":"LE10 0QJ","la":"Hinckley and Bosworth","era":"other","nn":23,"risk":26,"cat":"green"},{"name":"Forest Hill Golf And Country Club","lat":52.64733,"lon":-1.28913,"postcode":"LE9 9FH","la":"Hinckley and Bosworth","era":"other","nn":803,"risk":51,"cat":"amber"},{"name":"Groby Ex-Servicemens Social Club Ltd","lat":52.66235,"lon":-1.22415,"postcode":"LE6 0DJ","la":"Hinckley and Bosworth","era":"mod","nn":1783,"risk":61,"cat":"red"},{"name":"Hinckley Rugby Club","lat":52.55409,"lon":-1.34728,"postcode":"LE10 3DR","la":"Hinckley and Bosworth","era":"other","nn":0,"risk":31,"cat":"amber"},{"name":"Hinckley Squash & Racketball Club","lat":52.53767,"lon":-1.40226,"postcode":"LE10 3BE","la":"Hinckley and Bosworth","era":"other","nn":560,"risk":35,"cat":"amber"},{"name":"Hinckley Town Cricket Club","lat":52.55409,"lon":-1.34728,"postcode":"LE10 3DR","la":"Hinckley and Bosworth","era":"other","nn":0,"risk":31,"cat":"amber"},{"name":"Hinckley Working Mens Club","lat":52.5427,"lon":-1.37285,"postcode":"LE10 1RE","la":"Hinckley and Bosworth","era":"trad","nn":0,"risk":26,"cat":"green"},{"name":"Holloways","lat":52.56809,"lon":-1.34618,"postcode":"LE9 8GS","la":"Hinckley and Bosworth","era":"other","nn":89,"risk":26,"cat":"green"},{"name":"Hungry Horse","lat":52.5323,"lon":-1.37915,"postcode":"LE10 2LL","la":"Hinckley and Bosworth","era":"trad","nn":700,"risk":31,"cat":"amber"},{"name":"Jack High Restaurant","lat":52.57201,"lon":-1.34371,"postcode":"LE9 8FQ","la":"Hinckley and Bosworth","era":"other","nn":0,"risk":26,"cat":"green"},{"name":"Jackie's Bar","lat":52.55202,"lon":-1.3773,"postcode":"LE10 0DZ","la":"Hinckley and Bosworth","era":"other","nn":719,"risk":31,"cat":"amber"},{"name":"Kingscroft Bowling Club","lat":52.57652,"lon":-1.31708,"postcode":"LE9 7NL","la":"Hinckley and Bosworth","era":"trad","nn":103,"risk":26,"cat":"green"},{"name":"Leicester Road Football Club Limited","lat":52.55409,"lon":-1.34728,"postcode":"LE10 3DR","la":"Hinckley and Bosworth","era":"other","nn":0,"risk":31,"cat":"amber"},{"name":"Lucy Bates","lat":52.54112,"lon":-1.35962,"postcode":"LE10 1HL","la":"Hinckley and Bosworth","era":"other","nn":534,"risk":29,"cat":"green"},{"name":"New Baron Of Hinckley","lat":52.54094,"lon":-1.37424,"postcode":"LE10 0AZ","la":"Hinckley and Bosworth","era":"other","nn":42,"risk":26,"cat":"green"},{"name":"Old Thatched Inn","lat":52.68874,"lon":-1.31063,"postcode":"LE67 9TQ","la":"Hinckley and Bosworth","era":"trad","nn":1359,"risk":58,"cat":"amber"},{"name":"Pestle N Mortar","lat":52.54173,"lon":-1.36982,"postcode":"LE10 1DA","la":"Hinckley and Bosworth","era":"other","nn":156,"risk":27,"cat":"green"},{"name":"Plough Inn","lat":52.65335,"lon":-1.27546,"postcode":"LE6 0XZ","la":"Hinckley and Bosworth","era":"trad","nn":1140,"risk":56,"cat":"amber"},{"name":"Princes Feathers","lat":52.53885,"lon":-1.37728,"postcode":"LE10 0QA","la":"Hinckley and Bosworth","era":"trad","nn":89,"risk":26,"cat":"green"},{"name":"Public Spirit","lat":52.54058,"lon":-1.37406,"postcode":"LE10 0BB","la":"Hinckley and Bosworth","era":"other","nn":42,"risk":26,"cat":"green"},{"name":"Queens Head","lat":52.69094,"lon":-1.28006,"postcode":"LE67 9UB","la":"Hinckley and Bosworth","era":"trad","nn":732,"risk":51,"cat":"amber"},{"name":"Queens Head","lat":52.5457,"lon":-1.37268,"postcode":"LE10 1RJ","la":"Hinckley and Bosworth","era":"trad","nn":1,"risk":26,"cat":"green"},{"name":"Railway","lat":52.53741,"lon":-1.37231,"postcode":"LE10 1AP","la":"Hinckley and Bosworth","era":"trad","nn":263,"risk":27,"cat":"green"},{"name":"Red Lion","lat":52.57601,"lon":-1.31352,"postcode":"LE9 7LQ","la":"Hinckley and Bosworth","era":"trad","nn":132,"risk":27,"cat":"green"},{"name":"Red Lion Burbage","lat":52.5269,"lon":-1.35035,"postcode":"LE10 2EF","la":"Hinckley and Bosworth","era":"trad","nn":0,"risk":26,"cat":"green"},{"name":"Reeces Kitchen","lat":52.64376,"lon":-1.23631,"postcode":"LE6 0JR","la":"Hinckley and Bosworth","era":"mod","nn":820,"risk":36,"cat":"amber"},{"name":"Shaw Lane And Battleflat Miners Welfare Club","lat":52.70078,"lon":-1.3141,"postcode":"LE67 9PD","la":"Hinckley and Bosworth","era":"other","nn":823,"risk":51,"cat":"amber"},{"name":"Shilton Vaults","lat":52.57564,"lon":-1.31538,"postcode":"LE9 7NA","la":"Hinckley and Bosworth","era":"other","nn":132,"risk":27,"cat":"green"},{"name":"Speakeasy48 Ltd","lat":52.54524,"lon":-1.37169,"postcode":"LE10 1QH","la":"Hinckley and Bosworth","era":"other","nn":83,"risk":26,"cat":"green"},{"name":"Sweet Pea Bowling Club","lat":52.53734,"lon":-1.38536,"postcode":"LE10 0JU","la":"Hinckley and Bosworth","era":"other","nn":442,"risk":29,"cat":"green"},{"name":"The Black Horse","lat":52.54569,"lon":-1.37267,"postcode":"LE10 1RJ","la":"Hinckley and Bosworth","era":"trad","nn":1,"risk":26,"cat":"green"},{"name":"The Blue Bell Inn And Lodge","lat":52.62584,"lon":-1.29346,"postcode":"LE9 9JF","la":"Hinckley and Bosworth","era":"trad","nn":446,"risk":46,"cat":"amber"},{"name":"The Bond Street Distillery","lat":52.54648,"lon":-1.37097,"postcode":"LE10 1RT","la":"Hinckley and Bosworth","era":"other","nn":145,"risk":27,"cat":"green"},{"name":"The Bounty","lat":52.54086,"lon":-1.37324,"postcode":"LE10 1NT","la":"Hinckley and Bosworth","era":"other","nn":63,"risk":26,"cat":"green"},{"name":"The Bulls Head","lat":52.68459,"lon":-1.28287,"postcode":"LE67 9UN","la":"Hinckley and Bosworth","era":"trad","nn":732,"risk":51,"cat":"amber"},{"name":"The Bulls Head","lat":52.64922,"lon":-1.24496,"postcode":"LE6 0LN","la":"Hinckley and Bosworth","era":"trad","nn":842,"risk":51,"cat":"amber"},{"name":"The Coach And Horses","lat":52.68485,"lon":-1.26698,"postcode":"LE67 9RF","la":"Hinckley and Bosworth","era":"trad","nn":0,"risk":46,"cat":"amber"},{"name":"The Coach And Horses","lat":52.68485,"lon":-1.26698,"postcode":"LE67 9RF","la":"Hinckley and Bosworth","era":"trad","nn":0,"risk":46,"cat":"amber"},{"name":"The Copt Oak","lat":52.70605,"lon":-1.28718,"postcode":"LE67 9QB","la":"Hinckley and Bosworth","era":"trad","nn":1747,"risk":60,"cat":"amber"},{"name":"The Courtyard","lat":52.53912,"lon":-1.37501,"postcode":"LE10 0QJ","la":"Hinckley and Bosworth","era":"mod","nn":23,"risk":26,"cat":"green"},{"name":"The Cross Keys","lat":52.56684,"lon":-1.34456,"postcode":"LE9 8DD","la":"Hinckley and Bosworth","era":"trad","nn":0,"risk":26,"cat":"green"},{"name":"The Dog And Gun","lat":52.57916,"lon":-1.31512,"postcode":"LE9 7DR","la":"Hinckley and Bosworth","era":"other","nn":31,"risk":26,"cat":"green"},{"name":"The Flintlock","lat":52.54243,"lon":-1.3924,"postcode":"LE10 0XP","la":"Hinckley and Bosworth","era":"other","nn":401,"risk":28,"cat":"green"},{"name":"The Greyhound Botcheston","lat":52.64011,"lon":-1.28911,"postcode":"LE9 9FF","la":"Hinckley and Bosworth","era":"trad","nn":803,"risk":51,"cat":"amber"},{"name":"The Greyhound Inn","lat":52.54296,"lon":-1.36873,"postcode":"LE10 1HN","la":"Hinckley and Bosworth","era":"trad","nn":156,"risk":27,"cat":"green"},{"name":"The Jubilee Inn","lat":52.62956,"lon":-1.33928,"postcode":"LE9 9NP","la":"Hinckley and Bosworth","era":"trad","nn":1148,"risk":56,"cat":"amber"},{"name":"The Lancaster Arms","lat":52.63121,"lon":-1.28318,"postcode":"LE9 9FP","la":"Hinckley and Bosworth","era":"trad","nn":915,"risk":52,"cat":"amber"},{"name":"The Last Roadhouse","lat":52.53914,"lon":-1.3785,"postcode":"LE10 0JT","la":"Hinckley and Bosworth","era":"other","nn":89,"risk":26,"cat":"green"},{"name":"The Limekilns","lat":52.52752,"lon":-1.39404,"postcode":"LE10 3ED","la":"Hinckley and Bosworth","era":"other","nn":874,"risk":52,"cat":"amber"},{"name":"The Lord Nelson","lat":52.57579,"lon":-1.31804,"postcode":"LE9 7ND","la":"Hinckley and Bosworth","era":"trad","nn":103,"risk":26,"cat":"green"},{"name":"The New Plough","lat":52.54437,"lon":-1.36601,"postcode":"LE10 1LS","la":"Hinckley and Bosworth","era":"trad","nn":241,"risk":27,"cat":"green"},{"name":"The Sycamores","lat":52.5269,"lon":-1.35035,"postcode":"LE10 2EF","la":"Hinckley and Bosworth","era":"other","nn":0,"risk":26,"cat":"green"},{"name":"The Thornton","lat":52.6662,"lon":-1.31409,"postcode":"LE67 1AH","la":"Hinckley and Bosworth","era":"other","nn":197,"risk":47,"cat":"amber"},{"name":"The Tin Hat","lat":52.53887,"lon":-1.39139,"postcode":"LE10 0YA","la":"Hinckley and Bosworth","era":"other","nn":401,"risk":28,"cat":"green"},{"name":"The Weavers Arms","lat":52.5466,"lon":-1.36864,"postcode":"LE10 1QE","la":"Hinckley and Bosworth","era":"trad","nn":158,"risk":27,"cat":"green"},{"name":"The Windmill Inn","lat":52.62014,"lon":-1.34621,"postcode":"LE9 9LE","la":"Hinckley and Bosworth","era":"trad","nn":1148,"risk":56,"cat":"amber"},{"name":"The Woolly","lat":52.53525,"lon":-1.36116,"postcode":"LE10 2PH","la":"Hinckley and Bosworth","era":"other","nn":597,"risk":30,"cat":"green"},{"name":"Union Inn","lat":52.5427,"lon":-1.37285,"postcode":"LE10 1RE","la":"Hinckley and Bosworth","era":"trad","nn":0,"risk":26,"cat":"green"},{"name":"Wharf Inn","lat":52.53536,"lon":-1.3949,"postcode":"LE10 0NQ","la":"Hinckley and Bosworth","era":"trad","nn":457,"risk":29,"cat":"green"},{"name":"Wykin And District Social Club Ltd","lat":52.54954,"lon":-1.38904,"postcode":"LE10 0EX","la":"Hinckley and Bosworth","era":"mod","nn":823,"risk":49,"cat":"amber"},{"name":"2Funky Music Cafe","lat":52.63202,"lon":-1.14487,"postcode":"LE3 5NH","la":"Leicester","era":"other","nn":0,"risk":23,"cat":"green"},{"name":"2Funky Street Kitchen","lat":52.63202,"lon":-1.14487,"postcode":"LE3 5NH","la":"Leicester","era":"mod","nn":0,"risk":23,"cat":"green"},{"name":"33 Cank Street","lat":52.63537,"lon":-1.1342,"postcode":"LE1 5GX","la":"Leicester","era":"other","nn":101,"risk":24,"cat":"green"},{"name":"45 West","lat":52.63437,"lon":-1.13477,"postcode":"LE1 5AW","la":"Leicester","era":"other","nn":35,"risk":24,"cat":"green"},{"name":"Almeida Coffee And Juice Bar","lat":52.63491,"lon":-1.1366,"postcode":"LE1 5FQ","la":"Leicester","era":"other","nn":0,"risk":23,"cat":"green"},{"name":"Apres Lounge","lat":52.63526,"lon":-1.13736,"postcode":"LE1 5YP","la":"Leicester","era":"mod","nn":65,"risk":24,"cat":"green"},{"name":"Aylestone Conservative Club","lat":52.61215,"lon":-1.13647,"postcode":"LE2 7NE","la":"Leicester","era":"other","nn":533,"risk":27,"cat":"green"},{"name":"Aylestone Park Sports Bar","lat":52.5909,"lon":-1.14142,"postcode":"LE2 6TG","la":"Leicester","era":"other","nn":742,"risk":46,"cat":"amber"},{"name":"Babelas Continental Bar","lat":52.61802,"lon":-1.11758,"postcode":"LE2 1TT","la":"Leicester","era":"other","nn":0,"risk":23,"cat":"green"},{"name":"Barley Mow","lat":52.63204,"lon":-1.12705,"postcode":"LE1 6FE","la":"Leicester","era":"other","nn":36,"risk":24,"cat":"green"},{"name":"Belgrave Bowling Club","lat":52.664,"lon":-1.13268,"postcode":"LE4 2QG","la":"Leicester","era":"other","nn":0,"risk":23,"cat":"green"},{"name":"Belgrave Rugby Football Club","lat":52.664,"lon":-1.13268,"postcode":"LE4 2QG","la":"Leicester","era":"other","nn":0,"risk":23,"cat":"green"},{"name":"Black Horse Public House","lat":52.63144,"lon":-1.14549,"postcode":"LE3 5LT","la":"Leicester","era":"trad","nn":21,"risk":24,"cat":"green"},{"name":"Blue Peter Club","lat":52.65044,"lon":-1.12461,"postcode":"LE4 5GR","la":"Leicester","era":"other","nn":203,"risk":25,"cat":"green"},{"name":"Braunstone Victoria Working Mens Club","lat":52.62554,"lon":-1.19174,"postcode":"LE3 1SD","la":"Leicester","era":"trad","nn":1230,"risk":54,"cat":"amber"},{"name":"Braunstone Working Men's Club Kitchen","lat":52.6235,"lon":-1.16539,"postcode":"LE3 1LD","la":"Leicester","era":"other","nn":0,"risk":41,"cat":"amber"},{"name":"Brick And Beam","lat":52.63513,"lon":-1.12571,"postcode":"LE1 1QW","la":"Leicester","era":"other","nn":89,"risk":24,"cat":"green"},{"name":"Bungles Bar","lat":52.63165,"lon":-1.13277,"postcode":"LE1 6RN","la":"Leicester","era":"other","nn":35,"risk":24,"cat":"green"},{"name":"Castle Inn","lat":52.63204,"lon":-1.14055,"postcode":"LE1 5WH","la":"Leicester","era":"trad","nn":159,"risk":24,"cat":"green"},{"name":"Cherry Tree Hotel","lat":52.63732,"lon":-1.13615,"postcode":"LE1 4SX","la":"Leicester","era":"other","nn":114,"risk":24,"cat":"green"},{"name":"Corn Exchange","lat":52.63441,"lon":-1.13367,"postcode":"LE1 5GG","la":"Leicester","era":"other","nn":47,"risk":24,"cat":"green"},{"name":"Coronation Lounge","lat":52.65126,"lon":-1.10882,"postcode":"LE4 6GE","la":"Leicester","era":"mod","nn":408,"risk":26,"cat":"green"},{"name":"Cradock Arms","lat":52.60929,"lon":-1.11691,"postcode":"LE2 3TT","la":"Leicester","era":"trad","nn":486,"risk":27,"cat":"green"},{"name":"Crown Hills Hotel","lat":52.63496,"lon":-1.09348,"postcode":"LE5 4FF","la":"Leicester","era":"trad","nn":431,"risk":26,"cat":"green"},{"name":"Daman Flavours @ Victoria Jubilee Bar And Restaurant","lat":52.65425,"lon":-1.11503,"postcode":"LE4 6NT","la":"Leicester","era":"other","nn":299,"risk":25,"cat":"green"},{"name":"Distillery/88thSt/ValueMighty/SinCity/PizzaAmore/DoughMaster","lat":52.63251,"lon":-1.13368,"postcode":"LE1 6DN","la":"Leicester","era":"other","nn":31,"risk":24,"cat":"green"},{"name":"Dog House Bar Leicester","lat":52.63103,"lon":-1.14544,"postcode":"LE3 5LG","la":"Leicester","era":"mod","nn":35,"risk":24,"cat":"green"},{"name":"Dover Castle","lat":52.63157,"lon":-1.12966,"postcode":"LE1 6PT","la":"Leicester","era":"other","nn":114,"risk":24,"cat":"green"},{"name":"Droglites","lat":52.62405,"lon":-1.13417,"postcode":"LE2 7TR","la":"Leicester","era":"other","nn":263,"risk":25,"cat":"green"},{"name":"Duffy's","lat":52.63262,"lon":-1.13411,"postcode":"LE1 6BU","la":"Leicester","era":"other","nn":31,"risk":24,"cat":"green"},{"name":"East Belgrave Conservative Club","lat":52.65421,"lon":-1.1016,"postcode":"LE4 9BX","la":"Leicester","era":"other","nn":587,"risk":32,"cat":"amber"},{"name":"Emvee Lounge","lat":52.64861,"lon":-1.1166,"postcode":"LE4 6FG","la":"Leicester","era":"mod","nn":0,"risk":23,"cat":"green"},{"name":"Firebug","lat":52.63235,"lon":-1.13634,"postcode":"LE1 5JN","la":"Leicester","era":"other","nn":0,"risk":23,"cat":"green"},{"name":"FoxhutBar (Bricklayer Arms)","lat":52.62934,"lon":-1.13299,"postcode":"LE2 7AB","la":"Leicester","era":"other","nn":153,"risk":24,"cat":"green"},{"name":"Friar Lane & Epworth FC","lat":52.60822,"lon":-1.12845,"postcode":"LE2 6FT","la":"Leicester","era":"other","nn":453,"risk":27,"cat":"green"},{"name":"Golden Beach Function Suite","lat":52.63361,"lon":-1.13875,"postcode":"LE1 5SH","la":"Leicester","era":"other","nn":188,"risk":25,"cat":"green"},{"name":"Green Lane Social Club","lat":52.63915,"lon":-1.10436,"postcode":"LE5 3TP","la":"Leicester","era":"mod","nn":93,"risk":24,"cat":"green"},{"name":"Gurkha Curry At The Durham Ox","lat":52.64252,"lon":-1.11775,"postcode":"LE1 2HJ","la":"Leicester","era":"other","nn":610,"risk":28,"cat":"green"},{"name":"Hansom Cab","lat":52.63624,"lon":-1.12878,"postcode":"LE1 1WB","la":"Leicester","era":"other","nn":0,"risk":23,"cat":"green"},{"name":"Harini's FUSIC","lat":52.64411,"lon":-1.10551,"postcode":"LE5 0DQ","la":"Leicester","era":"other","nn":398,"risk":26,"cat":"green"},{"name":"Heathley Park","lat":52.65186,"lon":-1.16677,"postcode":"LE3 9EQ","la":"Leicester","era":"other","nn":840,"risk":49,"cat":"amber"},{"name":"Helsinki","lat":52.63602,"lon":-1.12727,"postcode":"LE1 1SB","la":"Leicester","era":"other","nn":80,"risk":24,"cat":"green"},{"name":"High Cross","lat":52.63563,"lon":-1.13811,"postcode":"LE1 4JB","la":"Leicester","era":"trad","nn":0,"risk":23,"cat":"green"},{"name":"Hogarths","lat":52.63408,"lon":-1.135,"postcode":"LE1 5AW","la":"Leicester","era":"other","nn":35,"risk":24,"cat":"green"},{"name":"Indian Queen Club","lat":52.65149,"lon":-1.11878,"postcode":"LE4 6JU","la":"Leicester","era":"trad","nn":352,"risk":26,"cat":"green"},{"name":"Inside No9","lat":52.6342,"lon":-1.13426,"postcode":"LE1 5GG","la":"Leicester","era":"other","nn":6,"risk":23,"cat":"green"},{"name":"Keepers Lodge","lat":52.66547,"lon":-1.16725,"postcode":"LE4 1DF","la":"Leicester","era":"other","nn":1092,"risk":54,"cat":"amber"},{"name":"King Richard III","lat":52.63571,"lon":-1.13918,"postcode":"LE1 4NN","la":"Leicester","era":"trad","nn":0,"risk":23,"cat":"green"},{"name":"Kings Head","lat":52.6307,"lon":-1.13161,"postcode":"LE1 6RL","la":"Leicester","era":"trad","nn":25,"risk":24,"cat":"green"},{"name":"Knighton Conservative Club","lat":52.61667,"lon":-1.1181,"postcode":"LE2 3AJ","la":"Leicester","era":"other","nn":86,"risk":24,"cat":"green"},{"name":"Kohinoor Leicester","lat":52.63791,"lon":-1.10061,"postcode":"LE5 3TQ","la":"Leicester","era":"other","nn":50,"risk":24,"cat":"green"},{"name":"Latimer Ward Conservative Club","lat":52.64861,"lon":-1.1166,"postcode":"LE4 6FG","la":"Leicester","era":"other","nn":0,"risk":23,"cat":"green"},{"name":"Leicester Banks Sports Club","lat":52.60275,"lon":-1.15462,"postcode":"LE2 8PR","la":"Leicester","era":"other","nn":20,"risk":24,"cat":"green"},{"name":"Leicester Electricity Sports Cricket  Club","lat":52.62282,"lon":-1.1375,"postcode":"LE2 7JR","la":"Leicester","era":"other","nn":261,"risk":25,"cat":"green"},{"name":"Leicester Estonian House","lat":52.63526,"lon":-1.15208,"postcode":"LE3 5RS","la":"Leicester","era":"other","nn":71,"risk":24,"cat":"green"},{"name":"Leicester Indoor Bowls Club","lat":52.64333,"lon":-1.14099,"postcode":"LE3 5AS","la":"Leicester","era":"other","nn":231,"risk":25,"cat":"green"},{"name":"Leicester Railwaymen's Club And Institute","lat":52.63807,"lon":-1.09992,"postcode":"LE5 4QA","la":"Leicester","era":"trad","nn":50,"risk":24,"cat":"green"},{"name":"Leicester Senior Service Club","lat":52.66121,"lon":-1.12438,"postcode":"LE4 5PN","la":"Leicester","era":"other","nn":369,"risk":26,"cat":"green"},{"name":"Leicester Sports Centre","lat":52.61732,"lon":-1.13415,"postcode":"LE2 7SR","la":"Leicester","era":"other","nn":398,"risk":26,"cat":"green"},{"name":"Local Hero","lat":52.62079,"lon":-1.13556,"postcode":"LE2 7LB","la":"Leicester","era":"other","nn":160,"risk":24,"cat":"green"},{"name":"Marten Inn/Paddys","lat":52.64767,"lon":-1.10755,"postcode":"LE4 6EU","la":"Leicester","era":"trad","nn":408,"risk":26,"cat":"green"},{"name":"Melton Hotel","lat":52.65669,"lon":-1.11692,"postcode":"LE4 6QT","la":"Leicester","era":"other","nn":299,"risk":25,"cat":"green"},{"name":"Merry Monarch","lat":52.63121,"lon":-1.15367,"postcode":"LE3 0LP","la":"Leicester","era":"other","nn":253,"risk":25,"cat":"green"},{"name":"Metal Monocle","lat":52.6313,"lon":-1.14568,"postcode":"LE3 5LH","la":"Leicester","era":"other","nn":21,"risk":24,"cat":"green"},{"name":"Midas","lat":52.63533,"lon":-1.12896,"postcode":"LE1 1UT","la":"Leicester","era":"other","nn":0,"risk":23,"cat":"green"},{"name":"Milap Club","lat":52.63772,"lon":-1.11336,"postcode":"LE5 3ED","la":"Leicester","era":"other","nn":489,"risk":27,"cat":"green"},{"name":"Mosh","lat":52.63527,"lon":-1.13932,"postcode":"LE1 4LD","la":"Leicester","era":"other","nn":50,"risk":24,"cat":"green"},{"name":"Mount Zion Inn","lat":52.63192,"lon":-1.11751,"postcode":"LE2 0SE","la":"Leicester","era":"trad","nn":526,"risk":27,"cat":"green"},{"name":"New Parks Social Club","lat":52.64726,"lon":-1.18127,"postcode":"LE3 9LD","la":"Leicester","era":"mod","nn":1104,"risk":54,"cat":"amber"},{"name":"New Road Inn","lat":52.61663,"lon":-1.12671,"postcode":"LE2 6BH","la":"Leicester","era":"trad","nn":508,"risk":27,"cat":"green"},{"name":"Newfoundpool WMC","lat":52.64141,"lon":-1.15576,"postcode":"LE3 9FJ","la":"Leicester","era":"other","nn":708,"risk":28,"cat":"green"},{"name":"Nine Bar","lat":52.62777,"lon":-1.14959,"postcode":"LE3 0BS","la":"Leicester","era":"other","nn":164,"risk":25,"cat":"green"},{"name":"Nottingham Odd Fellows Club And Institute","lat":52.63637,"lon":-1.12831,"postcode":"LE1 1WB","la":"Leicester","era":"other","nn":35,"risk":24,"cat":"green"},{"name":"O2","lat":52.62193,"lon":-1.12382,"postcode":"LE1 7RH","la":"Leicester","era":"other","nn":606,"risk":28,"cat":"green"},{"name":"Oases Bar","lat":52.62646,"lon":-1.15068,"postcode":"LE3 0BT","la":"Leicester","era":"other","nn":164,"risk":25,"cat":"green"},{"name":"Odd Bar","lat":52.63235,"lon":-1.13634,"postcode":"LE1 5JN","la":"Leicester","era":"other","nn":0,"risk":23,"cat":"green"},{"name":"Old Aylestone Constitutional Club Ltd","lat":52.60298,"lon":-1.15496,"postcode":"LE2 8TG","la":"Leicester","era":"other","nn":34,"risk":24,"cat":"green"},{"name":"Old Aylestone Social Club Ltd","lat":52.60327,"lon":-1.15755,"postcode":"LE2 8LU","la":"Leicester","era":"mod","nn":0,"risk":23,"cat":"green"},{"name":"Ole Moses' Cabin","lat":52.64164,"lon":-1.14297,"postcode":"LE3 5AG","la":"Leicester","era":"other","nn":231,"risk":25,"cat":"green"},{"name":"O'Neills","lat":52.63482,"lon":-1.13577,"postcode":"LE1 5DR","la":"Leicester","era":"other","nn":57,"risk":24,"cat":"green"},{"name":"Palmarina Bar","lat":52.63434,"lon":-1.14927,"postcode":"LE3 5QG","la":"Leicester","era":"other","nn":174,"risk":25,"cat":"green"},{"name":"Polonez Bar","lat":52.63114,"lon":-1.14993,"postcode":"LE3 0RB","la":"Leicester","era":"other","nn":253,"risk":25,"cat":"green"},{"name":"Queens Road Tap","lat":52.61719,"lon":-1.11715,"postcode":"LE2 1TT","la":"Leicester","era":"other","nn":86,"risk":24,"cat":"green"},{"name":"R Bar","lat":52.63325,"lon":-1.12854,"postcode":"LE1 1DJ","la":"Leicester","era":"other","nn":54,"risk":24,"cat":"green"},{"name":"Rack 'N' Roll","lat":52.64058,"lon":-1.1304,"postcode":"LE1 3XL","la":"Leicester","era":"other","nn":131,"risk":24,"cat":"green"},{"name":"Rainbow And Dove","lat":52.63329,"lon":-1.12775,"postcode":"LE1 1LA","la":"Leicester","era":"other","nn":54,"risk":24,"cat":"green"},{"name":"Regent Club","lat":52.62729,"lon":-1.12604,"postcode":"LE1 7DA","la":"Leicester","era":"other","nn":310,"risk":26,"cat":"green"},{"name":"Republic","lat":52.63952,"lon":-1.13402,"postcode":"LE1 3AG","la":"Leicester","era":"other","nn":171,"risk":25,"cat":"green"},{"name":"Revolution","lat":52.62968,"lon":-1.12837,"postcode":"LE1 6TF","la":"Leicester","era":"other","nn":227,"risk":25,"cat":"green"},{"name":"Royal Leicesters Bar And Restaurant","lat":52.66317,"lon":-1.10385,"postcode":"LE4 7ZX","la":"Leicester","era":"other","nn":1008,"risk":53,"cat":"amber"},{"name":"Royal Oak","lat":52.63948,"lon":-1.13108,"postcode":"LE1 3GR","la":"Leicester","era":"trad","nn":131,"risk":24,"cat":"green"},{"name":"Royal Standard Leicester","lat":52.63545,"lon":-1.13018,"postcode":"LE1 1FA","la":"Leicester","era":"trad","nn":83,"risk":24,"cat":"green"},{"name":"Rutland And Derby Arms","lat":52.63235,"lon":-1.13634,"postcode":"LE1 5JN","la":"Leicester","era":"trad","nn":0,"risk":23,"cat":"green"},{"name":"Scarlet Pimpernel","lat":52.59225,"lon":-1.15406,"postcode":"LE2 9AW","la":"Leicester","era":"other","nn":867,"risk":49,"cat":"amber"},{"name":"Seven Spice Bar","lat":52.65018,"lon":-1.12759,"postcode":"LE4 5GG","la":"Leicester","era":"other","nn":203,"risk":25,"cat":"green"},{"name":"Shoemaker","lat":52.63773,"lon":-1.19182,"postcode":"LE3 6NE","la":"Leicester","era":"other","nn":1277,"risk":55,"cat":"amber"},{"name":"Sir Charles Napier","lat":52.63513,"lon":-1.15747,"postcode":"LE3 6AR","la":"Leicester","era":"other","nn":365,"risk":26,"cat":"green"},{"name":"Sir Robert Peel","lat":52.62747,"lon":-1.1379,"postcode":"LE2 7DD","la":"Leicester","era":"other","nn":198,"risk":25,"cat":"green"},{"name":"Skandals","lat":52.63624,"lon":-1.12878,"postcode":"LE1 1WB","la":"Leicester","era":"other","nn":0,"risk":23,"cat":"green"},{"name":"Soar Point","lat":52.63089,"lon":-1.14197,"postcode":"LE2 7BY","la":"Leicester","era":"other","nn":159,"risk":24,"cat":"green"},{"name":"Sophy Bar","lat":52.63146,"lon":-1.13219,"postcode":"LE1 6RJ","la":"Leicester","era":"other","nn":30,"risk":24,"cat":"green"},{"name":"Sue Townsend Theatre","lat":52.63128,"lon":-1.13569,"postcode":"LE1 5TE","la":"Leicester","era":"other","nn":88,"risk":24,"cat":"green"},{"name":"SU's Lounge","lat":52.62897,"lon":-1.13949,"postcode":"LE2 7DR","la":"Leicester","era":"mod","nn":198,"risk":25,"cat":"green"},{"name":"The 2Funky Lounge","lat":52.63202,"lon":-1.14487,"postcode":"LE3 5NH","la":"Leicester","era":"mod","nn":0,"risk":23,"cat":"green"},{"name":"The Aberdale Inn","lat":52.59635,"lon":-1.12095,"postcode":"LE2 6HT","la":"Leicester","era":"trad","nn":756,"risk":49,"cat":"amber"},{"name":"The Addies Bar","lat":52.64864,"lon":-1.15551,"postcode":"LE3 9TA","la":"Leicester","era":"other","nn":579,"risk":32,"cat":"amber"},{"name":"The Ale Stone","lat":52.60261,"lon":-1.15479,"postcode":"LE2 8PR","la":"Leicester","era":"other","nn":20,"risk":24,"cat":"green"},{"name":"The Ale Wagon","lat":52.63456,"lon":-1.128,"postcode":"LE1 1RE","la":"Leicester","era":"other","nn":40,"risk":24,"cat":"green"},{"name":"The Basement","lat":52.63172,"lon":-1.13227,"postcode":"LE1 6HH","la":"Leicester","era":"other","nn":30,"risk":24,"cat":"green"},{"name":"The Black Horse","lat":52.60306,"lon":-1.15899,"postcode":"LE2 8NA","la":"Leicester","era":"trad","nn":100,"risk":24,"cat":"green"},{"name":"The Blackbird","lat":52.64616,"lon":-1.14796,"postcode":"LE4 0FW","la":"Leicester","era":"other","nn":566,"risk":27,"cat":"green"},{"name":"The Blue Boar","lat":52.63315,"lon":-1.1353,"postcode":"LE1 5JN","la":"Leicester","era":"other","nn":29,"risk":24,"cat":"green"},{"name":"The Bowling Green","lat":52.63054,"lon":-1.1362,"postcode":"LE1 5XW","la":"Leicester","era":"other","nn":88,"risk":24,"cat":"green"},{"name":"The Broadway","lat":52.65717,"lon":-1.13385,"postcode":"LE4 5QH","la":"Leicester","era":"other","nn":307,"risk":26,"cat":"green"},{"name":"The Cedars","lat":52.62116,"lon":-1.07567,"postcode":"LE5 6DN","la":"Leicester","era":"other","nn":931,"risk":50,"cat":"amber"},{"name":"The Charny","lat":52.64115,"lon":-1.10881,"postcode":"LE5 3GH","la":"Leicester","era":"other","nn":281,"risk":25,"cat":"green"},{"name":"The Clarendon Inn","lat":52.61792,"lon":-1.11563,"postcode":"LE2 1TS","la":"Leicester","era":"trad","nn":131,"risk":24,"cat":"green"},{"name":"The Counting House","lat":52.62122,"lon":-1.13329,"postcode":"LE2 7LH","la":"Leicester","era":"other","nn":160,"risk":24,"cat":"green"},{"name":"The Cricketers","lat":52.60933,"lon":-1.14286,"postcode":"LE2 8AD","la":"Leicester","era":"other","nn":533,"risk":32,"cat":"amber"},{"name":"The Crows Nest","lat":52.63464,"lon":-1.15181,"postcode":"LE3 5QW","la":"Leicester","era":"other","nn":71,"risk":24,"cat":"green"},{"name":"The Dove","lat":52.62628,"lon":-1.05865,"postcode":"LE5 6LH","la":"Leicester","era":"other","nn":1056,"risk":53,"cat":"amber"},{"name":"The Exchange Bar","lat":52.6347,"lon":-1.12855,"postcode":"LE1 1RD","la":"Leicester","era":"other","nn":0,"risk":23,"cat":"green"},{"name":"The Fountain Inn","lat":52.6368,"lon":-1.12917,"postcode":"LE1 3PJ","la":"Leicester","era":"trad","nn":68,"risk":24,"cat":"green"},{"name":"The Framework Brewery Tap","lat":52.64225,"lon":-1.13678,"postcode":"LE1 3BW","la":"Leicester","era":"other","nn":309,"risk":26,"cat":"green"},{"name":"The Gadabout","lat":52.63491,"lon":-1.1366,"postcode":"LE1 5FQ","la":"Leicester","era":"other","nn":0,"risk":23,"cat":"green"},{"name":"The Glassy Club","lat":52.63973,"lon":-1.10535,"postcode":"LE5 3TH","la":"Leicester","era":"other","nn":93,"risk":24,"cat":"green"},{"name":"The Globe","lat":52.63539,"lon":-1.13569,"postcode":"LE1 5EU","la":"Leicester","era":"other","nn":64,"risk":24,"cat":"green"},{"name":"The Grand Union","lat":52.63048,"lon":-1.13172,"postcode":"LE1 6RL","la":"Leicester","era":"other","nn":0,"risk":23,"cat":"green"},{"name":"The Hind","lat":52.63013,"lon":-1.12472,"postcode":"LE2 0PD","la":"Leicester","era":"other","nn":230,"risk":25,"cat":"green"},{"name":"The Jungle Club","lat":52.6585,"lon":-1.12026,"postcode":"LE4 5ER","la":"Leicester","era":"other","nn":302,"risk":25,"cat":"green"},{"name":"The Kings Head (Black Country Ales)","lat":52.63048,"lon":-1.13172,"postcode":"LE1 6RL","la":"Leicester","era":"trad","nn":0,"risk":23,"cat":"green"},{"name":"The Lancaster Arms","lat":52.63738,"lon":-1.09847,"postcode":"LE5 4PA","la":"Leicester","era":"trad","nn":124,"risk":24,"cat":"green"},{"name":"The Locker Room","lat":52.63302,"lon":-1.13127,"postcode":"LE1 6SL","la":"Leicester","era":"other","nn":20,"risk":24,"cat":"green"},{"name":"The Lounge","lat":52.6038,"lon":-1.13951,"postcode":"LE2 6UG","la":"Leicester","era":"mod","nn":655,"risk":33,"cat":"amber"},{"name":"The Market Tavern","lat":52.63415,"lon":-1.13429,"postcode":"LE1 5GG","la":"Leicester","era":"other","nn":6,"risk":23,"cat":"green"},{"name":"The Marquis","lat":52.62719,"lon":-1.12031,"postcode":"LE2 1EF","la":"Leicester","era":"other","nn":298,"risk":25,"cat":"green"},{"name":"The Musician","lat":52.63903,"lon":-1.12632,"postcode":"LE1 2DE","la":"Leicester","era":"other","nn":235,"risk":25,"cat":"green"},{"name":"The Old Horse","lat":52.62563,"lon":-1.1167,"postcode":"LE2 1ND","la":"Leicester","era":"trad","nn":298,"risk":25,"cat":"green"},{"name":"The Queen Of Bradgate","lat":52.63563,"lon":-1.13811,"postcode":"LE1 4JB","la":"Leicester","era":"trad","nn":0,"risk":23,"cat":"green"},{"name":"The Real Ale Classroom","lat":52.61683,"lon":-1.1,"postcode":"LE2 2DA","la":"Leicester","era":"other","nn":293,"risk":45,"cat":"amber"},{"name":"The Real Ale Classroom","lat":52.6347,"lon":-1.12855,"postcode":"LE1 1RD","la":"Leicester","era":"other","nn":0,"risk":23,"cat":"green"},{"name":"The Salmon","lat":52.6382,"lon":-1.13531,"postcode":"LE1 4QA","la":"Leicester","era":"other","nn":114,"risk":24,"cat":"green"},{"name":"The Shed","lat":52.63533,"lon":-1.12896,"postcode":"LE1 1UT","la":"Leicester","era":"other","nn":0,"risk":23,"cat":"green"},{"name":"The Soundhouse","lat":52.63544,"lon":-1.1245,"postcode":"LE1 1SJ","la":"Leicester","era":"other","nn":89,"risk":24,"cat":"green"},{"name":"The Stirrup Cup","lat":52.63858,"lon":-1.05784,"postcode":"LE5 2NG","la":"Leicester","era":"other","nn":809,"risk":49,"cat":"amber"},{"name":"The Talbot Inn","lat":52.66066,"lon":-1.12978,"postcode":"LE4 5PF","la":"Leicester","era":"trad","nn":180,"risk":25,"cat":"green"},{"name":"The Terrace","lat":52.6317,"lon":-1.13134,"postcode":"LE1 6GD","la":"Leicester","era":"other","nn":62,"risk":24,"cat":"green"},{"name":"The Tom Hoskins","lat":52.65966,"lon":-1.1319,"postcode":"LE4 5QE","la":"Leicester","era":"other","nn":180,"risk":25,"cat":"green"},{"name":"The Tree","lat":52.63563,"lon":-1.13811,"postcode":"LE1 4JB","la":"Leicester","era":"other","nn":0,"risk":23,"cat":"green"},{"name":"The Two-Tailed Lion","lat":52.633,"lon":-1.13565,"postcode":"LE1 5JN","la":"Leicester","era":"trad","nn":29,"risk":24,"cat":"green"},{"name":"The Verandah","lat":52.61802,"lon":-1.11758,"postcode":"LE2 1TT","la":"Leicester","era":"other","nn":0,"risk":23,"cat":"green"},{"name":"The Western","lat":52.62824,"lon":-1.14711,"postcode":"LE3 0GA","la":"Leicester","era":"other","nn":175,"risk":25,"cat":"green"},{"name":"The Willow","lat":52.66718,"lon":-1.08957,"postcode":"LE4 9JR","la":"Leicester","era":"trad","nn":1061,"risk":53,"cat":"amber"},{"name":"The Y Bar","lat":52.63173,"lon":-1.12688,"postcode":"LE1 6EY","la":"Leicester","era":"other","nn":36,"risk":24,"cat":"green"},{"name":"Toots And Maytals","lat":52.63571,"lon":-1.13918,"postcode":"LE1 4NN","la":"Leicester","era":"other","nn":0,"risk":23,"cat":"green"},{"name":"Union Inn","lat":52.60327,"lon":-1.15755,"postcode":"LE2 8LU","la":"Leicester","era":"trad","nn":0,"risk":23,"cat":"green"},{"name":"Velvet Lounge/Panache","lat":52.63533,"lon":-1.12896,"postcode":"LE1 1UT","la":"Leicester","era":"mod","nn":0,"risk":23,"cat":"green"},{"name":"Victoria Tennis Club","lat":52.61849,"lon":-1.10336,"postcode":"LE2 2BG","la":"Leicester","era":"trad","nn":293,"risk":25,"cat":"green"},{"name":"Voo Bar","lat":52.63702,"lon":-1.12742,"postcode":"LE1 3PL","la":"Leicester","era":"other","nn":94,"risk":24,"cat":"green"},{"name":"Walkabout","lat":52.63319,"lon":-1.1312,"postcode":"LE1 6SL","la":"Leicester","era":"other","nn":20,"risk":24,"cat":"green"},{"name":"Welford Bar And Grill","lat":52.61099,"lon":-1.12354,"postcode":"LE2 6BL","la":"Leicester","era":"mod","nn":453,"risk":27,"cat":"green"},{"name":"West End Working Mens Club","lat":52.6235,"lon":-1.16539,"postcode":"LE3 1LD","la":"Leicester","era":"trad","nn":0,"risk":41,"cat":"amber"},{"name":"West Leicester Conservative Club","lat":52.63011,"lon":-1.15794,"postcode":"LE3 0QU","la":"Leicester","era":"other","nn":313,"risk":26,"cat":"green"},{"name":"Anne Of Cleves","lat":52.76326,"lon":-0.88532,"postcode":"LE13 1AE","la":"Melton","era":"other","nn":53,"risk":36,"cat":"amber"},{"name":"Berkeley Arms","lat":52.76032,"lon":-0.73985,"postcode":"LE14 2AG","la":"Melton","era":"trad","nn":1431,"risk":68,"cat":"red"},{"name":"Charlie's Bar","lat":52.76522,"lon":-0.88624,"postcode":"LE13 1XA","la":"Melton","era":"other","nn":20,"risk":36,"cat":"amber"},{"name":"Cheney Arms","lat":52.7099,"lon":-0.98424,"postcode":"LE7 4XE","la":"Melton","era":"trad","nn":3880,"risk":86,"cat":"red"},{"name":"Crown And Plough","lat":52.8401,"lon":-0.92071,"postcode":"LE14 4NG","la":"Melton","era":"trad","nn":2096,"risk":73,"cat":"red"},{"name":"Cutting Room, Chik Box, K-Town Chicken, Locked And Loaded","lat":52.76571,"lon":-0.88576,"postcode":"LE13 1YE","la":"Melton","era":"other","nn":0,"risk":36,"cat":"amber"},{"name":"Edmondthorpe Social Club","lat":52.75005,"lon":-0.72703,"postcode":"LE14 2JU","la":"Melton","era":"mod","nn":1431,"risk":68,"cat":"red"},{"name":"Flying Childers","lat":52.75089,"lon":-0.94107,"postcode":"LE14 2DU","la":"Melton","era":"other","nn":1649,"risk":70,"cat":"red"},{"name":"Fox & Hounds","lat":52.66974,"lon":-0.81647,"postcode":"LE15 8LY","la":"Melton","era":"trad","nn":2921,"risk":79,"cat":"red"},{"name":"Generous Briton","lat":52.76525,"lon":-0.88595,"postcode":"LE13 1XA","la":"Melton","era":"other","nn":20,"risk":36,"cat":"amber"},{"name":"Holwell Sports And Social Club","lat":52.7704,"lon":-0.9262,"postcode":"LE14 3RD","la":"Melton","era":"mod","nn":1775,"risk":71,"cat":"red"},{"name":"Jacksons","lat":52.76439,"lon":-0.8862,"postcode":"LE13 1XD","la":"Melton","era":"other","nn":2,"risk":36,"cat":"amber"},{"name":"Melton Mowbray & District RAFA, Tornado Club","lat":52.76696,"lon":-0.8927,"postcode":"LE13 0HR","la":"Melton","era":"other","nn":163,"risk":37,"cat":"amber"},{"name":"Melton Premium Craft Distillers And Fur And Feather","lat":52.76923,"lon":-0.88818,"postcode":"LE13 1JY","la":"Melton","era":"mod","nn":0,"risk":36,"cat":"amber"},{"name":"Polish Catholic Mission","lat":52.75181,"lon":-0.8843,"postcode":"LE13 0AW","la":"Melton","era":"other","nn":999,"risk":63,"cat":"red"},{"name":"Round Corner Brewing","lat":52.76923,"lon":-0.88818,"postcode":"LE13 1JY","la":"Melton","era":"other","nn":0,"risk":36,"cat":"amber"},{"name":"Stag & Hounds","lat":52.68871,"lon":-0.88113,"postcode":"LE14 2JQ","la":"Melton","era":"trad","nn":2183,"risk":74,"cat":"red"},{"name":"Stilton Cheese Inn","lat":52.68721,"lon":-0.84884,"postcode":"LE14 2PZ","la":"Melton","era":"trad","nn":2183,"risk":74,"cat":"red"},{"name":"The Anchor","lat":52.82492,"lon":-0.97185,"postcode":"LE14 3HB","la":"Melton","era":"trad","nn":1151,"risk":67,"cat":"red"},{"name":"The Bell Inn","lat":52.75261,"lon":-0.97157,"postcode":"LE14 2NJ","la":"Melton","era":"trad","nn":1929,"risk":72,"cat":"red"},{"name":"The Black Swan","lat":52.76439,"lon":-0.88417,"postcode":"LE13 1XJ","la":"Melton","era":"trad","nn":84,"risk":37,"cat":"amber"},{"name":"The Blue Bell Inn","lat":52.75077,"lon":-1.00856,"postcode":"LE14 3DT","la":"Melton","era":"trad","nn":2498,"risk":76,"cat":"red"},{"name":"The Boat Inn","lat":52.76262,"lon":-0.88452,"postcode":"LE13 1AF","la":"Melton","era":"trad","nn":90,"risk":37,"cat":"amber"},{"name":"The Cherry Tree","lat":52.75621,"lon":-0.89724,"postcode":"LE13 0EW","la":"Melton","era":"other","nn":999,"risk":63,"cat":"red"},{"name":"The Crown Inn","lat":52.80748,"lon":-0.73296,"postcode":"LE14 4QB","la":"Melton","era":"trad","nn":2201,"risk":74,"cat":"red"},{"name":"The Crown Inn","lat":52.76374,"lon":-0.88524,"postcode":"LE13 1AE","la":"Melton","era":"trad","nn":53,"risk":36,"cat":"amber"},{"name":"The Crown Inn","lat":52.76452,"lon":-0.95073,"postcode":"LE14 3SA","la":"Melton","era":"trad","nn":1649,"risk":70,"cat":"red"},{"name":"The Crown Inn","lat":52.80816,"lon":-1.0053,"postcode":"LE14 3LF","la":"Melton","era":"trad","nn":2597,"risk":77,"cat":"red"},{"name":"The Grapes","lat":52.7644,"lon":-0.88621,"postcode":"LE13 1XD","la":"Melton","era":"other","nn":2,"risk":36,"cat":"amber"},{"name":"The Half Moon","lat":52.76583,"lon":-0.88729,"postcode":"LE13 1NW","la":"Melton","era":"other","nn":98,"risk":37,"cat":"amber"},{"name":"The Kettleby Cross","lat":52.76619,"lon":-0.8894,"postcode":"LE13 0UJ","la":"Melton","era":"trad","nn":95,"risk":37,"cat":"amber"},{"name":"The Kings Arms","lat":52.81036,"lon":-0.87074,"postcode":"LE14 4DW","la":"Melton","era":"trad","nn":3852,"risk":85,"cat":"red"},{"name":"The Nags Head","lat":52.82685,"lon":-0.73968,"postcode":"LE14 4RN","la":"Melton","era":"trad","nn":2201,"risk":74,"cat":"red"},{"name":"The Nags Head","lat":52.87209,"lon":-0.89581,"postcode":"LE14 4BN","la":"Melton","era":"trad","nn":1836,"risk":71,"cat":"red"},{"name":"The Plough Inn","lat":52.87201,"lon":-0.85468,"postcode":"LE14 4HW","la":"Melton","era":"trad","nn":2761,"risk":78,"cat":"red"},{"name":"The Roadhouse","lat":52.76703,"lon":-0.88954,"postcode":"LE13 1TT","la":"Melton","era":"other","nn":95,"risk":37,"cat":"amber"},{"name":"The Rose And Crown","lat":52.85737,"lon":-0.9082,"postcode":"LE14 4JE","la":"Melton","era":"trad","nn":1836,"risk":71,"cat":"red"},{"name":"The Royal British Legion","lat":52.76454,"lon":-0.88151,"postcode":"LE13 1RB","la":"Melton","era":"trad","nn":96,"risk":37,"cat":"amber"},{"name":"The Royal Horseshoes Inn","lat":52.81345,"lon":-0.81367,"postcode":"LE14 4AJ","la":"Melton","era":"trad","nn":3852,"risk":85,"cat":"red"},{"name":"The Royal Oak","lat":52.72207,"lon":-0.90163,"postcode":"LE14 2ET","la":"Melton","era":"trad","nn":3507,"risk":83,"cat":"red"},{"name":"The Saddle Inn","lat":52.68378,"lon":-0.9221,"postcode":"LE14 2HU","la":"Melton","era":"trad","nn":2816,"risk":78,"cat":"red"},{"name":"The Sugar Loaf","lat":52.80647,"lon":-0.92853,"postcode":"LE14 3JB","la":"Melton","era":"other","nn":3561,"risk":83,"cat":"red"},{"name":"The Welby","lat":52.76821,"lon":-0.89145,"postcode":"LE13 0NP","la":"Melton","era":"other","nn":163,"risk":37,"cat":"amber"},{"name":"The White Hart","lat":52.76454,"lon":-0.88294,"postcode":"LE13 1RB","la":"Melton","era":"trad","nn":84,"risk":37,"cat":"amber"},{"name":"Tubes Nightspot","lat":52.76571,"lon":-0.88576,"postcode":"LE13 1YE","la":"Melton","era":"other","nn":0,"risk":36,"cat":"amber"},{"name":"East Carlton Cricket Club","lat":52.49618,"lon":-0.77447,"postcode":"LE16 8YF","la":"North Northamptonshire","era":"other","nn":1592,"risk":55,"cat":"amber"},{"name":"The Fox Inn","lat":52.48652,"lon":-0.80349,"postcode":"LE16 8QG","la":"North Northamptonshire","era":"trad","nn":1021,"risk":51,"cat":"amber"},{"name":"The George Inn","lat":52.51051,"lon":-0.83133,"postcode":"LE16 8HF","la":"North Northamptonshire","era":"trad","nn":3226,"risk":67,"cat":"red"},{"name":"The Royal George","lat":52.50286,"lon":-0.75367,"postcode":"LE16 8XE","la":"North Northamptonshire","era":"trad","nn":1592,"risk":55,"cat":"amber"},{"name":"The Swan at Braybrook","lat":52.45121,"lon":-0.87705,"postcode":"LE16 8LH","la":"North Northamptonshire","era":"trad","nn":2236,"risk":60,"cat":"amber"},{"name":"The White Horse Inn","lat":52.48127,"lon":-0.81585,"postcode":"LE16 8PY","la":"North Northamptonshire","era":"trad","nn":1021,"risk":51,"cat":"amber"},{"name":"Ashby Ivanhoe Football Club","lat":52.73791,"lon":-1.46798,"postcode":"LE65 1TS","la":"North West Leicestershire","era":"other","nn":712,"risk":49,"cat":"amber"},{"name":"Bitter And Twisted Micro Pub","lat":52.72519,"lon":-1.37355,"postcode":"LE67 3ED","la":"North West Leicestershire","era":"other","nn":95,"risk":28,"cat":"green"},{"name":"Bowling Green Inn","lat":52.74739,"lon":-1.47202,"postcode":"LE65 1HA","la":"North West Leicestershire","era":"trad","nn":88,"risk":28,"cat":"green"},{"name":"Buddies lounge","lat":52.72382,"lon":-1.36928,"postcode":"LE67 3EP","la":"North West Leicestershire","era":"mod","nn":325,"risk":29,"cat":"green"},{"name":"Charnwood Arms","lat":52.70181,"lon":-1.32618,"postcode":"LE67 1TB","la":"North West Leicestershire","era":"trad","nn":728,"risk":50,"cat":"amber"},{"name":"Coalville Rugby Football Club","lat":52.72627,"lon":-1.34838,"postcode":"LE67 5PF","la":"North West Leicestershire","era":"other","nn":540,"risk":51,"cat":"amber"},{"name":"Coalville Town Football Club","lat":52.72373,"lon":-1.37734,"postcode":"LE67 3DA","la":"North West Leicestershire","era":"other","nn":187,"risk":28,"cat":"green"},{"name":"Ellistown Working Mens Club","lat":52.69797,"lon":-1.36572,"postcode":"LE67 1EN","la":"North West Leicestershire","era":"trad","nn":1355,"risk":59,"cat":"amber"},{"name":"Heather St John Football Club","lat":52.69671,"lon":-1.42299,"postcode":"LE67 2QJ","la":"North West Leicestershire","era":"other","nn":204,"risk":46,"cat":"amber"},{"name":"Hugglescote Social Club Ltd","lat":52.70994,"lon":-1.36949,"postcode":"LE67 2FP","la":"North West Leicestershire","era":"mod","nn":685,"risk":52,"cat":"amber"},{"name":"Ibstock Bowling Club","lat":52.69516,"lon":-1.39527,"postcode":"LE67 6HN","la":"North West Leicestershire","era":"other","nn":657,"risk":37,"cat":"amber"},{"name":"Ivanhoe Social Club","lat":52.74427,"lon":-1.47615,"postcode":"LE65 2GW","la":"North West Leicestershire","era":"mod","nn":259,"risk":29,"cat":"green"},{"name":"K Arms Whitwick Ltd","lat":52.73926,"lon":-1.35646,"postcode":"LE67 5ET","la":"North West Leicestershire","era":"trad","nn":0,"risk":27,"cat":"green"},{"name":"Long Whatton Cricket Club","lat":52.80736,"lon":-1.2917,"postcode":"LE12 5DF","la":"North West Leicestershire","era":"other","nn":37,"risk":45,"cat":"amber"},{"name":"Man Within Compass","lat":52.74594,"lon":-1.35055,"postcode":"LE67 5AS","la":"North West Leicestershire","era":"other","nn":682,"risk":32,"cat":"amber"},{"name":"Manhattans","lat":52.74705,"lon":-1.47084,"postcode":"LE65 1AN","la":"North West Leicestershire","era":"other","nn":0,"risk":27,"cat":"green"},{"name":"Memorial Hall","lat":52.72859,"lon":-1.46614,"postcode":"LE65 1WJ","la":"North West Leicestershire","era":"other","nn":1044,"risk":57,"cat":"amber"},{"name":"Monkey Walk","lat":52.72318,"lon":-1.37472,"postcode":"LE67 3WD","la":"North West Leicestershire","era":"trad","nn":140,"risk":28,"cat":"green"},{"name":"New Inn","lat":52.75625,"lon":-1.39324,"postcode":"LE67 8JP","la":"North West Leicestershire","era":"trad","nn":403,"risk":47,"cat":"amber"},{"name":"Queens Head Hotel/Ciro's Night Club","lat":52.74788,"lon":-1.46958,"postcode":"LE65 1AH","la":"North West Leicestershire","era":"trad","nn":0,"risk":27,"cat":"green"},{"name":"Ram Inn","lat":52.68814,"lon":-1.39701,"postcode":"LE67 6LG","la":"North West Leicestershire","era":"trad","nn":154,"risk":33,"cat":"amber"},{"name":"Robin Hood","lat":52.73906,"lon":-1.38563,"postcode":"LE67 8QQ","la":"North West Leicestershire","era":"other","nn":731,"risk":52,"cat":"amber"},{"name":"Snibstone New Inn","lat":52.72477,"lon":-1.37477,"postcode":"LE67 3PE","la":"North West Leicestershire","era":"trad","nn":57,"risk":27,"cat":"green"},{"name":"Station Inn","lat":52.73463,"lon":-1.39366,"postcode":"LE67 8RE","la":"North West Leicestershire","era":"trad","nn":731,"risk":52,"cat":"amber"},{"name":"The Beeches","lat":52.74936,"lon":-1.48194,"postcode":"LE65 2LP","la":"North West Leicestershire","era":"other","nn":502,"risk":30,"cat":"green"},{"name":"The Birch Tree","lat":52.70755,"lon":-1.3314,"postcode":"LE67 1TD","la":"North West Leicestershire","era":"other","nn":728,"risk":52,"cat":"amber"},{"name":"The Black Horse","lat":52.74112,"lon":-1.35771,"postcode":"LE67 5DN","la":"North West Leicestershire","era":"trad","nn":122,"risk":28,"cat":"green"},{"name":"The Blue Bell Inn","lat":52.75053,"lon":-1.47474,"postcode":"LE65 2JG","la":"North West Leicestershire","era":"trad","nn":0,"risk":27,"cat":"green"},{"name":"The Bluebell","lat":52.75053,"lon":-1.47474,"postcode":"LE65 2JG","la":"North West Leicestershire","era":"other","nn":0,"risk":27,"cat":"green"},{"name":"The Bulls Head/88th Street/Loco Loco/Sin City Burger","lat":52.74788,"lon":-1.46958,"postcode":"LE65 1AH","la":"North West Leicestershire","era":"trad","nn":0,"risk":27,"cat":"green"},{"name":"The Cocktail Bar","lat":52.74656,"lon":-1.47256,"postcode":"LE65 1AL","la":"North West Leicestershire","era":"other","nn":8,"risk":27,"cat":"green"},{"name":"The Cross Keys","lat":52.77067,"lon":-1.40636,"postcode":"LE67 8PJ","la":"North West Leicestershire","era":"trad","nn":944,"risk":54,"cat":"amber"},{"name":"The Crown Inn","lat":52.69372,"lon":-1.42371,"postcode":"LE67 2QP","la":"North West Leicestershire","era":"trad","nn":133,"risk":45,"cat":"amber"},{"name":"The Donington Arms","lat":52.71005,"lon":-1.37966,"postcode":"LE67 2FW","la":"North West Leicestershire","era":"trad","nn":685,"risk":52,"cat":"amber"},{"name":"The Emporium","lat":52.7244,"lon":-1.3742,"postcode":"LE67 3PD","la":"North West Leicestershire","era":"other","nn":0,"risk":27,"cat":"green"},{"name":"The Engineers","lat":52.7244,"lon":-1.3742,"postcode":"LE67 3PD","la":"North West Leicestershire","era":"other","nn":0,"risk":27,"cat":"green"},{"name":"The Falcon Inn","lat":52.80703,"lon":-1.29176,"postcode":"LE12 5DG","la":"North West Leicestershire","era":"trad","nn":37,"risk":45,"cat":"amber"},{"name":"The Ferrers Arms","lat":52.77008,"lon":-1.42978,"postcode":"LE65 1SD","la":"North West Leicestershire","era":"trad","nn":1576,"risk":61,"cat":"red"},{"name":"The Gelsmoor Inn","lat":52.7644,"lon":-1.39689,"postcode":"LE67 8HP","la":"North West Leicestershire","era":"trad","nn":939,"risk":51,"cat":"amber"},{"name":"The George & Dragon","lat":52.76069,"lon":-1.37119,"postcode":"LE67 8UH","la":"North West Leicestershire","era":"trad","nn":562,"risk":51,"cat":"amber"},{"name":"The George Inn","lat":52.75274,"lon":-1.39173,"postcode":"LE67 8HF","la":"North West Leicestershire","era":"trad","nn":403,"risk":50,"cat":"amber"},{"name":"The King's Arms","lat":52.72535,"lon":-1.39844,"postcode":"LE67 2AF","la":"North West Leicestershire","era":"trad","nn":1081,"risk":57,"cat":"amber"},{"name":"The Kings Arms Pub","lat":52.74201,"lon":-1.40527,"postcode":"LE67 8GD","la":"North West Leicestershire","era":"trad","nn":1133,"risk":57,"cat":"amber"},{"name":"The Lady Jane","lat":52.73055,"lon":-1.34456,"postcode":"LE67 5PH","la":"North West Leicestershire","era":"other","nn":540,"risk":51,"cat":"amber"},{"name":"The Lamb Inn","lat":52.74705,"lon":-1.47084,"postcode":"LE65 1AN","la":"North West Leicestershire","era":"trad","nn":0,"risk":27,"cat":"green"},{"name":"The Queens Head","lat":52.78131,"lon":-1.33947,"postcode":"LE12 9TP","la":"North West Leicestershire","era":"trad","nn":3099,"risk":71,"cat":"red"},{"name":"The Queens Head","lat":52.69492,"lon":-1.42363,"postcode":"LE67 2QP","la":"North West Leicestershire","era":"trad","nn":133,"risk":45,"cat":"amber"},{"name":"The Railway Tavern","lat":52.74195,"lon":-1.47619,"postcode":"LE65 2PW","la":"North West Leicestershire","era":"trad","nn":259,"risk":29,"cat":"green"},{"name":"The Royal Oak","lat":52.80355,"lon":-1.28327,"postcode":"LE12 5DB","la":"North West Leicestershire","era":"trad","nn":689,"risk":49,"cat":"amber"},{"name":"The Tap At 76","lat":52.74762,"lon":-1.46921,"postcode":"LE65 1AP","la":"North West Leicestershire","era":"mod","nn":0,"risk":27,"cat":"green"},{"name":"The Victoria","lat":52.72657,"lon":-1.36667,"postcode":"LE67 3FA","la":"North West Leicestershire","era":"trad","nn":352,"risk":29,"cat":"green"},{"name":"The Whimsey Inn","lat":52.68706,"lon":-1.39849,"postcode":"LE67 6LH","la":"North West Leicestershire","era":"trad","nn":156,"risk":33,"cat":"amber"},{"name":"The Wine Bar","lat":52.74649,"lon":-1.47259,"postcode":"LE65 1AL","la":"North West Leicestershire","era":"other","nn":8,"risk":27,"cat":"green"},{"name":"Three Horseshoes","lat":52.73998,"lon":-1.35298,"postcode":"LE67 5GN","la":"North West Leicestershire","era":"trad","nn":227,"risk":29,"cat":"green"},{"name":"Thringstone Members Club","lat":52.75783,"lon":-1.36431,"postcode":"LE67 8LR","la":"North West Leicestershire","era":"other","nn":562,"risk":51,"cat":"amber"},{"name":"Waggon And Horses","lat":52.68926,"lon":-1.39566,"postcode":"LE67 6LA","la":"North West Leicestershire","era":"trad","nn":154,"risk":33,"cat":"amber"},{"name":"West End","lat":52.72735,"lon":-1.38231,"postcode":"LE67 3LB","la":"North West Leicestershire","era":"other","nn":523,"risk":31,"cat":"amber"},{"name":"White Hart Inn","lat":52.74762,"lon":-1.46921,"postcode":"LE65 1AP","la":"North West Leicestershire","era":"trad","nn":0,"risk":27,"cat":"green"},{"name":"White Horse","lat":52.74048,"lon":-1.35624,"postcode":"LE67 5DT","la":"North West Leicestershire","era":"trad","nn":122,"risk":28,"cat":"green"},{"name":"Whitwick Constitutional Club","lat":52.73926,"lon":-1.35646,"postcode":"LE67 5ET","la":"North West Leicestershire","era":"other","nn":0,"risk":27,"cat":"green"},{"name":"1852 Grill","lat":52.58188,"lon":-1.12158,"postcode":"LE18 2DH","la":"Oadby and Wigston","era":"other","nn":694,"risk":33,"cat":"amber"},{"name":"Barwachi Sports Lounge","lat":52.5967,"lon":-1.07478,"postcode":"LE2 5DP","la":"Oadby and Wigston","era":"mod","nn":0,"risk":28,"cat":"green"},{"name":"Chartwell Arms","lat":52.58965,"lon":-1.12283,"postcode":"LE18 2FB","la":"Oadby and Wigston","era":"trad","nn":755,"risk":38,"cat":"amber"},{"name":"Conservative Club","lat":52.58012,"lon":-1.13171,"postcode":"LE18 4SD","la":"Oadby and Wigston","era":"other","nn":42,"risk":30,"cat":"green"},{"name":"Cow And Plough Public House","lat":52.61314,"lon":-1.07169,"postcode":"LE2 2FB","la":"Oadby and Wigston","era":"trad","nn":931,"risk":54,"cat":"amber"},{"name":"Fox Inn","lat":52.5978,"lon":-1.0797,"postcode":"LE2 5DL","la":"Oadby and Wigston","era":"trad","nn":0,"risk":28,"cat":"green"},{"name":"Horse \\\\& Trumpet","lat":52.58233,"lon":-1.10285,"postcode":"LE18 1PB","la":"Oadby and Wigston","era":"trad","nn":330,"risk":30,"cat":"green"},{"name":"Oadby Tennis And Social Club","lat":52.60383,"lon":-1.08959,"postcode":"LE2 4AB","la":"Oadby and Wigston","era":"mod","nn":596,"risk":32,"cat":"amber"},{"name":"Oadby Wyggestonians Sport Club","lat":52.59442,"lon":-1.0886,"postcode":"LE2 5JD","la":"Oadby and Wigston","era":"other","nn":203,"risk":29,"cat":"green"},{"name":"Old Crown Inn","lat":52.58224,"lon":-1.10773,"postcode":"LE18 2GD","la":"Oadby and Wigston","era":"trad","nn":0,"risk":28,"cat":"green"},{"name":"Old Crowns Kitchen","lat":52.58224,"lon":-1.10773,"postcode":"LE18 2GD","la":"Oadby and Wigston","era":"other","nn":0,"risk":28,"cat":"green"},{"name":"Royal British Legion","lat":52.59761,"lon":-1.08101,"postcode":"LE2 5QA","la":"Oadby and Wigston","era":"trad","nn":90,"risk":28,"cat":"green"},{"name":"Sikh Resource Centre","lat":52.59587,"lon":-1.09042,"postcode":"LE2 5LG","la":"Oadby and Wigston","era":"other","nn":203,"risk":29,"cat":"green"},{"name":"South Leicester Rugby Club","lat":52.5684,"lon":-1.10046,"postcode":"LE18 3TE","la":"Oadby and Wigston","era":"other","nn":132,"risk":49,"cat":"amber"},{"name":"South Wigston Working Mens Club","lat":52.5798,"lon":-1.13203,"postcode":"LE18 4PB","la":"Oadby and Wigston","era":"trad","nn":42,"risk":30,"cat":"green"},{"name":"Star And Garter","lat":52.59017,"lon":-1.10679,"postcode":"LE18 1DS","la":"Oadby and Wigston","era":"other","nn":357,"risk":30,"cat":"green"},{"name":"Tap And Barrel","lat":52.58698,"lon":-1.10626,"postcode":"LE18 1DR","la":"Oadby and Wigston","era":"other","nn":0,"risk":28,"cat":"green"},{"name":"The Black Dog","lat":52.5978,"lon":-1.0797,"postcode":"LE2 5DL","la":"Oadby and Wigston","era":"other","nn":0,"risk":28,"cat":"green"},{"name":"The Cue Club","lat":52.57957,"lon":-1.13426,"postcode":"LE18 4PA","la":"Oadby and Wigston","era":"other","nn":153,"risk":31,"cat":"amber"},{"name":"The Fairfield Inn","lat":52.58669,"lon":-1.1329,"postcode":"LE18 4YE","la":"Oadby and Wigston","era":"trad","nn":735,"risk":33,"cat":"amber"},{"name":"The Grange Farm PH","lat":52.59088,"lon":-1.06237,"postcode":"LE2 4QZ","la":"Oadby and Wigston","era":"other","nn":545,"risk":51,"cat":"amber"},{"name":"The Lord Keeper Of The Great Seal","lat":52.59967,"lon":-1.08404,"postcode":"LE2 5BF","la":"Oadby and Wigston","era":"other","nn":307,"risk":30,"cat":"green"},{"name":"The Navigation Inn","lat":52.56748,"lon":-1.10171,"postcode":"LE18 3TE","la":"Oadby and Wigston","era":"trad","nn":132,"risk":49,"cat":"amber"},{"name":"The Oadby Owl","lat":52.59392,"lon":-1.06871,"postcode":"LE2 4PE","la":"Oadby and Wigston","era":"other","nn":513,"risk":31,"cat":"amber"},{"name":"The Plough","lat":52.58338,"lon":-1.1116,"postcode":"LE18 2BA","la":"Oadby and Wigston","era":"trad","nn":100,"risk":28,"cat":"green"},{"name":"The Wheel Inn","lat":52.5967,"lon":-1.07478,"postcode":"LE2 5DP","la":"Oadby and Wigston","era":"trad","nn":0,"risk":28,"cat":"green"},{"name":"Two Steeples","lat":52.58554,"lon":-1.10473,"postcode":"LE18 1AD","la":"Oadby and Wigston","era":"other","nn":153,"risk":29,"cat":"green"},{"name":"Wigston \\\\& District Conservative Club","lat":52.58521,"lon":-1.10693,"postcode":"LE18 2AH","la":"Oadby and Wigston","era":"other","nn":153,"risk":29,"cat":"green"},{"name":"William Wygston Pub","lat":52.58698,"lon":-1.10626,"postcode":"LE18 1DR","la":"Oadby and Wigston","era":"other","nn":0,"risk":28,"cat":"green"},{"name":"Winchester Snooker Club","lat":52.58411,"lon":-1.11075,"postcode":"LE18 2AA","la":"Oadby and Wigston","era":"other","nn":100,"risk":28,"cat":"green"},{"name":"Bulls Head","lat":52.4875,"lon":-1.36888,"postcode":"LE10 3LB","la":"Rugby","era":"trad","nn":82,"risk":48,"cat":"amber"},{"name":"The Blue Pig","lat":52.487,"lon":-1.36977,"postcode":"LE10 3LG","la":"Rugby","era":"other","nn":82,"risk":48,"cat":"amber"},{"name":"Generous Briton","lat":52.83153,"lon":-1.15067,"postcode":"LE12 6XD","la":"Rushcliffe","era":"other","nn":1787,"risk":64,"cat":"red"},{"name":"Star Inn","lat":52.83217,"lon":-1.236,"postcode":"LE12 5RQ","la":"Rushcliffe","era":"trad","nn":1434,"risk":61,"cat":"red"},{"name":"Tap & Run","lat":52.82893,"lon":-0.98764,"postcode":"LE14 3BG","la":"Rushcliffe","era":"other","nn":1151,"risk":59,"cat":"amber"},{"name":"The Anchor Inn","lat":52.8245,"lon":-1.25317,"postcode":"LE12 5PA","la":"Rushcliffe","era":"trad","nn":140,"risk":50,"cat":"amber"},{"name":"The Bulls Head East Leake","lat":52.8313,"lon":-1.17727,"postcode":"LE12 6PG","la":"Rushcliffe","era":"trad","nn":0,"risk":46,"cat":"amber"},{"name":"The Kings Head","lat":52.82326,"lon":-1.25357,"postcode":"LE12 5PE","la":"Rushcliffe","era":"trad","nn":140,"risk":50,"cat":"amber"},{"name":"The Plough Inn","lat":52.80382,"lon":-1.23514,"postcode":"LE12 5HB","la":"Rushcliffe","era":"trad","nn":1406,"risk":61,"cat":"red"},{"name":"The Round Robinn","lat":52.8313,"lon":-1.17727,"postcode":"LE12 6PG","la":"Rushcliffe","era":"trad","nn":0,"risk":46,"cat":"amber"},{"name":"Three Horseshoes","lat":52.82909,"lon":-1.18337,"postcode":"LE12 6PB","la":"Rushcliffe","era":"trad","nn":477,"risk":50,"cat":"amber"},{"name":"White Lion Inn","lat":52.81339,"lon":-1.14482,"postcode":"LE12 6RH","la":"Rushcliffe","era":"trad","nn":1544,"risk":62,"cat":"red"},{"name":"Beef and Reef at Old Pheasant Pub & Hotel","lat":52.5944,"lon":-0.67831,"postcode":"LE15 9BP","la":"Rutland","era":"other","nn":2193,"risk":68,"cat":"red"},{"name":"Bill's Bar","lat":52.67073,"lon":-0.73226,"postcode":"LE15 6AX","la":"Rutland","era":"other","nn":42,"risk":30,"cat":"green"},{"name":"Catmose Club","lat":52.66909,"lon":-0.73028,"postcode":"LE15 6BG","la":"Rutland","era":"other","nn":23,"risk":30,"cat":"green"},{"name":"Crown Tavern Bar","lat":52.66929,"lon":-0.72755,"postcode":"LE15 6BZ","la":"Rutland","era":"trad","nn":53,"risk":30,"cat":"green"},{"name":"Exeter Arms","lat":52.58996,"lon":-0.60268,"postcode":"LE15 8EQ","la":"Rutland","era":"trad","nn":3246,"risk":75,"cat":"red"},{"name":"Exeter Arms","lat":52.58919,"lon":-0.72893,"postcode":"LE15 9SB","la":"Rutland","era":"trad","nn":132,"risk":36,"cat":"amber"},{"name":"Fox & Hounds","lat":52.6904,"lon":-0.63269,"postcode":"LE15 8AP","la":"Rutland","era":"trad","nn":3229,"risk":75,"cat":"red"},{"name":"George & Dragon Inn","lat":52.57529,"lon":-0.67028,"postcode":"LE15 9HU","la":"Rutland","era":"trad","nn":2193,"risk":68,"cat":"red"},{"name":"Horse & Jockey","lat":52.63227,"lon":-0.70191,"postcode":"LE15 8SU","la":"Rutland","era":"trad","nn":4412,"risk":83,"cat":"red"},{"name":"Jinky's","lat":52.67063,"lon":-0.73286,"postcode":"LE15 6AY","la":"Rutland","era":"other","nn":42,"risk":30,"cat":"green"},{"name":"Krishna's at The Marquess of Exeter","lat":52.56729,"lon":-0.71192,"postcode":"LE15 9LT","la":"Rutland","era":"other","nn":493,"risk":53,"cat":"amber"},{"name":"Oakham Rugby Football Club","lat":52.74964,"lon":-0.68381,"postcode":"LE15 7TW","la":"Rutland","era":"trad","nn":1426,"risk":62,"cat":"red"},{"name":"Ovation","lat":52.66929,"lon":-0.73028,"postcode":"LE15 6AQ","la":"Rutland","era":"other","nn":23,"risk":30,"cat":"green"},{"name":"Railway Inn","lat":52.67226,"lon":-0.73135,"postcode":"LE15 6QU","la":"Rutland","era":"trad","nn":103,"risk":31,"cat":"amber"},{"name":"The Admiral Hornblower","lat":52.66985,"lon":-0.7311,"postcode":"LE15 6AS","la":"Rutland","era":"other","nn":65,"risk":30,"cat":"green"},{"name":"The Angler","lat":52.66886,"lon":-0.72723,"postcode":"LE15 6EA","la":"Rutland","era":"other","nn":53,"risk":30,"cat":"green"},{"name":"The Black Bull","lat":52.73737,"lon":-0.69,"postcode":"LE15 7PW","la":"Rutland","era":"trad","nn":1426,"risk":62,"cat":"red"},{"name":"The Blue Ball at Braunston","lat":52.65116,"lon":-0.77074,"postcode":"LE15 8QS","la":"Rutland","era":"other","nn":3349,"risk":76,"cat":"red"},{"name":"The Captain Noel Newton","lat":52.67,"lon":-0.73017,"postcode":"LE15 6AJ","la":"Rutland","era":"other","nn":65,"risk":30,"cat":"green"},{"name":"The Crown","lat":52.58838,"lon":-0.72062,"postcode":"LE15 9PY","la":"Rutland","era":"trad","nn":118,"risk":36,"cat":"amber"},{"name":"The Fox","lat":52.62165,"lon":-0.62085,"postcode":"LE15 8LE","la":"Rutland","era":"trad","nn":1838,"risk":65,"cat":"red"},{"name":"The Grainstore Brewery","lat":52.67255,"lon":-0.7342,"postcode":"LE15 6RE","la":"Rutland","era":"other","nn":192,"risk":31,"cat":"amber"},{"name":"The Jackson Stops","lat":52.73165,"lon":-0.5963,"postcode":"LE15 7RA","la":"Rutland","era":"other","nn":2193,"risk":68,"cat":"red"},{"name":"The Noel Arms","lat":52.69091,"lon":-0.75468,"postcode":"LE15 7HU","la":"Rutland","era":"trad","nn":273,"risk":52,"cat":"amber"},{"name":"The Old Buttercross","lat":52.68299,"lon":-0.74101,"postcode":"LE15 7US","la":"Rutland","era":"trad","nn":1137,"risk":60,"cat":"amber"},{"name":"The Old White Hart","lat":52.56297,"lon":-0.71023,"postcode":"LE15 9LR","la":"Rutland","era":"trad","nn":493,"risk":53,"cat":"amber"},{"name":"The Plough Inn","lat":52.53304,"lon":-0.72076,"postcode":"LE16 8RS","la":"Rutland","era":"trad","nn":485,"risk":53,"cat":"amber"},{"name":"The Plough Inn","lat":52.71935,"lon":-0.62902,"postcode":"LE15 7NJ","la":"Rutland","era":"trad","nn":477,"risk":53,"cat":"amber"},{"name":"The Sun Inn","lat":52.71214,"lon":-0.66593,"postcode":"LE15 7DH","la":"Rutland","era":"trad","nn":2612,"risk":71,"cat":"red"},{"name":"The Sun Inn","lat":52.60244,"lon":-0.79644,"postcode":"LE15 9LB","la":"Rutland","era":"trad","nn":3829,"risk":79,"cat":"red"},{"name":"The Vaults","lat":52.58771,"lon":-0.72198,"postcode":"LE15 9QH","la":"Rutland","era":"other","nn":118,"risk":36,"cat":"amber"},{"name":"The Wheatsheaf","lat":52.67144,"lon":-0.73203,"postcode":"LE15 6QS","la":"Rutland","era":"trad","nn":80,"risk":30,"cat":"green"},{"name":"The White Horse","lat":52.6684,"lon":-0.59199,"postcode":"LE15 8PS","la":"Rutland","era":"trad","nn":3676,"risk":78,"cat":"red"},{"name":"The White Lion Inn","lat":52.71972,"lon":-0.77131,"postcode":"LE15 7ET","la":"Rutland","era":"trad","nn":3394,"risk":76,"cat":"red"},{"name":"Uppingham School Theatre","lat":52.58804,"lon":-0.72937,"postcode":"LE15 9UD","la":"Rutland","era":"other","nn":132,"risk":36,"cat":"amber"},{"name":"Uppingham Town Cricket Club","lat":52.59651,"lon":-0.74059,"postcode":"LE15 9SP","la":"Rutland","era":"other","nn":1132,"risk":60,"cat":"amber"},{"name":"Wheatsheaf Inn","lat":52.63692,"lon":-0.63127,"postcode":"LE15 8EZ","la":"Rutland","era":"trad","nn":1838,"risk":65,"cat":"red"},{"name":"Wheatsheaf Inn","lat":52.69136,"lon":-0.75071,"postcode":"LE15 7HY","la":"Rutland","era":"trad","nn":273,"risk":52,"cat":"amber"},{"name":"Wheatsheaf Inn","lat":52.71949,"lon":-0.62194,"postcode":"LE15 7NP","la":"Rutland","era":"trad","nn":477,"risk":53,"cat":"amber"},{"name":"Tap House Bar & Restaurant","lat":52.76627,"lon":-1.4917,"postcode":"LE65 2TA","la":"South Derbyshire","era":"mod","nn":610,"risk":51,"cat":"amber"},{"name":"The Smisby Arms","lat":52.7686,"lon":-1.48349,"postcode":"LE65 2UA","la":"South Derbyshire","era":"trad","nn":610,"risk":51,"cat":"amber"},{"name":"Market Harborough Golf Club","lat":52.4516,"lon":-0.91004,"postcode":"LE16 8NB","la":"West Northamptonshire","era":"other","nn":955,"risk":47,"cat":"amber"},{"name":"The Bulls Head","lat":52.42925,"lon":-0.95413,"postcode":"LE16 9RT","la":"West Northamptonshire","era":"trad","nn":2968,"risk":64,"cat":"red"},{"name":"The George At Great Oxendon","lat":52.44471,"lon":-0.91844,"postcode":"LE16 8NA","la":"West Northamptonshire","era":"trad","nn":955,"risk":47,"cat":"amber"},{"name":"The Red Lion","lat":52.43806,"lon":-1.00304,"postcode":"LE16 9UD","la":"West Northamptonshire","era":"trad","nn":3030,"risk":64,"cat":"red"}]