[{"name":"Adlington Cricket Club","lat":53.61162,"lon":-2.6014,"postcode":"PR7 4HH","la":"Chorley","era":"other","nn":212,"risk":28,"cat":"green"},{"name":"Alison Arms","lat":53.61127,"lon":-2.67404,"postcode":"PR7 5DU","la":"Chorley","era":"trad","nn":179,"risk":47,"cat":"amber"},{"name":"Baaa 38","lat":53.65244,"lon":-2.6326,"postcode":"PR7 2SE","la":"Chorley","era":"other","nn":0,"risk":26,"cat":"green"},{"name":"Ben's Tap And Bottle Shop","lat":53.65293,"lon":-2.63128,"postcode":"PR7 1DA","la":"Chorley","era":"mod","nn":27,"risk":26,"cat":"green"},{"name":"Black Horse","lat":53.64469,"lon":-2.63691,"postcode":"PR7 2LH","la":"Chorley","era":"trad","nn":170,"risk":27,"cat":"green"},{"name":"Bootleggers Bar","lat":53.64984,"lon":-2.63063,"postcode":"PR7 3AA","la":"Chorley","era":"other","nn":157,"risk":27,"cat":"green"},{"name":"Bretherton Parish Institute","lat":53.67883,"lon":-2.78557,"postcode":"PR26 9AB","la":"Chorley","era":"other","nn":1901,"risk":62,"cat":"red"},{"name":"Brindle Distillery - The Cuckoos Nest","lat":53.70455,"lon":-2.63017,"postcode":"PR6 8LZ","la":"Chorley","era":"other","nn":422,"risk":34,"cat":"amber"},{"name":"Brinscall & Withnell Ath & Rec","lat":53.68883,"lon":-2.57341,"postcode":"PR6 8PT","la":"Chorley","era":"other","nn":267,"risk":45,"cat":"amber"},{"name":"Cardwell Arms","lat":53.62048,"lon":-2.60192,"postcode":"PR6 9LH","la":"Chorley","era":"trad","nn":422,"risk":29,"cat":"green"},{"name":"Charnock Richard Football Club (Club House)","lat":53.63254,"lon":-2.67162,"postcode":"PR7 5LZ","la":"Chorley","era":"other","nn":1013,"risk":56,"cat":"amber"},{"name":"Chorley Bowling Club","lat":53.65208,"lon":-2.64051,"postcode":"PR7 1LN","la":"Chorley","era":"other","nn":347,"risk":29,"cat":"green"},{"name":"Chorley Panthers","lat":53.61201,"lon":-2.67645,"postcode":"PR7 5EA","la":"Chorley","era":"other","nn":179,"risk":47,"cat":"amber"},{"name":"Chorley Sporting Club","lat":53.64724,"lon":-2.62962,"postcode":"PR7 3DU","la":"Chorley","era":"other","nn":297,"risk":28,"cat":"green"},{"name":"Clarke's Sibin","lat":53.65255,"lon":-2.63206,"postcode":"PR7 1BW","la":"Chorley","era":"other","nn":2,"risk":26,"cat":"green"},{"name":"Coppull Conservative Club","lat":53.6207,"lon":-2.66704,"postcode":"PR7 5DF","la":"Chorley","era":"other","nn":207,"risk":30,"cat":"green"},{"name":"Croston Sports Club","lat":53.6623,"lon":-2.77823,"postcode":"PR26 9RR","la":"Chorley","era":"other","nn":39,"risk":31,"cat":"amber"},{"name":"East Ward Conservative Club","lat":53.65633,"lon":-2.62013,"postcode":"PR6 0AT","la":"Chorley","era":"other","nn":93,"risk":27,"cat":"green"},{"name":"Elephant And Castle","lat":53.61735,"lon":-2.59694,"postcode":"PR6 9NH","la":"Chorley","era":"other","nn":65,"risk":27,"cat":"green"},{"name":"Euxton Parish Institute","lat":53.6624,"lon":-2.67435,"postcode":"PR7 6JG","la":"Chorley","era":"other","nn":355,"risk":49,"cat":"amber"},{"name":"Halfway House","lat":53.70165,"lon":-2.63918,"postcode":"PR6 7JB","la":"Chorley","era":"other","nn":134,"risk":27,"cat":"green"},{"name":"Hartwood Hall","lat":53.67273,"lon":-2.63457,"postcode":"PR6 7AX","la":"Chorley","era":"trad","nn":382,"risk":49,"cat":"amber"},{"name":"Hinds Head Hotel","lat":53.62462,"lon":-2.67921,"postcode":"PR7 5HL","la":"Chorley","era":"trad","nn":913,"risk":52,"cat":"amber"},{"name":"Hoghton Arms","lat":53.71385,"lon":-2.56318,"postcode":"PR6 8BL","la":"Chorley","era":"trad","nn":859,"risk":52,"cat":"amber"},{"name":"Lamplighter","lat":53.65116,"lon":-2.63148,"postcode":"PR7 2SQ","la":"Chorley","era":"other","nn":125,"risk":27,"cat":"green"},{"name":"Lord Nelson Hotel","lat":53.66204,"lon":-2.77258,"postcode":"PR26 9HJ","la":"Chorley","era":"trad","nn":144,"risk":32,"cat":"amber"},{"name":"Lost","lat":53.65307,"lon":-2.63196,"postcode":"PR7 1BG","la":"Chorley","era":"other","nn":0,"risk":26,"cat":"green"},{"name":"Malt House Farm","lat":53.6779,"lon":-2.62098,"postcode":"PR6 8AB","la":"Chorley","era":"mod","nn":653,"risk":36,"cat":"amber"},{"name":"Malt N Hops","lat":53.65425,"lon":-2.62608,"postcode":"PR6 0AA","la":"Chorley","era":"other","nn":0,"risk":26,"cat":"green"},{"name":"Nelipots Bar","lat":53.65264,"lon":-2.62961,"postcode":"PR7 1BU","la":"Chorley","era":"other","nn":25,"risk":26,"cat":"green"},{"name":"No 3 Club","lat":53.65425,"lon":-2.62608,"postcode":"PR6 0AA","la":"Chorley","era":"other","nn":0,"risk":26,"cat":"green"},{"name":"Pearsons","lat":53.65244,"lon":-2.6326,"postcode":"PR7 2SE","la":"Chorley","era":"other","nn":0,"risk":26,"cat":"green"},{"name":"Prince Of Wales","lat":53.6497,"lon":-2.61663,"postcode":"PR6 0QE","la":"Chorley","era":"trad","nn":534,"risk":30,"cat":"green"},{"name":"Ronnie's Bar","lat":53.65265,"lon":-2.62999,"postcode":"PR7 1BU","la":"Chorley","era":"other","nn":25,"risk":26,"cat":"green"},{"name":"Rose And Crown","lat":53.65367,"lon":-2.63366,"postcode":"PR7 1HP","la":"Chorley","era":"trad","nn":131,"risk":27,"cat":"green"},{"name":"Royal British Legion","lat":53.62025,"lon":-2.66343,"postcode":"PR7 5EG","la":"Chorley","era":"trad","nn":162,"risk":32,"cat":"amber"},{"name":"Royal Oak","lat":53.69472,"lon":-2.63348,"postcode":"PR6 7NA","la":"Chorley","era":"trad","nn":858,"risk":50,"cat":"amber"},{"name":"Saint Chads Parish Centre","lat":53.68235,"lon":-2.6145,"postcode":"PR6 8AJ","la":"Chorley","era":"trad","nn":193,"risk":30,"cat":"green"},{"name":"Saint Josephs Parish Centre","lat":53.66141,"lon":-2.62385,"postcode":"PR6 0HR","la":"Chorley","era":"trad","nn":190,"risk":27,"cat":"green"},{"name":"Saint Josephs Social Club","lat":53.68799,"lon":-2.56557,"postcode":"PR6 8QR","la":"Chorley","era":"other","nn":257,"risk":45,"cat":"amber"},{"name":"Saint Marys Parish Centre","lat":53.65255,"lon":-2.6353,"postcode":"PR7 2BY","la":"Chorley","era":"trad","nn":165,"risk":27,"cat":"green"},{"name":"Sams Bar","lat":53.65164,"lon":-2.62745,"postcode":"PR7 2TZ","la":"Chorley","era":"other","nn":87,"risk":27,"cat":"green"},{"name":"Sea View Inn","lat":53.67616,"lon":-2.6349,"postcode":"PR6 7HH","la":"Chorley","era":"trad","nn":382,"risk":46,"cat":"amber"},{"name":"Shepherds Hall Ale House & Victoria Rooms","lat":53.65258,"lon":-2.62861,"postcode":"PR7 1BS","la":"Chorley","era":"other","nn":42,"risk":26,"cat":"green"},{"name":"Sir Henry Tate","lat":53.65366,"lon":-2.6306,"postcode":"PR7 1DB","la":"Chorley","era":"other","nn":0,"risk":26,"cat":"green"},{"name":"Spinners Arms","lat":53.61376,"lon":-2.60527,"postcode":"PR7 4EX","la":"Chorley","era":"trad","nn":232,"risk":28,"cat":"green"},{"name":"The Ale Station","lat":53.65226,"lon":-2.62824,"postcode":"PR7 1BS","la":"Chorley","era":"other","nn":42,"risk":26,"cat":"green"},{"name":"The Black Horse","lat":53.64164,"lon":-2.60367,"postcode":"PR6 9EE","la":"Chorley","era":"trad","nn":532,"risk":47,"cat":"amber"},{"name":"The Black Horse Inn","lat":53.66202,"lon":-2.77787,"postcode":"PR26 9RQ","la":"Chorley","era":"trad","nn":39,"risk":31,"cat":"amber"},{"name":"The Boars Head","lat":53.73473,"lon":-2.58745,"postcode":"PR5 0RX","la":"Chorley","era":"trad","nn":1414,"risk":58,"cat":"amber"},{"name":"The Bob Inn","lat":53.65322,"lon":-2.63104,"postcode":"PR7 1DA","la":"Chorley","era":"trad","nn":36,"risk":26,"cat":"green"},{"name":"The Cavendish Arms","lat":53.71295,"lon":-2.6101,"postcode":"PR6 8NG","la":"Chorley","era":"trad","nn":1618,"risk":60,"cat":"amber"},{"name":"The Colliers","lat":53.6424,"lon":-2.63893,"postcode":"PR7 2LN","la":"Chorley","era":"other","nn":287,"risk":28,"cat":"green"},{"name":"The Cricketers Arms","lat":53.68843,"lon":-2.56941,"postcode":"PR6 8QP","la":"Chorley","era":"trad","nn":257,"risk":45,"cat":"amber"},{"name":"The Crown Hotel","lat":53.65254,"lon":-2.63208,"postcode":"PR7 1BW","la":"Chorley","era":"trad","nn":2,"risk":26,"cat":"green"},{"name":"The Derby Arms","lat":53.65572,"lon":-2.61919,"postcode":"PR6 0TR","la":"Chorley","era":"trad","nn":93,"risk":27,"cat":"green"},{"name":"The Dressers Arms","lat":53.68587,"lon":-2.59926,"postcode":"PR6 8HD","la":"Chorley","era":"trad","nn":499,"risk":35,"cat":"amber"},{"name":"The Fieldfare","lat":53.65549,"lon":-2.65701,"postcode":"PR7 1NF","la":"Chorley","era":"other","nn":1027,"risk":56,"cat":"amber"},{"name":"The Flat Iron","lat":53.65305,"lon":-2.63163,"postcode":"PR7 1BH","la":"Chorley","era":"other","nn":22,"risk":26,"cat":"green"},{"name":"The Golden Lion","lat":53.69556,"lon":-2.59489,"postcode":"PR6 8HP","la":"Chorley","era":"trad","nn":844,"risk":52,"cat":"amber"},{"name":"The Greenhaus","lat":53.64421,"lon":-2.72454,"postcode":"PR7 5TF","la":"Chorley","era":"other","nn":43,"risk":44,"cat":"amber"},{"name":"The Hare And Hounds","lat":53.69822,"lon":-2.54399,"postcode":"PR6 8DP","la":"Chorley","era":"trad","nn":1820,"risk":61,"cat":"red"},{"name":"The Ley Inn","lat":53.70009,"lon":-2.65255,"postcode":"PR6 7EU","la":"Chorley","era":"trad","nn":897,"risk":50,"cat":"amber"},{"name":"The Lock And Quay","lat":53.66512,"lon":-2.61649,"postcode":"PR6 9AE","la":"Chorley","era":"other","nn":519,"risk":47,"cat":"amber"},{"name":"The Lord Nelson","lat":53.70411,"lon":-2.63654,"postcode":"PR6 7RD","la":"Chorley","era":"trad","nn":227,"risk":33,"cat":"amber"},{"name":"The Masons Arms","lat":53.66128,"lon":-2.62098,"postcode":"PR6 0HU","la":"Chorley","era":"trad","nn":190,"risk":27,"cat":"green"},{"name":"The Mitre","lat":53.6408,"lon":-2.63326,"postcode":"PR7 3NN","la":"Chorley","era":"other","nn":414,"risk":31,"cat":"amber"},{"name":"The Original Farmers Arms","lat":53.64993,"lon":-2.73104,"postcode":"PR7 5QS","la":"Chorley","era":"trad","nn":765,"risk":49,"cat":"amber"},{"name":"The Plough Inn","lat":53.64583,"lon":-2.63518,"postcode":"PR7 3NE","la":"Chorley","era":"trad","nn":170,"risk":27,"cat":"green"},{"name":"The Potters Arms","lat":53.64912,"lon":-2.62467,"postcode":"PR7 3BY","la":"Chorley","era":"trad","nn":331,"risk":28,"cat":"green"},{"name":"The Prince of Wales","lat":53.65366,"lon":-2.6306,"postcode":"PR7 1DB","la":"Chorley","era":"trad","nn":0,"risk":26,"cat":"green"},{"name":"The Railway Hotel","lat":53.6521,"lon":-2.62467,"postcode":"PR6 0RD","la":"Chorley","era":"trad","nn":190,"risk":27,"cat":"green"},{"name":"The Red Cat","lat":53.68123,"lon":-2.61226,"postcode":"PR6 8LL","la":"Chorley","era":"other","nn":193,"risk":27,"cat":"green"},{"name":"The Red Herring","lat":53.6248,"lon":-2.66093,"postcode":"PR7 5AN","la":"Chorley","era":"other","nn":419,"risk":34,"cat":"amber"},{"name":"The Red Lion","lat":53.6853,"lon":-2.60678,"postcode":"PR6 8EU","la":"Chorley","era":"trad","nn":468,"risk":32,"cat":"amber"},{"name":"The Roebuck Inn","lat":53.68539,"lon":-2.638,"postcode":"PR6 7LA","la":"Chorley","era":"trad","nn":1047,"risk":56,"cat":"amber"},{"name":"The Rose And Crown","lat":53.66354,"lon":-2.73931,"postcode":"PR26 8LP","la":"Chorley","era":"trad","nn":1609,"risk":60,"cat":"amber"},{"name":"The Royal Oak Hotel","lat":53.72449,"lon":-2.57471,"postcode":"PR5 0SL","la":"Chorley","era":"trad","nn":558,"risk":50,"cat":"amber"},{"name":"The Shed","lat":53.65307,"lon":-2.63196,"postcode":"PR7 1BG","la":"Chorley","era":"other","nn":0,"risk":26,"cat":"green"},{"name":"The Spinners At Cowling","lat":53.64533,"lon":-2.60882,"postcode":"PR6 9EA","la":"Chorley","era":"trad","nn":532,"risk":35,"cat":"amber"},{"name":"The Springfield","lat":53.62161,"lon":-2.6643,"postcode":"PR7 5BZ","la":"Chorley","era":"other","nn":162,"risk":32,"cat":"amber"},{"name":"The Talbot","lat":53.66101,"lon":-2.66951,"postcode":"PR7 6HX","la":"Chorley","era":"trad","nn":355,"risk":49,"cat":"amber"},{"name":"The Tipis At Riley Green Ltd","lat":53.72075,"lon":-2.56905,"postcode":"PR5 0SP","la":"Chorley","era":"other","nn":558,"risk":47,"cat":"amber"},{"name":"The Top Lock Hotel","lat":53.6872,"lon":-2.61312,"postcode":"PR6 8LT","la":"Chorley","era":"other","nn":468,"risk":32,"cat":"amber"},{"name":"The Top Spinners","lat":53.6171,"lon":-2.59783,"postcode":"PR6 9QX","la":"Chorley","era":"trad","nn":65,"risk":27,"cat":"green"},{"name":"The War Horse","lat":53.67679,"lon":-2.65555,"postcode":"PR7 7JD","la":"Chorley","era":"trad","nn":1362,"risk":58,"cat":"amber"},{"name":"The Wheatsheaf Hotel","lat":53.66139,"lon":-2.77447,"postcode":"PR26 9RA","la":"Chorley","era":"trad","nn":144,"risk":32,"cat":"amber"},{"name":"The White Horse","lat":53.6232,"lon":-2.60639,"postcode":"PR6 9JS","la":"Chorley","era":"trad","nn":422,"risk":34,"cat":"amber"},{"name":"The Woodsman Bar & Restaurant","lat":53.69614,"lon":-2.67247,"postcode":"PR25 5RY","la":"Chorley","era":"mod","nn":695,"risk":51,"cat":"amber"},{"name":"Trader Jacks","lat":53.65512,"lon":-2.63224,"postcode":"PR7 1EP","la":"Chorley","era":"other","nn":186,"risk":27,"cat":"green"},{"name":"Tutto","lat":53.70286,"lon":-2.63927,"postcode":"PR6 7JB","la":"Chorley","era":"other","nn":134,"risk":27,"cat":"green"},{"name":"White Bear Inn","lat":53.61171,"lon":-2.6046,"postcode":"PR7 4HE","la":"Chorley","era":"trad","nn":212,"risk":28,"cat":"green"},{"name":"Withnell Fold Sports Club","lat":53.7023,"lon":-2.58899,"postcode":"PR6 8BA","la":"Chorley","era":"other","nn":844,"risk":52,"cat":"amber"},{"name":"Withnell's Brew Co","lat":53.65141,"lon":-2.62962,"postcode":"PR7 2AY","la":"Chorley","era":"other","nn":125,"risk":27,"cat":"green"},{"name":"Working Mens Institute","lat":53.64444,"lon":-2.72403,"postcode":"PR7 5TE","la":"Chorley","era":"trad","nn":43,"risk":44,"cat":"amber"},{"name":"Yarrow Bridge","lat":53.63987,"lon":-2.61788,"postcode":"PR7 4AB","la":"Chorley","era":"other","nn":851,"risk":50,"cat":"amber"},{"name":"Bell & Bottle","lat":53.77488,"lon":-2.84462,"postcode":"PR4 3RJ","la":"Fylde","era":"other","nn":1753,"risk":61,"cat":"red"},{"name":"Boot n Shoe","lat":53.83933,"lon":-2.88332,"postcode":"PR4 3YB","la":"Fylde","era":"other","nn":100,"risk":47,"cat":"amber"},{"name":"Freckleton Sports and Social Club","lat":53.75389,"lon":-2.8619,"postcode":"PR4 1PB","la":"Fylde","era":"mod","nn":275,"risk":34,"cat":"amber"},{"name":"Hand and Dagger","lat":53.79096,"lon":-2.80946,"postcode":"PR4 0SA","la":"Fylde","era":"other","nn":1861,"risk":62,"cat":"red"},{"name":"Harrisons Bar","lat":53.7776,"lon":-2.89454,"postcode":"PR4 2PR","la":"Fylde","era":"other","nn":941,"risk":51,"cat":"amber"},{"name":"Kingfisher Tavern","lat":53.78599,"lon":-2.89262,"postcode":"PR4 2DZ","la":"Fylde","era":"trad","nn":550,"risk":31,"cat":"amber"},{"name":"Kirkham & Wesham Cricket Club","lat":53.78375,"lon":-2.88212,"postcode":"PR4 2JQ","la":"Fylde","era":"other","nn":310,"risk":29,"cat":"green"},{"name":"Kirkham Bierhaus","lat":53.7824,"lon":-2.8734,"postcode":"PR4 2AH","la":"Fylde","era":"other","nn":111,"risk":30,"cat":"green"},{"name":"Kirkham Conservative Club","lat":53.78099,"lon":-2.88142,"postcode":"PR4 2BB","la":"Fylde","era":"other","nn":310,"risk":29,"cat":"green"},{"name":"Lane Ends Hotel","lat":53.79099,"lon":-2.88933,"postcode":"PR4 3DH","la":"Fylde","era":"other","nn":355,"risk":32,"cat":"amber"},{"name":"Lightning Club","lat":53.74948,"lon":-2.88607,"postcode":"PR4 1AQ","la":"Fylde","era":"other","nn":580,"risk":48,"cat":"amber"},{"name":"Stanley Arms","lat":53.78868,"lon":-2.8856,"postcode":"PR4 3BL","la":"Fylde","era":"trad","nn":0,"risk":27,"cat":"green"},{"name":"Swan Hotel","lat":53.78199,"lon":-2.87495,"postcode":"PR4 2AJ","la":"Fylde","era":"trad","nn":111,"risk":30,"cat":"green"},{"name":"Tap n drum","lat":53.75393,"lon":-2.87045,"postcode":"PR4 1XA","la":"Fylde","era":"other","nn":47,"risk":30,"cat":"green"},{"name":"The Chequers Club","lat":53.75269,"lon":-2.89302,"postcode":"PR4 1YA","la":"Fylde","era":"other","nn":580,"risk":51,"cat":"amber"},{"name":"The Clifton at Warton","lat":53.75198,"lon":-2.87769,"postcode":"PR4 1AD","la":"Fylde","era":"other","nn":523,"risk":35,"cat":"amber"},{"name":"The Grapes","lat":53.77771,"lon":-2.91695,"postcode":"PR4 2PH","la":"Fylde","era":"other","nn":0,"risk":47,"cat":"amber"},{"name":"The Huntsman","lat":53.7799,"lon":-2.86991,"postcode":"PR4 2SQ","la":"Fylde","era":"other","nn":360,"risk":32,"cat":"amber"},{"name":"The Plough","lat":53.75406,"lon":-2.86977,"postcode":"PR4 1XA","la":"Fylde","era":"trad","nn":47,"risk":30,"cat":"green"},{"name":"The Royal Oak","lat":53.78868,"lon":-2.8856,"postcode":"PR4 3BL","la":"Fylde","era":"trad","nn":0,"risk":27,"cat":"green"},{"name":"The Ship Inn","lat":53.75203,"lon":-2.85913,"postcode":"PR4 1HA","la":"Fylde","era":"trad","nn":275,"risk":34,"cat":"amber"},{"name":"The Ship, Elswick","lat":53.83845,"lon":-2.88301,"postcode":"PR4 3ZB","la":"Fylde","era":"trad","nn":100,"risk":47,"cat":"amber"},{"name":"Wrea Green Institute","lat":53.77771,"lon":-2.91695,"postcode":"PR4 2PH","la":"Fylde","era":"other","nn":0,"risk":47,"cat":"amber"},{"name":"53 Degrees","lat":53.76312,"lon":-2.70816,"postcode":"PR1 7BY","la":"Preston","era":"other","nn":119,"risk":25,"cat":"green"},{"name":"Acregate Labour Club","lat":53.76574,"lon":-2.673,"postcode":"PR1 5QL","la":"Preston","era":"other","nn":534,"risk":31,"cat":"amber"},{"name":"Adelphi/88th St/Value Mighty/Sin City Burger/Pizza Amore/Dough Masters","lat":53.7628,"lon":-2.70644,"postcode":"PR1 7DP","la":"Preston","era":"other","nn":40,"risk":25,"cat":"green"},{"name":"Arkwrights","lat":53.76846,"lon":-2.71052,"postcode":"PR1 7EP","la":"Preston","era":"other","nn":72,"risk":25,"cat":"green"},{"name":"Army and Navy Hotel","lat":53.76428,"lon":-2.69374,"postcode":"PR1 1TS","la":"Preston","era":"other","nn":0,"risk":24,"cat":"green"},{"name":"Ashton Bowling & Social Club","lat":53.76462,"lon":-2.73749,"postcode":"PR2 1AL","la":"Preston","era":"mod","nn":0,"risk":24,"cat":"green"},{"name":"BAC/EE Social Club","lat":53.75063,"lon":-2.70893,"postcode":"PR1 8JP","la":"Preston","era":"mod","nn":0,"risk":24,"cat":"green"},{"name":"Baker Street","lat":53.75757,"lon":-2.69766,"postcode":"PR1 3BN","la":"Preston","era":"other","nn":53,"risk":25,"cat":"green"},{"name":"Baluga Bar","lat":53.75877,"lon":-2.698,"postcode":"PR1 2QY","la":"Preston","era":"other","nn":44,"risk":25,"cat":"green"},{"name":"Black A Moor Head","lat":53.76048,"lon":-2.69816,"postcode":"PR1 1DD","la":"Preston","era":"trad","nn":7,"risk":24,"cat":"green"},{"name":"Black Horse Hotel","lat":53.75979,"lon":-2.70111,"postcode":"PR1 2EJ","la":"Preston","era":"trad","nn":0,"risk":24,"cat":"green"},{"name":"Blitz","lat":53.75993,"lon":-2.69538,"postcode":"PR1 3BX","la":"Preston","era":"other","nn":89,"risk":25,"cat":"green"},{"name":"Blue Bell Inn","lat":53.7603,"lon":-2.69232,"postcode":"PR1 3BS","la":"Preston","era":"trad","nn":131,"risk":25,"cat":"green"},{"name":"Broughton & District Club","lat":53.81124,"lon":-2.72018,"postcode":"PR3 5DA","la":"Preston","era":"other","nn":257,"risk":46,"cat":"amber"},{"name":"Bull & Royal","lat":53.75834,"lon":-2.69708,"postcode":"PR1 3BU","la":"Preston","era":"trad","nn":0,"risk":24,"cat":"green"},{"name":"Chews Yard","lat":53.76113,"lon":-2.70346,"postcode":"PR1 2HB","la":"Preston","era":"mod","nn":58,"risk":25,"cat":"green"},{"name":"Crafty Beggars Ale House","lat":53.79092,"lon":-2.71299,"postcode":"PR2 9RX","la":"Preston","era":"mod","nn":198,"risk":31,"cat":"amber"},{"name":"Deepdale Labour Club","lat":53.76949,"lon":-2.6839,"postcode":"PR1 6RX","la":"Preston","era":"other","nn":524,"risk":30,"cat":"green"},{"name":"Detroit","lat":53.7578,"lon":-2.69838,"postcode":"PR1 3XB","la":"Preston","era":"other","nn":35,"risk":25,"cat":"green"},{"name":"Dog & Partridge","lat":53.7607,"lon":-2.70452,"postcode":"PR1 2AT","la":"Preston","era":"other","nn":0,"risk":24,"cat":"green"},{"name":"Emmanuel Social  Club","lat":53.76848,"lon":-2.71162,"postcode":"PR1 7HU","la":"Preston","era":"mod","nn":72,"risk":25,"cat":"green"},{"name":"Empire Services Club","lat":53.7561,"lon":-2.71483,"postcode":"PR1 8PP","la":"Preston","era":"other","nn":566,"risk":28,"cat":"green"},{"name":"Fever Dance Company Ltd","lat":53.76527,"lon":-2.66009,"postcode":"PR1 4UL","la":"Preston","era":"other","nn":307,"risk":44,"cat":"amber"},{"name":"Forum","lat":53.75739,"lon":-2.70187,"postcode":"PR1 2AA","la":"Preston","era":"other","nn":3,"risk":24,"cat":"green"},{"name":"Frenchwood Social Club","lat":53.75457,"lon":-2.68425,"postcode":"PR1 4NP","la":"Preston","era":"mod","nn":806,"risk":30,"cat":"green"},{"name":"Fulwood and Broughton Cricket Club","lat":53.79865,"lon":-2.71529,"postcode":"PR3 5JE","la":"Preston","era":"other","nn":0,"risk":29,"cat":"green"},{"name":"Fulwood Club","lat":53.77758,"lon":-2.70215,"postcode":"PR2 8NH","la":"Preston","era":"other","nn":581,"risk":28,"cat":"green"},{"name":"Gazs Bar T/A Hartleys","lat":53.75601,"lon":-2.70378,"postcode":"PR1 8BS","la":"Preston","era":"other","nn":198,"risk":26,"cat":"green"},{"name":"Glovers Bar","lat":53.75748,"lon":-2.69845,"postcode":"PR1 3LS","la":"Preston","era":"other","nn":0,"risk":24,"cat":"green"},{"name":"Golden Cross Hotel","lat":53.76055,"lon":-2.69818,"postcode":"PR1 1DD","la":"Preston","era":"trad","nn":0,"risk":24,"cat":"green"},{"name":"Greenlands Club","lat":53.77857,"lon":-2.66125,"postcode":"PR2 6BJ","la":"Preston","era":"other","nn":195,"risk":43,"cat":"amber"},{"name":"Grimsargh Social Club","lat":53.80295,"lon":-2.63422,"postcode":"PR2 5JQ","la":"Preston","era":"mod","nn":762,"risk":50,"cat":"amber"},{"name":"Hogarth's","lat":53.75834,"lon":-2.69708,"postcode":"PR1 3BU","la":"Preston","era":"other","nn":0,"risk":24,"cat":"green"},{"name":"Hopwoods Tap House","lat":53.75834,"lon":-2.69708,"postcode":"PR1 3BU","la":"Preston","era":"mod","nn":0,"risk":24,"cat":"green"},{"name":"In:Libra","lat":53.76109,"lon":-2.70435,"postcode":"PR1 2EE","la":"Preston","era":"other","nn":0,"risk":24,"cat":"green"},{"name":"Jalgos Sports and Social Club","lat":53.75821,"lon":-2.69483,"postcode":"PR1 3XY","la":"Preston","era":"mod","nn":46,"risk":25,"cat":"green"},{"name":"Kuckoo","lat":53.75856,"lon":-2.70365,"postcode":"PR1 2AB","la":"Preston","era":"other","nn":23,"risk":24,"cat":"green"},{"name":"Lane Ends","lat":53.77074,"lon":-2.73015,"postcode":"PR2 1HX","la":"Preston","era":"other","nn":66,"risk":25,"cat":"green"},{"name":"Lea Club","lat":53.76601,"lon":-2.76931,"postcode":"PR2 1XN","la":"Preston","era":"other","nn":58,"risk":45,"cat":"amber"},{"name":"Lea Gate Hotel","lat":53.76218,"lon":-2.78666,"postcode":"PR4 0XB","la":"Preston","era":"other","nn":1217,"risk":55,"cat":"amber"},{"name":"Lonely People","lat":53.7574,"lon":-2.70184,"postcode":"PR1 2AA","la":"Preston","era":"other","nn":3,"risk":24,"cat":"green"},{"name":"Longridge Town Football Club","lat":53.83345,"lon":-2.60696,"postcode":"PR3 3JR","la":"Ribble Valley","era":"other","nn":74,"risk":26,"cat":"green"},{"name":"Lonsdale Sports and Social Club","lat":53.77977,"lon":-2.69164,"postcode":"PR2 8DA","la":"Preston","era":"mod","nn":696,"risk":47,"cat":"amber"},{"name":"Lost Bar & Pizzeria","lat":53.76145,"lon":-2.70423,"postcode":"PR1 2HB","la":"Preston","era":"mod","nn":42,"risk":25,"cat":"green"},{"name":"Market Tavern","lat":53.7608,"lon":-2.70099,"postcode":"PR1 2ES","la":"Preston","era":"other","nn":21,"risk":24,"cat":"green"},{"name":"Moor Park Hotel","lat":53.7697,"lon":-2.70549,"postcode":"PR1 1LA","la":"Preston","era":"other","nn":358,"risk":27,"cat":"green"},{"name":"Moor Park Sports & Social Club","lat":53.77468,"lon":-2.7095,"postcode":"PR2 3AE","la":"Preston","era":"mod","nn":327,"risk":27,"cat":"green"},{"name":"New Britannia Inn","lat":53.76034,"lon":-2.70467,"postcode":"PR1 2XB","la":"Preston","era":"trad","nn":41,"risk":25,"cat":"green"},{"name":"New Meadow Street Club","lat":53.76368,"lon":-2.69882,"postcode":"PR1 1YQ","la":"Preston","era":"other","nn":177,"risk":26,"cat":"green"},{"name":"NIKO","lat":53.75782,"lon":-2.70075,"postcode":"PR1 3NU","la":"Preston","era":"other","nn":34,"risk":25,"cat":"green"},{"name":"Old Black Bull","lat":53.7607,"lon":-2.70452,"postcode":"PR1 2AT","la":"Preston","era":"trad","nn":0,"risk":24,"cat":"green"},{"name":"Parkfield Labour Club","lat":53.77243,"lon":-2.72957,"postcode":"PR2 2LH","la":"Preston","era":"other","nn":177,"risk":26,"cat":"green"},{"name":"Perfect 10s","lat":53.7586,"lon":-2.70332,"postcode":"PR1 2NL","la":"Preston","era":"other","nn":23,"risk":24,"cat":"green"},{"name":"Phantom Winger","lat":53.79865,"lon":-2.71528,"postcode":"PR3 5JE","la":"Preston","era":"other","nn":0,"risk":29,"cat":"green"},{"name":"Plau Bistro","lat":53.76109,"lon":-2.70435,"postcode":"PR1 2EE","la":"Preston","era":"other","nn":0,"risk":24,"cat":"green"},{"name":"Plough at Eaves","lat":53.83152,"lon":-2.77035,"postcode":"PR4 0BJ","la":"Preston","era":"trad","nn":2136,"risk":62,"cat":"red"},{"name":"Plug and Taps","lat":53.75933,"lon":-2.70299,"postcode":"PR1 2NN","la":"Preston","era":"mod","nn":46,"risk":25,"cat":"green"},{"name":"Popworld","lat":53.75927,"lon":-2.69626,"postcode":"PR1 3BQ","la":"Preston","era":"other","nn":0,"risk":24,"cat":"green"},{"name":"Preston East Premier Inn","lat":53.78997,"lon":-2.65858,"postcode":"PR2 5PZ","la":"Preston","era":"trad","nn":976,"risk":51,"cat":"amber"},{"name":"Preston Masonic Hall Limited","lat":53.76243,"lon":-2.7005,"postcode":"PR1 2QU","la":"Preston","era":"trad","nn":177,"risk":26,"cat":"green"},{"name":"Review Cocktail Bar","lat":53.75972,"lon":-2.69774,"postcode":"PR1 1HR","la":"Preston","era":"other","nn":80,"risk":25,"cat":"green"},{"name":"Revolution","lat":53.75807,"lon":-2.6999,"postcode":"PR1 3NN","la":"Preston","era":"other","nn":63,"risk":25,"cat":"green"},{"name":"Ribble Pilot","lat":53.76195,"lon":-2.73289,"postcode":"PR2 2YN","la":"Preston","era":"other","nn":420,"risk":27,"cat":"green"},{"name":"Riva Showbar","lat":53.76069,"lon":-2.69717,"postcode":"PR1 1DJ","la":"Preston","era":"other","nn":49,"risk":25,"cat":"green"},{"name":"Room 32","lat":53.75751,"lon":-2.70069,"postcode":"PR1 3PB","la":"Preston","era":"other","nn":34,"risk":25,"cat":"green"},{"name":"Roper Hall","lat":53.76109,"lon":-2.70435,"postcode":"PR1 2EE","la":"Preston","era":"other","nn":0,"risk":24,"cat":"green"},{"name":"Royal Consort","lat":53.76428,"lon":-2.69374,"postcode":"PR1 1TS","la":"Preston","era":"trad","nn":0,"risk":24,"cat":"green"},{"name":"Ships & Giggles","lat":53.76386,"lon":-2.7099,"postcode":"PR1 2XQ","la":"Preston","era":"trad","nn":0,"risk":24,"cat":"green"},{"name":"Slug & Lettuce / Loco Loco / El Rodeo Mexicano / Burrito Bandits /","lat":53.75818,"lon":-2.69727,"postcode":"PR1 3AB","la":"Preston","era":"other","nn":22,"risk":24,"cat":"green"},{"name":"St Anthonys Social Centre","lat":53.78015,"lon":-2.72544,"postcode":"PR2 3SQ","la":"Preston","era":"mod","nn":886,"risk":48,"cat":"amber"},{"name":"Stanley Arms","lat":53.75891,"lon":-2.69736,"postcode":"PR1 1DA","la":"Preston","era":"trad","nn":44,"risk":25,"cat":"green"},{"name":"Stephen Hendry's Snooker & Pool Club","lat":53.77172,"lon":-2.71539,"postcode":"PR1 7NH","la":"Preston","era":"other","nn":294,"risk":26,"cat":"green"},{"name":"Switch Nightclub","lat":53.76074,"lon":-2.70068,"postcode":"PR1 2ES","la":"Preston","era":"other","nn":21,"risk":24,"cat":"green"},{"name":"Tap and T'Ales","lat":53.82253,"lon":-2.66775,"postcode":"PR3 2AU","la":"Preston","era":"other","nn":0,"risk":42,"cat":"amber"},{"name":"The Alston Pub & Dining","lat":53.83545,"lon":-2.6086,"postcode":"PR3 2NA","la":"Ribble Valley","era":"other","nn":246,"risk":27,"cat":"green"},{"name":"The Ancient Oak","lat":53.78492,"lon":-2.75317,"postcode":"PR4 0NZ","la":"Preston","era":"trad","nn":511,"risk":45,"cat":"amber"},{"name":"The Anderton Arms","lat":53.78651,"lon":-2.67296,"postcode":"PR2 9PS","la":"Preston","era":"trad","nn":1019,"risk":54,"cat":"amber"},{"name":"The Angel","lat":53.75892,"lon":-2.70304,"postcode":"PR1 2NN","la":"Preston","era":"trad","nn":40,"risk":25,"cat":"green"},{"name":"The Aviary","lat":53.77085,"lon":-2.72916,"postcode":"PR2 1HX","la":"Preston","era":"other","nn":3,"risk":24,"cat":"green"},{"name":"The Bear's Paw","lat":53.75974,"lon":-2.69407,"postcode":"PR1 3DH","la":"Preston","era":"other","nn":89,"risk":25,"cat":"green"},{"name":"The Black Bull Hotel","lat":53.79255,"lon":-2.71419,"postcode":"PR2 9UP","la":"Preston","era":"trad","nn":198,"risk":31,"cat":"amber"},{"name":"The Brook Tavern","lat":53.77431,"lon":-2.71627,"postcode":"PR2 3AH","la":"Preston","era":"other","nn":294,"risk":26,"cat":"green"},{"name":"The Broughton Inn","lat":53.81162,"lon":-2.72404,"postcode":"PR3 5HE","la":"Preston","era":"trad","nn":257,"risk":46,"cat":"amber"},{"name":"The Continental","lat":53.75063,"lon":-2.70893,"postcode":"PR1 8JP","la":"Preston","era":"other","nn":0,"risk":24,"cat":"green"},{"name":"The Eldon Hotel","lat":53.77178,"lon":-2.71037,"postcode":"PR1 7YD","la":"Preston","era":"other","nn":327,"risk":27,"cat":"green"},{"name":"The Ferret","lat":53.76386,"lon":-2.7099,"postcode":"PR1 2XQ","la":"Preston","era":"other","nn":0,"risk":24,"cat":"green"},{"name":"The Gamull","lat":53.78124,"lon":-2.65727,"postcode":"PR2 6RJ","la":"Preston","era":"other","nn":395,"risk":32,"cat":"amber"},{"name":"The Grand Junction","lat":53.76378,"lon":-2.72355,"postcode":"PR2 2NN","la":"Preston","era":"other","nn":135,"risk":25,"cat":"green"},{"name":"The Green Man Inn","lat":53.85159,"lon":-2.68969,"postcode":"PR3 2LP","la":"Preston","era":"trad","nn":3537,"risk":72,"cat":"red"},{"name":"The Grey Friar","lat":53.75979,"lon":-2.70111,"postcode":"PR1 2EJ","la":"Preston","era":"other","nn":0,"risk":24,"cat":"green"},{"name":"The Guild","lat":53.76386,"lon":-2.7099,"postcode":"PR1 2XQ","la":"Preston","era":"other","nn":0,"risk":24,"cat":"green"},{"name":"The Guild Ale House","lat":53.76055,"lon":-2.69818,"postcode":"PR1 1DD","la":"Preston","era":"other","nn":0,"risk":24,"cat":"green"},{"name":"The Guild Merchant","lat":53.788,"lon":-2.74739,"postcode":"PR2 7AB","la":"Preston","era":"other","nn":511,"risk":45,"cat":"amber"},{"name":"The Hesketh Arms","lat":53.76584,"lon":-2.66466,"postcode":"PR1 4SY","la":"Preston","era":"trad","nn":307,"risk":44,"cat":"amber"},{"name":"The Moorbrook Inn","lat":53.76693,"lon":-2.70228,"postcode":"PR1 1RU","la":"Preston","era":"trad","nn":373,"risk":27,"cat":"green"},{"name":"The Northern Way","lat":53.76179,"lon":-2.70591,"postcode":"PR1 2ED","la":"Preston","era":"other","nn":116,"risk":25,"cat":"green"},{"name":"The Old Vic","lat":53.75778,"lon":-2.70461,"postcode":"PR1 2NJ","la":"Preston","era":"other","nn":107,"risk":25,"cat":"green"},{"name":"The Orchard","lat":53.76049,"lon":-2.69974,"postcode":"PR1 2LA","la":"Preston","era":"other","nn":68,"risk":25,"cat":"green"},{"name":"The Pig and Whistle","lat":53.76586,"lon":-2.76846,"postcode":"PR2 1QS","la":"Preston","era":"other","nn":58,"risk":45,"cat":"amber"},{"name":"The Plough Hotel","lat":53.80533,"lon":-2.62333,"postcode":"PR2 5JR","la":"Preston","era":"trad","nn":762,"risk":50,"cat":"amber"},{"name":"The Ribble Lodge","lat":53.77682,"lon":-2.66101,"postcode":"PR2 6RD","la":"Preston","era":"other","nn":195,"risk":43,"cat":"amber"},{"name":"The Sherwood","lat":53.79226,"lon":-2.69538,"postcode":"PR2 9GA","la":"Preston","era":"other","nn":1167,"risk":55,"cat":"amber"},{"name":"The Sitting Goose Inn","lat":53.78857,"lon":-2.78143,"postcode":"PR4 0RT","la":"Fylde","era":"trad","nn":1026,"risk":56,"cat":"amber"},{"name":"The Smiths Arms Hotel","lat":53.7738,"lon":-2.79602,"postcode":"PR4 0RP","la":"Preston","era":"trad","nn":1431,"risk":57,"cat":"amber"},{"name":"The Stags Head","lat":53.82253,"lon":-2.66775,"postcode":"PR3 2AU","la":"Preston","era":"trad","nn":0,"risk":42,"cat":"amber"},{"name":"The Station Hotel","lat":53.75698,"lon":-2.70636,"postcode":"PR1 8BN","la":"Preston","era":"other","nn":145,"risk":25,"cat":"green"},{"name":"The Tap End","lat":53.77086,"lon":-2.72912,"postcode":"PR2 1HX","la":"Preston","era":"mod","nn":3,"risk":24,"cat":"green"},{"name":"The Warehouse","lat":53.75851,"lon":-2.69531,"postcode":"PR1 3XX","la":"Preston","era":"other","nn":46,"risk":25,"cat":"green"},{"name":"The Wellfield Arms","lat":53.76683,"lon":-2.70937,"postcode":"PR1 7BH","la":"Preston","era":"trad","nn":196,"risk":26,"cat":"green"},{"name":"The Wellington","lat":53.76499,"lon":-2.72911,"postcode":"PR2 1AR","la":"Preston","era":"trad","nn":389,"risk":27,"cat":"green"},{"name":"The Wellington Inn","lat":53.75748,"lon":-2.69845,"postcode":"PR1 3LS","la":"Preston","era":"trad","nn":0,"risk":24,"cat":"green"},{"name":"The Wheatsheaf","lat":53.80478,"lon":-2.76009,"postcode":"PR4 0NE","la":"Preston","era":"trad","nn":1270,"risk":56,"cat":"amber"},{"name":"The Wheatsheaf","lat":53.76427,"lon":-2.72166,"postcode":"PR2 2NL","la":"Preston","era":"trad","nn":135,"risk":25,"cat":"green"},{"name":"The White Hart","lat":53.77874,"lon":-2.68118,"postcode":"PR2 8AD","la":"Preston","era":"trad","nn":696,"risk":49,"cat":"amber"},{"name":"Thurlby Club LMRCA","lat":53.76462,"lon":-2.73749,"postcode":"PR2 1AL","la":"Preston","era":"other","nn":0,"risk":24,"cat":"green"},{"name":"Tithebarn Hotel","lat":53.76027,"lon":-2.69693,"postcode":"PR1 1DN","la":"Preston","era":"other","nn":49,"risk":25,"cat":"green"},{"name":"Tulketh Tap Room","lat":53.77076,"lon":-2.72784,"postcode":"PR2 2JJ","la":"Preston","era":"mod","nn":85,"risk":25,"cat":"green"},{"name":"Twelve Tellers","lat":53.75927,"lon":-2.69626,"postcode":"PR1 3BQ","la":"Preston","era":"other","nn":0,"risk":24,"cat":"green"},{"name":"Vinyl Tap","lat":53.76315,"lon":-2.70629,"postcode":"PR1 7BE","la":"Preston","era":"mod","nn":40,"risk":25,"cat":"green"},{"name":"Whittingham & Goosnargh Sports & Social Club","lat":53.81647,"lon":-2.6582,"postcode":"PR3 2JE","la":"Preston","era":"mod","nn":920,"risk":48,"cat":"amber"},{"name":"Wilbraham Club","lat":53.7651,"lon":-2.68105,"postcode":"PR1 5NJ","la":"Preston","era":"other","nn":524,"risk":28,"cat":"green"},{"name":"Willos","lat":53.78082,"lon":-2.74503,"postcode":"PR2 3YP","la":"Preston","era":"other","nn":703,"risk":47,"cat":"amber"},{"name":"Wings & Beer Co","lat":53.75749,"lon":-2.69972,"postcode":"PR1 3NT","la":"Preston","era":"other","nn":64,"risk":25,"cat":"green"},{"name":"Wonderwall","lat":53.75901,"lon":-2.69474,"postcode":"PR1 3BT","la":"Preston","era":"other","nn":67,"risk":25,"cat":"green"},{"name":"Woodplumpton Club","lat":53.79516,"lon":-2.7705,"postcode":"PR4 0RU","la":"Preston","era":"other","nn":1026,"risk":54,"cat":"amber"},{"name":"Black Bull Hotel","lat":53.81291,"lon":-2.53423,"postcode":"PR3 3YE","la":"Ribble Valley","era":"trad","nn":0,"risk":30,"cat":"green"},{"name":"Bull and Royal Hotel","lat":53.83173,"lon":-2.60688,"postcode":"PR3 3JT","la":"Ribble Valley","era":"trad","nn":85,"risk":26,"cat":"green"},{"name":"Derby Arms","lat":53.84484,"lon":-2.60337,"postcode":"PR3 2NB","la":"Ribble Valley","era":"trad","nn":771,"risk":51,"cat":"amber"},{"name":"Forrest Arms","lat":53.83279,"lon":-2.60709,"postcode":"PR3 3NP","la":"Ribble Valley","era":"trad","nn":74,"risk":26,"cat":"green"},{"name":"LJ's Bar","lat":53.83224,"lon":-2.60445,"postcode":"PR3 3JP","la":"Ribble Valley","era":"other","nn":3,"risk":25,"cat":"green"},{"name":"Longridge Conservative Club","lat":53.83057,"lon":-2.60137,"postcode":"PR3 3JA","la":"Ribble Valley","era":"other","nn":0,"risk":25,"cat":"green"},{"name":"Longridge Cricket Club","lat":53.83823,"lon":-2.6069,"postcode":"PR3 2NB","la":"Ribble Valley","era":"other","nn":328,"risk":27,"cat":"green"},{"name":"Longridge Golf Club","lat":53.85074,"lon":-2.56158,"postcode":"PR3 2TU","la":"Ribble Valley","era":"other","nn":1269,"risk":57,"cat":"amber"},{"name":"Mrs Sippy","lat":53.83231,"lon":-2.6046,"postcode":"PR3 3JP","la":"Ribble Valley","era":"other","nn":10,"risk":25,"cat":"green"},{"name":"Ribchester Arms","lat":53.81504,"lon":-2.5159,"postcode":"PR3 3ZQ","la":"Ribble Valley","era":"trad","nn":1137,"risk":56,"cat":"amber"},{"name":"Ribchester Sports & Social Clu","lat":53.81291,"lon":-2.53423,"postcode":"PR3 3YE","la":"Ribble Valley","era":"mod","nn":0,"risk":30,"cat":"green"},{"name":"St Wilfrid's Terrace Members' Club","lat":53.8322,"lon":-2.6079,"postcode":"PR3 3WQ","la":"Ribble Valley","era":"other","nn":85,"risk":26,"cat":"green"},{"name":"Sun Inn","lat":53.884,"lon":-2.57511,"postcode":"PR3 2GD","la":"Ribble Valley","era":"trad","nn":88,"risk":46,"cat":"amber"},{"name":"Tap 'n' Vent","lat":53.832,"lon":-2.60384,"postcode":"PR3 3HU","la":"Ribble Valley","era":"other","nn":48,"risk":25,"cat":"green"},{"name":"The Dog Inn","lat":53.82944,"lon":-2.59979,"postcode":"PR3 3RR","la":"Ribble Valley","era":"trad","nn":162,"risk":26,"cat":"green"},{"name":"The Durham Ox","lat":53.83057,"lon":-2.60137,"postcode":"PR3 3JA","la":"Ribble Valley","era":"other","nn":0,"risk":25,"cat":"green"},{"name":"The Old Oak","lat":53.82281,"lon":-2.60704,"postcode":"PR3 3BA","la":"Ribble Valley","era":"trad","nn":878,"risk":34,"cat":"amber"},{"name":"The Shed","lat":53.81889,"lon":-2.53352,"postcode":"PR3 3YN","la":"Ribble Valley","era":"other","nn":667,"risk":35,"cat":"amber"},{"name":"The Stagedoor","lat":53.83257,"lon":-2.60584,"postcode":"PR3 3NJ","la":"Ribble Valley","era":"trad","nn":85,"risk":26,"cat":"green"},{"name":"The White Bull Hotel","lat":53.81174,"lon":-2.53229,"postcode":"PR3 3XP","la":"Ribble Valley","era":"trad","nn":182,"risk":31,"cat":"amber"},{"name":"Tillotsons Arms","lat":53.88478,"lon":-2.57481,"postcode":"PR3 2QE","la":"Ribble Valley","era":"trad","nn":88,"risk":46,"cat":"amber"},{"name":"Towneley Arms Hotel","lat":53.83225,"lon":-2.6045,"postcode":"PR3 3JP","la":"Ribble Valley","era":"trad","nn":3,"risk":25,"cat":"green"},{"name":"Ainsdale Cricket Club","lat":53.59556,"lon":-3.0383,"postcode":"PR8 3QF","la":"Sefton","era":"other","nn":202,"risk":24,"cat":"green"},{"name":"Arthurs of Churchtown","lat":53.66112,"lon":-2.9657,"postcode":"PR9 7LN","la":"Sefton","era":"other","nn":217,"risk":24,"cat":"green"},{"name":"Avalanche Sports Bar","lat":53.64638,"lon":-3.01061,"postcode":"PR8 1RE","la":"Sefton","era":"other","nn":8,"risk":22,"cat":"green"},{"name":"Avenue","lat":53.64768,"lon":-3.00819,"postcode":"PR8 1NN","la":"Sefton","era":"other","nn":13,"risk":22,"cat":"green"},{"name":"Bailey's Wine Bar","lat":53.6498,"lon":-3.0034,"postcode":"PR9 0AQ","la":"Sefton","era":"other","nn":40,"risk":22,"cat":"green"},{"name":"Bar 1","lat":53.65004,"lon":-3.00605,"postcode":"PR9 0DP","la":"Sefton","era":"mod","nn":66,"risk":23,"cat":"green"},{"name":"BB'S Bar","lat":53.64952,"lon":-3.00523,"postcode":"PR9 0BX","la":"Sefton","era":"other","nn":38,"risk":22,"cat":"green"},{"name":"Beer Inn","lat":53.65205,"lon":-2.99945,"postcode":"PR9 0AW","la":"Sefton","era":"trad","nn":27,"risk":22,"cat":"green"},{"name":"Birkdale Conservative Club","lat":53.63393,"lon":-3.01369,"postcode":"PR8 4AR","la":"Sefton","era":"other","nn":31,"risk":22,"cat":"green"},{"name":"Birkdale Labour Club","lat":53.63207,"lon":-3.01162,"postcode":"PR8 4BD","la":"Sefton","era":"other","nn":248,"risk":24,"cat":"green"},{"name":"Birkers Bar and Grill","lat":53.63382,"lon":-3.01412,"postcode":"PR8 4AR","la":"Sefton","era":"mod","nn":31,"risk":22,"cat":"green"},{"name":"Bold Arms","lat":53.6591,"lon":-2.96344,"postcode":"PR9 7NE","la":"Sefton","era":"trad","nn":56,"risk":22,"cat":"green"},{"name":"Boulevard West","lat":53.64461,"lon":-3.01274,"postcode":"PR8 1RP","la":"Sefton","era":"other","nn":165,"risk":23,"cat":"green"},{"name":"Carlton","lat":53.64669,"lon":-3.00719,"postcode":"PR8 1JR","la":"Sefton","era":"other","nn":15,"risk":22,"cat":"green"},{"name":"Carlton Tennis Club","lat":53.62489,"lon":-3.02084,"postcode":"PR8 4RQ","la":"Sefton","era":"other","nn":556,"risk":31,"cat":"amber"},{"name":"Casablanca Bar & Lounge","lat":53.65097,"lon":-3.00169,"postcode":"PR9 0BB","la":"Sefton","era":"mod","nn":68,"risk":23,"cat":"green"},{"name":"Churchtown Conservative Club","lat":53.66085,"lon":-2.96243,"postcode":"PR9 7NN","la":"Sefton","era":"other","nn":129,"risk":23,"cat":"green"},{"name":"Cloud 9","lat":53.64901,"lon":-3.00588,"postcode":"PR9 0DF","la":"Sefton","era":"other","nn":0,"risk":22,"cat":"green"},{"name":"Club Monroe","lat":53.64634,"lon":-3.01051,"postcode":"PR8 1RE","la":"Sefton","era":"other","nn":0,"risk":22,"cat":"green"},{"name":"Connolly's Pub","lat":53.64619,"lon":-3.00725,"postcode":"PR8 1JZ","la":"Sefton","era":"other","nn":42,"risk":22,"cat":"green"},{"name":"Coopers Bar Southport","lat":53.65233,"lon":-2.99952,"postcode":"PR9 0BL","la":"Sefton","era":"other","nn":31,"risk":22,"cat":"green"},{"name":"Crown Hotel","lat":53.6158,"lon":-3.01741,"postcode":"PR8 3BZ","la":"Sefton","era":"trad","nn":211,"risk":29,"cat":"green"},{"name":"Forty Seven","lat":53.62949,"lon":-2.97723,"postcode":"PR8 6JW","la":"Sefton","era":"other","nn":114,"risk":28,"cat":"green"},{"name":"Fox And Goose","lat":53.64901,"lon":-3.00588,"postcode":"PR9 0DF","la":"Sefton","era":"trad","nn":0,"risk":22,"cat":"green"},{"name":"Grasshopper Pub","lat":53.61993,"lon":-3.02197,"postcode":"PR8 4QD","la":"Sefton","era":"other","nn":386,"risk":27,"cat":"green"},{"name":"Guest House","lat":53.65054,"lon":-2.99928,"postcode":"PR9 0QE","la":"Sefton","era":"other","nn":128,"risk":23,"cat":"green"},{"name":"Hesketh Arms","lat":53.65979,"lon":-2.9616,"postcode":"PR9 7NA","la":"Sefton","era":"trad","nn":129,"risk":23,"cat":"green"},{"name":"Hickory's Smokehouse","lat":53.6296,"lon":-2.97551,"postcode":"PR8 5PH","la":"Sefton","era":"other","nn":114,"risk":28,"cat":"green"},{"name":"Hillside Golf Club","lat":53.62003,"lon":-3.02783,"postcode":"PR8 2LU","la":"Sefton","era":"other","nn":386,"risk":27,"cat":"green"},{"name":"Imperial Hotel","lat":53.65533,"lon":-2.99216,"postcode":"PR9 0LN","la":"Sefton","era":"other","nn":308,"risk":24,"cat":"green"},{"name":"JT Akshaya","lat":53.64634,"lon":-3.01051,"postcode":"PR8 1RE","la":"Sefton","era":"other","nn":0,"risk":22,"cat":"green"},{"name":"Le Grog","lat":53.65184,"lon":-3.00114,"postcode":"PR9 0EW","la":"Sefton","era":"other","nn":61,"risk":23,"cat":"green"},{"name":"Le Moose","lat":53.64749,"lon":-3.00858,"postcode":"PR8 1PG","la":"Sefton","era":"other","nn":7,"risk":22,"cat":"green"},{"name":"Les Dodd Snooker Centre","lat":53.6452,"lon":-3.00558,"postcode":"PR8 1EG","la":"Sefton","era":"other","nn":67,"risk":23,"cat":"green"},{"name":"Level 1","lat":53.64751,"lon":-3.00848,"postcode":"PR8 1PG","la":"Sefton","era":"other","nn":7,"risk":22,"cat":"green"},{"name":"Mavericks","lat":53.65218,"lon":-2.99912,"postcode":"PR9 0AW","la":"Sefton","era":"other","nn":27,"risk":22,"cat":"green"},{"name":"Miller & Carter Ainsdale","lat":53.60402,"lon":-3.0319,"postcode":"PR8 3BJ","la":"Sefton","era":"trad","nn":205,"risk":24,"cat":"green"},{"name":"Morrells","lat":53.60264,"lon":-3.03451,"postcode":"PR8 3LU","la":"Sefton","era":"other","nn":92,"risk":23,"cat":"green"},{"name":"Oast House","lat":53.65006,"lon":-3.0038,"postcode":"PR9 0BY","la":"Sefton","era":"other","nn":40,"risk":22,"cat":"green"},{"name":"Park Hotel","lat":53.63415,"lon":-3.01536,"postcode":"PR8 2ED","la":"Sefton","era":"other","nn":63,"risk":23,"cat":"green"},{"name":"Pebbles Bar & Grill","lat":53.60204,"lon":-3.04151,"postcode":"PR8 3HH","la":"Sefton","era":"mod","nn":43,"risk":22,"cat":"green"},{"name":"Petite Verite","lat":53.63432,"lon":-3.0135,"postcode":"PR8 4AR","la":"Sefton","era":"other","nn":45,"risk":22,"cat":"green"},{"name":"Platform","lat":53.63447,"lon":-3.01458,"postcode":"PR8 2DS","la":"Sefton","era":"other","nn":63,"risk":23,"cat":"green"},{"name":"Railway Club","lat":53.64518,"lon":-2.98718,"postcode":"PR9 0SJ","la":"Sefton","era":"trad","nn":286,"risk":24,"cat":"green"},{"name":"Retro Bar","lat":53.64772,"lon":-3.00847,"postcode":"PR8 1QN","la":"Sefton","era":"other","nn":19,"risk":22,"cat":"green"},{"name":"Scarisbrick Bowling Club Ltd","lat":53.63678,"lon":-2.98818,"postcode":"PR8 6LG","la":"Sefton","era":"other","nn":371,"risk":27,"cat":"green"},{"name":"Ship & Anchor","lat":53.64901,"lon":-3.00588,"postcode":"PR9 0DF","la":"Sefton","era":"trad","nn":0,"risk":22,"cat":"green"},{"name":"Shot & Chaser","lat":53.64558,"lon":-3.00385,"postcode":"PR8 1BN","la":"Sefton","era":"other","nn":67,"risk":23,"cat":"green"},{"name":"Southport & Ainsdale Golf Club","lat":53.60523,"lon":-3.03424,"postcode":"PR8 3LG","la":"Sefton","era":"other","nn":205,"risk":24,"cat":"green"},{"name":"Southport Bridge Club Limited","lat":53.65346,"lon":-2.99561,"postcode":"PR9 0LE","la":"Sefton","era":"other","nn":271,"risk":24,"cat":"green"},{"name":"Southport Coaster","lat":53.64646,"lon":-3.00971,"postcode":"PR8 1PU","la":"Sefton","era":"other","nn":54,"risk":22,"cat":"green"},{"name":"Southport Dramatic Club","lat":53.64792,"lon":-3.00093,"postcode":"PR9 0PA","la":"Sefton","era":"trad","nn":81,"risk":23,"cat":"green"},{"name":"Southport Old Links Golf Club","lat":53.65369,"lon":-2.958,"postcode":"PR9 7QS","la":"Sefton","era":"other","nn":694,"risk":27,"cat":"green"},{"name":"Southport Sailing Club","lat":53.64748,"lon":-3.02053,"postcode":"PR8 1RY","la":"Sefton","era":"other","nn":605,"risk":26,"cat":"green"},{"name":"Southport Tavern","lat":53.64727,"lon":-3.0015,"postcode":"PR9 0TH","la":"Sefton","era":"other","nn":77,"risk":23,"cat":"green"},{"name":"Spender's Bar","lat":53.64758,"lon":-3.00806,"postcode":"PR8 1NN","la":"Sefton","era":"other","nn":15,"risk":22,"cat":"green"},{"name":"Sphynx Lawn Tennis Club","lat":53.63531,"lon":-2.98314,"postcode":"PR8 6TL","la":"Sefton","era":"other","nn":371,"risk":25,"cat":"green"},{"name":"St John Stone Social Club","lat":53.59378,"lon":-3.03763,"postcode":"PR8 3RN","la":"Sefton","era":"mod","nn":202,"risk":24,"cat":"green"},{"name":"St Patricks Social Club","lat":53.66388,"lon":-2.96825,"postcode":"PR9 9TJ","la":"Sefton","era":"mod","nn":350,"risk":25,"cat":"green"},{"name":"Tap and Bottles","lat":53.64701,"lon":-3.00568,"postcode":"PR8 1EN","la":"Sefton","era":"other","nn":105,"risk":23,"cat":"green"},{"name":"Taylor's Bar","lat":53.61748,"lon":-3.01591,"postcode":"PR8 3BY","la":"Sefton","era":"other","nn":211,"risk":26,"cat":"green"},{"name":"The Barr Ainsdale","lat":53.60266,"lon":-3.0359,"postcode":"PR8 3HS","la":"Sefton","era":"other","nn":92,"risk":23,"cat":"green"},{"name":"The Beer Den","lat":53.67137,"lon":-2.94859,"postcode":"PR9 8HT","la":"Sefton","era":"other","nn":955,"risk":49,"cat":"amber"},{"name":"The Beer Den","lat":53.63922,"lon":-3.00589,"postcode":"PR8 5BT","la":"Sefton","era":"other","nn":391,"risk":25,"cat":"green"},{"name":"The Cheshire Lines","lat":53.64364,"lon":-3.01046,"postcode":"PR8 1LQ","la":"Sefton","era":"other","nn":185,"risk":23,"cat":"green"},{"name":"The Cock and Rabbit","lat":53.64991,"lon":-2.99276,"postcode":"PR9 9BN","la":"Sefton","era":"other","nn":337,"risk":24,"cat":"green"},{"name":"The Crafty Dog Southport","lat":53.65064,"lon":-3.00257,"postcode":"PR9 0DD","la":"Sefton","era":"mod","nn":68,"risk":23,"cat":"green"},{"name":"The Golden Monkey","lat":53.60226,"lon":-3.04098,"postcode":"PR8 3HL","la":"Sefton","era":"trad","nn":43,"risk":22,"cat":"green"},{"name":"The Grapevine","lat":53.65878,"lon":-2.96409,"postcode":"PR9 7NE","la":"Sefton","era":"other","nn":56,"risk":22,"cat":"green"},{"name":"The Mallard","lat":53.60128,"lon":-3.03449,"postcode":"PR8 3NA","la":"Sefton","era":"other","nn":151,"risk":23,"cat":"green"},{"name":"The Marsh Harrier","lat":53.67195,"lon":-2.96306,"postcode":"PR9 9XP","la":"Sefton","era":"other","nn":955,"risk":46,"cat":"amber"},{"name":"The Masons Arms","lat":53.64868,"lon":-3.00255,"postcode":"PR9 0UT","la":"Sefton","era":"trad","nn":98,"risk":23,"cat":"green"},{"name":"The Monument Pub and Sports Bar","lat":53.64783,"lon":-3.00218,"postcode":"PR9 0TF","la":"Sefton","era":"other","nn":77,"risk":23,"cat":"green"},{"name":"The Mount Pleasant","lat":53.65067,"lon":-2.98781,"postcode":"PR9 9BD","la":"Sefton","era":"other","nn":337,"risk":24,"cat":"green"},{"name":"The Olde Post Office","lat":53.6514,"lon":-3.00057,"postcode":"PR9 0AN","la":"Sefton","era":"other","nn":61,"risk":23,"cat":"green"},{"name":"The Richmond","lat":53.63437,"lon":-2.97506,"postcode":"PR8 5HL","la":"Sefton","era":"other","nn":532,"risk":26,"cat":"green"},{"name":"The Sporting Jester","lat":53.64568,"lon":-3.00485,"postcode":"PR8 1DY","la":"Sefton","era":"other","nn":67,"risk":23,"cat":"green"},{"name":"The Thatch and Thistle","lat":53.63953,"lon":-2.97277,"postcode":"PR8 6EF","la":"Sefton","era":"other","nn":592,"risk":44,"cat":"amber"},{"name":"The Union Club","lat":53.64986,"lon":-3.0051,"postcode":"PR9 0DA","la":"Sefton","era":"other","nn":38,"risk":22,"cat":"green"},{"name":"The Upsteps","lat":53.63588,"lon":-3.00775,"postcode":"PR8 5ND","la":"Sefton","era":"other","nn":391,"risk":25,"cat":"green"},{"name":"The Windmill","lat":53.65237,"lon":-3.00338,"postcode":"PR9 0EL","la":"Sefton","era":"trad","nn":159,"risk":23,"cat":"green"},{"name":"The Woollen Pig","lat":53.63505,"lon":-3.00098,"postcode":"PR8 5DH","la":"Sefton","era":"other","nn":456,"risk":25,"cat":"green"},{"name":"Victoria","lat":53.65085,"lon":-3.00609,"postcode":"PR9 0DS","la":"Sefton","era":"trad","nn":91,"risk":23,"cat":"green"},{"name":"Vincent Hotel","lat":53.64657,"lon":-3.00725,"postcode":"PR8 1JR","la":"Sefton","era":"other","nn":15,"risk":22,"cat":"green"},{"name":"Wellington Hotel","lat":53.64578,"lon":-3.00588,"postcode":"PR8 1DT","la":"Sefton","era":"trad","nn":67,"risk":23,"cat":"green"},{"name":"Wetherspoons","lat":53.64581,"lon":-3.01127,"postcode":"PR8 1RH","la":"Sefton","era":"other","nn":76,"risk":23,"cat":"green"},{"name":"Word of Mouth","lat":53.65515,"lon":-2.97399,"postcode":"PR9 7JG","la":"Sefton","era":"other","nn":767,"risk":27,"cat":"green"},{"name":"Yeahman's Beach Bar","lat":53.64758,"lon":-3.0083,"postcode":"PR8 1PG","la":"Sefton","era":"other","nn":13,"risk":22,"cat":"green"},{"name":"Zetland Hotel","lat":53.64726,"lon":-2.98973,"postcode":"PR9 0RH","la":"Sefton","era":"other","nn":286,"risk":24,"cat":"green"},{"name":"Anchor Inn","lat":53.72386,"lon":-2.69391,"postcode":"PR5 5LA","la":"South Ribble","era":"trad","nn":244,"risk":30,"cat":"green"},{"name":"Bamber Bridge Band Club","lat":53.72618,"lon":-2.6602,"postcode":"PR5 6LE","la":"South Ribble","era":"other","nn":86,"risk":27,"cat":"green"},{"name":"Bamber Bridge Conservative Club","lat":53.72783,"lon":-2.66146,"postcode":"PR5 6TU","la":"South Ribble","era":"other","nn":112,"risk":27,"cat":"green"},{"name":"Bamber Bridge Football Club","lat":53.72793,"lon":-2.67483,"postcode":"PR5 6UX","la":"South Ribble","era":"other","nn":746,"risk":31,"cat":"amber"},{"name":"Barristers","lat":53.69085,"lon":-2.69778,"postcode":"PR25 2LR","la":"South Ribble","era":"other","nn":17,"risk":26,"cat":"green"},{"name":"Beam & Brycg","lat":53.7356,"lon":-2.66317,"postcode":"PR5 6QL","la":"South Ribble","era":"other","nn":69,"risk":26,"cat":"green"},{"name":"Beer Box","lat":53.73127,"lon":-2.66152,"postcode":"PR5 6LA","la":"South Ribble","era":"other","nn":47,"risk":26,"cat":"green"},{"name":"Black Bull","lat":53.72619,"lon":-2.78736,"postcode":"PR4 5AA","la":"South Ribble","era":"trad","nn":210,"risk":27,"cat":"green"},{"name":"Black Bull","lat":53.73701,"lon":-2.72022,"postcode":"PR1 9BA","la":"South Ribble","era":"trad","nn":934,"risk":50,"cat":"amber"},{"name":"Black Horse","lat":53.73274,"lon":-2.61728,"postcode":"PR5 0ED","la":"Chorley","era":"trad","nn":86,"risk":47,"cat":"amber"},{"name":"Broadfield Arms","lat":53.69583,"lon":-2.71634,"postcode":"PR25 1XH","la":"South Ribble","era":"trad","nn":537,"risk":30,"cat":"green"},{"name":"Casual Sixty Nine","lat":53.73166,"lon":-2.66182,"postcode":"PR5 6LA","la":"South Ribble","era":"other","nn":46,"risk":26,"cat":"green"},{"name":"Crofters Arms","lat":53.68794,"lon":-2.71598,"postcode":"PR25 1TA","la":"South Ribble","era":"trad","nn":89,"risk":27,"cat":"green"},{"name":"Dunkirk Hall","lat":53.69139,"lon":-2.72334,"postcode":"PR26 7SW","la":"South Ribble","era":"other","nn":566,"risk":35,"cat":"amber"},{"name":"Eagle and Child","lat":53.68885,"lon":-2.69462,"postcode":"PR25 3AA","la":"South Ribble","era":"trad","nn":214,"risk":27,"cat":"green"},{"name":"Fairham's","lat":53.75018,"lon":-2.72915,"postcode":"PR1 0AD","la":"South Ribble","era":"other","nn":15,"risk":29,"cat":"green"},{"name":"Farington Conservative Club","lat":53.70303,"lon":-2.68365,"postcode":"PR25 4GA","la":"South Ribble","era":"other","nn":91,"risk":27,"cat":"green"},{"name":"Fox and Lion","lat":53.6887,"lon":-2.69843,"postcode":"PR25 2EN","la":"South Ribble","era":"trad","nn":39,"risk":26,"cat":"green"},{"name":"Fox Lane Sports Club","lat":53.688,"lon":-2.70367,"postcode":"PR25 1HB","la":"South Ribble","era":"trad","nn":354,"risk":28,"cat":"green"},{"name":"Ginjarale","lat":53.75036,"lon":-2.72928,"postcode":"PR1 0AD","la":"South Ribble","era":"other","nn":21,"risk":29,"cat":"green"},{"name":"Hoptons","lat":53.72664,"lon":-2.78137,"postcode":"PR4 5EB","la":"South Ribble","era":"other","nn":68,"risk":26,"cat":"green"},{"name":"Indigo","lat":53.69737,"lon":-2.68921,"postcode":"PR25 3NL","la":"South Ribble","era":"other","nn":40,"risk":26,"cat":"green"},{"name":"Lancs and York's","lat":53.72696,"lon":-2.66025,"postcode":"PR5 6LD","la":"South Ribble","era":"other","nn":86,"risk":27,"cat":"green"},{"name":"Leyland Conservative Club","lat":53.691,"lon":-2.69771,"postcode":"PR25 2LR","la":"South Ribble","era":"other","nn":17,"risk":26,"cat":"green"},{"name":"Leyland Food Bank","lat":53.69214,"lon":-2.70495,"postcode":"PR25 1PD","la":"South Ribble","era":"other","nn":467,"risk":29,"cat":"green"},{"name":"Leyland Golf Club","lat":53.69,"lon":-2.67444,"postcode":"PR25 5UD","la":"South Ribble","era":"other","nn":461,"risk":47,"cat":"amber"},{"name":"Longton Arms","lat":53.71523,"lon":-2.79123,"postcode":"PR4 5GA","la":"South Ribble","era":"trad","nn":339,"risk":48,"cat":"amber"},{"name":"Lostock Ale House","lat":53.72595,"lon":-2.69278,"postcode":"PR5 5RU","la":"South Ribble","era":"other","nn":86,"risk":29,"cat":"green"},{"name":"Lostock Hall Conservative Club","lat":53.72645,"lon":-2.69177,"postcode":"PR5 5AA","la":"South Ribble","era":"other","nn":86,"risk":29,"cat":"green"},{"name":"Midge Hall","lat":53.70198,"lon":-2.74436,"postcode":"PR26 6TN","la":"South Ribble","era":"other","nn":1817,"risk":61,"cat":"red"},{"name":"Net Bar","lat":53.73338,"lon":-2.61801,"postcode":"PR5 0FD","la":"South Ribble","era":"other","nn":86,"risk":47,"cat":"amber"},{"name":"New Longton Sports And Social Club","lat":53.72716,"lon":-2.74677,"postcode":"PR4 4AA","la":"South Ribble","era":"mod","nn":1439,"risk":59,"cat":"amber"},{"name":"No 16 On The Hill","lat":53.75016,"lon":-2.72938,"postcode":"PR1 0AD","la":"South Ribble","era":"other","nn":15,"risk":29,"cat":"green"},{"name":"No 55","lat":53.69562,"lon":-2.69328,"postcode":"PR25 2SA","la":"South Ribble","era":"other","nn":104,"risk":27,"cat":"green"},{"name":"Pear Tree Inn","lat":53.74001,"lon":-2.70696,"postcode":"PR1 9QB","la":"South Ribble","era":"trad","nn":428,"risk":31,"cat":"amber"},{"name":"Penwortham Sports Club","lat":53.7434,"lon":-2.71005,"postcode":"PR1 9QE","la":"South Ribble","era":"other","nn":219,"risk":27,"cat":"green"},{"name":"Pump & Truncheon","lat":53.7287,"lon":-2.66045,"postcode":"PR5 6LB","la":"South Ribble","era":"other","nn":42,"risk":26,"cat":"green"},{"name":"Queens Hotel","lat":53.6986,"lon":-2.70966,"postcode":"PR25 2YH","la":"South Ribble","era":"trad","nn":402,"risk":34,"cat":"amber"},{"name":"RAFA Club","lat":53.69832,"lon":-2.68786,"postcode":"PR25 3NN","la":"South Ribble","era":"other","nn":137,"risk":27,"cat":"green"},{"name":"Railway Leyland","lat":53.69983,"lon":-2.68652,"postcode":"PR25 4NT","la":"South Ribble","era":"trad","nn":190,"risk":27,"cat":"green"},{"name":"Red Lion","lat":53.72587,"lon":-2.79072,"postcode":"PR4 5AU","la":"South Ribble","era":"trad","nn":28,"risk":26,"cat":"green"},{"name":"Rose Of Farington","lat":53.70236,"lon":-2.68444,"postcode":"PR25 4QA","la":"South Ribble","era":"trad","nn":91,"risk":27,"cat":"green"},{"name":"Seven Stars Inn","lat":53.68874,"lon":-2.71599,"postcode":"PR25 1TA","la":"South Ribble","era":"trad","nn":89,"risk":27,"cat":"green"},{"name":"Sir Robert Peel Hotel","lat":53.7484,"lon":-2.67251,"postcode":"PR5 4AY","la":"South Ribble","era":"other","nn":52,"risk":44,"cat":"amber"},{"name":"Swan Inn","lat":53.74088,"lon":-2.64151,"postcode":"PR5 4DY","la":"South Ribble","era":"trad","nn":1484,"risk":59,"cat":"amber"},{"name":"Tap and Vine","lat":53.74925,"lon":-2.7327,"postcode":"PR1 9XD","la":"South Ribble","era":"other","nn":144,"risk":29,"cat":"green"},{"name":"The Barrel Food Co Ltd","lat":53.74514,"lon":-2.7116,"postcode":"PR1 9QJ","la":"South Ribble","era":"other","nn":193,"risk":27,"cat":"green"},{"name":"The Bobbin Mill","lat":53.68698,"lon":-2.66964,"postcode":"PR7 7NA","la":"South Ribble","era":"trad","nn":461,"risk":49,"cat":"amber"},{"name":"The Fleece Inn","lat":53.74971,"lon":-2.73065,"postcode":"PR1 9XD","la":"South Ribble","era":"trad","nn":98,"risk":29,"cat":"green"},{"name":"The Gables","lat":53.69445,"lon":-2.69576,"postcode":"PR25 2SD","la":"South Ribble","era":"other","nn":110,"risk":27,"cat":"green"},{"name":"The Golden Ball","lat":53.72542,"lon":-2.79214,"postcode":"PR4 5AU","la":"South Ribble","era":"other","nn":106,"risk":27,"cat":"green"},{"name":"The Hospital Inn","lat":53.72593,"lon":-2.63849,"postcode":"PR5 6YP","la":"South Ribble","era":"trad","nn":1428,"risk":58,"cat":"amber"},{"name":"The Hunters","lat":53.74015,"lon":-2.68288,"postcode":"PR5 5UL","la":"South Ribble","era":"other","nn":1142,"risk":56,"cat":"amber"},{"name":"The Market Ale House","lat":53.69521,"lon":-2.6947,"postcode":"PR25 2SB","la":"South Ribble","era":"other","nn":104,"risk":27,"cat":"green"},{"name":"The Old Leyland Gates","lat":53.69807,"lon":-2.69334,"postcode":"PR25 3PG","la":"South Ribble","era":"other","nn":263,"risk":28,"cat":"green"},{"name":"The Poachers","lat":53.72161,"lon":-2.67101,"postcode":"PR5 6BA","la":"South Ribble","era":"other","nn":323,"risk":28,"cat":"green"},{"name":"The Rams Head","lat":53.72701,"lon":-2.78054,"postcode":"PR4 5HA","la":"South Ribble","era":"trad","nn":68,"risk":26,"cat":"green"},{"name":"The Roundabout Bar","lat":53.69713,"lon":-2.68966,"postcode":"PR25 3NH","la":"South Ribble","era":"other","nn":40,"risk":26,"cat":"green"},{"name":"The Royal British Legion","lat":53.727,"lon":-2.68992,"postcode":"PR5 5AD","la":"South Ribble","era":"trad","nn":136,"risk":27,"cat":"green"},{"name":"The Royal British Legion","lat":53.74657,"lon":-2.71327,"postcode":"PR1 9QH","la":"South Ribble","era":"trad","nn":193,"risk":27,"cat":"green"},{"name":"The Stag (Withy Arms Leyland)","lat":53.68862,"lon":-2.69785,"postcode":"PR25 3EL","la":"South Ribble","era":"trad","nn":39,"risk":26,"cat":"green"},{"name":"The Tom Finney","lat":53.73979,"lon":-2.74206,"postcode":"PR1 0LP","la":"South Ribble","era":"trad","nn":1219,"risk":57,"cat":"amber"},{"name":"The Towngate Club","lat":53.69098,"lon":-2.6973,"postcode":"PR25 2LR","la":"South Ribble","era":"other","nn":0,"risk":26,"cat":"green"},{"name":"The Victoria","lat":53.72516,"lon":-2.68986,"postcode":"PR5 5RD","la":"South Ribble","era":"trad","nn":191,"risk":30,"cat":"green"},{"name":"The Yew Tree","lat":53.7497,"lon":-2.67476,"postcode":"PR5 4AU","la":"South Ribble","era":"other","nn":207,"risk":32,"cat":"amber"},{"name":"Th'Owd Smithy Inn","lat":53.70066,"lon":-2.80156,"postcode":"PR4 4GB","la":"South Ribble","era":"trad","nn":0,"risk":46,"cat":"amber"},{"name":"Th'Owd Smithy Inn","lat":53.70066,"lon":-2.80156,"postcode":"PR4 4GB","la":"South Ribble","era":"trad","nn":0,"risk":46,"cat":"amber"},{"name":"Towngate Social Club Ltd","lat":53.69098,"lon":-2.6973,"postcode":"PR25 2LR","la":"South Ribble","era":"mod","nn":0,"risk":26,"cat":"green"},{"name":"Trades Hall Club","lat":53.72977,"lon":-2.66145,"postcode":"PR5 6TP","la":"South Ribble","era":"other","nn":110,"risk":27,"cat":"green"},{"name":"Walmer Bridge Inn","lat":53.71239,"lon":-2.78941,"postcode":"PR4 5QE","la":"South Ribble","era":"trad","nn":339,"risk":48,"cat":"amber"},{"name":"Walton Arms","lat":53.73547,"lon":-2.66214,"postcode":"PR5 6GD","la":"South Ribble","era":"trad","nn":69,"risk":26,"cat":"green"},{"name":"Walton Fox (vintage Inns)","lat":53.71906,"lon":-2.67337,"postcode":"PR5 6BZ","la":"South Ribble","era":"trad","nn":323,"risk":33,"cat":"amber"},{"name":"Wheatsheaf Hotel","lat":53.70155,"lon":-2.71319,"postcode":"PR26 8PH","la":"South Ribble","era":"trad","nn":402,"risk":46,"cat":"amber"},{"name":"White Bull","lat":53.74822,"lon":-2.67178,"postcode":"PR5 4BA","la":"South Ribble","era":"trad","nn":52,"risk":44,"cat":"amber"},{"name":"Wilkins &  Pye","lat":53.72568,"lon":-2.79044,"postcode":"PR4 5AB","la":"South Ribble","era":"other","nn":28,"risk":26,"cat":"green"},{"name":"Withy Arms","lat":53.73152,"lon":-2.66248,"postcode":"PR5 6QP","la":"South Ribble","era":"trad","nn":46,"risk":26,"cat":"green"},{"name":"Ye Old Original Withy Trees","lat":53.73086,"lon":-2.6612,"postcode":"PR5 6LA","la":"South Ribble","era":"other","nn":51,"risk":26,"cat":"green"},{"name":"Ye Olde Hob Inn","lat":53.72168,"lon":-2.6621,"postcode":"PR5 6EP","la":"South Ribble","era":"trad","nn":516,"risk":30,"cat":"green"},{"name":"Zest Lounge and Bar","lat":53.72881,"lon":-2.66106,"postcode":"PR5 6TP","la":"South Ribble","era":"mod","nn":42,"risk":26,"cat":"green"},{"name":"Cock And Bottle","lat":53.67921,"lon":-2.83122,"postcode":"PR4 6UP","la":"West Lancashire","era":"other","nn":378,"risk":50,"cat":"amber"},{"name":"Hesketh Bank Bowling Club","lat":53.70495,"lon":-2.84211,"postcode":"PR4 6SR","la":"West Lancashire","era":"other","nn":2711,"risk":69,"cat":"red"},{"name":"Lakeside Bar and Chuck Wagon","lat":53.66185,"lon":-2.88432,"postcode":"PR4 6JX","la":"West Lancashire","era":"mod","nn":0,"risk":48,"cat":"amber"},{"name":"Legh Arms","lat":53.66185,"lon":-2.88432,"postcode":"PR4 6JX","la":"West Lancashire","era":"trad","nn":0,"risk":48,"cat":"amber"},{"name":"St Stephens Sports And Social Club","lat":53.67951,"lon":-2.92423,"postcode":"PR9 8BD","la":"West Lancashire","era":"mod","nn":1842,"risk":63,"cat":"red"},{"name":"Tarleton Bowling And Social Club","lat":53.67747,"lon":-2.83616,"postcode":"PR4 6UY","la":"West Lancashire","era":"mod","nn":378,"risk":50,"cat":"amber"},{"name":"Claylands Caravan Park Stepping Stones","lat":53.92935,"lon":-2.76794,"postcode":"PR3 1AJ","la":"Wyre","era":"other","nn":1128,"risk":56,"cat":"amber"},{"name":"Clockwork Bars","lat":53.87497,"lon":-2.7601,"postcode":"PR3 0EN","la":"Wyre","era":"other","nn":119,"risk":47,"cat":"amber"},{"name":"Eagle And Child","lat":53.90158,"lon":-2.77419,"postcode":"PR3 1EA","la":"Wyre","era":"trad","nn":0,"risk":26,"cat":"green"},{"name":"Elletson Arms & Thai At Pilling","lat":53.92293,"lon":-2.89551,"postcode":"PR3 6AH","la":"Wyre","era":"trad","nn":4456,"risk":80,"cat":"red"},{"name":"Farmers Arms","lat":53.89911,"lon":-2.77727,"postcode":"PR3 1PA","la":"Wyre","era":"trad","nn":0,"risk":26,"cat":"green"},{"name":"Farmers Arms","lat":53.8541,"lon":-2.87134,"postcode":"PR3 0YE","la":"Wyre","era":"trad","nn":85,"risk":32,"cat":"amber"},{"name":"Garstang Sports & Social Club","lat":53.90123,"lon":-2.77358,"postcode":"PR3 1FA","la":"Wyre","era":"mod","nn":0,"risk":26,"cat":"green"},{"name":"GREAT ECCLESTON CRICKET CLUB","lat":53.85077,"lon":-2.86889,"postcode":"PR3 0XN","la":"Wyre","era":"other","nn":404,"risk":34,"cat":"amber"},{"name":"Guys Eating Establishment Guys Court Guys Thatched Hamlet","lat":53.85055,"lon":-2.76142,"postcode":"PR3 0RS","la":"Wyre","era":"other","nn":1045,"risk":56,"cat":"amber"},{"name":"Kings Arms Hotel","lat":53.90158,"lon":-2.77419,"postcode":"PR3 1EA","la":"Wyre","era":"trad","nn":0,"risk":26,"cat":"green"},{"name":"SIX ARCHES CLUB \\\\& SHOP","lat":53.93937,"lon":-2.77061,"postcode":"PR3 1AL","la":"Wyre","era":"other","nn":1128,"risk":56,"cat":"amber"},{"name":"The Bellflower","lat":53.89879,"lon":-2.78817,"postcode":"PR3 0JA","la":"Wyre","era":"other","nn":715,"risk":31,"cat":"amber"},{"name":"The Black Bull Hotel","lat":53.85487,"lon":-2.87118,"postcode":"PR3 0YB","la":"Wyre","era":"trad","nn":85,"risk":32,"cat":"amber"},{"name":"The Brockholes Arms","lat":53.87601,"lon":-2.75974,"postcode":"PR3 0PH","la":"Wyre","era":"trad","nn":119,"risk":47,"cat":"amber"},{"name":"The Crown Hotel Garstang","lat":53.90123,"lon":-2.77358,"postcode":"PR3 1FA","la":"Wyre","era":"trad","nn":0,"risk":26,"cat":"green"},{"name":"The Garstang Club Ltd","lat":53.90014,"lon":-2.77423,"postcode":"PR3 1ZA","la":"Wyre","era":"other","nn":118,"risk":27,"cat":"green"},{"name":"The Grapes","lat":53.86437,"lon":-2.82089,"postcode":"PR3 0TJ","la":"Wyre","era":"other","nn":3136,"risk":70,"cat":"red"},{"name":"The Horns Inn","lat":53.88126,"lon":-2.78258,"postcode":"PR3 0HR","la":"Wyre","era":"trad","nn":1607,"risk":60,"cat":"amber"},{"name":"The Pickled Goose Ltd","lat":53.83302,"lon":-2.7379,"postcode":"PR3 5AA","la":"Preston","era":"other","nn":2136,"risk":62,"cat":"red"},{"name":"The Wheatsheaf","lat":53.90087,"lon":-2.77553,"postcode":"PR3 1EL","la":"Wyre","era":"trad","nn":102,"risk":27,"cat":"green"},{"name":"Th'owd Tithebarn","lat":53.89911,"lon":-2.77727,"postcode":"PR3 1PA","la":"Wyre","era":"other","nn":0,"risk":26,"cat":"green"},{"name":"V 12 Bistro Bar Ltd","lat":53.90013,"lon":-2.77645,"postcode":"PR3 1HF","la":"Wyre","era":"mod","nn":102,"risk":27,"cat":"green"},{"name":"White Bull","lat":53.85452,"lon":-2.87244,"postcode":"PR3 0ZB","la":"Wyre","era":"trad","nn":86,"risk":32,"cat":"amber"},{"name":"White Bull Hotel","lat":53.85383,"lon":-2.74649,"postcode":"PR3 0RE","la":"Wyre","era":"trad","nn":1045,"risk":56,"cat":"amber"}]