[{"name":"10 Cafe Bar","lat":56.64484,"lon":-2.88804,"postcode":"DD8 3AD","la":"Angus","era":"other","nn":87,"risk":25,"cat":"green"},{"name":"1871 Lounge","lat":56.64695,"lon":-2.84353,"postcode":"DD8 2RL","la":"Angus","era":"mod","nn":2138,"risk":62,"cat":"red"},{"name":"Abbey Bowling Club","lat":56.56286,"lon":-2.58012,"postcode":"DD11 1HQ","la":"Angus","era":"trad","nn":65,"risk":25,"cat":"green"},{"name":"Abbey Inn","lat":56.56035,"lon":-2.57868,"postcode":"DD11 1EU","la":"Angus","era":"trad","nn":156,"risk":26,"cat":"green"},{"name":"Albert Bar","lat":56.71268,"lon":-2.46669,"postcode":"DD10 8RD","la":"Angus","era":"other","nn":132,"risk":25,"cat":"green"},{"name":"Anchor Bar","lat":56.70592,"lon":-2.46595,"postcode":"DD10 8BY","la":"Angus","era":"trad","nn":123,"risk":25,"cat":"green"},{"name":"Andreou's Bistro","lat":56.55789,"lon":-2.58073,"postcode":"DD11 1AN","la":"Angus","era":"other","nn":53,"risk":25,"cat":"green"},{"name":"Anna Thomson LTD","lat":56.70694,"lon":-2.46515,"postcode":"DD10 8HL","la":"Angus","era":"other","nn":123,"risk":25,"cat":"green"},{"name":"Arbroath Bowling Club","lat":56.55687,"lon":-2.59081,"postcode":"DD11 1QU","la":"Angus","era":"other","nn":194,"risk":26,"cat":"green"},{"name":"Arbroath Harp Community Club","lat":56.56305,"lon":-2.59589,"postcode":"DD11 3DT","la":"Angus","era":"other","nn":272,"risk":26,"cat":"green"},{"name":"Arbroath United Cricket Club","lat":56.56387,"lon":-2.60592,"postcode":"DD11 3EW","la":"Angus","era":"other","nn":320,"risk":27,"cat":"green"},{"name":"Armstrongs","lat":56.6442,"lon":-3.016,"postcode":"DD8 1QT","la":"Angus","era":"trad","nn":2772,"risk":66,"cat":"red"},{"name":"Bar 1320","lat":56.55829,"lon":-2.58753,"postcode":"DD11 1RF","la":"Angus","era":"mod","nn":40,"risk":25,"cat":"green"},{"name":"Barry Downs Caravan Park","lat":56.49148,"lon":-2.78059,"postcode":"DD7 7SA","la":"Angus","era":"other","nn":1969,"risk":61,"cat":"red"},{"name":"Birkhill Bowling Club.","lat":56.49515,"lon":-3.06087,"postcode":"DD2 5QE","la":"Angus","era":"other","nn":525,"risk":48,"cat":"amber"},{"name":"Birkhill Inn","lat":56.49331,"lon":-3.05299,"postcode":"DD2 5PG","la":"Angus","era":"trad","nn":525,"risk":48,"cat":"amber"},{"name":"Black Horse Inn","lat":56.71469,"lon":-2.46785,"postcode":"DD10 8JY","la":"Angus","era":"trad","nn":72,"risk":25,"cat":"green"},{"name":"Brechin Arms","lat":56.73218,"lon":-2.66136,"postcode":"DD9 6EQ","la":"Angus","era":"trad","nn":78,"risk":25,"cat":"green"},{"name":"Brechin Bowling Club","lat":56.73386,"lon":-2.66333,"postcode":"DD9 6JL","la":"Angus","era":"other","nn":0,"risk":25,"cat":"green"},{"name":"Brechin City Football Club","lat":56.7367,"lon":-2.65869,"postcode":"DD9 6BJ","la":"Angus","era":"other","nn":424,"risk":27,"cat":"green"},{"name":"Brechin Golf Club","lat":56.74897,"lon":-2.64627,"postcode":"DD9 7PS","la":"Angus","era":"other","nn":1490,"risk":57,"cat":"amber"},{"name":"Bridgend Bar","lat":56.7246,"lon":-2.64929,"postcode":"DD9 7ES","la":"Angus","era":"other","nn":366,"risk":30,"cat":"green"},{"name":"Buick Social Club","lat":56.56082,"lon":-2.59242,"postcode":"DD11 3AB","la":"Angus","era":"mod","nn":105,"risk":25,"cat":"green"},{"name":"Burns Bar","lat":56.64534,"lon":-2.88374,"postcode":"DD8 2EQ","la":"Angus","era":"other","nn":0,"risk":25,"cat":"green"},{"name":"Busby's","lat":56.70917,"lon":-2.4668,"postcode":"DD10 8EW","la":"Angus","era":"other","nn":0,"risk":25,"cat":"green"},{"name":"Buzz Bingo","lat":56.55897,"lon":-2.58118,"postcode":"DD11 1DP","la":"Angus","era":"other","nn":73,"risk":25,"cat":"green"},{"name":"Caledonian Bar","lat":56.64931,"lon":-2.88398,"postcode":"DD8 3BL","la":"Angus","era":"other","nn":385,"risk":27,"cat":"green"},{"name":"Caledonian Bar","lat":56.70779,"lon":-2.46653,"postcode":"DD10 8DA","la":"Angus","era":"other","nn":127,"risk":25,"cat":"green"},{"name":"Canmore Bowling Club","lat":56.64597,"lon":-2.8901,"postcode":"DD8 1BQ","la":"Angus","era":"other","nn":72,"risk":25,"cat":"green"},{"name":"Carnoustie Caledonia Golf Club","lat":56.49778,"lon":-2.71903,"postcode":"DD7 7JF","la":"Angus","era":"other","nn":0,"risk":25,"cat":"green"},{"name":"Carnoustie West End Bowling Club","lat":56.49921,"lon":-2.72188,"postcode":"DD7 7ER","la":"Angus","era":"other","nn":162,"risk":26,"cat":"green"},{"name":"Central Bar","lat":56.55806,"lon":-2.58374,"postcode":"DD11 1NF","la":"Angus","era":"other","nn":102,"risk":25,"cat":"green"},{"name":"Chillies","lat":56.50378,"lon":-2.6969,"postcode":"DD7 6BJ","la":"Angus","era":"other","nn":1106,"risk":55,"cat":"amber"},{"name":"City Royal Bar","lat":56.73076,"lon":-2.6563,"postcode":"DD9 6DT","la":"Angus","era":"trad","nn":218,"risk":26,"cat":"green"},{"name":"Coast","lat":56.5591,"lon":-2.58395,"postcode":"DD11 1HT","la":"Angus","era":"other","nn":102,"risk":25,"cat":"green"},{"name":"Commercial Inn","lat":56.62873,"lon":-2.76908,"postcode":"DD8 2PZ","la":"Angus","era":"trad","nn":157,"risk":46,"cat":"amber"},{"name":"Corner Bar","lat":56.56414,"lon":-2.59192,"postcode":"DD11 4DH","la":"Angus","era":"other","nn":272,"risk":26,"cat":"green"},{"name":"Craws Nest","lat":56.50048,"lon":-2.74312,"postcode":"DD7 7NY","la":"Angus","era":"other","nn":681,"risk":49,"cat":"amber"},{"name":"Crown Inn","lat":56.48183,"lon":-2.81829,"postcode":"DD5 4AA","la":"Angus","era":"trad","nn":210,"risk":26,"cat":"green"},{"name":"Dalhousie Bar","lat":56.73255,"lon":-2.66017,"postcode":"DD9 6BA","la":"Angus","era":"other","nn":83,"risk":25,"cat":"green"},{"name":"De Vitos","lat":56.55815,"lon":-2.58636,"postcode":"DD11 1NN","la":"Angus","era":"other","nn":73,"risk":25,"cat":"green"},{"name":"Drunken Monkeys Sports Bar and Diner","lat":56.6468,"lon":-2.88846,"postcode":"DD8 3HS","la":"Angus","era":"other","nn":89,"risk":25,"cat":"green"},{"name":"East End Bar & Nova Suite","lat":56.72789,"lon":-2.64912,"postcode":"DD9 7DG","la":"Angus","era":"mod","nn":249,"risk":26,"cat":"green"},{"name":"Edzell Golf Club","lat":56.80674,"lon":-2.65356,"postcode":"DD9 7TF","la":"Angus","era":"other","nn":6438,"risk":82,"cat":"red"},{"name":"Enoch Masonic Club","lat":56.71413,"lon":-2.46727,"postcode":"DD10 8JX","la":"Angus","era":"trad","nn":72,"risk":25,"cat":"green"},{"name":"Forfar Bowling Club","lat":56.64188,"lon":-2.88374,"postcode":"DD8 2BF","la":"Angus","era":"other","nn":304,"risk":27,"cat":"green"},{"name":"Friockheim Bowling Club","lat":56.63765,"lon":-2.65483,"postcode":"DD11 4XB","la":"Angus","era":"other","nn":274,"risk":31,"cat":"amber"},{"name":"Gairie Inn","lat":56.67377,"lon":-3.00225,"postcode":"DD8 4BQ","la":"Angus","era":"trad","nn":149,"risk":26,"cat":"green"},{"name":"Golf Inn","lat":56.71616,"lon":-2.46307,"postcode":"DD10 8NP","la":"Angus","era":"trad","nn":107,"risk":25,"cat":"green"},{"name":"Grange and Broughty Ferry Golf Club","lat":56.48224,"lon":-2.81211,"postcode":"DD5 4AW","la":"Angus","era":"other","nn":0,"risk":25,"cat":"green"},{"name":"Grill 21","lat":56.56181,"lon":-2.58393,"postcode":"DD11 1JE","la":"Angus","era":"other","nn":36,"risk":25,"cat":"green"},{"name":"Hope Paton Bowling Club","lat":56.71539,"lon":-2.46201,"postcode":"DD10 8RW","la":"Angus","era":"other","nn":107,"risk":25,"cat":"green"},{"name":"Kerrymore Tavern","lat":56.66831,"lon":-3.00454,"postcode":"DD8 5DD","la":"Angus","era":"other","nn":420,"risk":27,"cat":"green"},{"name":"Kirriemuir Bowling Club","lat":56.67626,"lon":-2.99679,"postcode":"DD8 4DD","la":"Angus","era":"other","nn":434,"risk":28,"cat":"green"},{"name":"Kirriemuir Golf Club","lat":56.68663,"lon":-2.99983,"postcode":"DD8 4LN","la":"Angus","era":"other","nn":534,"risk":48,"cat":"amber"},{"name":"Kirriemuir Thistle Social Club","lat":56.66949,"lon":-3.01802,"postcode":"DD8 5LG","la":"Angus","era":"mod","nn":834,"risk":33,"cat":"amber"},{"name":"Ladies Golf Club","lat":56.49778,"lon":-2.71903,"postcode":"DD7 7JF","la":"Angus","era":"other","nn":0,"risk":25,"cat":"green"},{"name":"Ladies Panmure Golf Club","lat":56.48224,"lon":-2.81211,"postcode":"DD5 4AW","la":"Angus","era":"other","nn":0,"risk":25,"cat":"green"},{"name":"Letham Bowling Club","lat":56.62998,"lon":-2.77026,"postcode":"DD8 2PD","la":"Angus","era":"other","nn":157,"risk":46,"cat":"amber"},{"name":"Lochlands Bar","lat":56.55991,"lon":-2.59291,"postcode":"DD11 3AA","la":"Angus","era":"other","nn":105,"risk":25,"cat":"green"},{"name":"Lochside Bar","lat":56.72206,"lon":-2.46554,"postcode":"DD10 8TG","la":"Angus","era":"other","nn":587,"risk":29,"cat":"green"},{"name":"Lodge Grange","lat":56.48152,"lon":-2.8149,"postcode":"DD5 4AZ","la":"Angus","era":"other","nn":189,"risk":26,"cat":"green"},{"name":"Lodge No.40 St.Thomas","lat":56.55794,"lon":-2.57863,"postcode":"DD11 1BY","la":"Angus","era":"other","nn":33,"risk":25,"cat":"green"},{"name":"Lodge Panmure","lat":56.55837,"lon":-2.58064,"postcode":"DD11 1AQ","la":"Angus","era":"other","nn":53,"risk":25,"cat":"green"},{"name":"Lodge St Ninians No66","lat":56.73275,"lon":-2.6621,"postcode":"DD9 6JB","la":"Angus","era":"other","nn":78,"risk":25,"cat":"green"},{"name":"Lodge the Bruce No 593","lat":56.6375,"lon":-2.65929,"postcode":"DD11 4SP","la":"Angus","era":"other","nn":274,"risk":31,"cat":"amber"},{"name":"Masonic Hall, Lodge of Glamis No 99","lat":56.60797,"lon":-3.00272,"postcode":"DD8 1RW","la":"Angus","era":"trad","nn":4109,"risk":76,"cat":"red"},{"name":"Mechanics Institute","lat":56.73182,"lon":-2.66271,"postcode":"DD9 6JQ","la":"Angus","era":"other","nn":91,"risk":25,"cat":"green"},{"name":"Monifieth Bowling Club","lat":56.48119,"lon":-2.82576,"postcode":"DD5 4JS","la":"Angus","era":"other","nn":464,"risk":28,"cat":"green"},{"name":"Monifieth Golf Club","lat":56.48224,"lon":-2.81211,"postcode":"DD5 4AW","la":"Angus","era":"other","nn":0,"risk":25,"cat":"green"},{"name":"Montrose Bowling Club","lat":56.71521,"lon":-2.47149,"postcode":"DD10 8LN","la":"Angus","era":"trad","nn":229,"risk":26,"cat":"green"},{"name":"Montrose Caledonia Golf Club","lat":56.71531,"lon":-2.45393,"postcode":"DD10 8SW","la":"Angus","era":"trad","nn":0,"risk":25,"cat":"green"},{"name":"Montrose Roselea JFC","lat":56.71019,"lon":-2.45932,"postcode":"DD10 8TX","la":"Angus","era":"trad","nn":435,"risk":28,"cat":"green"},{"name":"Newgate Bar","lat":56.5582,"lon":-2.57839,"postcode":"DD11 1BZ","la":"Angus","era":"other","nn":0,"risk":25,"cat":"green"},{"name":"Newgate Bowling Club","lat":56.5582,"lon":-2.57839,"postcode":"DD11 1BZ","la":"Angus","era":"other","nn":0,"risk":25,"cat":"green"},{"name":"Northern Vaults","lat":56.71687,"lon":-2.46731,"postcode":"DD10 8TJ","la":"Angus","era":"other","nn":244,"risk":26,"cat":"green"},{"name":"Ogilvy Bar","lat":56.67337,"lon":-3.00457,"postcode":"DD8 4EY","la":"Angus","era":"other","nn":98,"risk":25,"cat":"green"},{"name":"Old Mason Arms","lat":56.64534,"lon":-2.88374,"postcode":"DD8 2EQ","la":"Angus","era":"trad","nn":0,"risk":25,"cat":"green"},{"name":"Osnaburg","lat":56.64406,"lon":-2.88787,"postcode":"DD8 2AA","la":"Angus","era":"other","nn":87,"risk":25,"cat":"green"},{"name":"Pageant","lat":56.56005,"lon":-2.58116,"postcode":"DD11 1DX","la":"Angus","era":"other","nn":120,"risk":25,"cat":"green"},{"name":"Panmure Golf Club","lat":56.4954,"lon":-2.74931,"postcode":"DD7 7RT","la":"Angus","era":"other","nn":681,"risk":49,"cat":"amber"},{"name":"Parkview Bowling Club","lat":56.73565,"lon":-2.64875,"postcode":"DD9 7AT","la":"Angus","era":"other","nn":541,"risk":28,"cat":"green"},{"name":"Queen Street Tavern","lat":56.64555,"lon":-2.88634,"postcode":"DD8 3AL","la":"Angus","era":"trad","nn":130,"risk":25,"cat":"green"},{"name":"Railway Inn","lat":56.63714,"lon":-2.66644,"postcode":"DD11 4SN","la":"Angus","era":"trad","nn":0,"risk":30,"cat":"green"},{"name":"Royal Arch Bar","lat":56.71325,"lon":-2.46859,"postcode":"DD10 8JL","la":"Angus","era":"trad","nn":126,"risk":25,"cat":"green"},{"name":"Royal British Legion","lat":56.64453,"lon":-2.88255,"postcode":"DD8 2HA","la":"Angus","era":"trad","nn":116,"risk":25,"cat":"green"},{"name":"Royal British Legion","lat":56.50106,"lon":-2.71956,"postcode":"DD7 7PH","la":"Angus","era":"trad","nn":154,"risk":26,"cat":"green"},{"name":"Royal British Legion","lat":56.73271,"lon":-2.65581,"postcode":"DD9 6AX","la":"Angus","era":"trad","nn":218,"risk":26,"cat":"green"},{"name":"Royal British Legion Scotland","lat":56.71402,"lon":-2.46069,"postcode":"DD10 8QD","la":"Angus","era":"trad","nn":172,"risk":26,"cat":"green"},{"name":"Royal British Legion Scotland - Arbroath Branch","lat":56.56052,"lon":-2.5905,"postcode":"DD11 3AP","la":"Angus","era":"trad","nn":123,"risk":25,"cat":"green"},{"name":"Royal Montrose Mercantile Golf Club","lat":56.71531,"lon":-2.45393,"postcode":"DD10 8SW","la":"Angus","era":"trad","nn":0,"risk":25,"cat":"green"},{"name":"Rug Bug Bennys","lat":56.71156,"lon":-2.46893,"postcode":"DD10 8JD","la":"Angus","era":"other","nn":0,"risk":25,"cat":"green"},{"name":"Sharky's","lat":56.70917,"lon":-2.4668,"postcode":"DD10 8EW","la":"Angus","era":"other","nn":0,"risk":25,"cat":"green"},{"name":"Southesk Inn","lat":56.707,"lon":-2.47333,"postcode":"DD10 8BD","la":"Angus","era":"trad","nn":424,"risk":27,"cat":"green"},{"name":"Spider's Web","lat":56.56324,"lon":-2.57931,"postcode":"DD11 1UB","la":"Angus","era":"other","nn":65,"risk":25,"cat":"green"},{"name":"St Thomas Bar","lat":56.56177,"lon":-2.58451,"postcode":"DD11 1JP","la":"Angus","era":"other","nn":36,"risk":25,"cat":"green"},{"name":"Stag's Head Inn","lat":56.50067,"lon":-2.72196,"postcode":"DD7 7PN","la":"Angus","era":"trad","nn":154,"risk":26,"cat":"green"},{"name":"Star Inn","lat":56.63714,"lon":-2.66644,"postcode":"DD11 4SN","la":"Angus","era":"trad","nn":0,"risk":30,"cat":"green"},{"name":"Station Bar","lat":56.55875,"lon":-2.58959,"postcode":"DD11 3AF","la":"Angus","era":"other","nn":42,"risk":25,"cat":"green"},{"name":"Steeplejacks","lat":56.71043,"lon":-2.46883,"postcode":"DD10 8PH","la":"Angus","era":"other","nn":126,"risk":25,"cat":"green"},{"name":"Strathmartine Bowling Club","lat":56.49708,"lon":-2.99651,"postcode":"DD3 9ED","la":"Dundee City","era":"other","nn":612,"risk":45,"cat":"amber"},{"name":"Strathmore Cricket Club","lat":56.6417,"lon":-2.90073,"postcode":"DD8 1DU","la":"Angus","era":"other","nn":296,"risk":27,"cat":"green"},{"name":"Strathmore RFC","lat":56.64202,"lon":-2.90553,"postcode":"DD8 1RL","la":"Angus","era":"other","nn":296,"risk":29,"cat":"green"},{"name":"The Attic Club","lat":56.67396,"lon":-3.00576,"postcode":"DD8 4HB","la":"Angus","era":"other","nn":98,"risk":25,"cat":"green"},{"name":"The Black Abbot","lat":56.72866,"lon":-2.46605,"postcode":"DD10 9DW","la":"Angus","era":"other","nn":735,"risk":50,"cat":"amber"},{"name":"The Castle Club","lat":56.64604,"lon":-2.88893,"postcode":"DD8 3AA","la":"Angus","era":"other","nn":72,"risk":25,"cat":"green"},{"name":"The Commercial Inn","lat":56.55645,"lon":-2.58119,"postcode":"DD11 1BB","la":"Angus","era":"trad","nn":164,"risk":26,"cat":"green"},{"name":"The Corn Exchange","lat":56.55885,"lon":-2.58235,"postcode":"DD11 1HR","la":"Angus","era":"other","nn":48,"risk":25,"cat":"green"},{"name":"The Corner House","lat":56.64601,"lon":-2.87846,"postcode":"DD8 2HS","la":"Angus","era":"other","nn":127,"risk":25,"cat":"green"},{"name":"The Foundry Bar","lat":56.55678,"lon":-2.58723,"postcode":"DD11 1PR","la":"Angus","era":"mod","nn":106,"risk":25,"cat":"green"},{"name":"The Lorne Bar","lat":56.55843,"lon":-2.58221,"postcode":"DD11 1NA","la":"Angus","era":"other","nn":48,"risk":25,"cat":"green"},{"name":"The Market Arms","lat":56.7116,"lon":-2.46762,"postcode":"DD10 8QY","la":"Angus","era":"trad","nn":80,"risk":25,"cat":"green"},{"name":"The Millgate Bar","lat":56.55763,"lon":-2.58798,"postcode":"DD11 1PQ","la":"Angus","era":"trad","nn":46,"risk":25,"cat":"green"},{"name":"The New Club","lat":56.73386,"lon":-2.66333,"postcode":"DD9 6JL","la":"Angus","era":"other","nn":0,"risk":25,"cat":"green"},{"name":"The Nineteenth","lat":56.49982,"lon":-2.71343,"postcode":"DD7 7HT","la":"Angus","era":"other","nn":401,"risk":27,"cat":"green"},{"name":"The Picture House","lat":56.71156,"lon":-2.46893,"postcode":"DD10 8JD","la":"Angus","era":"other","nn":0,"risk":25,"cat":"green"},{"name":"The Portcullis Bar","lat":56.56763,"lon":-2.57838,"postcode":"DD11 5AP","la":"Angus","era":"other","nn":492,"risk":28,"cat":"green"},{"name":"The Ram's","lat":56.56555,"lon":-2.61016,"postcode":"DD11 3ES","la":"Angus","era":"trad","nn":320,"risk":44,"cat":"amber"},{"name":"Thee Fab Pub","lat":56.56093,"lon":-2.5843,"postcode":"DD11 1JD","la":"Angus","era":"other","nn":95,"risk":25,"cat":"green"},{"name":"Thistle Bar","lat":56.64648,"lon":-2.88036,"postcode":"DD8 2HL","la":"Angus","era":"other","nn":127,"risk":25,"cat":"green"},{"name":"Three Bellies Brae","lat":56.67209,"lon":-3.00449,"postcode":"DD8 4EJ","la":"Angus","era":"other","nn":143,"risk":26,"cat":"green"},{"name":"Tutties Neuk Inn","lat":56.55332,"lon":-2.59185,"postcode":"DD11 1QJ","la":"Angus","era":"trad","nn":399,"risk":27,"cat":"green"},{"name":"Victoria Bar","lat":56.72732,"lon":-2.64517,"postcode":"DD9 7DZ","la":"Angus","era":"trad","nn":249,"risk":26,"cat":"green"},{"name":"Victoria Bar","lat":56.63999,"lon":-2.89273,"postcode":"DD8 1EA","la":"Angus","era":"trad","nn":246,"risk":26,"cat":"green"},{"name":"West End Bar","lat":56.6422,"lon":-2.89298,"postcode":"DD8 1BL","la":"Angus","era":"other","nn":246,"risk":26,"cat":"green"},{"name":"West End Social Club","lat":56.64411,"lon":-2.89565,"postcode":"DD8 1BT","la":"Angus","era":"mod","nn":267,"risk":26,"cat":"green"},{"name":"Westport Bar","lat":56.55904,"lon":-2.58915,"postcode":"DD11 3AE","la":"Angus","era":"other","nn":42,"risk":25,"cat":"green"},{"name":"Woodville Inn","lat":56.68245,"lon":-3.00413,"postcode":"DD8 4PN","la":"Angus","era":"trad","nn":534,"risk":31,"cat":"amber"},{"name":"Ziggies","lat":56.55805,"lon":-2.58802,"postcode":"DD11 1RE","la":"Angus","era":"other","nn":40,"risk":25,"cat":"green"},{"name":"3 Session Street","lat":56.46017,"lon":-2.98002,"postcode":"DD1 5DN","la":"Dundee City","era":"other","nn":0,"risk":23,"cat":"green"},{"name":"8 Ball Pool Hall Ltd","lat":56.46218,"lon":-2.97953,"postcode":"DD1 5EG","la":"Dundee City","era":"other","nn":31,"risk":23,"cat":"green"},{"name":"Afrobeats","lat":56.46017,"lon":-2.98002,"postcode":"DD1 5DN","la":"Dundee City","era":"other","nn":0,"risk":23,"cat":"green"},{"name":"Airlie Arms","lat":56.47219,"lon":-2.96481,"postcode":"DD3 7PW","la":"Dundee City","era":"trad","nn":204,"risk":24,"cat":"green"},{"name":"Albert Bar","lat":56.47304,"lon":-3.01083,"postcode":"DD2 3BZ","la":"Dundee City","era":"other","nn":0,"risk":23,"cat":"green"},{"name":"Albert Bar","lat":56.46896,"lon":-2.9575,"postcode":"DD4 6NY","la":"Dundee City","era":"other","nn":55,"risk":23,"cat":"green"},{"name":"Ancrum Arms","lat":56.46968,"lon":-3.00417,"postcode":"DD2 2PZ","la":"Dundee City","era":"trad","nn":145,"risk":24,"cat":"green"},{"name":"Arctic Bar","lat":56.46118,"lon":-2.97,"postcode":"DD1 1SB","la":"Dundee City","era":"other","nn":71,"risk":23,"cat":"green"},{"name":"Athletic Union Clubhouse","lat":56.47096,"lon":-2.93939,"postcode":"DD4 7HS","la":"Dundee City","era":"other","nn":510,"risk":26,"cat":"green"},{"name":"Aura Night Club","lat":56.46076,"lon":-2.97628,"postcode":"DD1 1PU","la":"Dundee City","era":"other","nn":0,"risk":23,"cat":"green"},{"name":"Balgay Bowling Club","lat":56.45802,"lon":-3.01217,"postcode":"DD2 1NT","la":"Dundee City","era":"other","nn":308,"risk":30,"cat":"green"},{"name":"Balgay Hill Bar","lat":56.46073,"lon":-2.9941,"postcode":"DD1 5PW","la":"Dundee City","era":"other","nn":286,"risk":25,"cat":"green"},{"name":"Balmore Bar","lat":56.47141,"lon":-2.95844,"postcode":"DD4 6SW","la":"Dundee City","era":"other","nn":149,"risk":24,"cat":"green"},{"name":"Bank Bar","lat":56.459,"lon":-2.97139,"postcode":"DD1 4BN","la":"Dundee City","era":"other","nn":32,"risk":23,"cat":"green"},{"name":"Barnhill Bowling Club","lat":56.4737,"lon":-2.84313,"postcode":"DD5 2UE","la":"Dundee City","era":"other","nn":909,"risk":49,"cat":"amber"},{"name":"Baxter Park Bowling Club","lat":56.47434,"lon":-2.95037,"postcode":"DD4 7HD","la":"Dundee City","era":"other","nn":209,"risk":24,"cat":"green"},{"name":"Bayhorse Public House","lat":56.46252,"lon":-2.99076,"postcode":"DD1 5QS","la":"Dundee City","era":"trad","nn":0,"risk":23,"cat":"green"},{"name":"Bayview Bar","lat":56.46733,"lon":-3.04418,"postcode":"DD2 4BS","la":"Dundee City","era":"other","nn":884,"risk":49,"cat":"amber"},{"name":"Beiderbeckes Bistro","lat":56.46119,"lon":-2.98585,"postcode":"DD1 5BJ","la":"Dundee City","era":"other","nn":142,"risk":24,"cat":"green"},{"name":"Bensons","lat":56.46832,"lon":-2.95695,"postcode":"DD4 6EP","la":"Dundee City","era":"other","nn":43,"risk":23,"cat":"green"},{"name":"Bergies","lat":56.46361,"lon":-2.97266,"postcode":"DD1 1HF","la":"Dundee City","era":"other","nn":117,"risk":24,"cat":"green"},{"name":"Bertie Mooneys","lat":56.46209,"lon":-2.96942,"postcode":"DD1 2AB","la":"Dundee City","era":"other","nn":57,"risk":23,"cat":"green"},{"name":"Bird and Bear and Abandon Ship","lat":56.45923,"lon":-2.96918,"postcode":"DD1 4AU","la":"Dundee City","era":"trad","nn":43,"risk":23,"cat":"green"},{"name":"Bissells Bar","lat":56.46252,"lon":-2.99076,"postcode":"DD1 5QS","la":"Dundee City","era":"other","nn":0,"risk":23,"cat":"green"},{"name":"Black Mamba","lat":56.45732,"lon":-2.97616,"postcode":"DD1 4DP","la":"Dundee City","era":"other","nn":101,"risk":23,"cat":"green"},{"name":"Blackwatch Club","lat":56.46913,"lon":-2.95863,"postcode":"DD4 6RS","la":"Dundee City","era":"other","nn":71,"risk":23,"cat":"green"},{"name":"Blades Cafe/Sports Bar","lat":56.48141,"lon":-3.02202,"postcode":"DD2 3SQ","la":"Dundee City","era":"other","nn":578,"risk":27,"cat":"green"},{"name":"Boars Rock","lat":56.47369,"lon":-2.92689,"postcode":"DD4 7PY","la":"Dundee City","era":"other","nn":716,"risk":33,"cat":"amber"},{"name":"Bowbridge Bar","lat":56.47118,"lon":-2.9748,"postcode":"DD3 7EZ","la":"Dundee City","era":"other","nn":66,"risk":23,"cat":"green"},{"name":"Brewdog","lat":56.46325,"lon":-2.9707,"postcode":"DD1 1EP","la":"Dundee City","era":"other","nn":0,"risk":23,"cat":"green"},{"name":"Broughty Athletic FC","lat":56.47435,"lon":-2.91529,"postcode":"DD4 7SB","la":"Dundee City","era":"other","nn":716,"risk":45,"cat":"amber"},{"name":"Broughty Bowling Club","lat":56.47004,"lon":-2.88421,"postcode":"DD5 1AZ","la":"Dundee City","era":"other","nn":250,"risk":24,"cat":"green"},{"name":"Broughty Castle Bowling Club","lat":56.46507,"lon":-2.86905,"postcode":"DD5 2HA","la":"Dundee City","era":"other","nn":234,"risk":24,"cat":"green"},{"name":"Bruach","lat":56.46662,"lon":-2.87197,"postcode":"DD5 2AN","la":"Dundee City","era":"other","nn":16,"risk":23,"cat":"green"},{"name":"Bush Bar","lat":56.46192,"lon":-2.96808,"postcode":"DD1 2EQ","la":"Dundee City","era":"other","nn":29,"risk":23,"cat":"green"},{"name":"Caird Park Golf Club House","lat":56.48447,"lon":-2.95848,"postcode":"DD4 9BX","la":"Dundee City","era":"other","nn":726,"risk":45,"cat":"amber"},{"name":"Captains Cabin","lat":56.46168,"lon":-2.97635,"postcode":"DD1 1ND","la":"Dundee City","era":"other","nn":52,"risk":23,"cat":"green"},{"name":"Caws Bar","lat":56.46318,"lon":-2.96917,"postcode":"DD1 2BE","la":"Dundee City","era":"other","nn":61,"risk":23,"cat":"green"},{"name":"Chamber East","lat":56.46325,"lon":-2.9707,"postcode":"DD1 1EP","la":"Dundee City","era":"other","nn":0,"risk":23,"cat":"green"},{"name":"Charleston Bar","lat":56.47001,"lon":-3.02512,"postcode":"DD2 2HB","la":"Dundee City","era":"other","nn":289,"risk":25,"cat":"green"},{"name":"Club 83","lat":56.47013,"lon":-2.9713,"postcode":"DD3 7EW","la":"Dundee City","era":"other","nn":158,"risk":24,"cat":"green"},{"name":"Club Bar","lat":56.45886,"lon":-2.97093,"postcode":"DD1 4BS","la":"Dundee City","era":"other","nn":0,"risk":23,"cat":"green"},{"name":"Club Tropicana","lat":56.46076,"lon":-2.97628,"postcode":"DD1 1PU","la":"Dundee City","era":"other","nn":0,"risk":23,"cat":"green"},{"name":"Club Ubique","lat":56.47034,"lon":-2.97682,"postcode":"DD3 6PQ","la":"Dundee City","era":"other","nn":71,"risk":23,"cat":"green"},{"name":"Cookies","lat":56.46824,"lon":-2.97402,"postcode":"DD3 7BL","la":"Dundee City","era":"other","nn":156,"risk":24,"cat":"green"},{"name":"Cosmopolitan Club","lat":56.46199,"lon":-2.97464,"postcode":"DD1 1LP","la":"Dundee City","era":"other","nn":7,"risk":23,"cat":"green"},{"name":"Counting House","lat":56.4619,"lon":-2.97144,"postcode":"DD1 1SP","la":"Dundee City","era":"other","nn":71,"risk":23,"cat":"green"},{"name":"Cox's Cafe Bar","lat":56.4736,"lon":-3.01091,"postcode":"DD2 3DB","la":"Dundee City","era":"other","nn":62,"risk":23,"cat":"green"},{"name":"Craigie Bar","lat":56.47907,"lon":-2.94251,"postcode":"DD4 8BX","la":"Dundee City","era":"other","nn":442,"risk":26,"cat":"green"},{"name":"Craigie Bowling Club","lat":56.47079,"lon":-2.94768,"postcode":"DD4 7JJ","la":"Dundee City","era":"other","nn":392,"risk":25,"cat":"green"},{"name":"Dee Club","lat":56.47393,"lon":-3.01508,"postcode":"DD2 3DU","la":"Dundee City","era":"other","nn":76,"risk":23,"cat":"green"},{"name":"Deja Vu","lat":56.46342,"lon":-2.96828,"postcode":"DD1 2HS","la":"Dundee City","era":"other","nn":61,"risk":23,"cat":"green"},{"name":"DFC Social Club","lat":56.47154,"lon":-2.97565,"postcode":"DD3 7RF","la":"Dundee City","era":"mod","nn":66,"risk":23,"cat":"green"},{"name":"Doc Ferry's Bar","lat":56.46701,"lon":-2.8752,"postcode":"DD5 2AU","la":"Dundee City","era":"other","nn":47,"risk":23,"cat":"green"},{"name":"Dolphin Bar","lat":56.4891,"lon":-2.94031,"postcode":"DD4 9EZ","la":"Dundee City","era":"other","nn":495,"risk":44,"cat":"amber"},{"name":"Downfield Golf Club-Clubhouse Bar","lat":56.4892,"lon":-3.02718,"postcode":"DD2 3QP","la":"Dundee City","era":"mod","nn":923,"risk":49,"cat":"amber"},{"name":"Downfield Musical Society","lat":56.46091,"lon":-2.98359,"postcode":"DD1 5BR","la":"Dundee City","era":"mod","nn":142,"risk":24,"cat":"green"},{"name":"Duck Slatterys","lat":56.46076,"lon":-2.97628,"postcode":"DD1 1PU","la":"Dundee City","era":"other","nn":0,"risk":23,"cat":"green"},{"name":"Dudhope Bowling Club","lat":56.46792,"lon":-2.98757,"postcode":"DD3 6LE","la":"Dundee City","era":"other","nn":631,"risk":27,"cat":"green"},{"name":"Dukes Corner","lat":56.46218,"lon":-2.97903,"postcode":"DD1 5EF","la":"Dundee City","era":"trad","nn":0,"risk":23,"cat":"green"},{"name":"Dundee Age Concern","lat":56.47577,"lon":-2.97996,"postcode":"DD3 8AW","la":"Dundee City","era":"other","nn":119,"risk":24,"cat":"green"},{"name":"Dundee Bridge Club","lat":56.45686,"lon":-3.00281,"postcode":"DD2 1JS","la":"Dundee City","era":"other","nn":389,"risk":25,"cat":"green"},{"name":"Dundee Football Club","lat":56.47522,"lon":-2.9732,"postcode":"DD3 7JY","la":"Dundee City","era":"other","nn":279,"risk":25,"cat":"green"},{"name":"Dundee Taxi Drivers Social Club","lat":56.46905,"lon":-2.97609,"postcode":"DD3 6PG","la":"Dundee City","era":"mod","nn":0,"risk":23,"cat":"green"},{"name":"Dundee United FC (Bars & Kiosks)","lat":56.47409,"lon":-2.96859,"postcode":"DD3 7JW","la":"Dundee City","era":"other","nn":184,"risk":24,"cat":"green"},{"name":"Dundee University Students Assoc.","lat":56.45763,"lon":-2.98232,"postcode":"DD1 4HP","la":"Dundee City","era":"other","nn":179,"risk":24,"cat":"green"},{"name":"Eagle Coaching Inn","lat":56.46591,"lon":-2.87503,"postcode":"DD5 2AX","la":"Dundee City","era":"trad","nn":89,"risk":23,"cat":"green"},{"name":"Ellenbank Bar","lat":56.47011,"lon":-2.96777,"postcode":"DD3 7DE","la":"Dundee City","era":"other","nn":216,"risk":24,"cat":"green"},{"name":"Fairfield Sports Club","lat":56.48316,"lon":-2.9199,"postcode":"DD4 0JX","la":"Dundee City","era":"other","nn":414,"risk":43,"cat":"amber"},{"name":"Fairmuir Social Club","lat":56.47833,"lon":-2.97589,"postcode":"DD3 8HL","la":"Dundee City","era":"mod","nn":124,"risk":24,"cat":"green"},{"name":"Ferrari's","lat":56.4712,"lon":-2.96202,"postcode":"DD4 6SB","la":"Dundee City","era":"other","nn":204,"risk":24,"cat":"green"},{"name":"Firewater","lat":56.46155,"lon":-2.96772,"postcode":"DD1 2EG","la":"Dundee City","era":"other","nn":0,"risk":23,"cat":"green"},{"name":"Fisherman's Tavern","lat":56.46561,"lon":-2.87723,"postcode":"DD5 2AD","la":"Dundee City","era":"other","nn":127,"risk":24,"cat":"green"},{"name":"Forfar & Kincardine Mas. Lodge","lat":56.45691,"lon":-2.99648,"postcode":"DD2 1EH","la":"Dundee City","era":"other","nn":195,"risk":24,"cat":"green"},{"name":"Forthill Sports Club Bar","lat":56.47486,"lon":-2.87216,"postcode":"DD5 3BE","la":"Dundee City","era":"other","nn":735,"risk":28,"cat":"green"},{"name":"Frews","lat":56.47465,"lon":-2.9798,"postcode":"DD3 7SD","la":"Dundee City","era":"other","nn":125,"risk":24,"cat":"green"},{"name":"George Orwell Pub","lat":56.45615,"lon":-2.98606,"postcode":"DD1 4JS","la":"Dundee City","era":"trad","nn":143,"risk":24,"cat":"green"},{"name":"Glass Bucket","lat":56.46384,"lon":-2.9671,"postcode":"DD1 2EX","la":"Dundee City","era":"other","nn":2,"risk":23,"cat":"green"},{"name":"Glens Bar","lat":56.47785,"lon":-2.98448,"postcode":"DD3 8DY","la":"Dundee City","era":"other","nn":281,"risk":25,"cat":"green"},{"name":"Grosvenor Casino Dundee","lat":56.4603,"lon":-2.97807,"postcode":"DD1 1NJ","la":"Dundee City","era":"other","nn":108,"risk":23,"cat":"green"},{"name":"Grouchos","lat":56.45806,"lon":-2.97391,"postcode":"DD1 4ED","la":"Dundee City","era":"other","nn":12,"risk":23,"cat":"green"},{"name":"Halleys Bar","lat":56.47097,"lon":-2.97622,"postcode":"DD3 7RJ","la":"Dundee City","era":"other","nn":72,"risk":23,"cat":"green"},{"name":"Harlequins","lat":56.46843,"lon":-2.95762,"postcode":"DD4 6NS","la":"Dundee City","era":"other","nn":32,"risk":23,"cat":"green"},{"name":"Hawkhill Tavern","lat":56.457,"lon":-2.99305,"postcode":"DD2 1DQ","la":"Dundee City","era":"other","nn":79,"risk":23,"cat":"green"},{"name":"Hillcrest Bowling Club","lat":56.46026,"lon":-3.00923,"postcode":"DD2 1SF","la":"Dundee City","era":"other","nn":308,"risk":25,"cat":"green"},{"name":"Jessica O'Marleys","lat":56.45533,"lon":-2.98286,"postcode":"DD1 4LR","la":"Dundee City","era":"other","nn":113,"risk":24,"cat":"green"},{"name":"Kandy Bar & Night club","lat":56.46225,"lon":-2.96723,"postcode":"DD1 2EH","la":"Dundee City","era":"mod","nn":64,"risk":23,"cat":"green"},{"name":"Kelly's","lat":56.47141,"lon":-3.00925,"postcode":"DD2 3AT","la":"Dundee City","era":"other","nn":206,"risk":24,"cat":"green"},{"name":"Kettledrum","lat":56.47228,"lon":-3.02283,"postcode":"DD2 2RT","la":"Dundee City","era":"other","nn":289,"risk":25,"cat":"green"},{"name":"Ladywell Tavern","lat":56.46451,"lon":-2.97167,"postcode":"DD1 1JN","la":"Dundee City","era":"other","nn":117,"risk":24,"cat":"green"},{"name":"Lochee Bowling Club","lat":56.46937,"lon":-3.00647,"postcode":"DD2 2JN","la":"Dundee City","era":"other","nn":56,"risk":23,"cat":"green"},{"name":"Lodge Albert No448","lat":56.46804,"lon":-3.00374,"postcode":"DD2 2JE","la":"Dundee City","era":"other","nn":123,"risk":24,"cat":"green"},{"name":"Lodge Camperdown","lat":56.46686,"lon":-2.96565,"postcode":"DD1 2QA","la":"Dundee City","era":"other","nn":143,"risk":24,"cat":"green"},{"name":"Lodge Roineach Mhor","lat":56.49159,"lon":-2.99582,"postcode":"DD3 0JS","la":"Dundee City","era":"other","nn":612,"risk":45,"cat":"amber"},{"name":"Lodge St David 78 Masonic Club","lat":56.45867,"lon":-2.97251,"postcode":"DD1 4EL","la":"Dundee City","era":"trad","nn":78,"risk":23,"cat":"green"},{"name":"Lodge Thistle Masonic Club","lat":56.46287,"lon":-2.96767,"postcode":"DD1 2EW","la":"Dundee City","era":"trad","nn":72,"risk":23,"cat":"green"},{"name":"Logie Bar","lat":56.46797,"lon":-3.00174,"postcode":"DD2 2QE","la":"Dundee City","era":"other","nn":123,"risk":24,"cat":"green"},{"name":"Logie Club","lat":56.47422,"lon":-3.01643,"postcode":"DD2 3DY","la":"Dundee City","era":"other","nn":89,"risk":23,"cat":"green"},{"name":"Market Dundee","lat":56.46155,"lon":-2.96772,"postcode":"DD1 2EG","la":"Dundee City","era":"other","nn":0,"risk":23,"cat":"green"},{"name":"Maryfield Bowling Club","lat":56.47553,"lon":-2.95299,"postcode":"DD4 7HA","la":"Dundee City","era":"other","nn":209,"risk":24,"cat":"green"},{"name":"Masonic Lodge Social Club","lat":56.46728,"lon":-2.87675,"postcode":"DD5 1DT","la":"Dundee City","era":"other","nn":73,"risk":23,"cat":"green"},{"name":"McDaniels","lat":56.4589,"lon":-2.96953,"postcode":"DD1 4AY","la":"Dundee City","era":"other","nn":43,"risk":23,"cat":"green"},{"name":"Meadowlane","lat":56.46359,"lon":-2.97027,"postcode":"DD1 1EQ","la":"Dundee City","era":"other","nn":46,"risk":23,"cat":"green"},{"name":"Mecca Bingo","lat":56.48011,"lon":-2.92375,"postcode":"DD4 8JX","la":"Dundee City","era":"other","nn":414,"risk":31,"cat":"amber"},{"name":"Medina Bar & Grill","lat":56.45799,"lon":-2.9749,"postcode":"DD1 4DH","la":"Dundee City","era":"mod","nn":0,"risk":23,"cat":"green"},{"name":"Molly Malones","lat":56.45938,"lon":-2.9793,"postcode":"DD1 5ER","la":"Dundee City","era":"other","nn":54,"risk":23,"cat":"green"},{"name":"Morgan Academy FP Rugby Club","lat":56.48032,"lon":-2.94935,"postcode":"DD4 8UA","la":"Dundee City","era":"other","nn":442,"risk":26,"cat":"green"},{"name":"Nether Inn","lat":56.458,"lon":-2.97407,"postcode":"DD1 4ED","la":"Dundee City","era":"trad","nn":12,"risk":23,"cat":"green"},{"name":"No 25 and the Underground","lat":56.4582,"lon":-2.97578,"postcode":"DD1 1NR","la":"Dundee City","era":"other","nn":59,"risk":23,"cat":"green"},{"name":"Nola and King of Islington","lat":56.45886,"lon":-2.97093,"postcode":"DD1 4BS","la":"Dundee City","era":"trad","nn":0,"risk":23,"cat":"green"},{"name":"North End Social Club","lat":56.4789,"lon":-2.97961,"postcode":"DD3 8HU","la":"Dundee City","era":"mod","nn":237,"risk":24,"cat":"green"},{"name":"Number 1's","lat":56.46193,"lon":-2.97468,"postcode":"DD1 1LP","la":"Dundee City","era":"other","nn":7,"risk":23,"cat":"green"},{"name":"Number 57","lat":56.46161,"lon":-2.96477,"postcode":"DD1 3DU","la":"Dundee City","era":"other","nn":167,"risk":24,"cat":"green"},{"name":"Occidental Bar","lat":56.46933,"lon":-2.88035,"postcode":"DD5 1AP","la":"Dundee City","era":"other","nn":246,"risk":24,"cat":"green"},{"name":"Papa Jacques","lat":56.46657,"lon":-2.87173,"postcode":"DD5 2AN","la":"Dundee City","era":"other","nn":16,"risk":23,"cat":"green"},{"name":"Park Bar & Function Room","lat":56.46978,"lon":-3.00697,"postcode":"DD2 3TY","la":"Dundee City","era":"mod","nn":56,"risk":23,"cat":"green"},{"name":"Phoenix","lat":56.45799,"lon":-2.9749,"postcode":"DD1 4DH","la":"Dundee City","era":"other","nn":0,"risk":23,"cat":"green"},{"name":"Pillars Bar & Salty Dog Lounge","lat":56.45989,"lon":-2.97034,"postcode":"DD1 3AP","la":"Dundee City","era":"mod","nn":64,"risk":23,"cat":"green"},{"name":"Pout","lat":56.46383,"lon":-2.96707,"postcode":"DD1 2EX","la":"Dundee City","era":"other","nn":2,"risk":23,"cat":"green"},{"name":"Powrie Bar","lat":56.49338,"lon":-2.94253,"postcode":"DD4 9QR","la":"Dundee City","era":"other","nn":495,"risk":46,"cat":"amber"},{"name":"Private Eyes","lat":56.46194,"lon":-2.97565,"postcode":"DD1 1NA","la":"Dundee City","era":"other","nn":52,"risk":23,"cat":"green"},{"name":"Rancho Pancho","lat":56.46103,"lon":-2.96749,"postcode":"DD1 3EJ","la":"Dundee City","era":"other","nn":59,"risk":23,"cat":"green"},{"name":"Rewind","lat":56.46155,"lon":-2.96772,"postcode":"DD1 2EG","la":"Dundee City","era":"other","nn":0,"risk":23,"cat":"green"},{"name":"Rishi's Indian Aroma","lat":56.46021,"lon":-2.98086,"postcode":"DD1 5DL","la":"Dundee City","era":"other","nn":52,"risk":23,"cat":"green"},{"name":"Rose Function Suite","lat":56.46838,"lon":-2.8745,"postcode":"DD5 2HN","la":"Dundee City","era":"trad","nn":66,"risk":23,"cat":"green"},{"name":"Ross's Bar","lat":56.46832,"lon":-2.95223,"postcode":"DD4 6EZ","la":"Dundee City","era":"other","nn":290,"risk":25,"cat":"green"},{"name":"Royal Arch Bar","lat":56.46688,"lon":-2.87157,"postcode":"DD5 2DS","la":"Dundee City","era":"trad","nn":36,"risk":23,"cat":"green"},{"name":"Royal Tay Yacht Club & Beach Hut","lat":56.46887,"lon":-2.89512,"postcode":"DD5 1LU","la":"Dundee City","era":"trad","nn":0,"risk":28,"cat":"green"},{"name":"RTYC Catering","lat":56.46887,"lon":-2.89512,"postcode":"DD5 1LU","la":"Dundee City","era":"other","nn":0,"risk":28,"cat":"green"},{"name":"Sandy's","lat":56.47403,"lon":-3.01385,"postcode":"DD2 3DQ","la":"Dundee City","era":"other","nn":76,"risk":23,"cat":"green"},{"name":"Shotz Dundee","lat":56.46307,"lon":-2.98204,"postcode":"DD1 5AJ","la":"Dundee City","era":"other","nn":182,"risk":24,"cat":"green"},{"name":"Skyaxe Function Suite","lat":56.46788,"lon":-2.9609,"postcode":"DD4 6EA","la":"Dundee City","era":"other","nn":170,"risk":24,"cat":"green"},{"name":"Smugglers Bar","lat":56.46768,"lon":-2.95778,"postcode":"DD4 6DQ","la":"Dundee City","era":"other","nn":84,"risk":23,"cat":"green"},{"name":"Snug Bar","lat":56.47125,"lon":-2.97288,"postcode":"DD3 7HP","la":"Dundee City","era":"other","nn":118,"risk":24,"cat":"green"},{"name":"Sol Y Sombra Tapas Bar","lat":56.46519,"lon":-2.87441,"postcode":"DD5 2BH","la":"Dundee City","era":"mod","nn":66,"risk":23,"cat":"green"},{"name":"Speedwell Bar","lat":56.45633,"lon":-2.99348,"postcode":"DD2 1AS","la":"Dundee City","era":"other","nn":79,"risk":23,"cat":"green"},{"name":"Stobswell Bar","lat":56.47256,"lon":-2.9572,"postcode":"DD4 6TE","la":"Dundee City","era":"other","nn":149,"risk":24,"cat":"green"},{"name":"Strath Bar","lat":56.47577,"lon":-2.9819,"postcode":"DD3 8DQ","la":"Dundee City","era":"other","nn":119,"risk":24,"cat":"green"},{"name":"Tams","lat":56.46905,"lon":-2.97609,"postcode":"DD3 6PG","la":"Dundee City","era":"other","nn":0,"risk":23,"cat":"green"},{"name":"Taybridge Bar","lat":56.45602,"lon":-2.9913,"postcode":"DD1 4JD","la":"Dundee City","era":"other","nn":139,"risk":24,"cat":"green"},{"name":"Tayside Deaf Hub","lat":56.46218,"lon":-2.97903,"postcode":"DD1 5EF","la":"Dundee City","era":"mod","nn":0,"risk":23,"cat":"green"},{"name":"The Admiral","lat":56.48755,"lon":-3.0042,"postcode":"DD3 8RF","la":"Dundee City","era":"other","nn":683,"risk":48,"cat":"amber"},{"name":"The Art Bar(Basement)","lat":56.45622,"lon":-2.98374,"postcode":"DD1 4JW","la":"Dundee City","era":"other","nn":113,"risk":24,"cat":"green"},{"name":"The Athletic Bar","lat":56.47293,"lon":-2.97767,"postcode":"DD3 7RX","la":"Dundee City","era":"other","nn":54,"risk":23,"cat":"green"},{"name":"The Barn","lat":56.4743,"lon":-2.85788,"postcode":"DD5 2PU","la":"Dundee City","era":"other","nn":879,"risk":46,"cat":"amber"},{"name":"The Barrelman","lat":56.46214,"lon":-2.97038,"postcode":"DD1 2AJ","la":"Dundee City","era":"trad","nn":59,"risk":23,"cat":"green"},{"name":"The Barrels","lat":56.47253,"lon":-2.97717,"postcode":"DD3 7RW","la":"Dundee City","era":"other","nn":54,"risk":23,"cat":"green"},{"name":"The Clep Bar","lat":56.47724,"lon":-2.96744,"postcode":"DD3 7SW","la":"Dundee City","era":"other","nn":281,"risk":25,"cat":"green"},{"name":"The Ferry Club","lat":56.46731,"lon":-2.87467,"postcode":"DD5 2AG","la":"Dundee City","era":"other","nn":47,"risk":23,"cat":"green"},{"name":"The Gaiety","lat":56.47464,"lon":-3.03851,"postcode":"DD2 4QN","la":"Dundee City","era":"other","nn":884,"risk":31,"cat":"amber"},{"name":"The Gunners Bar","lat":56.46649,"lon":-2.87866,"postcode":"DD5 1EY","la":"Dundee City","era":"other","nn":132,"risk":24,"cat":"green"},{"name":"The High Corner","lat":56.47053,"lon":-2.97793,"postcode":"DD3 6PR","la":"Dundee City","era":"other","nn":71,"risk":23,"cat":"green"},{"name":"The Hill Bar","lat":56.46996,"lon":-2.97532,"postcode":"DD3 7AP","la":"Dundee City","era":"other","nn":101,"risk":23,"cat":"green"},{"name":"The Last Tram","lat":56.47304,"lon":-3.01083,"postcode":"DD2 3BZ","la":"Dundee City","era":"trad","nn":0,"risk":23,"cat":"green"},{"name":"The Masonic Lodge,Ancient No49","lat":56.4587,"lon":-2.9775,"postcode":"DD1 1PE","la":"Dundee City","era":"trad","nn":74,"risk":23,"cat":"green"},{"name":"The Nine Maidens","lat":56.49602,"lon":-3.01031,"postcode":"DD3 9QU","la":"Dundee City","era":"other","nn":855,"risk":49,"cat":"amber"},{"name":"The Old Anchor Inn","lat":56.46618,"lon":-2.87326,"postcode":"DD5 2BJ","la":"Dundee City","era":"trad","nn":93,"risk":23,"cat":"green"},{"name":"The Old Bank Bar","lat":56.46111,"lon":-2.97115,"postcode":"DD1 1RH","la":"Dundee City","era":"other","nn":71,"risk":23,"cat":"green"},{"name":"The Post Office Bar","lat":56.46816,"lon":-2.8755,"postcode":"DD5 2HG","la":"Dundee City","era":"other","nn":66,"risk":23,"cat":"green"},{"name":"The Queen Anne Lounge","lat":56.46322,"lon":-2.99743,"postcode":"DD2 2BJ","la":"Dundee City","era":"other","nn":344,"risk":25,"cat":"green"},{"name":"The Ship Inn","lat":56.46504,"lon":-2.87544,"postcode":"DD5 2BR","la":"Dundee City","era":"trad","nn":66,"risk":23,"cat":"green"},{"name":"The Space","lat":56.48467,"lon":-2.97737,"postcode":"DD3 8LE","la":"Dundee City","era":"other","nn":657,"risk":30,"cat":"green"},{"name":"The Tavern","lat":56.48885,"lon":-2.92839,"postcode":"DD4 0SX","la":"Dundee City","era":"other","nn":732,"risk":45,"cat":"amber"},{"name":"The Tinsmith","lat":56.4595,"lon":-2.98023,"postcode":"DD1 5EU","la":"Dundee City","era":"other","nn":59,"risk":23,"cat":"green"},{"name":"The Town House","lat":56.46438,"lon":-2.96698,"postcode":"DD1 2JD","la":"Dundee City","era":"other","nn":60,"risk":23,"cat":"green"},{"name":"The Whip Inn","lat":56.47635,"lon":-3.02417,"postcode":"DD2 2TS","la":"Dundee City","era":"trad","nn":461,"risk":26,"cat":"green"},{"name":"The Wine Press","lat":56.46011,"lon":-2.96721,"postcode":"DD1 3DP","la":"Dundee City","era":"other","nn":104,"risk":23,"cat":"green"},{"name":"Tickety Boo's","lat":56.46169,"lon":-2.96831,"postcode":"DD1 2AA","la":"Dundee City","era":"other","nn":29,"risk":23,"cat":"green"},{"name":"Tivoli Snooker Club","lat":56.46692,"lon":-2.96894,"postcode":"DD1 2PJ","la":"Dundee City","era":"other","nn":203,"risk":24,"cat":"green"},{"name":"Toms @ Temple Lane","lat":56.45932,"lon":-2.97842,"postcode":"DD1 4HA","la":"Dundee City","era":"other","nn":33,"risk":23,"cat":"green"},{"name":"Trades House Bar","lat":56.4595,"lon":-2.97111,"postcode":"DD1 4ET","la":"Dundee City","era":"mod","nn":59,"risk":23,"cat":"green"},{"name":"Troll Inn","lat":56.47485,"lon":-2.96593,"postcode":"DD3 7NJ","la":"Dundee City","era":"trad","nn":184,"risk":24,"cat":"green"},{"name":"Victoria Bar","lat":56.46739,"lon":-2.96352,"postcode":"DD1 2QW","la":"Dundee City","era":"trad","nn":143,"risk":24,"cat":"green"},{"name":"West House","lat":56.45933,"lon":-2.97789,"postcode":"DD1 5EP","la":"Dundee City","era":"other","nn":33,"risk":23,"cat":"green"},{"name":"Western Club","lat":56.46216,"lon":-2.9685,"postcode":"DD1 2EE","la":"Dundee City","era":"other","nn":37,"risk":23,"cat":"green"},{"name":"Whites Bar","lat":56.47722,"lon":-2.97594,"postcode":"DD3 8AH","la":"Dundee City","era":"other","nn":124,"risk":24,"cat":"green"},{"name":"Windsor Bar","lat":56.46858,"lon":-2.95806,"postcode":"DD4 6QG","la":"Dundee City","era":"other","nn":32,"risk":23,"cat":"green"},{"name":"YMCA","lat":56.46781,"lon":-2.87742,"postcode":"DD5 1DJ","la":"Dundee City","era":"other","nn":73,"risk":23,"cat":"green"},{"name":"Boat Brae Bar And Restaurant","lat":56.43736,"lon":-2.94445,"postcode":"DD6 8EX","la":"Fife","era":"mod","nn":360,"risk":24,"cat":"green"},{"name":"Cobbies Inn","lat":56.4501,"lon":-2.8799,"postcode":"DD6 9BG","la":"Fife","era":"trad","nn":219,"risk":18,"cat":"green"},{"name":"Gregory Hall","lat":56.44567,"lon":-2.88029,"postcode":"DD6 9NR","la":"Fife","era":"other","nn":197,"risk":18,"cat":"green"},{"name":"Newport Bowling Club","lat":56.43968,"lon":-2.93948,"postcode":"DD6 8DD","la":"Fife","era":"other","nn":117,"risk":23,"cat":"green"},{"name":"Newport Club","lat":56.44008,"lon":-2.94124,"postcode":"DD6 8AE","la":"Fife","era":"other","nn":117,"risk":23,"cat":"green"},{"name":"Newport Lawn Tennis Club","lat":56.43905,"lon":-2.93777,"postcode":"DD6 8DF","la":"Fife","era":"other","nn":126,"risk":23,"cat":"green"},{"name":"Scotscraig Bowling Club","lat":56.44847,"lon":-2.88189,"postcode":"DD6 9JG","la":"Fife","era":"other","nn":190,"risk":18,"cat":"green"},{"name":"Scotscraig Golf Club","lat":56.44238,"lon":-2.87364,"postcode":"DD6 9DZ","la":"Fife","era":"other","nn":382,"risk":19,"cat":"green"},{"name":"Tayport Arms","lat":56.4452,"lon":-2.87719,"postcode":"DD6 9DN","la":"Fife","era":"trad","nn":197,"risk":18,"cat":"green"},{"name":"The Auld Hoose","lat":56.44794,"lon":-2.87894,"postcode":"DD6 9BZ","la":"Fife","era":"other","nn":190,"risk":18,"cat":"green"},{"name":"The Gauldry Arms","lat":56.40194,"lon":-3.01634,"postcode":"DD6 8RP","la":"Fife","era":"trad","nn":3540,"risk":64,"cat":"red"},{"name":"The View Restaurant","lat":56.42539,"lon":-2.97743,"postcode":"DD6 8NE","la":"Fife","era":"other","nn":1244,"risk":48,"cat":"amber"},{"name":"Wormit Boating Club","lat":56.4317,"lon":-2.96072,"postcode":"DD6 8LB","la":"Fife","era":"other","nn":1182,"risk":48,"cat":"amber"},{"name":"Invergowrie Inn","lat":56.46132,"lon":-3.06169,"postcode":"DD2 5BE","la":"Perth and Kinross","era":"trad","nn":1266,"risk":59,"cat":"amber"},{"name":"Longforgan Coaching Inn","lat":56.45712,"lon":-3.11923,"postcode":"DD2 5EU","la":"Perth and Kinross","era":"trad","nn":3566,"risk":75,"cat":"red"}]