[{"name":"Aberbeeg Rugby Club","lat":51.70845,"lon":-3.14504,"postcode":"NP13 2AD","la":"Blaenau Gwent","era":"other","nn":737,"risk":48,"cat":"amber"},{"name":"Abertillery Bluebirds AFC Clubhouse","lat":51.7251,"lon":-3.12204,"postcode":"NP13 2PW","la":"Blaenau Gwent","era":"other","nn":919,"risk":32,"cat":"amber"},{"name":"Bailey Arms","lat":51.74285,"lon":-3.1822,"postcode":"NP23 7QY","la":"Blaenau Gwent","era":"trad","nn":201,"risk":27,"cat":"green"},{"name":"Beaufort Bowls Club","lat":51.79762,"lon":-3.21581,"postcode":"NP23 5PJ","la":"Blaenau Gwent","era":"other","nn":0,"risk":28,"cat":"green"},{"name":"Beaufort RFC","lat":51.79762,"lon":-3.21581,"postcode":"NP23 5PJ","la":"Blaenau Gwent","era":"other","nn":0,"risk":28,"cat":"green"},{"name":"Bedwellty Park Bowling Club","lat":51.77077,"lon":-3.24572,"postcode":"NP22 3PT","la":"Blaenau Gwent","era":"other","nn":92,"risk":26,"cat":"green"},{"name":"Blaina Bowls Club Ltd","lat":51.77089,"lon":-3.24244,"postcode":"NP13 3DA","la":"Blaenau Gwent","era":"other","nn":115,"risk":27,"cat":"green"},{"name":"Blaina Cons. Public House","lat":51.7658,"lon":-3.16021,"postcode":"NP13 3AE","la":"Blaenau Gwent","era":"other","nn":134,"risk":32,"cat":"amber"},{"name":"Brynmawr RFC","lat":51.79711,"lon":-3.17217,"postcode":"NP23 4EF","la":"Blaenau Gwent","era":"other","nn":159,"risk":27,"cat":"green"},{"name":"Brynmawr Social Club","lat":51.80004,"lon":-3.17583,"postcode":"NP23 4AE","la":"Blaenau Gwent","era":"mod","nn":32,"risk":26,"cat":"green"},{"name":"Cafe @ evi","lat":51.77389,"lon":-3.20743,"postcode":"NP23 6BE","la":"Blaenau Gwent","era":"other","nn":322,"risk":28,"cat":"green"},{"name":"Carpenters Arms","lat":51.71064,"lon":-3.13274,"postcode":"NP13 2AY","la":"Blaenau Gwent","era":"trad","nn":686,"risk":36,"cat":"amber"},{"name":"Castle Inn","lat":51.79619,"lon":-3.23659,"postcode":"NP23 5DA","la":"Blaenau Gwent","era":"trad","nn":899,"risk":52,"cat":"amber"},{"name":"Castle Inn","lat":51.7704,"lon":-3.2079,"postcode":"NP23 6BP","la":"Blaenau Gwent","era":"trad","nn":48,"risk":26,"cat":"green"},{"name":"Cendl Inn","lat":51.79746,"lon":-3.19827,"postcode":"NP23 5QN","la":"Blaenau Gwent","era":"trad","nn":164,"risk":44,"cat":"amber"},{"name":"Coach & Horses","lat":51.78274,"lon":-3.25007,"postcode":"NP22 4AE","la":"Blaenau Gwent","era":"trad","nn":525,"risk":34,"cat":"amber"},{"name":"Commercial Hotel","lat":51.72995,"lon":-3.13402,"postcode":"NP13 1AH","la":"Blaenau Gwent","era":"other","nn":17,"risk":26,"cat":"green"},{"name":"Cwm Comrades Club & Institute","lat":51.7384,"lon":-3.18132,"postcode":"NP23 7SX","la":"Blaenau Gwent","era":"other","nn":285,"risk":28,"cat":"green"},{"name":"Cwm Conservative Club","lat":51.74085,"lon":-3.1825,"postcode":"NP23 7SR","la":"Blaenau Gwent","era":"other","nn":131,"risk":27,"cat":"green"},{"name":"Cwm National Workingmens Club","lat":51.74294,"lon":-3.18538,"postcode":"NP23 7RH","la":"Blaenau Gwent","era":"trad","nn":159,"risk":27,"cat":"green"},{"name":"Cymro Inn","lat":51.79786,"lon":-3.1753,"postcode":"NP23 4AW","la":"Blaenau Gwent","era":"trad","nn":48,"risk":26,"cat":"green"},{"name":"Dukestown Workingmens Club","lat":51.78742,"lon":-3.24905,"postcode":"NP22 4EH","la":"Blaenau Gwent","era":"trad","nn":202,"risk":32,"cat":"amber"},{"name":"Ebbw Vale Conservative Club","lat":51.77679,"lon":-3.20771,"postcode":"NP23 6HG","la":"Blaenau Gwent","era":"other","nn":0,"risk":26,"cat":"green"},{"name":"Ebbw Vale Ex-Servicemens Institute Ltd","lat":51.77868,"lon":-3.2053,"postcode":"NP23 6EF","la":"Blaenau Gwent","era":"other","nn":264,"risk":28,"cat":"green"},{"name":"Fern AFC Sports & Social Club","lat":51.77389,"lon":-3.24679,"postcode":"NP22 3QL","la":"Blaenau Gwent","era":"mod","nn":111,"risk":27,"cat":"green"},{"name":"Fir Tree","lat":51.76588,"lon":-3.23521,"postcode":"NP22 4LH","la":"Blaenau Gwent","era":"other","nn":171,"risk":27,"cat":"green"},{"name":"Hilltop Sports & Social Club","lat":51.77901,"lon":-3.22632,"postcode":"NP23 6QG","la":"Blaenau Gwent","era":"mod","nn":1094,"risk":56,"cat":"amber"},{"name":"Ironside RFC","lat":51.76943,"lon":-3.24751,"postcode":"NP22 3NG","la":"Blaenau Gwent","era":"other","nn":141,"risk":27,"cat":"green"},{"name":"King William IV","lat":51.79808,"lon":-3.1759,"postcode":"NP23 4JY","la":"Blaenau Gwent","era":"trad","nn":48,"risk":26,"cat":"green"},{"name":"KT's Wine Bar","lat":51.79942,"lon":-3.17886,"postcode":"NP23 4SY","la":"Blaenau Gwent","era":"other","nn":194,"risk":27,"cat":"green"},{"name":"Legends","lat":51.7998,"lon":-3.1761,"postcode":"NP23 4AE","la":"Blaenau Gwent","era":"other","nn":32,"risk":26,"cat":"green"},{"name":"Llanhilleth & District Bowls Club Ltd","lat":51.69698,"lon":-3.12953,"postcode":"NP13 2RX","la":"Blaenau Gwent","era":"other","nn":38,"risk":31,"cat":"amber"},{"name":"Llanhilleth Conservative & Unionist Club","lat":51.70045,"lon":-3.13537,"postcode":"NP13 2JA","la":"Blaenau Gwent","era":"other","nn":489,"risk":29,"cat":"green"},{"name":"Llanhilleth Rugby Football Club","lat":51.69688,"lon":-3.13006,"postcode":"NP13 2RX","la":"Blaenau Gwent","era":"other","nn":38,"risk":31,"cat":"amber"},{"name":"Mark Williams Snooker Club","lat":51.76798,"lon":-3.23962,"postcode":"NP22 4LD","la":"Blaenau Gwent","era":"other","nn":311,"risk":28,"cat":"green"},{"name":"Masonic Hall","lat":51.78298,"lon":-3.20872,"postcode":"NP23 6ES","la":"Blaenau Gwent","era":"trad","nn":237,"risk":27,"cat":"green"},{"name":"Masonic Hall","lat":51.77079,"lon":-3.24432,"postcode":"NP22 3NA","la":"Blaenau Gwent","era":"trad","nn":6,"risk":26,"cat":"green"},{"name":"Morgan\u2019s Wine Bar","lat":51.77679,"lon":-3.20771,"postcode":"NP23 6HG","la":"Blaenau Gwent","era":"other","nn":0,"risk":26,"cat":"green"},{"name":"Mount Pleasant Inn","lat":51.70483,"lon":-3.13608,"postcode":"NP13 2HN","la":"Blaenau Gwent","era":"trad","nn":489,"risk":29,"cat":"green"},{"name":"Mountain Air Inn","lat":51.7904,"lon":-3.2622,"postcode":"NP22 3SD","la":"Blaenau Gwent","era":"trad","nn":355,"risk":46,"cat":"amber"},{"name":"New Bridgend Inn","lat":51.73956,"lon":-3.1345,"postcode":"NP13 1JF","la":"Blaenau Gwent","era":"trad","nn":518,"risk":34,"cat":"amber"},{"name":"Plaza","lat":51.77679,"lon":-3.20771,"postcode":"NP23 6HG","la":"Blaenau Gwent","era":"other","nn":0,"risk":26,"cat":"green"},{"name":"Red Lion Hotel & Restaurant","lat":51.7729,"lon":-3.24701,"postcode":"NP22 3PX","la":"Blaenau Gwent","era":"trad","nn":93,"risk":26,"cat":"green"},{"name":"Riverside Social Club","lat":51.74153,"lon":-3.18505,"postcode":"NP23 7RP","la":"Blaenau Gwent","era":"mod","nn":65,"risk":26,"cat":"green"},{"name":"RTB (Ebbw Vale) RFC","lat":51.77042,"lon":-3.2086,"postcode":"NP23 6BP","la":"Blaenau Gwent","era":"other","nn":48,"risk":26,"cat":"green"},{"name":"Scarrets","lat":51.79765,"lon":-3.21428,"postcode":"NP23 5PF","la":"Blaenau Gwent","era":"other","nn":105,"risk":27,"cat":"green"},{"name":"Six Bells Hotel","lat":51.71793,"lon":-3.13055,"postcode":"NP13 2LX","la":"Blaenau Gwent","era":"other","nn":824,"risk":49,"cat":"amber"},{"name":"Swffryd Social Club","lat":51.68338,"lon":-3.13372,"postcode":"NP11 5HT","la":"Blaenau Gwent","era":"mod","nn":670,"risk":33,"cat":"amber"},{"name":"The Badminton Pub Ltd","lat":51.79218,"lon":-3.20646,"postcode":"NP23 5NN","la":"Blaenau Gwent","era":"other","nn":671,"risk":30,"cat":"green"},{"name":"The Bear","lat":51.72957,"lon":-3.13462,"postcode":"NP13 1DQ","la":"Blaenau Gwent","era":"other","nn":33,"risk":26,"cat":"green"},{"name":"The Beaufort Theatre","lat":51.79695,"lon":-3.2005,"postcode":"NP23 5QQ","la":"Blaenau Gwent","era":"other","nn":164,"risk":32,"cat":"amber"},{"name":"The Bridgend Inn","lat":51.802,"lon":-3.16817,"postcode":"NP23 4RE","la":"Blaenau Gwent","era":"trad","nn":413,"risk":29,"cat":"green"},{"name":"The Bush Inn","lat":51.79992,"lon":-3.17336,"postcode":"NP23 4DN","la":"Blaenau Gwent","era":"trad","nn":125,"risk":27,"cat":"green"},{"name":"The Cambrian","lat":51.7719,"lon":-3.24614,"postcode":"NP22 3DE","la":"Blaenau Gwent","era":"other","nn":1,"risk":26,"cat":"green"},{"name":"The Castle Hotel","lat":51.77211,"lon":-3.24654,"postcode":"NP22 3DF","la":"Blaenau Gwent","era":"other","nn":36,"risk":26,"cat":"green"},{"name":"The Corner Club","lat":51.72903,"lon":-3.13378,"postcode":"NP13 1DL","la":"Blaenau Gwent","era":"other","nn":83,"risk":26,"cat":"green"},{"name":"The Crown","lat":51.73547,"lon":-3.13811,"postcode":"NP13 1PG","la":"Blaenau Gwent","era":"trad","nn":178,"risk":27,"cat":"green"},{"name":"The Garw","lat":51.72955,"lon":-3.1351,"postcode":"NP13 1DG","la":"Blaenau Gwent","era":"other","nn":33,"risk":26,"cat":"green"},{"name":"The Glyn","lat":51.73575,"lon":-3.14066,"postcode":"NP13 1PH","la":"Blaenau Gwent","era":"other","nn":178,"risk":27,"cat":"green"},{"name":"The Gwesty","lat":51.79845,"lon":-3.17301,"postcode":"NP23 4EH","la":"Blaenau Gwent","era":"other","nn":54,"risk":26,"cat":"green"},{"name":"The Hobby Horse Inn","lat":51.79849,"lon":-3.17015,"postcode":"NP23 4DT","la":"Blaenau Gwent","era":"trad","nn":197,"risk":27,"cat":"green"},{"name":"The Legion","lat":51.74149,"lon":-3.18411,"postcode":"NP23 7RW","la":"Blaenau Gwent","era":"other","nn":65,"risk":26,"cat":"green"},{"name":"The Looking Glass","lat":51.7719,"lon":-3.24614,"postcode":"NP22 3DE","la":"Blaenau Gwent","era":"trad","nn":1,"risk":26,"cat":"green"},{"name":"The Lounge","lat":51.77209,"lon":-3.24586,"postcode":"NP22 3DQ","la":"Blaenau Gwent","era":"mod","nn":28,"risk":26,"cat":"green"},{"name":"The Moose Hall","lat":51.77159,"lon":-3.24388,"postcode":"NP22 3JF","la":"Blaenau Gwent","era":"other","nn":85,"risk":26,"cat":"green"},{"name":"The Nags Head Inn","lat":51.78436,"lon":-3.27614,"postcode":"NP22 3AP","la":"Blaenau Gwent","era":"trad","nn":866,"risk":49,"cat":"amber"},{"name":"The Nine Arches","lat":51.78992,"lon":-3.2673,"postcode":"NP22 3BB","la":"Blaenau Gwent","era":"other","nn":355,"risk":46,"cat":"amber"},{"name":"The Oak","lat":51.78756,"lon":-3.24613,"postcode":"NP22 4DW","la":"Blaenau Gwent","era":"trad","nn":202,"risk":45,"cat":"amber"},{"name":"The Olympia","lat":51.77067,"lon":-3.24417,"postcode":"NP22 3ND","la":"Blaenau Gwent","era":"other","nn":17,"risk":26,"cat":"green"},{"name":"The Park Hotel","lat":51.75462,"lon":-3.1939,"postcode":"NP23 6TN","la":"Blaenau Gwent","era":"other","nn":1425,"risk":58,"cat":"amber"},{"name":"The Picture House","lat":51.78059,"lon":-3.20756,"postcode":"NP23 6HP","la":"Blaenau Gwent","era":"other","nn":264,"risk":28,"cat":"green"},{"name":"The Pontlottyn","lat":51.72988,"lon":-3.13425,"postcode":"NP13 1DJ","la":"Blaenau Gwent","era":"other","nn":0,"risk":26,"cat":"green"},{"name":"The Queens Hotel","lat":51.75962,"lon":-3.15928,"postcode":"NP13 3DY","la":"Blaenau Gwent","era":"trad","nn":690,"risk":36,"cat":"amber"},{"name":"The Rolling Mill","lat":51.73088,"lon":-3.13426,"postcode":"NP13 1DA","la":"Blaenau Gwent","era":"trad","nn":105,"risk":27,"cat":"green"},{"name":"The Royal Exchange","lat":51.79911,"lon":-3.17463,"postcode":"NP23 4AD","la":"Blaenau Gwent","era":"trad","nn":68,"risk":26,"cat":"green"},{"name":"The Somerset Hotel","lat":51.72988,"lon":-3.13425,"postcode":"NP13 1DJ","la":"Blaenau Gwent","era":"other","nn":0,"risk":26,"cat":"green"},{"name":"The Talisman","lat":51.79845,"lon":-3.17379,"postcode":"NP23 4AJ","la":"Blaenau Gwent","era":"other","nn":54,"risk":26,"cat":"green"},{"name":"The White Lion Inn","lat":51.76658,"lon":-3.15873,"postcode":"NP13 3JU","la":"Blaenau Gwent","era":"trad","nn":134,"risk":32,"cat":"amber"},{"name":"The Willow Tree","lat":51.79526,"lon":-3.17877,"postcode":"NP23 4SL","la":"Blaenau Gwent","era":"trad","nn":370,"risk":28,"cat":"green"},{"name":"Top House","lat":51.80904,"lon":-3.27705,"postcode":"NP22 4HF","la":"Blaenau Gwent","era":"other","nn":2230,"risk":64,"cat":"red"},{"name":"Tredegar Arms Hotel","lat":51.77082,"lon":-3.24439,"postcode":"NP22 3NA","la":"Blaenau Gwent","era":"trad","nn":6,"risk":26,"cat":"green"},{"name":"Tredegar Constitutional Club","lat":51.77685,"lon":-3.24588,"postcode":"NP22 3DP","la":"Blaenau Gwent","era":"other","nn":336,"risk":28,"cat":"green"},{"name":"Tredegar County Club & Institute","lat":51.77084,"lon":-3.2441,"postcode":"NP22 3JF","la":"Blaenau Gwent","era":"other","nn":16,"risk":26,"cat":"green"},{"name":"Tredegar Orpheus Music Centre","lat":51.76548,"lon":-3.23761,"postcode":"NP22 4JD","la":"Blaenau Gwent","era":"other","nn":171,"risk":27,"cat":"green"},{"name":"Tredegar RFC Sports and Social Club","lat":51.76823,"lon":-3.2482,"postcode":"NP22 3NN","la":"Blaenau Gwent","era":"mod","nn":3,"risk":26,"cat":"green"},{"name":"Trefil Rugby Club","lat":51.76821,"lon":-3.24818,"postcode":"NP22 3NN","la":"Blaenau Gwent","era":"other","nn":3,"risk":26,"cat":"green"},{"name":"Ty Bryn Club","lat":51.79596,"lon":-3.22352,"postcode":"NP23 5BJ","la":"Blaenau Gwent","era":"other","nn":562,"risk":32,"cat":"amber"},{"name":"VAMOS by the River","lat":51.73034,"lon":-3.13872,"postcode":"NP13 1UB","la":"Blaenau Gwent","era":"other","nn":265,"risk":28,"cat":"green"},{"name":"West Mon Golf Club","lat":51.78746,"lon":-3.18468,"postcode":"NP23 4QT","la":"Blaenau Gwent","era":"other","nn":958,"risk":52,"cat":"amber"},{"name":"Willowtown Constitutional Club","lat":51.78341,"lon":-3.2121,"postcode":"NP23 6JL","la":"Blaenau Gwent","era":"trad","nn":237,"risk":27,"cat":"green"},{"name":"Wine Vaults","lat":51.79869,"lon":-3.17534,"postcode":"NP23 4AQ","la":"Blaenau Gwent","era":"other","nn":68,"risk":26,"cat":"green"},{"name":"Yew Tree Inn","lat":51.76624,"lon":-3.16398,"postcode":"NP13 3BU","la":"Blaenau Gwent","era":"trad","nn":264,"risk":33,"cat":"amber"},{"name":"Abercarn Constitutional Club","lat":51.65022,"lon":-3.13802,"postcode":"NP11 4SE","la":"Caerphilly","era":"other","nn":40,"risk":26,"cat":"green"},{"name":"Abercarn Rugby Club","lat":51.64836,"lon":-3.13587,"postcode":"NP11 4TD","la":"Caerphilly","era":"other","nn":133,"risk":27,"cat":"green"},{"name":"Abercarn Workmen's Club","lat":51.64785,"lon":-3.13412,"postcode":"NP11 5GW","la":"Caerphilly","era":"other","nn":0,"risk":26,"cat":"green"},{"name":"Abertysswg RFC Ltd","lat":51.74269,"lon":-3.25958,"postcode":"NP22 5AH","la":"Caerphilly","era":"other","nn":1540,"risk":57,"cat":"amber"},{"name":"Argoed Reform Club & Institute Ltd","lat":51.69323,"lon":-3.19143,"postcode":"NP12 0HQ","la":"Caerphilly","era":"other","nn":1413,"risk":56,"cat":"amber"},{"name":"Bijou Blackwood","lat":51.66785,"lon":-3.19529,"postcode":"NP12 1NT","la":"Caerphilly","era":"other","nn":97,"risk":24,"cat":"green"},{"name":"Bird in Hand","lat":51.65078,"lon":-3.19227,"postcode":"NP12 2EX","la":"Caerphilly","era":"other","nn":463,"risk":32,"cat":"amber"},{"name":"Blackwood RFC","lat":51.66654,"lon":-3.19294,"postcode":"NP12 1NY","la":"Caerphilly","era":"other","nn":136,"risk":24,"cat":"green"},{"name":"Blackwood Stars RFC","lat":51.66429,"lon":-3.19448,"postcode":"NP12 1DG","la":"Caerphilly","era":"other","nn":57,"risk":24,"cat":"green"},{"name":"Blackwood Town Cricket Club","lat":51.66248,"lon":-3.19979,"postcode":"NP12 1DS","la":"Caerphilly","era":"other","nn":221,"risk":25,"cat":"green"},{"name":"Brewers Lodge","lat":51.66176,"lon":-3.20278,"postcode":"NP12 1DS","la":"Caerphilly","era":"other","nn":221,"risk":25,"cat":"green"},{"name":"Brewery Sports & Social Club","lat":51.76305,"lon":-3.29099,"postcode":"NP22 5HT","la":"Caerphilly","era":"mod","nn":222,"risk":28,"cat":"green"},{"name":"Brithdir Constitutional Club","lat":51.70924,"lon":-3.22744,"postcode":"NP24 6XY","la":"Caerphilly","era":"other","nn":49,"risk":44,"cat":"amber"},{"name":"Celynen Collieries Workmens Institute","lat":51.66445,"lon":-3.14678,"postcode":"NP11 4FH","la":"Caerphilly","era":"other","nn":55,"risk":24,"cat":"green"},{"name":"Central Club & Institute","lat":51.6723,"lon":-3.21194,"postcode":"NP12 3JX","la":"Caerphilly","era":"other","nn":251,"risk":28,"cat":"green"},{"name":"Commercial Inn Public House","lat":51.6041,"lon":-3.09501,"postcode":"NP11 6BA","la":"Caerphilly","era":"trad","nn":193,"risk":25,"cat":"green"},{"name":"Crosskeys Rugby Football Club Bar","lat":51.62041,"lon":-3.12851,"postcode":"NP11 7BS","la":"Caerphilly","era":"trad","nn":0,"risk":29,"cat":"green"},{"name":"Crosskeys Rugby Football Club Catering","lat":51.62041,"lon":-3.12851,"postcode":"NP11 7BS","la":"Caerphilly","era":"trad","nn":0,"risk":29,"cat":"green"},{"name":"Crumlin Cricket Club","lat":51.67921,"lon":-3.15017,"postcode":"NP11 3BN","la":"Caerphilly","era":"other","nn":608,"risk":30,"cat":"green"},{"name":"Crumlin Rugby Football Club","lat":51.67871,"lon":-3.1414,"postcode":"NP11 4PN","la":"Caerphilly","era":"other","nn":80,"risk":24,"cat":"green"},{"name":"Cwmcarn Workingmen's club","lat":51.6347,"lon":-3.1295,"postcode":"NP11 7LZ","la":"Caerphilly","era":"trad","nn":238,"risk":43,"cat":"amber"},{"name":"Cwmfelinfach Workingmens Club","lat":51.61753,"lon":-3.17623,"postcode":"NP11 7GW","la":"Caerphilly","era":"trad","nn":807,"risk":49,"cat":"amber"},{"name":"Cwtchers","lat":51.65862,"lon":-3.16556,"postcode":"NP11 4HN","la":"Caerphilly","era":"other","nn":84,"risk":42,"cat":"amber"},{"name":"Dagger Reform Club","lat":51.67059,"lon":-3.20945,"postcode":"NP12 3JR","la":"Caerphilly","era":"other","nn":164,"risk":25,"cat":"green"},{"name":"Dynevor Arms Hotel","lat":51.72123,"lon":-3.24694,"postcode":"NP24 6XS","la":"Caerphilly","era":"trad","nn":259,"risk":25,"cat":"green"},{"name":"Exchange Inn","lat":51.61282,"lon":-3.10355,"postcode":"NP11 6GQ","la":"Caerphilly","era":"trad","nn":0,"risk":24,"cat":"green"},{"name":"Farmers Arms","lat":51.765,"lon":-3.2916,"postcode":"NP22 5EZ","la":"Caerphilly","era":"trad","nn":222,"risk":28,"cat":"green"},{"name":"Fleur De Lis RFC","lat":51.66395,"lon":-3.22278,"postcode":"NP12 3UD","la":"Caerphilly","era":"other","nn":0,"risk":29,"cat":"green"},{"name":"Fork and Tune","lat":51.63681,"lon":-3.13006,"postcode":"NP11 7ND","la":"Caerphilly","era":"other","nn":238,"risk":43,"cat":"amber"},{"name":"Hafodyrynys Inn","lat":51.68433,"lon":-3.1189,"postcode":"NP11 5BE","la":"Caerphilly","era":"trad","nn":56,"risk":44,"cat":"amber"},{"name":"Hafodyrynys RF Sports and Social Club","lat":51.68382,"lon":-3.11889,"postcode":"NP11 5BE","la":"Caerphilly","era":"mod","nn":56,"risk":44,"cat":"amber"},{"name":"Homfray Masonic Club","lat":51.61243,"lon":-3.10366,"postcode":"NP11 6GN","la":"Caerphilly","era":"trad","nn":45,"risk":24,"cat":"green"},{"name":"Islwyn Inn","lat":51.63893,"lon":-3.19056,"postcode":"NP12 2HN","la":"Caerphilly","era":"trad","nn":1238,"risk":55,"cat":"amber"},{"name":"Islwyn Masonic Hall","lat":51.66935,"lon":-3.19462,"postcode":"NP12 0NT","la":"Caerphilly","era":"trad","nn":50,"risk":24,"cat":"green"},{"name":"Llanarth Club","lat":51.65568,"lon":-3.18456,"postcode":"NP12 2LG","la":"Caerphilly","era":"other","nn":159,"risk":27,"cat":"green"},{"name":"Markham & District Welfare Society","lat":51.70353,"lon":-3.20466,"postcode":"NP12 0QE","la":"Caerphilly","era":"mod","nn":1240,"risk":55,"cat":"amber"},{"name":"Masons Arms","lat":51.6055,"lon":-3.08974,"postcode":"NP11 6LH","la":"Caerphilly","era":"trad","nn":260,"risk":25,"cat":"green"},{"name":"Moggridge Arms","lat":51.66477,"lon":-3.19423,"postcode":"NP12 1AH","la":"Caerphilly","era":"trad","nn":57,"risk":24,"cat":"green"},{"name":"Moose International","lat":51.66983,"lon":-3.19685,"postcode":"NP12 1HN","la":"Caerphilly","era":"other","nn":104,"risk":24,"cat":"green"},{"name":"New Tredegar RFC","lat":51.72069,"lon":-3.24306,"postcode":"NP24 6EW","la":"Caerphilly","era":"other","nn":57,"risk":24,"cat":"green"},{"name":"Newbridge Constitutional Club","lat":51.66379,"lon":-3.14813,"postcode":"NP11 4FW","la":"Caerphilly","era":"other","nn":119,"risk":24,"cat":"green"},{"name":"Newbridge Labour Club & Institute","lat":51.66641,"lon":-3.14337,"postcode":"NP11 5FA","la":"Caerphilly","era":"other","nn":241,"risk":25,"cat":"green"},{"name":"Newbridge Rugby Football Club","lat":51.66475,"lon":-3.14112,"postcode":"NP11 5FR","la":"Caerphilly","era":"other","nn":241,"risk":25,"cat":"green"},{"name":"Oakdale Rugby Football Club","lat":51.67842,"lon":-3.17801,"postcode":"NP12 0LR","la":"Caerphilly","era":"trad","nn":781,"risk":49,"cat":"amber"},{"name":"Pengam Constitutional Club","lat":51.6696,"lon":-3.22825,"postcode":"NP12 3XW","la":"Caerphilly","era":"other","nn":353,"risk":28,"cat":"green"},{"name":"Pentwyn Inn","lat":51.69896,"lon":-3.14966,"postcode":"NP11 3JD","la":"Caerphilly","era":"trad","nn":287,"risk":43,"cat":"amber"},{"name":"Phillipstown Social Club","lat":51.72424,"lon":-3.24173,"postcode":"NP24 6XB","la":"Caerphilly","era":"mod","nn":244,"risk":25,"cat":"green"},{"name":"Pontllanfraith Ex Servicemans Club and Institute","lat":51.65425,"lon":-3.18856,"postcode":"NP12 2JY","la":"Caerphilly","era":"other","nn":201,"risk":27,"cat":"green"},{"name":"Pontllanfraith Rugby Club","lat":51.65572,"lon":-3.18687,"postcode":"NP12 2JF","la":"Caerphilly","era":"other","nn":159,"risk":27,"cat":"green"},{"name":"Pontymister Athletic Bowls Club","lat":51.60705,"lon":-3.10181,"postcode":"NP11 6BY","la":"Caerphilly","era":"other","nn":167,"risk":25,"cat":"green"},{"name":"Pontymister Cricket Club","lat":51.60083,"lon":-3.08908,"postcode":"NP11 6EJ","la":"Caerphilly","era":"other","nn":263,"risk":25,"cat":"green"},{"name":"Pontymister Welfare Bowls Club","lat":51.60319,"lon":-3.0891,"postcode":"NP11 6LY","la":"Caerphilly","era":"other","nn":195,"risk":25,"cat":"green"},{"name":"Prince Of Wales","lat":51.60904,"lon":-3.0987,"postcode":"NP11 6PY","la":"Caerphilly","era":"trad","nn":117,"risk":24,"cat":"green"},{"name":"Prince Of Wales Inn","lat":51.78111,"lon":-3.2887,"postcode":"NP22 3AE","la":"Caerphilly","era":"trad","nn":937,"risk":50,"cat":"amber"},{"name":"Railway Hotel","lat":51.67895,"lon":-3.14031,"postcode":"NP11 4QD","la":"Caerphilly","era":"trad","nn":64,"risk":24,"cat":"green"},{"name":"Railway Tavern","lat":51.60861,"lon":-3.10276,"postcode":"NP11 6DB","la":"Caerphilly","era":"trad","nn":186,"risk":25,"cat":"green"},{"name":"Red Lion","lat":51.66347,"lon":-3.15358,"postcode":"NP11 4GX","la":"Caerphilly","era":"trad","nn":377,"risk":26,"cat":"green"},{"name":"Red Triangle Snooker Club","lat":51.62321,"lon":-3.12729,"postcode":"NP11 7FN","la":"Caerphilly","era":"other","nn":322,"risk":31,"cat":"amber"},{"name":"Rhymney Rugby Club","lat":51.7597,"lon":-3.28543,"postcode":"NP22 5NB","la":"Caerphilly","era":"other","nn":75,"risk":24,"cat":"green"},{"name":"Rhymney Social Club","lat":51.76031,"lon":-3.28589,"postcode":"NP22 5LP","la":"Caerphilly","era":"mod","nn":75,"risk":24,"cat":"green"},{"name":"Risca Rugby Club","lat":51.60574,"lon":-3.10062,"postcode":"NP11 6BY","la":"Caerphilly","era":"other","nn":167,"risk":25,"cat":"green"},{"name":"Risca Workingmens Branch Club","lat":51.60333,"lon":-3.09251,"postcode":"NP11 6EE","la":"Caerphilly","era":"trad","nn":54,"risk":24,"cat":"green"},{"name":"Risca Workmans Top Club","lat":51.61282,"lon":-3.10355,"postcode":"NP11 6GQ","la":"Caerphilly","era":"other","nn":0,"risk":24,"cat":"green"},{"name":"Rising Sun Inn","lat":51.7261,"lon":-3.25463,"postcode":"NP24 6LY","la":"Caerphilly","era":"trad","nn":757,"risk":31,"cat":"amber"},{"name":"Royal Arms Hotel","lat":51.76106,"lon":-3.28571,"postcode":"NP22 5NB","la":"Caerphilly","era":"trad","nn":84,"risk":24,"cat":"green"},{"name":"Smiths Arms","lat":51.66893,"lon":-3.22325,"postcode":"NP12 3ST","la":"Caerphilly","era":"trad","nn":353,"risk":26,"cat":"green"},{"name":"South Wales 2000 Shooting Ground","lat":51.64027,"lon":-3.16734,"postcode":"NP12 2BG","la":"Caerphilly","era":"other","nn":1609,"risk":57,"cat":"amber"},{"name":"Studio 54","lat":51.66908,"lon":-3.19594,"postcode":"NP12 1HP","la":"Caerphilly","era":"mod","nn":46,"risk":24,"cat":"green"},{"name":"The Black Prince","lat":51.62808,"lon":-3.18657,"postcode":"NP11 7LJ","la":"Caerphilly","era":"trad","nn":255,"risk":43,"cat":"amber"},{"name":"The Bumble Bee","lat":51.6615,"lon":-3.19106,"postcode":"NP12 2FS","la":"Caerphilly","era":"other","nn":390,"risk":26,"cat":"green"},{"name":"The Castle Inn","lat":51.62889,"lon":-3.12845,"postcode":"NP11 7DU","la":"Caerphilly","era":"trad","nn":637,"risk":28,"cat":"green"},{"name":"The Crown Inn","lat":51.65032,"lon":-3.13857,"postcode":"NP11 4SP","la":"Caerphilly","era":"trad","nn":40,"risk":26,"cat":"green"},{"name":"The Darran","lat":51.6159,"lon":-3.10686,"postcode":"NP11 6GU","la":"Caerphilly","era":"other","nn":411,"risk":26,"cat":"green"},{"name":"The Flour Mill Cocktail Bar Ltd","lat":51.66863,"lon":-3.19593,"postcode":"NP12 1HP","la":"Caerphilly","era":"other","nn":50,"risk":24,"cat":"green"},{"name":"The Fox & Hounds","lat":51.608,"lon":-3.09896,"postcode":"NP11 6PW","la":"Caerphilly","era":"trad","nn":117,"risk":24,"cat":"green"},{"name":"The George Inn","lat":51.7089,"lon":-3.2279,"postcode":"NP24 6JS","la":"Caerphilly","era":"trad","nn":49,"risk":44,"cat":"amber"},{"name":"The Grove","lat":51.60303,"lon":-3.0919,"postcode":"NP11 6EE","la":"Caerphilly","era":"other","nn":54,"risk":24,"cat":"green"},{"name":"The Market Tavern","lat":51.64785,"lon":-3.13412,"postcode":"NP11 5GW","la":"Caerphilly","era":"other","nn":0,"risk":26,"cat":"green"},{"name":"The New Foresters","lat":51.66645,"lon":-3.19553,"postcode":"NP12 1AF","la":"Caerphilly","era":"other","nn":81,"risk":24,"cat":"green"},{"name":"The Newbridge Hotel","lat":51.66466,"lon":-3.14606,"postcode":"NP11 4FH","la":"Caerphilly","era":"other","nn":55,"risk":24,"cat":"green"},{"name":"The Otter","lat":51.66249,"lon":-3.14041,"postcode":"NP11 5GH","la":"Caerphilly","era":"other","nn":256,"risk":25,"cat":"green"},{"name":"The Patriot","lat":51.67852,"lon":-3.13967,"postcode":"NP11 4PT","la":"Caerphilly","era":"other","nn":0,"risk":24,"cat":"green"},{"name":"The Puddlers Arms - Wet Sales","lat":51.75332,"lon":-3.28033,"postcode":"NP22 5PX","la":"Caerphilly","era":"trad","nn":526,"risk":27,"cat":"green"},{"name":"The Rock","lat":51.68063,"lon":-3.18877,"postcode":"NP12 1DD","la":"Caerphilly","era":"other","nn":781,"risk":49,"cat":"amber"},{"name":"The Ruperra Arms","lat":51.72241,"lon":-3.2437,"postcode":"NP24 6AG","la":"Caerphilly","era":"trad","nn":179,"risk":25,"cat":"green"},{"name":"The Sirhowy","lat":51.66916,"lon":-3.19529,"postcode":"NP12 1BA","la":"Caerphilly","era":"other","nn":46,"risk":24,"cat":"green"},{"name":"The Westgate","lat":51.66595,"lon":-3.19468,"postcode":"NP12 1AA","la":"Caerphilly","era":"other","nn":81,"risk":24,"cat":"green"},{"name":"Three Horseshoes","lat":51.65871,"lon":-3.16434,"postcode":"NP11 4HN","la":"Caerphilly","era":"trad","nn":84,"risk":42,"cat":"amber"},{"name":"Top Club 18","lat":51.67424,"lon":-3.21007,"postcode":"NP12 3HB","la":"Caerphilly","era":"other","nn":251,"risk":30,"cat":"green"},{"name":"Travellers Rest","lat":51.70331,"lon":-3.17421,"postcode":"NP12 0HY","la":"Caerphilly","era":"other","nn":1632,"risk":57,"cat":"amber"},{"name":"Tredegar Arms","lat":51.72101,"lon":-3.2424,"postcode":"NP24 6EN","la":"Caerphilly","era":"trad","nn":57,"risk":26,"cat":"green"},{"name":"Trinant Sports & Social Club","lat":51.69764,"lon":-3.14607,"postcode":"NP11 3JP","la":"Caerphilly","era":"mod","nn":287,"risk":43,"cat":"amber"},{"name":"Twynyffald Workmens Club","lat":51.67154,"lon":-3.20764,"postcode":"NP12 3HD","la":"Caerphilly","era":"other","nn":164,"risk":25,"cat":"green"},{"name":"Valley Tavern Limited","lat":51.66395,"lon":-3.22278,"postcode":"NP12 3UD","la":"Caerphilly","era":"other","nn":0,"risk":29,"cat":"green"},{"name":"Wattsville National Club & Institute","lat":51.61588,"lon":-3.14826,"postcode":"NP11 7QJ","la":"Caerphilly","era":"other","nn":1453,"risk":56,"cat":"amber"},{"name":"Wexa Sports","lat":51.67852,"lon":-3.13967,"postcode":"NP11 4PT","la":"Caerphilly","era":"other","nn":0,"risk":24,"cat":"green"},{"name":"Ynysddu Rugby Football Club","lat":51.62267,"lon":-3.18447,"postcode":"NP11 7JG","la":"Caerphilly","era":"other","nn":367,"risk":31,"cat":"amber"},{"name":"Ynysddu Workingmens Club","lat":51.62593,"lon":-3.18531,"postcode":"NP11 7JN","la":"Caerphilly","era":"trad","nn":255,"risk":43,"cat":"amber"},{"name":"Tidenham Royal British Legion","lat":51.64307,"lon":-2.65707,"postcode":"NP16 7AF","la":"Forest of Dean","era":"trad","nn":391,"risk":52,"cat":"amber"},{"name":"Village Inn","lat":51.63998,"lon":-2.65981,"postcode":"NP16 7AA","la":"Forest of Dean","era":"trad","nn":391,"risk":39,"cat":"amber"},{"name":"Abergavenny Bowls Club","lat":51.82915,"lon":-3.0275,"postcode":"NP7 7DB","la":"Monmouthshire","era":"other","nn":506,"risk":29,"cat":"green"},{"name":"Abergavenny Conservative Club","lat":51.82467,"lon":-3.01804,"postcode":"NP7 5TR","la":"Monmouthshire","era":"other","nn":148,"risk":27,"cat":"green"},{"name":"Abergavenny Rugby Football Club","lat":51.826,"lon":-3.01818,"postcode":"NP7 5SG","la":"Monmouthshire","era":"other","nn":0,"risk":26,"cat":"green"},{"name":"Abergavenny Rugby Football Club (Bar)","lat":51.826,"lon":-3.01818,"postcode":"NP7 5SG","la":"Monmouthshire","era":"other","nn":0,"risk":26,"cat":"green"},{"name":"Alfred Russel Wallace","lat":51.70233,"lon":-2.90524,"postcode":"NP15 1BQ","la":"Monmouthshire","era":"other","nn":53,"risk":26,"cat":"green"},{"name":"Angel Inn","lat":51.91543,"lon":-2.86806,"postcode":"NP7 8EP","la":"Monmouthshire","era":"trad","nn":1523,"risk":59,"cat":"amber"},{"name":"Auberge","lat":51.82424,"lon":-3.02022,"postcode":"NP7 5AH","la":"Monmouthshire","era":"other","nn":22,"risk":26,"cat":"green"},{"name":"Burnt Barn Community - Social Club","lat":51.6275,"lon":-2.67385,"postcode":"NP16 5AR","la":"Monmouthshire","era":"mod","nn":184,"risk":30,"cat":"green"},{"name":"Caldicot Rugby Football Club","lat":51.58587,"lon":-2.76096,"postcode":"NP26 4JW","la":"Monmouthshire","era":"other","nn":185,"risk":27,"cat":"green"},{"name":"Carpenters Arms","lat":51.72556,"lon":-2.75664,"postcode":"NP16 6QH","la":"Monmouthshire","era":"trad","nn":3076,"risk":70,"cat":"red"},{"name":"Cefn Tilla Weddings Ltd","lat":51.72156,"lon":-2.86184,"postcode":"NP15 1DG","la":"Monmouthshire","era":"other","nn":1507,"risk":59,"cat":"amber"},{"name":"Chepstow Athletic Club","lat":51.6336,"lon":-2.67857,"postcode":"NP16 5JT","la":"Monmouthshire","era":"other","nn":376,"risk":28,"cat":"green"},{"name":"Chepstow Conservative Club","lat":51.64032,"lon":-2.67738,"postcode":"NP16 5DD","la":"Monmouthshire","era":"other","nn":28,"risk":26,"cat":"green"},{"name":"Chepstow Rugby Football Club Ltd","lat":51.62515,"lon":-2.67295,"postcode":"NP16 5NN","la":"Monmouthshire","era":"other","nn":228,"risk":32,"cat":"amber"},{"name":"Chepstow Town Football Club","lat":51.63607,"lon":-2.68229,"postcode":"NP16 5PR","la":"Monmouthshire","era":"other","nn":376,"risk":28,"cat":"green"},{"name":"Clytha Arms","lat":51.7765,"lon":-2.91871,"postcode":"NP7 9BW","la":"Monmouthshire","era":"trad","nn":4658,"risk":81,"cat":"red"},{"name":"Coach & Horses","lat":51.82075,"lon":-3.01651,"postcode":"NP7 5ER","la":"Monmouthshire","era":"trad","nn":216,"risk":27,"cat":"green"},{"name":"Cross Keys Inn","lat":51.70264,"lon":-2.90465,"postcode":"NP15 1BQ","la":"Monmouthshire","era":"trad","nn":19,"risk":26,"cat":"green"},{"name":"Crown & Sceptre Ltd","lat":51.83546,"lon":-3.00591,"postcode":"NP7 6HU","la":"Monmouthshire","era":"trad","nn":1321,"risk":57,"cat":"amber"},{"name":"Cuckoo Camp Soc/Workmans Club","lat":51.7737,"lon":-2.83598,"postcode":"NP15 2LD","la":"Monmouthshire","era":"other","nn":1565,"risk":59,"cat":"amber"},{"name":"Five Alls Public House","lat":51.64273,"lon":-2.67476,"postcode":"NP16 5ER","la":"Monmouthshire","era":"other","nn":47,"risk":26,"cat":"green"},{"name":"Goytre Arms","lat":51.73558,"lon":-2.98275,"postcode":"NP4 0AH","la":"Monmouthshire","era":"trad","nn":506,"risk":49,"cat":"amber"},{"name":"Goytre Sports & Social Club","lat":51.73925,"lon":-2.9784,"postcode":"NP4 0AW","la":"Monmouthshire","era":"mod","nn":506,"risk":49,"cat":"amber"},{"name":"Great Western Bar & Grill","lat":51.81641,"lon":-3.01045,"postcode":"NP7 5HS","la":"Monmouthshire","era":"mod","nn":637,"risk":30,"cat":"green"},{"name":"Green Dragon Inn","lat":51.80849,"lon":-2.72102,"postcode":"NP25 5ES","la":"Monmouthshire","era":"trad","nn":157,"risk":27,"cat":"green"},{"name":"Greenmeadow Golf and Country Club","lat":51.66855,"lon":-3.00155,"postcode":"NP44 2BZ","la":"Torfaen","era":"other","nn":758,"risk":37,"cat":"amber"},{"name":"Grofield Inn","lat":51.82355,"lon":-3.02119,"postcode":"NP7 5BB","la":"Monmouthshire","era":"trad","nn":75,"risk":26,"cat":"green"},{"name":"Haywain","lat":51.59449,"lon":-2.75561,"postcode":"NP26 4NE","la":"Monmouthshire","era":"other","nn":563,"risk":30,"cat":"green"},{"name":"Hen & Chickens","lat":51.82191,"lon":-3.01903,"postcode":"NP7 5EG","la":"Monmouthshire","era":"other","nn":91,"risk":26,"cat":"green"},{"name":"Horseshoe Inn","lat":51.71144,"lon":-3.01365,"postcode":"NP4 8QX","la":"Torfaen","era":"trad","nn":740,"risk":49,"cat":"amber"},{"name":"Hunters Moon Inn","lat":51.87563,"lon":-2.92694,"postcode":"NP7 8RR","la":"Monmouthshire","era":"trad","nn":4815,"risk":82,"cat":"red"},{"name":"Jolly Colliers Inn","lat":51.80296,"lon":-3.12923,"postcode":"NP7 0PW","la":"Monmouthshire","era":"trad","nn":2506,"risk":66,"cat":"red"},{"name":"Kings Arms","lat":51.82161,"lon":-3.02027,"postcode":"NP7 5AA","la":"Monmouthshire","era":"trad","nn":91,"risk":26,"cat":"green"},{"name":"Kings Head","lat":51.6411,"lon":-2.67735,"postcode":"NP16 5LL","la":"Monmouthshire","era":"trad","nn":70,"risk":26,"cat":"green"},{"name":"Lamb & Flag","lat":51.82964,"lon":-3.04167,"postcode":"NP7 7EW","la":"Monmouthshire","era":"other","nn":975,"risk":53,"cat":"amber"},{"name":"Lime Tree (LT16)","lat":51.64244,"lon":-2.67427,"postcode":"NP16 5EU","la":"Monmouthshire","era":"other","nn":0,"risk":26,"cat":"green"},{"name":"Lines Taproom & Noddfa","lat":51.70279,"lon":-2.90452,"postcode":"NP15 1BQ","la":"Monmouthshire","era":"mod","nn":19,"risk":26,"cat":"green"},{"name":"LT16 @ The Lime Tree","lat":51.64244,"lon":-2.67427,"postcode":"NP16 5EU","la":"Monmouthshire","era":"other","nn":0,"risk":26,"cat":"green"},{"name":"Measure Inn","lat":51.58947,"lon":-2.7545,"postcode":"NP26 4BR","la":"Monmouthshire","era":"trad","nn":388,"risk":28,"cat":"green"},{"name":"Monmouth Caravan Park","lat":51.8165,"lon":-2.72966,"postcode":"NP25 5BA","la":"Monmouthshire","era":"other","nn":936,"risk":52,"cat":"amber"},{"name":"Monmouthshire Golf Club","lat":51.80845,"lon":-3.02299,"postcode":"NP7 9HE","la":"Monmouthshire","era":"other","nn":712,"risk":51,"cat":"amber"},{"name":"Nags Head Inn","lat":51.70381,"lon":-2.90184,"postcode":"NP15 1BH","la":"Monmouthshire","era":"trad","nn":135,"risk":27,"cat":"green"},{"name":"Nosh Catering","lat":51.70104,"lon":-2.95594,"postcode":"NP4 0TE","la":"Monmouthshire","era":"other","nn":0,"risk":46,"cat":"amber"},{"name":"Old Nags Head","lat":51.8126,"lon":-2.70995,"postcode":"NP25 3DR","la":"Monmouthshire","era":"trad","nn":82,"risk":26,"cat":"green"},{"name":"Panevino","lat":51.645,"lon":-2.67215,"postcode":"NP16 5EZ","la":"Monmouthshire","era":"other","nn":150,"risk":27,"cat":"green"},{"name":"Piercefield Hotel","lat":51.66569,"lon":-2.69847,"postcode":"NP16 6EJ","la":"Monmouthshire","era":"other","nn":2931,"risk":69,"cat":"red"},{"name":"Pitchers Sports Bar & Grill","lat":51.64234,"lon":-2.67511,"postcode":"NP16 5EP","la":"Monmouthshire","era":"mod","nn":36,"risk":26,"cat":"green"},{"name":"Railway Inn","lat":51.8248,"lon":-3.02466,"postcode":"NP7 5UG","la":"Monmouthshire","era":"trad","nn":24,"risk":26,"cat":"green"},{"name":"Rockfield Barns","lat":51.82716,"lon":-2.77758,"postcode":"NP25 5SZ","la":"Monmouthshire","era":"other","nn":3500,"risk":73,"cat":"red"},{"name":"Rose & Crown","lat":51.69919,"lon":-2.68244,"postcode":"NP16 6SE","la":"Monmouthshire","era":"trad","nn":2863,"risk":68,"cat":"red"},{"name":"Royal British Legion Club","lat":51.81251,"lon":-2.71113,"postcode":"NP25 3DL","la":"Monmouthshire","era":"trad","nn":82,"risk":26,"cat":"green"},{"name":"Royal British Legion Club & Institute","lat":51.70046,"lon":-2.90326,"postcode":"NP15 1AL","la":"Monmouthshire","era":"trad","nn":190,"risk":27,"cat":"green"},{"name":"Royal Monmouthshire Royal Engineers (Militia)","lat":51.818,"lon":-2.71625,"postcode":"NP25 3AX","la":"Monmouthshire","era":"trad","nn":601,"risk":30,"cat":"green"},{"name":"Severn Tunnel Non Pol Club & Inst","lat":51.58648,"lon":-2.77542,"postcode":"NP26 3SU","la":"Monmouthshire","era":"other","nn":1001,"risk":55,"cat":"amber"},{"name":"Severn View Social Club & Inst","lat":51.58659,"lon":-2.75855,"postcode":"NP26 4BU","la":"Monmouthshire","era":"mod","nn":185,"risk":27,"cat":"green"},{"name":"Ship Inn","lat":51.76487,"lon":-2.85367,"postcode":"NP15 2DY","la":"Monmouthshire","era":"trad","nn":1565,"risk":59,"cat":"amber"},{"name":"Sudbrook Cricket Club","lat":51.58725,"lon":-2.74896,"postcode":"NP26 5DD","la":"Monmouthshire","era":"other","nn":455,"risk":29,"cat":"green"},{"name":"Sugar Loaf Barn","lat":51.8678,"lon":-3.02122,"postcode":"NP7 7LG","la":"Monmouthshire","era":"other","nn":3747,"risk":74,"cat":"red"},{"name":"The Balcony","lat":51.82332,"lon":-3.02017,"postcode":"NP7 5BA","la":"Monmouthshire","era":"other","nn":75,"risk":26,"cat":"green"},{"name":"The Beaufort","lat":51.82517,"lon":-3.09352,"postcode":"NP7 0AR","la":"Monmouthshire","era":"other","nn":45,"risk":46,"cat":"amber"},{"name":"The Bellhanger","lat":51.6426,"lon":-2.67367,"postcode":"NP16 5EW","la":"Monmouthshire","era":"other","nn":45,"risk":26,"cat":"green"},{"name":"The Boat Inn","lat":51.64514,"lon":-2.66998,"postcode":"NP16 5HH","la":"Monmouthshire","era":"trad","nn":150,"risk":27,"cat":"green"},{"name":"The Bridge Inn","lat":51.81416,"lon":-3.02766,"postcode":"NP7 9LH","la":"Monmouthshire","era":"trad","nn":712,"risk":36,"cat":"amber"},{"name":"The Bush Penallt","lat":51.77858,"lon":-2.69528,"postcode":"NP25 4SE","la":"Monmouthshire","era":"other","nn":2111,"risk":63,"cat":"red"},{"name":"The Carpenters Arms","lat":51.64591,"lon":-2.75271,"postcode":"NP16 6BU","la":"Monmouthshire","era":"trad","nn":0,"risk":46,"cat":"amber"},{"name":"The Castle Inn","lat":51.81153,"lon":-2.71689,"postcode":"NP25 3EF","la":"Monmouthshire","era":"trad","nn":103,"risk":26,"cat":"green"},{"name":"The Cellar","lat":51.58825,"lon":-2.75976,"postcode":"NP26 4AA","la":"Monmouthshire","era":"other","nn":0,"risk":26,"cat":"green"},{"name":"The Coach & Horses","lat":51.61077,"lon":-2.76586,"postcode":"NP26 5AX","la":"Monmouthshire","era":"trad","nn":1945,"risk":62,"cat":"red"},{"name":"The Coliseum","lat":51.8232,"lon":-3.0177,"postcode":"NP7 5PE","la":"Monmouthshire","era":"other","nn":62,"risk":26,"cat":"green"},{"name":"The Dag","lat":51.58825,"lon":-2.75976,"postcode":"NP26 4AA","la":"Monmouthshire","era":"other","nn":0,"risk":26,"cat":"green"},{"name":"The Fountain Inn","lat":51.70903,"lon":-2.72084,"postcode":"NP16 6QW","la":"Monmouthshire","era":"trad","nn":2863,"risk":68,"cat":"red"},{"name":"The Gate House","lat":51.80958,"lon":-2.71956,"postcode":"NP25 3EG","la":"Monmouthshire","era":"other","nn":157,"risk":27,"cat":"green"},{"name":"The Glascoed","lat":51.72142,"lon":-2.94022,"postcode":"NP15 1QE","la":"Monmouthshire","era":"other","nn":2511,"risk":66,"cat":"red"},{"name":"The Grange","lat":51.70217,"lon":-2.90325,"postcode":"NP15 1AB","la":"Monmouthshire","era":"other","nn":110,"risk":26,"cat":"green"},{"name":"The Greyhound Inn","lat":51.65699,"lon":-2.84847,"postcode":"NP15 1LF","la":"Monmouthshire","era":"trad","nn":4685,"risk":81,"cat":"red"},{"name":"The Greyhound Vaults","lat":51.82265,"lon":-3.01768,"postcode":"NP7 5SD","la":"Monmouthshire","era":"trad","nn":62,"risk":26,"cat":"green"},{"name":"The Griffin","lat":51.81276,"lon":-2.71403,"postcode":"NP25 3BY","la":"Monmouthshire","era":"trad","nn":139,"risk":27,"cat":"green"},{"name":"The Half Moon Hotel","lat":51.94504,"lon":-3.04004,"postcode":"NP7 7NN","la":"Monmouthshire","era":"other","nn":4043,"risk":77,"cat":"red"},{"name":"The Halfway","lat":51.83443,"lon":-2.85228,"postcode":"NP7 8TL","la":"Monmouthshire","era":"other","nn":3334,"risk":72,"cat":"red"},{"name":"The Hall Inn","lat":51.72767,"lon":-2.88137,"postcode":"NP15 1RB","la":"Monmouthshire","era":"trad","nn":1507,"risk":59,"cat":"amber"},{"name":"The Hogs Head","lat":51.83489,"lon":-2.9008,"postcode":"NP7 8TA","la":"Monmouthshire","era":"trad","nn":63,"risk":46,"cat":"amber"},{"name":"The Huntsman Hotel","lat":51.64591,"lon":-2.75271,"postcode":"NP16 6BU","la":"Monmouthshire","era":"other","nn":0,"risk":46,"cat":"amber"},{"name":"The Kings Head Hotel","lat":51.81215,"lon":-2.71578,"postcode":"NP25 3DY","la":"Monmouthshire","era":"trad","nn":103,"risk":26,"cat":"green"},{"name":"The Lion Inn","lat":51.74643,"lon":-2.72518,"postcode":"NP25 4PA","la":"Monmouthshire","era":"trad","nn":2840,"risk":68,"cat":"red"},{"name":"The Little Jockey","lat":51.71943,"lon":-2.98857,"postcode":"NP4 0HL","la":"Monmouthshire","era":"other","nn":1336,"risk":58,"cat":"amber"},{"name":"The Mad Platter","lat":51.70329,"lon":-2.90361,"postcode":"NP15 1BQ","la":"Monmouthshire","era":"other","nn":83,"risk":26,"cat":"green"},{"name":"The Queens Head Micro Pub","lat":51.6405,"lon":-2.67767,"postcode":"NP16 5DD","la":"Monmouthshire","era":"trad","nn":28,"risk":26,"cat":"green"},{"name":"The Red Hart","lat":51.8214,"lon":-2.92056,"postcode":"NP7 8SN","la":"Monmouthshire","era":"trad","nn":2023,"risk":62,"cat":"red"},{"name":"The Red Lantern","lat":51.64153,"lon":-2.67646,"postcode":"NP16 5EL","la":"Monmouthshire","era":"other","nn":78,"risk":26,"cat":"green"},{"name":"The Sloop Inn","lat":51.7358,"lon":-2.68234,"postcode":"NP25 4TW","la":"Monmouthshire","era":"trad","nn":2729,"risk":67,"cat":"red"},{"name":"The Somerset Arms","lat":51.78453,"lon":-2.77764,"postcode":"NP25 4BP","la":"Monmouthshire","era":"trad","nn":4190,"risk":78,"cat":"red"},{"name":"The Somerset Arms","lat":51.82284,"lon":-3.0251,"postcode":"NP7 5DT","la":"Monmouthshire","era":"trad","nn":221,"risk":27,"cat":"green"},{"name":"The Station Hotel","lat":51.82499,"lon":-3.02449,"postcode":"NP7 5UH","la":"Monmouthshire","era":"other","nn":24,"risk":26,"cat":"green"},{"name":"The Three Tuns","lat":51.64387,"lon":-2.67358,"postcode":"NP16 5EY","la":"Monmouthshire","era":"other","nn":142,"risk":27,"cat":"green"},{"name":"The Towpath Inn","lat":51.82494,"lon":-3.09406,"postcode":"NP7 0AU","la":"Monmouthshire","era":"trad","nn":45,"risk":46,"cat":"amber"},{"name":"The Two Brewers Ltd","lat":51.62694,"lon":-2.67134,"postcode":"NP16 5NS","la":"Monmouthshire","era":"other","nn":184,"risk":30,"cat":"green"},{"name":"The Victoria","lat":51.82335,"lon":-3.01464,"postcode":"NP7 5PR","la":"Monmouthshire","era":"trad","nn":211,"risk":27,"cat":"green"},{"name":"The White Lion","lat":51.64202,"lon":-2.67523,"postcode":"NP16 5EL","la":"Monmouthshire","era":"trad","nn":36,"risk":26,"cat":"green"},{"name":"The Whitebrook Restaurant","lat":51.75987,"lon":-2.69009,"postcode":"NP25 4TX","la":"Monmouthshire","era":"other","nn":2111,"risk":63,"cat":"red"},{"name":"Thornwell Football Club","lat":51.62241,"lon":-2.66801,"postcode":"NP16 5TQ","la":"Monmouthshire","era":"other","nn":457,"risk":34,"cat":"amber"},{"name":"Treadam Barn","lat":51.83546,"lon":-2.90078,"postcode":"NP7 8TA","la":"Monmouthshire","era":"other","nn":63,"risk":46,"cat":"amber"},{"name":"Undy Athletic Club","lat":51.57789,"lon":-2.81226,"postcode":"NP26 3EN","la":"Monmouthshire","era":"other","nn":1265,"risk":57,"cat":"amber"},{"name":"Usk Athletic Social Club","lat":51.69815,"lon":-2.90282,"postcode":"NP15 1AW","la":"Monmouthshire","era":"mod","nn":258,"risk":28,"cat":"green"},{"name":"V24 Bar & Shisa","lat":51.8244,"lon":-3.02041,"postcode":"NP7 5AH","la":"Monmouthshire","era":"mod","nn":22,"risk":26,"cat":"green"},{"name":"Wernddu Golf Club","lat":51.83247,"lon":-2.9873,"postcode":"NP7 8NG","la":"Monmouthshire","era":"other","nn":1321,"risk":57,"cat":"amber"},{"name":"Wheatsheaf Inn","lat":51.63084,"lon":-2.93593,"postcode":"NP18 1LT","la":"Monmouthshire","era":"trad","nn":2193,"risk":64,"cat":"red"},{"name":"Wheatsheaf Inn","lat":51.58089,"lon":-2.82992,"postcode":"NP26 3HN","la":"Monmouthshire","era":"trad","nn":1265,"risk":57,"cat":"amber"},{"name":"Woodlake Park Golf Club","lat":51.70104,"lon":-2.95594,"postcode":"NP4 0TE","la":"Monmouthshire","era":"other","nn":0,"risk":46,"cat":"amber"},{"name":"Woodlands Tavern","lat":51.62779,"lon":-2.79954,"postcode":"NP16 6LX","la":"Monmouthshire","era":"other","nn":2998,"risk":69,"cat":"red"},{"name":"Bailey's Pub","lat":51.58638,"lon":-2.99879,"postcode":"NP20 4DJ","la":"Newport","era":"other","nn":105,"risk":28,"cat":"green"},{"name":"Bettws Social Club","lat":51.60915,"lon":-3.02709,"postcode":"NP20 7DZ","la":"Newport","era":"mod","nn":402,"risk":50,"cat":"amber"},{"name":"Blaina Wharf","lat":51.57696,"lon":-2.97965,"postcode":"NP20 2FR","la":"Newport","era":"other","nn":483,"risk":30,"cat":"green"},{"name":"Carpenters Arms","lat":51.58964,"lon":-2.99671,"postcode":"NP20 1FQ","la":"Newport","era":"trad","nn":6,"risk":27,"cat":"green"},{"name":"Coco's","lat":51.58919,"lon":-2.99692,"postcode":"NP20 1FW","la":"Newport","era":"other","nn":28,"risk":27,"cat":"green"},{"name":"Columba Club","lat":51.58183,"lon":-2.97348,"postcode":"NP19 0GN","la":"Newport","era":"other","nn":574,"risk":31,"cat":"amber"},{"name":"Crindau Constitutional Club","lat":51.59846,"lon":-3.00054,"postcode":"NP20 5PJ","la":"Newport","era":"other","nn":221,"risk":34,"cat":"amber"},{"name":"Cross Keys Hotel","lat":51.58936,"lon":-2.99603,"postcode":"NP20 1FU","la":"Newport","era":"trad","nn":57,"risk":27,"cat":"green"},{"name":"Crown Inn","lat":51.5916,"lon":-2.97764,"postcode":"NP19 8FU","la":"Newport","era":"trad","nn":117,"risk":28,"cat":"green"},{"name":"Dean Street Social Club","lat":51.59357,"lon":-2.98262,"postcode":"NP19 7FB","la":"Newport","era":"mod","nn":201,"risk":28,"cat":"green"},{"name":"Docks Conservative Club","lat":51.57331,"lon":-2.99048,"postcode":"NP20 2HU","la":"Newport","era":"other","nn":294,"risk":29,"cat":"green"},{"name":"Duffryn Arms","lat":51.55982,"lon":-3.02432,"postcode":"NP10 8TE","la":"Newport","era":"trad","nn":833,"risk":53,"cat":"amber"},{"name":"Excelsior Club","lat":51.58607,"lon":-2.98061,"postcode":"NP19 0EB","la":"Newport","era":"other","nn":434,"risk":30,"cat":"green"},{"name":"Gaer Inn Newport","lat":51.57616,"lon":-3.01887,"postcode":"NP20 3GY","la":"Newport","era":"trad","nn":1030,"risk":57,"cat":"amber"},{"name":"Godfrey Morgan","lat":51.58975,"lon":-2.9785,"postcode":"NP19 8EG","la":"Newport","era":"other","nn":44,"risk":27,"cat":"green"},{"name":"Greyhound","lat":51.58911,"lon":-2.99747,"postcode":"NP20 1GA","la":"Newport","era":"trad","nn":27,"risk":27,"cat":"green"},{"name":"Greyhound Inn","lat":51.59882,"lon":-2.94527,"postcode":"NP18 1JJ","la":"Newport","era":"trad","nn":510,"risk":33,"cat":"amber"},{"name":"Hereford Arms","lat":51.59178,"lon":-2.98303,"postcode":"NP19 8DT","la":"Newport","era":"trad","nn":193,"risk":28,"cat":"green"},{"name":"Hogarths","lat":51.58871,"lon":-2.99735,"postcode":"NP20 1GF","la":"Newport","era":"other","nn":46,"risk":27,"cat":"green"},{"name":"Iscoed Tafarn","lat":51.59594,"lon":-2.88852,"postcode":"NP18 2HW","la":"Newport","era":"other","nn":3191,"risk":72,"cat":"red"},{"name":"John Wallace Linton","lat":51.58892,"lon":-2.99817,"postcode":"NP20 4AD","la":"Newport","era":"other","nn":26,"risk":27,"cat":"green"},{"name":"Lliswerry And Nash Constitutional Club","lat":51.5796,"lon":-2.95692,"postcode":"NP19 4NH","la":"Newport","era":"other","nn":1111,"risk":57,"cat":"amber"},{"name":"Maindee Conservative Club","lat":51.5909,"lon":-2.97891,"postcode":"NP19 8FG","la":"Newport","era":"other","nn":54,"risk":27,"cat":"green"},{"name":"Malpas Unionist Club","lat":51.6083,"lon":-3.00807,"postcode":"NP20 6WB","la":"Newport","era":"other","nn":436,"risk":48,"cat":"amber"},{"name":"Man Of Gwent- Flaming Grill","lat":51.59423,"lon":-2.94502,"postcode":"NP19 9EZ","la":"Newport","era":"other","nn":510,"risk":48,"cat":"amber"},{"name":"McCann's Rock Bar","lat":51.58963,"lon":-2.9968,"postcode":"NP20 1FQ","la":"Newport","era":"other","nn":6,"risk":27,"cat":"green"},{"name":"Mill Street Social Club","lat":51.59049,"lon":-2.99878,"postcode":"NP20 5HB","la":"Newport","era":"other","nn":157,"risk":28,"cat":"green"},{"name":"Minstrels","lat":51.61338,"lon":-2.95642,"postcode":"NP18 1NH","la":"Newport","era":"other","nn":42,"risk":30,"cat":"green"},{"name":"Mojo's","lat":51.589,"lon":-2.99783,"postcode":"NP20 4AB","la":"Newport","era":"other","nn":26,"risk":27,"cat":"green"},{"name":"Muffler @ Maesglas Sports And Social Club","lat":51.56798,"lon":-3.00807,"postcode":"NP20 3BT","la":"Newport","era":"mod","nn":726,"risk":52,"cat":"amber"},{"name":"Newport Corinthians Football Club","lat":51.56982,"lon":-2.98184,"postcode":"NP19 0RB","la":"Newport","era":"other","nn":712,"risk":35,"cat":"amber"},{"name":"Newport Golf Club","lat":51.59603,"lon":-3.06001,"postcode":"NP10 9FX","la":"Newport","era":"other","nn":509,"risk":51,"cat":"amber"},{"name":"Newport HSOB Rugby Club","lat":51.61537,"lon":-2.95561,"postcode":"NP18 1LL","la":"Newport","era":"other","nn":228,"risk":31,"cat":"amber"},{"name":"Newport Masonic Hall Ltd","lat":51.58209,"lon":-2.98847,"postcode":"NP20 2AG","la":"Newport","era":"trad","nn":395,"risk":30,"cat":"green"},{"name":"O'Connors @ The Scrum Half","lat":51.59014,"lon":-2.97989,"postcode":"NP19 8BZ","la":"Newport","era":"other","nn":9,"risk":27,"cat":"green"},{"name":"Oddfellows Arms","lat":51.59234,"lon":-2.98039,"postcode":"NP19 8FL","la":"Newport","era":"trad","nn":189,"risk":28,"cat":"green"},{"name":"Out Out Bar & Grill","lat":51.59011,"lon":-2.97877,"postcode":"NP19 8GE","la":"Newport","era":"mod","nn":40,"risk":27,"cat":"green"},{"name":"Pen And Wig","lat":51.58726,"lon":-2.99712,"postcode":"NP20 1JD","la":"Newport","era":"other","nn":66,"risk":27,"cat":"green"},{"name":"Pill Harriers Social Club","lat":51.57722,"lon":-2.99672,"postcode":"NP20 2LB","la":"Newport","era":"mod","nn":443,"risk":30,"cat":"green"},{"name":"Red Lion Hotel","lat":51.58541,"lon":-2.99661,"postcode":"NP20 1JH","la":"Newport","era":"trad","nn":186,"risk":28,"cat":"green"},{"name":"Ringland Labour Club","lat":51.59331,"lon":-2.93452,"postcode":"NP19 9PS","la":"Newport","era":"other","nn":732,"risk":50,"cat":"amber"},{"name":"Riverside Bar","lat":51.59094,"lon":-2.99284,"postcode":"NP19 7AB","la":"Newport","era":"other","nn":263,"risk":29,"cat":"green"},{"name":"Royal British Legion","lat":51.58203,"lon":-2.99418,"postcode":"NP20 2EB","la":"Newport","era":"trad","nn":395,"risk":30,"cat":"green"},{"name":"Royal Oak Public House","lat":51.57595,"lon":-2.99064,"postcode":"NP20 2LQ","la":"Newport","era":"trad","nn":294,"risk":29,"cat":"green"},{"name":"Ruperra Arms","lat":51.57641,"lon":-3.05366,"postcode":"NP10 8LJ","la":"Newport","era":"trad","nn":617,"risk":49,"cat":"amber"},{"name":"St Julians Conservative Club","lat":51.59708,"lon":-2.98335,"postcode":"NP19 7DU","la":"Newport","era":"other","nn":101,"risk":28,"cat":"green"},{"name":"St Julians H S O B","lat":51.59013,"lon":-2.98512,"postcode":"NP19 0BU","la":"Newport","era":"other","nn":234,"risk":29,"cat":"green"},{"name":"St Julians HSOB Rugby Club","lat":51.60367,"lon":-2.98506,"postcode":"NP19 7HF","la":"Newport","era":"other","nn":742,"risk":50,"cat":"amber"},{"name":"St Julians Inn","lat":51.60128,"lon":-2.95728,"postcode":"NP18 1QA","la":"Newport","era":"trad","nn":735,"risk":50,"cat":"amber"},{"name":"Stonehouse","lat":51.56628,"lon":-3.01822,"postcode":"NP10 8TG","la":"Newport","era":"other","nn":726,"risk":50,"cat":"amber"},{"name":"Stow Park Lawn Tennis Club","lat":51.58532,"lon":-3.01662,"postcode":"NP20 4JB","la":"Newport","era":"other","nn":157,"risk":33,"cat":"amber"},{"name":"The Cellar Door","lat":51.58701,"lon":-3.00325,"postcode":"NP20 4NZ","la":"Newport","era":"other","nn":297,"risk":29,"cat":"green"},{"name":"The Church House Inn","lat":51.57744,"lon":-2.9866,"postcode":"NP20 2DP","la":"Newport","era":"other","nn":325,"risk":29,"cat":"green"},{"name":"The Dodger","lat":51.59089,"lon":-2.98903,"postcode":"NP19 8EA","la":"Newport","era":"other","nn":263,"risk":29,"cat":"green"},{"name":"The Farmers Arms","lat":51.54313,"lon":-2.91637,"postcode":"NP18 2AU","la":"Newport","era":"trad","nn":3437,"risk":74,"cat":"red"},{"name":"The Goldcroft","lat":51.61305,"lon":-2.9567,"postcode":"NP18 1NG","la":"Newport","era":"other","nn":42,"risk":30,"cat":"green"},{"name":"The Lamb Pub","lat":51.58782,"lon":-2.99748,"postcode":"NP20 4AL","la":"Newport","era":"other","nn":66,"risk":27,"cat":"green"},{"name":"The Little Tap House","lat":51.58733,"lon":-2.9989,"postcode":"NP20 4BP","la":"Newport","era":"mod","nn":105,"risk":28,"cat":"green"},{"name":"The Llanwern Bull","lat":51.573,"lon":-2.92914,"postcode":"NP19 4TZ","la":"Newport","era":"trad","nn":2055,"risk":64,"cat":"red"},{"name":"The Lyceum","lat":51.60021,"lon":-3.00207,"postcode":"NP20 5PL","la":"Newport","era":"other","nn":221,"risk":46,"cat":"amber"},{"name":"The Maindee Hotel","lat":51.59019,"lon":-2.98001,"postcode":"NP19 8BZ","la":"Newport","era":"other","nn":9,"risk":27,"cat":"green"},{"name":"The Nightingale","lat":51.61259,"lon":-3.02889,"postcode":"NP20 7TN","la":"Newport","era":"other","nn":402,"risk":50,"cat":"amber"},{"name":"The Potters","lat":51.58777,"lon":-2.9949,"postcode":"NP20 1DL","la":"Newport","era":"other","nn":39,"risk":27,"cat":"green"},{"name":"The Red Lion","lat":51.61147,"lon":-2.95361,"postcode":"NP18 1AR","la":"Newport","era":"trad","nn":276,"risk":31,"cat":"amber"},{"name":"The Ridgeway","lat":51.58669,"lon":-3.01719,"postcode":"NP20 5AJ","la":"Newport","era":"other","nn":157,"risk":33,"cat":"amber"},{"name":"The Royal Albert Inn","lat":51.59043,"lon":-2.97903,"postcode":"NP19 8FF","la":"Newport","era":"trad","nn":40,"risk":27,"cat":"green"},{"name":"The Ship","lat":51.60688,"lon":-2.95162,"postcode":"NP18 1QF","la":"Newport","era":"trad","nn":528,"risk":31,"cat":"amber"},{"name":"The Tickled Trout","lat":51.58897,"lon":-2.99673,"postcode":"NP20 1FU","la":"Newport","era":"other","nn":28,"risk":27,"cat":"green"},{"name":"The Tredegar Arms","lat":51.59324,"lon":-3.05416,"postcode":"NP10 9AS","la":"Newport","era":"trad","nn":509,"risk":51,"cat":"amber"},{"name":"The Victoria Inn","lat":51.59716,"lon":-2.98189,"postcode":"NP19 7FX","la":"Newport","era":"trad","nn":101,"risk":28,"cat":"green"},{"name":"Three Horseshoes","lat":51.611,"lon":-3.00349,"postcode":"NP20 6WG","la":"Newport","era":"trad","nn":436,"risk":50,"cat":"amber"},{"name":"Tredegar Arms","lat":51.57765,"lon":-3.04496,"postcode":"NP10 8LE","la":"Newport","era":"trad","nn":260,"risk":46,"cat":"amber"},{"name":"Tredegar Constitutional Club","lat":51.58707,"lon":-3.00756,"postcode":"NP20 4LY","la":"Newport","era":"other","nn":297,"risk":29,"cat":"green"},{"name":"Vibez","lat":51.58864,"lon":-2.99802,"postcode":"NP20 4AD","la":"Newport","era":"other","nn":33,"risk":27,"cat":"green"},{"name":"Whiteheads Sports Club","lat":51.5771,"lon":-3.0413,"postcode":"NP10 8LA","la":"Newport","era":"trad","nn":260,"risk":46,"cat":"amber"},{"name":"Windsor Castle","lat":51.58805,"lon":-2.99524,"postcode":"NP20 1DH","la":"Newport","era":"other","nn":39,"risk":27,"cat":"green"},{"name":"Windsor Club","lat":51.58619,"lon":-2.96901,"postcode":"NP19 8NT","la":"Newport","era":"other","nn":574,"risk":31,"cat":"amber"},{"name":"Ye Olde Murenger House","lat":51.58936,"lon":-2.99743,"postcode":"NP20 1GA","la":"Newport","era":"other","nn":27,"risk":27,"cat":"green"},{"name":"Coach & Horses","lat":51.87018,"lon":-3.23294,"postcode":"NP8 1LS","la":"Powys","era":"trad","nn":2262,"risk":60,"cat":"amber"},{"name":"Crickhowell Bowling Club","lat":51.85736,"lon":-3.13402,"postcode":"NP8 1AG","la":"Powys","era":"other","nn":268,"risk":26,"cat":"green"},{"name":"Dragons Head","lat":51.8548,"lon":-3.10396,"postcode":"NP8 1HD","la":"Powys","era":"trad","nn":1612,"risk":56,"cat":"amber"},{"name":"Nantyffin Cider Mill","lat":51.87343,"lon":-3.16787,"postcode":"NP8 1SG","la":"Powys","era":"trad","nn":2588,"risk":63,"cat":"red"},{"name":"Swan Inn","lat":51.86176,"lon":-3.13527,"postcode":"NP8 1BT","la":"Powys","era":"trad","nn":358,"risk":30,"cat":"green"},{"name":"The Artisans Table","lat":51.88777,"lon":-3.20856,"postcode":"NP8 1SB","la":"Powys","era":"other","nn":1953,"risk":58,"cat":"amber"},{"name":"The Bluebell Country Inn","lat":51.84034,"lon":-3.10558,"postcode":"NP8 1EH","la":"Powys","era":"trad","nn":1612,"risk":56,"cat":"amber"},{"name":"The Britannia Inn","lat":51.85886,"lon":-3.13765,"postcode":"NP8 1BD","la":"Powys","era":"trad","nn":32,"risk":25,"cat":"green"},{"name":"The Farmers Arms","lat":51.90488,"lon":-3.19148,"postcode":"NP8 1RU","la":"Powys","era":"trad","nn":2235,"risk":60,"cat":"amber"},{"name":"The Horseshoe Inn","lat":51.85307,"lon":-3.14614,"postcode":"NP8 1PA","la":"Powys","era":"trad","nn":868,"risk":33,"cat":"amber"},{"name":"Treebeards Bar","lat":51.85877,"lon":-3.1372,"postcode":"NP8 1BH","la":"Powys","era":"other","nn":32,"risk":25,"cat":"green"},{"name":"Ashbridge Inn","lat":51.67081,"lon":-3.01752,"postcode":"NP44 1DE","la":"Torfaen","era":"trad","nn":265,"risk":33,"cat":"amber"},{"name":"Ashley at The Unicorn Ltd","lat":51.69904,"lon":-3.0414,"postcode":"NP4 6LE","la":"Torfaen","era":"other","nn":193,"risk":28,"cat":"green"},{"name":"Bell Inn","lat":51.70051,"lon":-3.04288,"postcode":"NP4 6EY","la":"Torfaen","era":"trad","nn":193,"risk":28,"cat":"green"},{"name":"Blaenavon Blues AFC","lat":51.77677,"lon":-3.08792,"postcode":"NP4 9RQ","la":"Torfaen","era":"other","nn":314,"risk":29,"cat":"green"},{"name":"Blaenavon Bowls Club","lat":51.7728,"lon":-3.07653,"postcode":"NP4 9NU","la":"Torfaen","era":"other","nn":184,"risk":28,"cat":"green"},{"name":"Blaenavon Constitutional Club","lat":51.77255,"lon":-3.0844,"postcode":"NP4 9EJ","la":"Torfaen","era":"other","nn":53,"risk":27,"cat":"green"},{"name":"Blaenavon RFC","lat":51.77648,"lon":-3.08138,"postcode":"NP4 9NU","la":"Torfaen","era":"other","nn":314,"risk":29,"cat":"green"},{"name":"Blaenavon Social Club","lat":51.77449,"lon":-3.08522,"postcode":"NP4 9PZ","la":"Torfaen","era":"mod","nn":97,"risk":27,"cat":"green"},{"name":"Blaenavon Workmen's Hall Limited","lat":51.77327,"lon":-3.08558,"postcode":"NP4 9PT","la":"Torfaen","era":"other","nn":108,"risk":27,"cat":"green"},{"name":"Blinkin Owl","lat":51.63834,"lon":-3.04326,"postcode":"NP44 4TP","la":"Torfaen","era":"other","nn":1219,"risk":58,"cat":"amber"},{"name":"British Legion (Pontnewydd) Cb","lat":51.66021,"lon":-3.01913,"postcode":"NP44 1NY","la":"Torfaen","era":"other","nn":0,"risk":27,"cat":"green"},{"name":"Cambrian Inn","lat":51.77318,"lon":-3.07913,"postcode":"NP4 9HR","la":"Torfaen","era":"trad","nn":184,"risk":28,"cat":"green"},{"name":"Castle Hotel","lat":51.77234,"lon":-3.08509,"postcode":"NP4 9ND","la":"Torfaen","era":"other","nn":0,"risk":27,"cat":"green"},{"name":"Comrades of the Great War Club","lat":51.7022,"lon":-3.04113,"postcode":"NP4 6JN","la":"Torfaen","era":"other","nn":224,"risk":28,"cat":"green"},{"name":"Croesyceiliog Cricket & Rugby Club","lat":51.66178,"lon":-3.0045,"postcode":"NP44 2HJ","la":"Torfaen","era":"other","nn":43,"risk":27,"cat":"green"},{"name":"Crown Hotel","lat":51.74867,"lon":-3.0655,"postcode":"NP4 8UG","la":"Torfaen","era":"trad","nn":925,"risk":53,"cat":"amber"},{"name":"Crows Nest","lat":51.64542,"lon":-3.00641,"postcode":"NP44 8HU","la":"Torfaen","era":"other","nn":212,"risk":46,"cat":"amber"},{"name":"Cwmbran Celtic Sports Club","lat":51.64719,"lon":-3.02555,"postcode":"NP44 3LT","la":"Torfaen","era":"other","nn":126,"risk":27,"cat":"green"},{"name":"Cwmbran Rugby Football Club","lat":51.66021,"lon":-3.01913,"postcode":"NP44 1NY","la":"Torfaen","era":"other","nn":0,"risk":27,"cat":"green"},{"name":"Cwmbran Workingmens Band Club & Institute","lat":51.64594,"lon":-3.02155,"postcode":"NP44 3JU","la":"Torfaen","era":"trad","nn":139,"risk":27,"cat":"green"},{"name":"Cwmffrwdoer Sports Club","lat":51.70967,"lon":-3.06515,"postcode":"NP4 6PQ","la":"Torfaen","era":"other","nn":324,"risk":29,"cat":"green"},{"name":"Cwrt Henllys Hotel","lat":51.63766,"lon":-3.06281,"postcode":"NP44 6HX","la":"Torfaen","era":"other","nn":0,"risk":47,"cat":"amber"},{"name":"Dorallt Inn","lat":51.63766,"lon":-3.06281,"postcode":"NP44 6HX","la":"Torfaen","era":"trad","nn":0,"risk":47,"cat":"amber"},{"name":"Elgam & District Workingmen's Club","lat":51.77903,"lon":-3.08434,"postcode":"NP4 9QS","la":"Torfaen","era":"trad","nn":0,"risk":27,"cat":"green"},{"name":"Forgehammer Community Social Club CIC","lat":51.65491,"lon":-3.02897,"postcode":"NP44 3DQ","la":"Torfaen","era":"other","nn":463,"risk":30,"cat":"green"},{"name":"Forgeside Rugby Sports and Social Club","lat":51.77234,"lon":-3.08509,"postcode":"NP4 9ND","la":"Torfaen","era":"other","nn":0,"risk":27,"cat":"green"},{"name":"Garn Workmans","lat":51.73741,"lon":-3.06976,"postcode":"NP4 7QJ","la":"Torfaen","era":"other","nn":444,"risk":32,"cat":"amber"},{"name":"Garndiffaith Rugby Club","lat":51.74035,"lon":-3.06541,"postcode":"NP4 7SF","la":"Torfaen","era":"other","nn":444,"risk":35,"cat":"amber"},{"name":"Goode's Fitness","lat":51.65707,"lon":-3.01389,"postcode":"NP44 2JJ","la":"Torfaen","era":"other","nn":0,"risk":27,"cat":"green"},{"name":"Llanyravon Social Centre","lat":51.64701,"lon":-3.00811,"postcode":"NP44 8HP","la":"Torfaen","era":"mod","nn":212,"risk":33,"cat":"amber"},{"name":"Mount Pleasant Inn","lat":51.64674,"lon":-3.02724,"postcode":"NP44 3LX","la":"Torfaen","era":"trad","nn":127,"risk":27,"cat":"green"},{"name":"New Inn Public House","lat":51.72456,"lon":-3.06291,"postcode":"NP4 7AE","la":"Torfaen","era":"trad","nn":314,"risk":34,"cat":"amber"},{"name":"New Panteg RFC","lat":51.68986,"lon":-3.01154,"postcode":"NP4 0PZ","la":"Torfaen","era":"other","nn":149,"risk":30,"cat":"green"},{"name":"Oakfield Hotel","lat":51.63777,"lon":-3.01533,"postcode":"NP44 3DY","la":"Torfaen","era":"trad","nn":839,"risk":50,"cat":"amber"},{"name":"Oddfellows Arms","lat":51.66104,"lon":-3.02503,"postcode":"NP44 1DZ","la":"Torfaen","era":"trad","nn":114,"risk":27,"cat":"green"},{"name":"Old Bridgend Inn","lat":51.66112,"lon":-3.02668,"postcode":"NP44 1AE","la":"Torfaen","era":"trad","nn":114,"risk":27,"cat":"green"},{"name":"P.I.L.C.S","lat":51.68929,"lon":-3.01861,"postcode":"NP4 0TL","la":"Torfaen","era":"other","nn":492,"risk":30,"cat":"green"},{"name":"Panteg House","lat":51.68325,"lon":-3.02799,"postcode":"NP4 5BE","la":"Torfaen","era":"other","nn":292,"risk":29,"cat":"green"},{"name":"Panteg Park Bowls Club","lat":51.68204,"lon":-3.03176,"postcode":"NP4 5AG","la":"Torfaen","era":"other","nn":292,"risk":31,"cat":"amber"},{"name":"Ponthir Sports and Community Club","lat":51.63181,"lon":-2.97825,"postcode":"NP18 1GA","la":"Torfaen","era":"other","nn":87,"risk":47,"cat":"amber"},{"name":"Pontnewydd Bowls Club","lat":51.66122,"lon":-3.02858,"postcode":"NP44 1AN","la":"Torfaen","era":"other","nn":131,"risk":27,"cat":"green"},{"name":"Pontnewydd Constitutional Club","lat":51.6634,"lon":-3.02598,"postcode":"NP44 1RE","la":"Torfaen","era":"other","nn":258,"risk":28,"cat":"green"},{"name":"Pontnewydd Golf Club","lat":51.66916,"lon":-3.03803,"postcode":"NP44 1AB","la":"Torfaen","era":"other","nn":746,"risk":49,"cat":"amber"},{"name":"Pontnewydd Workingmens Club","lat":51.6587,"lon":-3.02617,"postcode":"NP44 1DL","la":"Torfaen","era":"trad","nn":272,"risk":28,"cat":"green"},{"name":"Pontnewynydd Community Centre","lat":51.71114,"lon":-3.06109,"postcode":"NP4 6QS","la":"Torfaen","era":"other","nn":241,"risk":28,"cat":"green"},{"name":"Pontnewynydd Cricket Club","lat":51.71293,"lon":-3.06307,"postcode":"NP4 6RP","la":"Torfaen","era":"other","nn":241,"risk":28,"cat":"green"},{"name":"Pontnewynydd Sports and Social Club","lat":51.71093,"lon":-3.05148,"postcode":"NP4 6NG","la":"Torfaen","era":"mod","nn":71,"risk":27,"cat":"green"},{"name":"Pontypool Conservative & Unionist Club","lat":51.70421,"lon":-3.04242,"postcode":"NP4 6LT","la":"Torfaen","era":"other","nn":0,"risk":27,"cat":"green"},{"name":"Pontypool Masonic Hall","lat":51.70129,"lon":-3.03505,"postcode":"NP4 8AT","la":"Torfaen","era":"trad","nn":431,"risk":30,"cat":"green"},{"name":"Pontypool United RFC","lat":51.70476,"lon":-3.04683,"postcode":"NP4 6HL","la":"Torfaen","era":"other","nn":168,"risk":28,"cat":"green"},{"name":"Pontypool Workingmens Club","lat":51.70381,"lon":-3.04494,"postcode":"NP4 6HN","la":"Torfaen","era":"trad","nn":133,"risk":27,"cat":"green"},{"name":"Redz Snooker Club","lat":51.64496,"lon":-3.02031,"postcode":"NP44 3JU","la":"Torfaen","era":"other","nn":139,"risk":27,"cat":"green"},{"name":"Riflemans Arms","lat":51.77903,"lon":-3.08434,"postcode":"NP4 9QS","la":"Torfaen","era":"trad","nn":0,"risk":27,"cat":"green"},{"name":"Royal Oak","lat":51.71131,"lon":-3.05231,"postcode":"NP4 8PA","la":"Torfaen","era":"trad","nn":35,"risk":27,"cat":"green"},{"name":"Sebastopol Social Club","lat":51.67894,"lon":-3.02312,"postcode":"NP4 5DU","la":"Torfaen","era":"mod","nn":304,"risk":29,"cat":"green"},{"name":"Skippy's","lat":51.68718,"lon":-3.02628,"postcode":"NP4 5HG","la":"Torfaen","era":"other","nn":452,"risk":30,"cat":"green"},{"name":"St Josephs Social Club","lat":51.64903,"lon":-3.03932,"postcode":"NP44 4SY","la":"Torfaen","era":"mod","nn":871,"risk":38,"cat":"amber"},{"name":"Talywain Rugby Football Club","lat":51.7344,"lon":-3.07454,"postcode":"NP4 7RF","la":"Torfaen","era":"other","nn":309,"risk":34,"cat":"amber"},{"name":"The Bush Inn","lat":51.66527,"lon":-3.04975,"postcode":"NP44 5AN","la":"Torfaen","era":"trad","nn":179,"risk":45,"cat":"amber"},{"name":"The Cellar","lat":51.77414,"lon":-3.08392,"postcode":"NP4 9NF","la":"Torfaen","era":"other","nn":97,"risk":27,"cat":"green"},{"name":"The Globe Inn","lat":51.73198,"lon":-3.07232,"postcode":"NP4 7JH","la":"Torfaen","era":"trad","nn":309,"risk":34,"cat":"amber"},{"name":"The Greenhouse","lat":51.6336,"lon":-3.00238,"postcode":"NP44 3BP","la":"Torfaen","era":"other","nn":954,"risk":53,"cat":"amber"},{"name":"The Greenlawn Social Club","lat":51.69106,"lon":-3.01058,"postcode":"NP4 0PH","la":"Torfaen","era":"mod","nn":149,"risk":30,"cat":"green"},{"name":"The Halfway Hotel","lat":51.64801,"lon":-3.02429,"postcode":"NP44 3LR","la":"Torfaen","era":"other","nn":126,"risk":27,"cat":"green"},{"name":"The Horse and Jockey","lat":51.70556,"lon":-3.00862,"postcode":"NP4 0JB","la":"Torfaen","era":"trad","nn":740,"risk":49,"cat":"amber"},{"name":"The Iron Duke","lat":51.70421,"lon":-3.04242,"postcode":"NP4 6LT","la":"Torfaen","era":"trad","nn":0,"risk":27,"cat":"green"},{"name":"The John Fielding","lat":51.65498,"lon":-3.02118,"postcode":"NP44 1PP","la":"Torfaen","era":"other","nn":537,"risk":30,"cat":"green"},{"name":"The Lower New Inn","lat":51.68342,"lon":-3.0066,"postcode":"NP4 0NU","la":"Torfaen","era":"trad","nn":609,"risk":36,"cat":"amber"},{"name":"The Olive Tree","lat":51.65707,"lon":-3.01388,"postcode":"NP44 2JJ","la":"Torfaen","era":"other","nn":0,"risk":27,"cat":"green"},{"name":"The Open Hearth","lat":51.68167,"lon":-3.02332,"postcode":"NP4 5DR","la":"Torfaen","era":"other","nn":304,"risk":29,"cat":"green"},{"name":"The Pegasus","lat":51.7111,"lon":-3.05269,"postcode":"NP4 6NL","la":"Torfaen","era":"other","nn":35,"risk":27,"cat":"green"},{"name":"The Queen Inn","lat":51.66638,"lon":-3.04787,"postcode":"NP44 5AX","la":"Torfaen","era":"trad","nn":179,"risk":45,"cat":"amber"},{"name":"The Rising Sun","lat":51.73213,"lon":-3.05902,"postcode":"NP4 8PP","la":"Torfaen","era":"other","nn":471,"risk":30,"cat":"green"},{"name":"The Six in Hand","lat":51.66357,"lon":-3.01007,"postcode":"NP44 2NR","la":"Torfaen","era":"other","nn":432,"risk":30,"cat":"green"},{"name":"The Star Inn & Reggies Fish & Chip Shop","lat":51.63172,"lon":-2.977,"postcode":"NP18 1GZ","la":"Torfaen","era":"trad","nn":87,"risk":47,"cat":"amber"},{"name":"The Teazer","lat":51.68879,"lon":-3.00833,"postcode":"NP4 0PL","la":"Torfaen","era":"other","nn":251,"risk":31,"cat":"amber"},{"name":"The Terrace Inn","lat":51.66911,"lon":-3.0202,"postcode":"NP44 1SB","la":"Torfaen","era":"trad","nn":265,"risk":28,"cat":"green"},{"name":"The Unicorn Inn","lat":51.69328,"lon":-3.03715,"postcode":"NP4 5SQ","la":"Torfaen","era":"trad","nn":704,"risk":36,"cat":"amber"},{"name":"The View Restaurant","lat":51.72582,"lon":-3.04179,"postcode":"NP4 8TR","la":"Torfaen","era":"other","nn":1144,"risk":57,"cat":"amber"},{"name":"The Whistle Inn & Park","lat":51.7811,"lon":-3.12034,"postcode":"NP4 9SJ","la":"Torfaen","era":"trad","nn":2282,"risk":65,"cat":"red"},{"name":"Three Blackbirds","lat":51.62651,"lon":-3.01015,"postcode":"NP44 3AY","la":"Torfaen","era":"other","nn":954,"risk":53,"cat":"amber"},{"name":"Twyn-y-Ffrwd Inn","lat":51.72794,"lon":-3.05804,"postcode":"NP4 8PJ","la":"Torfaen","era":"trad","nn":471,"risk":35,"cat":"amber"},{"name":"Upper Cock Inn","lat":51.6619,"lon":-3.00392,"postcode":"NP44 2HE","la":"Torfaen","era":"trad","nn":43,"risk":27,"cat":"green"},{"name":"Wain Y Clare","lat":51.71093,"lon":-3.00228,"postcode":"NP4 0JA","la":"Torfaen","era":"other","nn":740,"risk":49,"cat":"amber"},{"name":"Waterloo","lat":51.6418,"lon":-3.02561,"postcode":"NP44 7HD","la":"Torfaen","era":"other","nn":507,"risk":30,"cat":"green"},{"name":"White Hart","lat":51.70421,"lon":-3.04313,"postcode":"NP4 6BY","la":"Torfaen","era":"trad","nn":49,"risk":27,"cat":"green"},{"name":"White Hart Inn and The Cavern Basement","lat":51.72341,"lon":-3.05874,"postcode":"NP4 7BQ","la":"Torfaen","era":"trad","nn":314,"risk":34,"cat":"amber"},{"name":"Woodland Road Sports & Social Club","lat":51.65784,"lon":-3.01071,"postcode":"NP44 2DZ","la":"Torfaen","era":"mod","nn":235,"risk":28,"cat":"green"}]