[{"name":"Arcadia Lounge Bar","lat":51.45745,"lon":0.13783,"postcode":"DA6 8DB","la":"Bexley","era":"mod","nn":59,"risk":25,"cat":"green"},{"name":"Barnehurst Golf Club","lat":51.46035,"lon":0.1692,"postcode":"DA7 6JU","la":"Bexley","era":"other","nn":294,"risk":27,"cat":"green"},{"name":"Bear & Ragged Staff","lat":51.45181,"lon":0.17709,"postcode":"DA1 4BH","la":"Bexley","era":"other","nn":59,"risk":25,"cat":"green"},{"name":"Bellegrove Social Club","lat":51.46357,"lon":0.10168,"postcode":"DA16 3QD","la":"Bexley","era":"mod","nn":179,"risk":26,"cat":"green"},{"name":"Belvedere North Conservative Club","lat":51.49078,"lon":0.14724,"postcode":"DA17 5AA","la":"Bexley","era":"other","nn":87,"risk":26,"cat":"green"},{"name":"Belvedere Social Club","lat":51.48254,"lon":0.14655,"postcode":"DA17 5JQ","la":"Bexley","era":"mod","nn":90,"risk":26,"cat":"green"},{"name":"Belvedere Working Men's Club","lat":51.49146,"lon":0.14662,"postcode":"DA17 5DA","la":"Bexley","era":"trad","nn":87,"risk":26,"cat":"green"},{"name":"Bexley & Sidcup Conservative Club","lat":51.42796,"lon":0.10101,"postcode":"DA15 7EB","la":"Bexley","era":"other","nn":157,"risk":26,"cat":"green"},{"name":"Bexley Lawn Tennis & Squash Club","lat":51.44489,"lon":0.14827,"postcode":"DA5 1AX","la":"Bexley","era":"other","nn":125,"risk":26,"cat":"green"},{"name":"Bexleyheath Golf Club","lat":51.45215,"lon":0.12935,"postcode":"DA6 8JS","la":"Bexley","era":"other","nn":0,"risk":25,"cat":"green"},{"name":"Bexleyheath Working Mens Club","lat":51.45524,"lon":0.142,"postcode":"DA6 7HG","la":"Bexley","era":"trad","nn":179,"risk":26,"cat":"green"},{"name":"Black Horse Public House","lat":51.44536,"lon":0.1499,"postcode":"DA5 1NT","la":"Bexley","era":"trad","nn":125,"risk":26,"cat":"green"},{"name":"Boyles'","lat":51.432,"lon":0.10228,"postcode":"DA15 7DN","la":"Bexley","era":"other","nn":107,"risk":26,"cat":"green"},{"name":"Burnt Ash (Bexley) Hockey Club","lat":51.43874,"lon":0.14409,"postcode":"DA5 3QG","la":"Bexley","era":"other","nn":185,"risk":26,"cat":"green"},{"name":"Cambridge Harriers","lat":51.43947,"lon":0.1417,"postcode":"DA5 3QW","la":"Bexley","era":"other","nn":185,"risk":26,"cat":"green"},{"name":"Coffee &","lat":51.47698,"lon":0.17443,"postcode":"DA8 3AT","la":"Bexley","era":"other","nn":287,"risk":45,"cat":"amber"},{"name":"Copper House Blackfen","lat":51.45068,"lon":0.1039,"postcode":"DA15 9NB","la":"Bexley","era":"mod","nn":20,"risk":25,"cat":"green"},{"name":"Corner Pin Food","lat":51.47208,"lon":0.18656,"postcode":"DA8 2HX","la":"Bexley","era":"other","nn":0,"risk":28,"cat":"green"},{"name":"Corner Pin PH","lat":51.47208,"lon":0.18656,"postcode":"DA8 2HX","la":"Bexley","era":"other","nn":0,"risk":28,"cat":"green"},{"name":"Crayford Arms","lat":51.45232,"lon":0.17736,"postcode":"DA1 4HH","la":"Bexley","era":"trad","nn":59,"risk":25,"cat":"green"},{"name":"Crayford Arrows Sports Club","lat":51.45576,"lon":0.17711,"postcode":"DA1 4RJ","la":"Bexley","era":"other","nn":263,"risk":27,"cat":"green"},{"name":"Crayford Social Club","lat":51.45204,"lon":0.17949,"postcode":"DA1 4JA","la":"Bexley","era":"mod","nn":79,"risk":26,"cat":"green"},{"name":"Danson Sports FC","lat":51.4625,"lon":0.18067,"postcode":"DA1 4RB","la":"Bexley","era":"other","nn":789,"risk":33,"cat":"amber"},{"name":"Danson Stables","lat":51.45578,"lon":0.12257,"postcode":"DA6 8HL","la":"Bexley","era":"other","nn":456,"risk":28,"cat":"green"},{"name":"Dartfordians Community Sports Club","lat":51.44341,"lon":0.15159,"postcode":"DA5 1LW","la":"Bexley","era":"other","nn":211,"risk":27,"cat":"green"},{"name":"David Lloyd Leisure","lat":51.42062,"lon":0.11711,"postcode":"DA14 5ED","la":"Bexley","era":"other","nn":250,"risk":27,"cat":"green"},{"name":"Erith Rugby Football Club","lat":51.47455,"lon":0.15449,"postcode":"DA8 1JB","la":"Bexley","era":"other","nn":175,"risk":26,"cat":"green"},{"name":"Erith Veterans Club","lat":51.47859,"lon":0.17766,"postcode":"DA8 3DE","la":"Bexley","era":"other","nn":287,"risk":30,"cat":"green"},{"name":"Erith Yacht Club","lat":51.47689,"lon":0.1942,"postcode":"DA8 2AD","la":"Bexley","era":"other","nn":752,"risk":48,"cat":"amber"},{"name":"Falconwood Private Members' Club","lat":51.46396,"lon":0.09159,"postcode":"DA16 2SG","la":"Bexley","era":"other","nn":313,"risk":27,"cat":"green"},{"name":"Flower Of Kent Social Club","lat":51.4161,"lon":0.12301,"postcode":"DA14 5HS","la":"Bexley","era":"mod","nn":409,"risk":30,"cat":"green"},{"name":"Foots Cray Social Club","lat":51.41753,"lon":0.11642,"postcode":"DA14 5BY","la":"Bexley","era":"mod","nn":196,"risk":26,"cat":"green"},{"name":"George Staples Also T/A 88th, VM, SC, LL, ER, BB","lat":51.45121,"lon":0.10055,"postcode":"DA15 8PR","la":"Bexley","era":"trad","nn":191,"risk":26,"cat":"green"},{"name":"Goals Bexleyheath At Bexleyheath School","lat":51.46012,"lon":0.14304,"postcode":"DA6 7DA","la":"Bexley","era":"other","nn":342,"risk":27,"cat":"green"},{"name":"Halfway Public House","lat":51.49052,"lon":0.16152,"postcode":"DA17 6DQ","la":"Bexley","era":"other","nn":794,"risk":33,"cat":"amber"},{"name":"Hill Top Tap Also TA ChikBox, KTown Chicken, Locked & Loaded","lat":51.42628,"lon":0.10014,"postcode":"DA14 6NF","la":"Bexley","era":"mod","nn":40,"risk":25,"cat":"green"},{"name":"Horse & Groom Harvester","lat":51.42721,"lon":0.09384,"postcode":"DA14 6NZ","la":"Bexley","era":"trad","nn":122,"risk":26,"cat":"green"},{"name":"IVI Club","lat":51.45685,"lon":0.14209,"postcode":"DA6 7EZ","la":"Bexley","era":"other","nn":68,"risk":26,"cat":"green"},{"name":"Jolly Fenman (Sidcup)","lat":51.45152,"lon":0.09214,"postcode":"DA15 8SW","la":"Bexley","era":"other","nn":584,"risk":29,"cat":"green"},{"name":"Jolly Millers","lat":51.45843,"lon":0.15216,"postcode":"DA7 4JR","la":"Bexley","era":"trad","nn":330,"risk":27,"cat":"green"},{"name":"Martin Dene Lawn Tennis Club","lat":51.45212,"lon":0.13894,"postcode":"DA6 8NA","la":"Bexley","era":"other","nn":344,"risk":27,"cat":"green"},{"name":"Miller And Carter","lat":51.448,"lon":0.1604,"postcode":"DA5 1PQ","la":"Bexley","era":"trad","nn":785,"risk":31,"cat":"amber"},{"name":"Montrose Park Club","lat":51.43742,"lon":0.11549,"postcode":"DA15 9AJ","la":"Bexley","era":"trad","nn":857,"risk":34,"cat":"amber"},{"name":"Nags Head","lat":51.46207,"lon":0.11284,"postcode":"DA16 1TR","la":"Bexley","era":"trad","nn":15,"risk":25,"cat":"green"},{"name":"New Cross Turnpike","lat":51.46283,"lon":0.10435,"postcode":"DA16 3PB","la":"Bexley","era":"trad","nn":46,"risk":25,"cat":"green"},{"name":"Ninety Seven Wine & Cocktail Bar","lat":51.42664,"lon":0.10018,"postcode":"DA14 6ND","la":"Bexley","era":"other","nn":40,"risk":25,"cat":"green"},{"name":"North Heath Social Club","lat":51.47346,"lon":0.16094,"postcode":"DA8 1HN","la":"Bexley","era":"mod","nn":117,"risk":26,"cat":"green"},{"name":"Old Bexley Ex Servicemans Club","lat":51.44155,"lon":0.14798,"postcode":"DA5 1AB","la":"Bexley","era":"other","nn":83,"risk":26,"cat":"green"},{"name":"One Bell","lat":51.45383,"lon":0.17458,"postcode":"DA1 4DY","la":"Bexley","era":"other","nn":118,"risk":26,"cat":"green"},{"name":"Phoenix Sports Club","lat":51.45795,"lon":0.17101,"postcode":"DA7 6JT","la":"Bexley","era":"other","nn":294,"risk":27,"cat":"green"},{"name":"Prince Of Wales Public House","lat":51.48362,"lon":0.14221,"postcode":"DA17 5EE","la":"Bexley","era":"trad","nn":110,"risk":26,"cat":"green"},{"name":"Priory Conservative Club","lat":51.48648,"lon":0.14894,"postcode":"DA17 5QL","la":"Bexley","era":"other","nn":468,"risk":28,"cat":"green"},{"name":"Pure","lat":51.45498,"lon":0.14609,"postcode":"DA6 7LS","la":"Bexley","era":"other","nn":243,"risk":27,"cat":"green"},{"name":"Robin Hood & Little John","lat":51.45457,"lon":0.13593,"postcode":"DA6 8PF","la":"Bexley","era":"other","nn":344,"risk":27,"cat":"green"},{"name":"Rosary Parish Club","lat":51.44857,"lon":0.10029,"postcode":"DA15 8LW","la":"Bexley","era":"other","nn":294,"risk":27,"cat":"green"},{"name":"Rose Public House","lat":51.45694,"lon":0.14083,"postcode":"DA6 7ES","la":"Bexley","era":"trad","nn":88,"risk":26,"cat":"green"},{"name":"Royal Standard","lat":51.48192,"lon":0.1457,"postcode":"DA17 5JN","la":"Bexley","era":"trad","nn":90,"risk":26,"cat":"green"},{"name":"Sidcup & District Conservative Club","lat":51.42055,"lon":0.11075,"postcode":"DA14 6LW","la":"Bexley","era":"other","nn":441,"risk":28,"cat":"green"},{"name":"Sidcup And Footscray United Services Club","lat":51.42617,"lon":0.09849,"postcode":"DA14 6NG","la":"Bexley","era":"other","nn":115,"risk":26,"cat":"green"},{"name":"Sidcup Recreation Club","lat":51.42357,"lon":0.10593,"postcode":"DA14 6BU","la":"Bexley","era":"other","nn":117,"risk":26,"cat":"green"},{"name":"Sidcup Sports Club Catering","lat":51.42565,"lon":0.09164,"postcode":"DA14 6RA","la":"Bexley","era":"other","nn":231,"risk":27,"cat":"green"},{"name":"Sidcup Working Men's Social Club And Institute","lat":51.4281,"lon":0.09281,"postcode":"DA14 6PD","la":"Bexley","era":"other","nn":122,"risk":26,"cat":"green"},{"name":"Silver Fox Micro Pub","lat":51.44217,"lon":0.12564,"postcode":"DA5 3AP","la":"Bexley","era":"trad","nn":665,"risk":32,"cat":"amber"},{"name":"Slade Green Railway Club","lat":51.46785,"lon":0.19034,"postcode":"DA8 2NX","la":"Bexley","era":"trad","nn":538,"risk":34,"cat":"amber"},{"name":"Tanyard Lane Bar & Kitchen","lat":51.44179,"lon":0.14998,"postcode":"DA5 1AA","la":"Bexley","era":"mod","nn":3,"risk":25,"cat":"green"},{"name":"Tap Sidcup","lat":51.45072,"lon":0.10362,"postcode":"DA15 9NB","la":"Bexley","era":"other","nn":20,"risk":25,"cat":"green"},{"name":"The Albany Hotel","lat":51.4363,"lon":0.12772,"postcode":"DA5 3HN","la":"Bexley","era":"other","nn":669,"risk":47,"cat":"amber"},{"name":"The Alma","lat":51.43216,"lon":0.1038,"postcode":"DA14 4EA","la":"Bexley","era":"other","nn":107,"risk":26,"cat":"green"},{"name":"The Anchor","lat":51.44528,"lon":0.13385,"postcode":"DA5 1JE","la":"Bexley","era":"trad","nn":665,"risk":30,"cat":"green"},{"name":"The Bird And Barrell","lat":51.46571,"lon":0.15829,"postcode":"DA7 6HG","la":"Bexley","era":"other","nn":0,"risk":25,"cat":"green"},{"name":"The Bolthole","lat":51.45676,"lon":0.09445,"postcode":"DA16 2PL","la":"Bexley","era":"other","nn":604,"risk":29,"cat":"green"},{"name":"The Brewers Arms","lat":51.47229,"lon":0.15998,"postcode":"DA8 1JQ","la":"Bexley","era":"trad","nn":132,"risk":26,"cat":"green"},{"name":"The Broken Drum","lat":51.45174,"lon":0.10318,"postcode":"DA15 9PT","la":"Bexley","era":"other","nn":117,"risk":26,"cat":"green"},{"name":"The Door Hinge","lat":51.46208,"lon":0.11262,"postcode":"DA16 1TR","la":"Bexley","era":"other","nn":0,"risk":25,"cat":"green"},{"name":"The Duchess Of Kent","lat":51.4737,"lon":0.1566,"postcode":"DA8 1JE","la":"Bexley","era":"other","nn":175,"risk":26,"cat":"green"},{"name":"The Duke Of Northumberland","lat":51.47257,"lon":0.16184,"postcode":"DA8 3HB","la":"Bexley","era":"trad","nn":117,"risk":26,"cat":"green"},{"name":"The Dukes Head","lat":51.45347,"lon":0.17618,"postcode":"DA1 4EJ","la":"Bexley","era":"trad","nn":118,"risk":26,"cat":"green"},{"name":"The Eardley Arms","lat":51.48402,"lon":0.14076,"postcode":"DA17 5EN","la":"Bexley","era":"trad","nn":110,"risk":26,"cat":"green"},{"name":"The Earl Haig","lat":51.47332,"lon":0.14046,"postcode":"DA7 5HH","la":"Bexley","era":"other","nn":771,"risk":30,"cat":"green"},{"name":"The Fold","lat":51.42557,"lon":0.10465,"postcode":"DA14 6EN","la":"Bexley","era":"other","nn":101,"risk":26,"cat":"green"},{"name":"The Fox","lat":51.48107,"lon":0.14434,"postcode":"DA17 5JU","la":"Bexley","era":"trad","nn":134,"risk":26,"cat":"green"},{"name":"The Furze Wren","lat":51.45691,"lon":0.14772,"postcode":"DA7 4JB","la":"Bexley","era":"other","nn":243,"risk":27,"cat":"green"},{"name":"The George","lat":51.44157,"lon":0.15005,"postcode":"DA5 1AJ","la":"Bexley","era":"trad","nn":23,"risk":25,"cat":"green"},{"name":"The Golden Lion Also T/A K-Town, Chik Box & Locked & Loaded","lat":51.45806,"lon":0.1355,"postcode":"DA6 8BE","la":"Bexley","era":"trad","nn":125,"risk":26,"cat":"green"},{"name":"The Green Man Public House & Sunset Restaurant","lat":51.46691,"lon":0.09216,"postcode":"DA16 3NL","la":"Bexley","era":"mod","nn":330,"risk":27,"cat":"green"},{"name":"The Halfway House","lat":51.4412,"lon":0.08706,"postcode":"DA15 8DJ","la":"Bexley","era":"other","nn":453,"risk":33,"cat":"amber"},{"name":"The Hangar Sidcup","lat":51.4453,"lon":0.10266,"postcode":"DA15 9ER","la":"Bexley","era":"other","nn":399,"risk":28,"cat":"green"},{"name":"The Hangar Welling","lat":51.46263,"lon":0.10555,"postcode":"DA16 3PB","la":"Bexley","era":"other","nn":86,"risk":26,"cat":"green"},{"name":"The Hoppers Hut","lat":51.4245,"lon":0.10672,"postcode":"DA14 6ER","la":"Bexley","era":"other","nn":117,"risk":26,"cat":"green"},{"name":"The Iron Horse","lat":51.43478,"lon":0.10254,"postcode":"DA15 7AB","la":"Bexley","era":"trad","nn":304,"risk":27,"cat":"green"},{"name":"The Kentish Belle","lat":51.46402,"lon":0.13292,"postcode":"DA7 4QW","la":"Bexley","era":"other","nn":215,"risk":27,"cat":"green"},{"name":"The Kings Arms","lat":51.45704,"lon":0.14302,"postcode":"DA6 7DW","la":"Bexley","era":"trad","nn":68,"risk":26,"cat":"green"},{"name":"The Kings Head","lat":51.44178,"lon":0.15002,"postcode":"DA5 1AA","la":"Bexley","era":"trad","nn":3,"risk":25,"cat":"green"},{"name":"The Lord Hill","lat":51.45506,"lon":0.15473,"postcode":"DA6 7QG","la":"Bexley","era":"other","nn":151,"risk":26,"cat":"green"},{"name":"The Morgan","lat":51.49694,"lon":0.15652,"postcode":"DA17 6FD","la":"Bexley","era":"other","nn":794,"risk":36,"cat":"amber"},{"name":"The Penny Farthing","lat":51.45231,"lon":0.17844,"postcode":"DA1 4JJ","la":"Bexley","era":"other","nn":75,"risk":26,"cat":"green"},{"name":"The Prince Albert","lat":51.45548,"lon":0.15267,"postcode":"DA6 7LE","la":"Bexley","era":"trad","nn":151,"risk":26,"cat":"green"},{"name":"The Railway Tavern","lat":51.44136,"lon":0.14914,"postcode":"DA5 1AH","la":"Bexley","era":"trad","nn":68,"risk":26,"cat":"green"},{"name":"The Red Barn","lat":51.46571,"lon":0.15829,"postcode":"DA7 6HG","la":"Bexley","era":"other","nn":0,"risk":25,"cat":"green"},{"name":"The Rose And Crown","lat":51.46208,"lon":0.11262,"postcode":"DA16 1TR","la":"Bexley","era":"trad","nn":0,"risk":25,"cat":"green"},{"name":"The Royal Oak","lat":51.45215,"lon":0.12935,"postcode":"DA6 8JS","la":"Bexley","era":"trad","nn":0,"risk":25,"cat":"green"},{"name":"The Seven Stars Public House","lat":51.41859,"lon":0.11867,"postcode":"DA14 5HJ","la":"Bexley","era":"other","nn":196,"risk":29,"cat":"green"},{"name":"The Ship","lat":51.48554,"lon":0.17178,"postcode":"DA8 1AN","la":"Bexley","era":"trad","nn":874,"risk":36,"cat":"amber"},{"name":"The Tailor's Chalk","lat":51.42623,"lon":0.10363,"postcode":"DA14 6ED","la":"Bexley","era":"other","nn":101,"risk":26,"cat":"green"},{"name":"The Three Blackbirds Public House","lat":51.44824,"lon":0.12237,"postcode":"DA5 1BX","la":"Bexley","era":"other","nn":650,"risk":30,"cat":"green"},{"name":"The Victoria","lat":51.48219,"lon":0.14193,"postcode":"DA17 5LN","la":"Bexley","era":"trad","nn":160,"risk":26,"cat":"green"},{"name":"The Village Inn","lat":51.48001,"lon":0.14339,"postcode":"DA17 5LD","la":"Bexley","era":"trad","nn":134,"risk":26,"cat":"green"},{"name":"The Wrong' Un","lat":51.45785,"lon":0.13727,"postcode":"DA6 8AS","la":"Bexley","era":"other","nn":59,"risk":25,"cat":"green"},{"name":"The Yacht","lat":51.46594,"lon":0.14569,"postcode":"DA7 5AE","la":"Bexley","era":"other","nn":572,"risk":29,"cat":"green"},{"name":"Toby Carvery At Crook Log Public House","lat":51.45916,"lon":0.12629,"postcode":"DA6 8EQ","la":"Bexley","era":"other","nn":456,"risk":28,"cat":"green"},{"name":"Travellers Home Public House","lat":51.46256,"lon":0.15192,"postcode":"DA7 5AR","la":"Bexley","era":"other","nn":460,"risk":28,"cat":"green"},{"name":"Two 1 Five","lat":51.4572,"lon":0.13939,"postcode":"DA6 7EJ","la":"Bexley","era":"other","nn":104,"risk":26,"cat":"green"},{"name":"VCD Athletic Club","lat":51.45454,"lon":0.17037,"postcode":"DA1 4DN","la":"Bexley","era":"other","nn":303,"risk":27,"cat":"green"},{"name":"Welling Snooker And Pool Club","lat":51.46322,"lon":0.1042,"postcode":"DA16 3PY","la":"Bexley","era":"other","nn":46,"risk":25,"cat":"green"},{"name":"Westwood Masonic Centre","lat":51.46457,"lon":0.09601,"postcode":"DA16 3RD","la":"Bexley","era":"trad","nn":313,"risk":27,"cat":"green"},{"name":"White Cross Inn","lat":51.43039,"lon":0.13935,"postcode":"DA14 5EL","la":"Bexley","era":"trad","nn":985,"risk":52,"cat":"amber"},{"name":"William Camden Public House","lat":51.46221,"lon":0.13182,"postcode":"DA7 4EQ","la":"Bexley","era":"other","nn":215,"risk":27,"cat":"green"},{"name":"Ye Olde Black Horse","lat":51.43718,"lon":0.09837,"postcode":"DA15 8LH","la":"Bexley","era":"trad","nn":393,"risk":28,"cat":"green"},{"name":"Amar Hall","lat":51.44365,"lon":0.22261,"postcode":"DA1 1RX","la":"Dartford","era":"other","nn":0,"risk":28,"cat":"green"},{"name":"Beefs And Babes","lat":51.44529,"lon":0.25877,"postcode":"DA9 9DQ","la":"Dartford","era":"other","nn":341,"risk":35,"cat":"amber"},{"name":"Bexley Park Sports And Social Club","lat":51.42627,"lon":0.19768,"postcode":"DA2 7AG","la":"Dartford","era":"mod","nn":807,"risk":53,"cat":"amber"},{"name":"Birchwood Park Golf Club (Catering)","lat":51.41266,"lon":0.16043,"postcode":"DA2 7HJ","la":"Dartford","era":"other","nn":1196,"risk":58,"cat":"amber"},{"name":"Bird In Hand PH","lat":51.44875,"lon":0.19422,"postcode":"DA1 3EY","la":"Dartford","era":"other","nn":386,"risk":33,"cat":"amber"},{"name":"Brent School Old Boys Social Club","lat":51.44327,"lon":0.24598,"postcode":"DA2 6BA","la":"Dartford","era":"mod","nn":906,"risk":51,"cat":"amber"},{"name":"Champions Bar","lat":51.43674,"lon":0.23084,"postcode":"DA1 1RT","la":"Dartford","era":"other","nn":0,"risk":28,"cat":"green"},{"name":"Dartford & District Irish Association","lat":51.44522,"lon":0.22142,"postcode":"DA1 1UP","la":"Dartford","era":"other","nn":0,"risk":28,"cat":"green"},{"name":"Dartford Clay Shooting Club","lat":51.46119,"lon":0.21884,"postcode":"DA1 5PN","la":"Dartford","era":"other","nn":1160,"risk":58,"cat":"amber"},{"name":"Dartford Cricket Club","lat":51.43876,"lon":0.23509,"postcode":"DA1 1QZ","la":"Dartford","era":"other","nn":371,"risk":30,"cat":"green"},{"name":"Dartford Invicta Bowls Club","lat":51.45198,"lon":0.211,"postcode":"DA1 5AL","la":"Dartford","era":"other","nn":561,"risk":32,"cat":"amber"},{"name":"Dartford Masonic Club Bar","lat":51.4462,"lon":0.20732,"postcode":"DA1 2HJ","la":"Dartford","era":"trad","nn":0,"risk":28,"cat":"green"},{"name":"Dartford Working Mens Club","lat":51.44602,"lon":0.21328,"postcode":"DA1 2AU","la":"Dartford","era":"trad","nn":0,"risk":28,"cat":"green"},{"name":"Dartford Working Men's Club & Institute","lat":51.44602,"lon":0.21328,"postcode":"DA1 2AU","la":"Dartford","era":"trad","nn":0,"risk":28,"cat":"green"},{"name":"Flying Boat","lat":51.44486,"lon":0.21383,"postcode":"DA1 2DT","la":"Dartford","era":"other","nn":29,"risk":28,"cat":"green"},{"name":"Glentworth Club","lat":51.44071,"lon":0.21562,"postcode":"DA1 1JB","la":"Dartford","era":"other","nn":267,"risk":29,"cat":"green"},{"name":"Greenhithe And Swanscombe Royal British Legion Social Club","lat":51.45031,"lon":0.28927,"postcode":"DA9 9EJ","la":"Dartford","era":"other","nn":582,"risk":34,"cat":"amber"},{"name":"Horse And Groom","lat":51.43224,"lon":0.18651,"postcode":"DA2 7AP","la":"Dartford","era":"trad","nn":283,"risk":50,"cat":"amber"},{"name":"Leyton Cross Social Club","lat":51.42977,"lon":0.18748,"postcode":"DA2 7AZ","la":"Dartford","era":"other","nn":283,"risk":47,"cat":"amber"},{"name":"Long Valley Sport And Social Club","lat":51.39887,"lon":0.29619,"postcode":"DA3 7QP","la":"Dartford","era":"mod","nn":306,"risk":50,"cat":"amber"},{"name":"Manor Farm Barn","lat":51.41347,"lon":0.32867,"postcode":"DA13 9PU","la":"Dartford","era":"other","nn":626,"risk":49,"cat":"amber"},{"name":"Maypole Social Club","lat":51.43663,"lon":0.17143,"postcode":"DA5 2AH","la":"Dartford","era":"mod","nn":1153,"risk":58,"cat":"amber"},{"name":"Oddfellows Arms","lat":51.44562,"lon":0.20925,"postcode":"DA1 2EU","la":"Dartford","era":"trad","nn":149,"risk":29,"cat":"green"},{"name":"PP Catering","lat":51.43674,"lon":0.23084,"postcode":"DA1 1RT","la":"Dartford","era":"other","nn":0,"risk":28,"cat":"green"},{"name":"Railway Tavern","lat":51.39783,"lon":0.30026,"postcode":"DA3 7QD","la":"Dartford","era":"trad","nn":306,"risk":50,"cat":"amber"},{"name":"Rising Sun","lat":51.44652,"lon":0.3018,"postcode":"DA10 0LP","la":"Dartford","era":"other","nn":0,"risk":30,"cat":"green"},{"name":"Royal Naval Association","lat":51.44365,"lon":0.22261,"postcode":"DA1 1RX","la":"Dartford","era":"trad","nn":0,"risk":28,"cat":"green"},{"name":"Sir John Franklin","lat":51.45318,"lon":0.28225,"postcode":"DA9 9NN","la":"Dartford","era":"other","nn":0,"risk":45,"cat":"amber"},{"name":"Southfleet Village Club","lat":51.41624,"lon":0.32082,"postcode":"DA13 9NN","la":"Dartford","era":"other","nn":51,"risk":45,"cat":"amber"},{"name":"Stage Door","lat":51.44496,"lon":0.2168,"postcode":"DA1 1BE","la":"Dartford","era":"trad","nn":0,"risk":28,"cat":"green"},{"name":"Swanscombe Leisure Centre","lat":51.44652,"lon":0.3018,"postcode":"DA10 0LP","la":"Dartford","era":"trad","nn":0,"risk":30,"cat":"green"},{"name":"Swanscombe Senior Lunch Club","lat":51.442,"lon":0.30638,"postcode":"DA10 0JZ","la":"Dartford","era":"trad","nn":431,"risk":36,"cat":"amber"},{"name":"The Black Horse","lat":51.42532,"lon":0.28475,"postcode":"DA2 8AS","la":"Dartford","era":"trad","nn":2385,"risk":67,"cat":"red"},{"name":"The Bull","lat":51.44617,"lon":0.26348,"postcode":"DA9 9DA","la":"Dartford","era":"trad","nn":341,"risk":50,"cat":"amber"},{"name":"The Chequers","lat":51.42188,"lon":0.24106,"postcode":"DA2 7QT","la":"Dartford","era":"other","nn":1789,"risk":63,"cat":"red"},{"name":"The Cressy Arms","lat":51.4338,"lon":0.2157,"postcode":"DA1 1NP","la":"Dartford","era":"trad","nn":38,"risk":33,"cat":"amber"},{"name":"The Dart","lat":51.44391,"lon":0.19145,"postcode":"DA1 3JJ","la":"Dartford","era":"other","nn":571,"risk":49,"cat":"amber"},{"name":"The Dartford Jug","lat":51.44353,"lon":0.21962,"postcode":"DA1 1ET","la":"Dartford","era":"other","nn":69,"risk":28,"cat":"green"},{"name":"The Foresters Public House","lat":51.44433,"lon":0.22522,"postcode":"DA1 1TJ","la":"Dartford","era":"other","nn":196,"risk":29,"cat":"green"},{"name":"The Fox And Hounds","lat":51.43832,"lon":0.21529,"postcode":"DA1 1JJ","la":"Dartford","era":"trad","nn":267,"risk":29,"cat":"green"},{"name":"The Green Man Public House","lat":51.38765,"lon":0.3349,"postcode":"DA3 7AS","la":"Dartford","era":"other","nn":1600,"risk":61,"cat":"red"},{"name":"The Hufflers Arms","lat":51.44915,"lon":0.21769,"postcode":"DA1 1BN","la":"Dartford","era":"trad","nn":464,"risk":31,"cat":"amber"},{"name":"The Ivy Leaf","lat":51.44149,"lon":0.22397,"postcode":"DA1 1LS","la":"Dartford","era":"other","nn":244,"risk":29,"cat":"green"},{"name":"The Malt Shovel","lat":51.44351,"lon":0.22262,"postcode":"DA1 1LP","la":"Dartford","era":"other","nn":15,"risk":28,"cat":"green"},{"name":"The Orange Tree","lat":51.43348,"lon":0.21551,"postcode":"DA1 1NR","la":"Dartford","era":"other","nn":38,"risk":33,"cat":"amber"},{"name":"The Pier Hotel","lat":51.45318,"lon":0.28225,"postcode":"DA9 9NN","la":"Dartford","era":"other","nn":0,"risk":45,"cat":"amber"},{"name":"The Rose","lat":51.44522,"lon":0.22142,"postcode":"DA1 1UP","la":"Dartford","era":"other","nn":0,"risk":28,"cat":"green"},{"name":"The Rose And Crown","lat":51.4462,"lon":0.20732,"postcode":"DA1 2HJ","la":"Dartford","era":"trad","nn":0,"risk":28,"cat":"green"},{"name":"The Royal Oak","lat":51.44507,"lon":0.21407,"postcode":"DA1 2DX","la":"Dartford","era":"trad","nn":29,"risk":28,"cat":"green"},{"name":"The Ship","lat":51.40594,"lon":0.23752,"postcode":"DA4 9HP","la":"Dartford","era":"trad","nn":762,"risk":38,"cat":"amber"},{"name":"The Ship","lat":51.41725,"lon":0.17602,"postcode":"DA2 7QF","la":"Dartford","era":"trad","nn":1196,"risk":58,"cat":"amber"},{"name":"The Ship Inn","lat":51.41589,"lon":0.32034,"postcode":"DA13 9NS","la":"Dartford","era":"trad","nn":51,"risk":45,"cat":"amber"},{"name":"The Ship Public House","lat":51.44747,"lon":0.19939,"postcode":"DA1 3ER","la":"Dartford","era":"trad","nn":386,"risk":30,"cat":"green"},{"name":"The Stage Door","lat":51.44496,"lon":0.2168,"postcode":"DA1 1BE","la":"Dartford","era":"trad","nn":0,"risk":28,"cat":"green"},{"name":"The Sun","lat":51.44266,"lon":0.3125,"postcode":"DA10 0BG","la":"Dartford","era":"other","nn":431,"risk":36,"cat":"amber"},{"name":"The Tiger","lat":51.44345,"lon":0.22785,"postcode":"DA1 1TF","la":"Dartford","era":"other","nn":207,"risk":29,"cat":"green"},{"name":"The Wat Tyler","lat":51.44415,"lon":0.21953,"postcode":"DA1 1DE","la":"Dartford","era":"other","nn":3,"risk":28,"cat":"green"},{"name":"The Wharf","lat":51.45293,"lon":0.25369,"postcode":"DA2 6QE","la":"Dartford","era":"other","nn":919,"risk":54,"cat":"amber"},{"name":"WI Temple Hill Lunch Club","lat":51.45146,"lon":0.22713,"postcode":"DA1 5HX","la":"Dartford","era":"other","nn":703,"risk":33,"cat":"amber"},{"name":"Zanzibar","lat":51.44415,"lon":0.21957,"postcode":"DA1 1DE","la":"Dartford","era":"other","nn":3,"risk":28,"cat":"green"},{"name":"Bat And Ball Public House","lat":51.43656,"lon":0.36643,"postcode":"DA11 0QP","la":"Gravesham","era":"other","nn":229,"risk":28,"cat":"green"},{"name":"Bierkeller / Cocktail Bar","lat":51.44318,"lon":0.36978,"postcode":"DA11 0AZ","la":"Gravesham","era":"other","nn":68,"risk":27,"cat":"green"},{"name":"Blakes","lat":51.44268,"lon":0.37086,"postcode":"DA12 2EQ","la":"Gravesham","era":"other","nn":41,"risk":27,"cat":"green"},{"name":"Campbell Arms","lat":51.43784,"lon":0.35612,"postcode":"DA11 0JZ","la":"Gravesham","era":"trad","nn":305,"risk":28,"cat":"green"},{"name":"Earl Grey","lat":51.43308,"lon":0.34902,"postcode":"DA11 8BP","la":"Gravesham","era":"other","nn":148,"risk":27,"cat":"green"},{"name":"Elephants Head","lat":51.44246,"lon":0.355,"postcode":"DA11 9LZ","la":"Gravesham","era":"trad","nn":519,"risk":30,"cat":"green"},{"name":"Gravesend Boat","lat":51.41825,"lon":0.39274,"postcode":"DA12 4NQ","la":"Gravesham","era":"other","nn":457,"risk":47,"cat":"amber"},{"name":"Gravesend Conservative Club","lat":51.44145,"lon":0.37065,"postcode":"DA12 1EW","la":"Gravesham","era":"other","nn":37,"risk":27,"cat":"green"},{"name":"Gravesend Rugby Football Club (Bar)","lat":51.43747,"lon":0.38064,"postcode":"DA12 2TL","la":"Gravesham","era":"other","nn":209,"risk":28,"cat":"green"},{"name":"Iron Pier Brewery & Tap Room","lat":51.43491,"lon":0.35231,"postcode":"DA11 8RU","la":"Gravesham","era":"mod","nn":93,"risk":27,"cat":"green"},{"name":"Kent Cocktail Bar","lat":51.44379,"lon":0.36965,"postcode":"DA11 0BA","la":"Gravesham","era":"other","nn":17,"risk":26,"cat":"green"},{"name":"Meopham Country Club","lat":51.36401,"lon":0.35791,"postcode":"DA13 0AT","la":"Gravesham","era":"other","nn":279,"risk":31,"cat":"amber"},{"name":"Meopham Valley Vineyard","lat":51.36156,"lon":0.35701,"postcode":"DA13 0PY","la":"Gravesham","era":"mod","nn":279,"risk":31,"cat":"amber"},{"name":"Milton Ale Shades","lat":51.4388,"lon":0.3869,"postcode":"DA12 2JL","la":"Gravesham","era":"other","nn":118,"risk":27,"cat":"green"},{"name":"Milton Social Club","lat":51.43975,"lon":0.38613,"postcode":"DA12 2PW","la":"Gravesham","era":"mod","nn":118,"risk":27,"cat":"green"},{"name":"Minel Meze & Grill","lat":51.3606,"lon":0.35288,"postcode":"DA13 0QB","la":"Gravesham","era":"mod","nn":80,"risk":32,"cat":"amber"},{"name":"Mivan","lat":51.44372,"lon":0.36916,"postcode":"DA11 0BB","la":"Gravesham","era":"other","nn":35,"risk":27,"cat":"green"},{"name":"Northfleet & District Traders Association","lat":51.44153,"lon":0.33786,"postcode":"DA11 9PH","la":"Gravesham","era":"other","nn":0,"risk":29,"cat":"green"},{"name":"Old Gravesendians Sports Association","lat":51.4359,"lon":0.37896,"postcode":"DA12 1PX","la":"Gravesham","era":"other","nn":209,"risk":28,"cat":"green"},{"name":"Old Prince Of Orange","lat":51.4327,"lon":0.37054,"postcode":"DA12 1NJ","la":"Gravesham","era":"trad","nn":315,"risk":29,"cat":"green"},{"name":"Painters Ash Pub","lat":51.42668,"lon":0.33907,"postcode":"DA11 8LF","la":"Gravesham","era":"other","nn":857,"risk":50,"cat":"amber"},{"name":"Pelham Arms","lat":51.43525,"lon":0.35755,"postcode":"DA11 0LT","la":"Gravesham","era":"trad","nn":305,"risk":28,"cat":"green"},{"name":"Perry Street Conservative Club","lat":51.43407,"lon":0.35225,"postcode":"DA11 8QU","la":"Gravesham","era":"other","nn":59,"risk":27,"cat":"green"},{"name":"Punjabi Junction @ Railway Bell","lat":51.44193,"lon":0.36663,"postcode":"DA11 0RR","la":"Gravesham","era":"trad","nn":79,"risk":27,"cat":"green"},{"name":"Railway Inn","lat":51.38317,"lon":0.37801,"postcode":"DA13 0XY","la":"Gravesham","era":"trad","nn":1244,"risk":58,"cat":"amber"},{"name":"Railway Tavern","lat":51.38482,"lon":0.3575,"postcode":"DA13 0HP","la":"Gravesham","era":"trad","nn":1435,"risk":59,"cat":"amber"},{"name":"Red Lion","lat":51.44397,"lon":0.34758,"postcode":"DA11 9AA","la":"Gravesham","era":"trad","nn":541,"risk":30,"cat":"green"},{"name":"Regans Bar","lat":51.42027,"lon":0.39848,"postcode":"DA12 4LG","la":"Gravesham","era":"other","nn":216,"risk":45,"cat":"amber"},{"name":"Robert Pocock","lat":51.44174,"lon":0.3691,"postcode":"DA12 1AH","la":"Gravesham","era":"other","nn":91,"risk":27,"cat":"green"},{"name":"Rum Puncheon","lat":51.44501,"lon":0.36852,"postcode":"DA11 0BL","la":"Gravesham","era":"other","nn":61,"risk":27,"cat":"green"},{"name":"Ship & Lobster","lat":51.44219,"lon":0.39728,"postcode":"DA12 2QB","la":"Gravesham","era":"trad","nn":812,"risk":37,"cat":"amber"},{"name":"Ship Inn","lat":51.39035,"lon":0.40235,"postcode":"DA12 3BN","la":"Gravesham","era":"trad","nn":199,"risk":45,"cat":"amber"},{"name":"The Cock Inn","lat":51.3787,"lon":0.39444,"postcode":"DA13 0XB","la":"Gravesham","era":"trad","nn":808,"risk":52,"cat":"amber"},{"name":"The Compass Alehouse","lat":51.44129,"lon":0.37018,"postcode":"DA12 1AA","la":"Gravesham","era":"other","nn":37,"risk":27,"cat":"green"},{"name":"The Cricketers","lat":51.43857,"lon":0.36568,"postcode":"DA11 0PR","la":"Gravesham","era":"other","nn":149,"risk":27,"cat":"green"},{"name":"The Cricketers Inn","lat":51.36015,"lon":0.352,"postcode":"DA13 0QA","la":"Gravesham","era":"trad","nn":80,"risk":32,"cat":"amber"},{"name":"The Crown","lat":51.43396,"lon":0.35308,"postcode":"DA11 8RA","la":"Gravesham","era":"trad","nn":0,"risk":26,"cat":"green"},{"name":"The Darnley Arms","lat":51.39047,"lon":0.39948,"postcode":"DA12 3BZ","la":"Gravesham","era":"trad","nn":0,"risk":44,"cat":"amber"},{"name":"The Echo","lat":51.43154,"lon":0.37748,"postcode":"DA12 1NR","la":"Gravesham","era":"other","nn":496,"risk":30,"cat":"green"},{"name":"The Forresters Arms","lat":51.44002,"lon":0.37098,"postcode":"DA12 1ER","la":"Gravesham","era":"trad","nn":126,"risk":27,"cat":"green"},{"name":"The George","lat":51.44277,"lon":0.37144,"postcode":"DA12 2EE","la":"Gravesham","era":"trad","nn":41,"risk":27,"cat":"green"},{"name":"The George","lat":51.41142,"lon":0.37688,"postcode":"DA12 5UQ","la":"Gravesham","era":"trad","nn":1337,"risk":58,"cat":"amber"},{"name":"The George Inn","lat":51.36892,"lon":0.35973,"postcode":"DA13 0AH","la":"Gravesham","era":"trad","nn":560,"risk":48,"cat":"amber"},{"name":"The Golden Lion","lat":51.372,"lon":0.39894,"postcode":"DA13 0XE","la":"Gravesham","era":"trad","nn":808,"risk":52,"cat":"amber"},{"name":"The Goose AKA Chik Box; K-Town Chicken; Locked & Loaded;","lat":51.44213,"lon":0.37038,"postcode":"DA12 2DU","la":"Gravesham","era":"other","nn":70,"risk":27,"cat":"green"},{"name":"The Grapes","lat":51.44163,"lon":0.37194,"postcode":"DA12 2RG","la":"Gravesham","era":"other","nn":92,"risk":27,"cat":"green"},{"name":"The Gravesend Masonic Hall","lat":51.43994,"lon":0.36771,"postcode":"DA11 0PA","la":"Gravesham","era":"trad","nn":0,"risk":26,"cat":"green"},{"name":"The Invicta Bar","lat":51.44056,"lon":0.36938,"postcode":"DA12 1AS","la":"Gravesham","era":"other","nn":98,"risk":27,"cat":"green"},{"name":"The Jolly Drayman Pub & Hotel","lat":51.44065,"lon":0.37472,"postcode":"DA12 1JA","la":"Gravesham","era":"other","nn":93,"risk":27,"cat":"green"},{"name":"The Leather Bottle","lat":51.39047,"lon":0.39948,"postcode":"DA12 3BZ","la":"Gravesham","era":"other","nn":0,"risk":44,"cat":"amber"},{"name":"The Mole Hole Micropub","lat":51.44394,"lon":0.36968,"postcode":"DA11 0BA","la":"Gravesham","era":"other","nn":17,"risk":26,"cat":"green"},{"name":"The Prince Albert","lat":51.43881,"lon":0.36779,"postcode":"DA11 0PW","la":"Gravesham","era":"trad","nn":125,"risk":27,"cat":"green"},{"name":"The Rose","lat":51.43396,"lon":0.35308,"postcode":"DA11 8RA","la":"Gravesham","era":"other","nn":0,"risk":26,"cat":"green"},{"name":"The Rose And Crown","lat":51.41397,"lon":0.43074,"postcode":"DA12 3EA","la":"Gravesham","era":"trad","nn":1025,"risk":56,"cat":"amber"},{"name":"The Rose Inn","lat":51.44537,"lon":0.32779,"postcode":"DA11 9EQ","la":"Gravesham","era":"trad","nn":643,"risk":36,"cat":"amber"},{"name":"The See Ho","lat":51.40666,"lon":0.43974,"postcode":"DA12 3JX","la":"Gravesham","era":"other","nn":1025,"risk":56,"cat":"amber"},{"name":"The Six Bells","lat":51.43257,"lon":0.34704,"postcode":"DA11 8BT","la":"Gravesham","era":"other","nn":148,"risk":27,"cat":"green"},{"name":"The Somerset Arms","lat":51.44212,"lon":0.36553,"postcode":"DA11 0RU","la":"Gravesham","era":"trad","nn":28,"risk":27,"cat":"green"},{"name":"The Three Daws","lat":51.445,"lon":0.36939,"postcode":"DA11 0BJ","la":"Gravesham","era":"other","nn":61,"risk":27,"cat":"green"},{"name":"The Three Pillars","lat":51.43994,"lon":0.36771,"postcode":"DA11 0PA","la":"Gravesham","era":"other","nn":0,"risk":26,"cat":"green"},{"name":"The Villager","lat":51.33032,"lon":0.35941,"postcode":"DA13 0TD","la":"Gravesham","era":"other","nn":997,"risk":53,"cat":"amber"},{"name":"The Wheatsheaf","lat":51.44235,"lon":0.36569,"postcode":"DA11 0AE","la":"Gravesham","era":"trad","nn":28,"risk":27,"cat":"green"},{"name":"The Windmill Tavern","lat":51.43523,"lon":0.37259,"postcode":"DA12 1JW","la":"Gravesham","era":"trad","nn":265,"risk":28,"cat":"green"},{"name":"TJ's","lat":51.44148,"lon":0.37451,"postcode":"DA12 2RF","la":"Gravesham","era":"other","nn":93,"risk":27,"cat":"green"},{"name":"View Point Community Centre","lat":51.42221,"lon":0.3986,"postcode":"DA12 4LF","la":"Gravesham","era":"other","nn":216,"risk":45,"cat":"amber"},{"name":"Vigo Rugby Football Club - Bar","lat":51.33639,"lon":0.36996,"postcode":"DA13 0UA","la":"Gravesham","era":"other","nn":997,"risk":53,"cat":"amber"},{"name":"V's Punjabi Grill @ The Canal Tavern","lat":51.44175,"lon":0.38432,"postcode":"DA12 2RS","la":"Gravesham","era":"other","nn":256,"risk":28,"cat":"green"},{"name":"Waterloo Tavern","lat":51.43754,"lon":0.37356,"postcode":"DA12 1JQ","la":"Gravesham","era":"other","nn":265,"risk":28,"cat":"green"},{"name":"Woodlands Park Bowling Club","lat":51.43315,"lon":0.36142,"postcode":"DA11 7LZ","la":"Gravesham","era":"other","nn":355,"risk":29,"cat":"green"},{"name":"Ye Olde Coach And Horses Inn","lat":51.44288,"lon":0.33617,"postcode":"DA11 9EU","la":"Gravesham","era":"trad","nn":191,"risk":30,"cat":"green"},{"name":"Ye Olde Leather Bottle","lat":51.44153,"lon":0.33786,"postcode":"DA11 9PH","la":"Gravesham","era":"other","nn":0,"risk":29,"cat":"green"},{"name":"Black Boy Public House","lat":51.44501,"lon":0.08475,"postcode":"DA15 8EA","la":"Greenwich","era":"other","nn":453,"risk":34,"cat":"amber"},{"name":"Bridges Pub","lat":51.40115,"lon":0.24538,"postcode":"DA4 9AX","la":"Sevenoaks","era":"other","nn":299,"risk":34,"cat":"amber"},{"name":"Corinthian Sports Club","lat":51.38268,"lon":0.29232,"postcode":"DA3 8LY","la":"Sevenoaks","era":"other","nn":641,"risk":34,"cat":"amber"},{"name":"Eureka Sun Club","lat":51.37709,"lon":0.29008,"postcode":"DA3 8ND","la":"Sevenoaks","era":"other","nn":641,"risk":52,"cat":"amber"},{"name":"Eynsford Cricket Club","lat":51.36861,"lon":0.20922,"postcode":"DA4 0AE","la":"Sevenoaks","era":"other","nn":52,"risk":32,"cat":"amber"},{"name":"Eynsford Riverside Club","lat":51.16966,"lon":0.7583,"postcode":"DA4 0AE","la":"Sevenoaks","era":"other","nn":0,"risk":45,"cat":"amber"},{"name":"Hartley & District Social Club","lat":51.38546,"lon":0.30395,"postcode":"DA3 8EH","la":"Sevenoaks","era":"other","nn":144,"risk":33,"cat":"amber"},{"name":"Hartley Country Club","lat":51.38419,"lon":0.30353,"postcode":"DA3 8BS","la":"Sevenoaks","era":"trad","nn":144,"risk":33,"cat":"amber"},{"name":"Malt Shovel","lat":51.36566,"lon":0.20752,"postcode":"DA4 0ER","la":"Sevenoaks","era":"other","nn":348,"risk":35,"cat":"amber"},{"name":"New Ash Green Pavilion","lat":51.363,"lon":0.30311,"postcode":"DA3 8HS","la":"Sevenoaks","era":"trad","nn":359,"risk":35,"cat":"amber"},{"name":"Pied Bull","lat":51.38076,"lon":0.22035,"postcode":"DA4 0DG","la":"Sevenoaks","era":"trad","nn":143,"risk":48,"cat":"amber"},{"name":"The Badger","lat":51.36602,"lon":0.30492,"postcode":"DA3 8JB","la":"Sevenoaks","era":"other","nn":359,"risk":35,"cat":"amber"},{"name":"The Bull","lat":51.39108,"lon":0.24468,"postcode":"DA4 9DF","la":"Sevenoaks","era":"trad","nn":318,"risk":49,"cat":"amber"},{"name":"The Castle Hotel","lat":51.36949,"lon":0.21453,"postcode":"DA4 0AB","la":"Sevenoaks","era":"other","nn":334,"risk":34,"cat":"amber"},{"name":"The Fighting Cocks","lat":51.39146,"lon":0.24014,"postcode":"DA4 9BY","la":"Sevenoaks","era":"other","nn":318,"risk":49,"cat":"amber"},{"name":"The Jolly Millers","lat":51.40307,"lon":0.24866,"postcode":"DA4 9AN","la":"Sevenoaks","era":"trad","nn":144,"risk":33,"cat":"amber"},{"name":"The Lion","lat":51.38183,"lon":0.21921,"postcode":"DA4 0DP","la":"Sevenoaks","era":"trad","nn":143,"risk":48,"cat":"amber"},{"name":"The Old Black Lion","lat":51.37891,"lon":0.30472,"postcode":"DA3 8EX","la":"Sevenoaks","era":"trad","nn":593,"risk":36,"cat":"amber"},{"name":"The Plough Inn","lat":51.36856,"lon":0.20996,"postcode":"DA4 0AE","la":"Sevenoaks","era":"trad","nn":52,"risk":32,"cat":"amber"},{"name":"The Queen P.H.","lat":51.40189,"lon":0.24953,"postcode":"DA4 9AR","la":"Sevenoaks","era":"trad","nn":144,"risk":33,"cat":"amber"}]