[{"name":"Boys Brigade","lat":58.59594,"lon":-3.51662,"postcode":"KW14 8AS","la":"Highland","era":"other","nn":634,"risk":55,"cat":"amber"},{"name":"Caithness Rugby Football Club","lat":58.59046,"lon":-3.51958,"postcode":"KW14 8PS","la":"Highland","era":"other","nn":634,"risk":55,"cat":"amber"},{"name":"Golspie Golf Club","lat":57.97041,"lon":-3.98698,"postcode":"KW10 6ST","la":"Highland","era":"other","nn":10440,"risk":88,"cat":"red"},{"name":"Rosebank Bowling Club","lat":58.44135,"lon":-3.09576,"postcode":"KW1 5NS","la":"Highland","era":"other","nn":29676,"risk":88,"cat":"red"},{"name":"Flotta Community Centre","lat":58.82599,"lon":-3.10408,"postcode":"KW16 3NP","la":"Orkney Islands","era":"other","nn":18900,"risk":86,"cat":"red"},{"name":"Fusion","lat":58.98445,"lon":-2.9629,"postcode":"KW15 1QX","la":"Orkney Islands","era":"other","nn":143,"risk":30,"cat":"green"},{"name":"Kirkwall Kilwinning Recreation Club","lat":58.98226,"lon":-2.96064,"postcode":"KW15 1DF","la":"Orkney Islands","era":"trad","nn":144,"risk":30,"cat":"green"},{"name":"Orkney Club","lat":58.98451,"lon":-2.9597,"postcode":"KW15 1LE","la":"Orkney Islands","era":"other","nn":0,"risk":29,"cat":"green"},{"name":"Orkney Golf Club","lat":58.98724,"lon":-2.98091,"postcode":"KW15 1UA","la":"Orkney Islands","era":"other","nn":801,"risk":55,"cat":"amber"},{"name":"Orkney Rugby Club","lat":58.98168,"lon":-2.97202,"postcode":"KW15 1RR","la":"Orkney Islands","era":"other","nn":524,"risk":33,"cat":"amber"},{"name":"Orkney Sailing Club","lat":58.98451,"lon":-2.9597,"postcode":"KW15 1LE","la":"Orkney Islands","era":"other","nn":0,"risk":29,"cat":"green"},{"name":"Pomona Inn","lat":59.00811,"lon":-3.12123,"postcode":"KW17 2EL","la":"Orkney Islands","era":"trad","nn":8365,"risk":86,"cat":"red"},{"name":"Roadside Inn","lat":59.162,"lon":-2.76745,"postcode":"KW17 2AA","la":"Orkney Islands","era":"trad","nn":22581,"risk":86,"cat":"red"},{"name":"The Auld Motor Hoose","lat":58.98352,"lon":-2.96118,"postcode":"KW15 1AB","la":"Orkney Islands","era":"other","nn":139,"risk":30,"cat":"green"},{"name":"The Royal British Legion","lat":58.96465,"lon":-3.29705,"postcode":"KW16 3AD","la":"Orkney Islands","era":"trad","nn":11172,"risk":86,"cat":"red"},{"name":"The Royal British Legion","lat":58.9805,"lon":-2.96317,"postcode":"KW15 1AR","la":"Orkney Islands","era":"trad","nn":243,"risk":31,"cat":"amber"},{"name":"Torvhaug","lat":58.9842,"lon":-2.95833,"postcode":"KW15 1HR","la":"Orkney Islands","era":"other","nn":86,"risk":30,"cat":"green"}]