[{"name":"Marsh Gibbon Sports & Social Club","lat":51.90215,"lon":-1.06211,"postcode":"OX27 0HZ","la":"Buckinghamshire","era":"mod","nn":148,"risk":38,"cat":"amber"},{"name":"The Plough Inn","lat":51.90276,"lon":-1.06019,"postcode":"OX27 0HQ","la":"Buckinghamshire","era":"trad","nn":148,"risk":38,"cat":"amber"},{"name":"Also Known As","lat":52.06238,"lon":-1.33709,"postcode":"OX16 5NB","la":"Cherwell","era":"other","nn":21,"risk":32,"cat":"amber"},{"name":"Banbury Chestnuts Bowling Club","lat":52.06035,"lon":-1.34244,"postcode":"OX16 9RS","la":"Cherwell","era":"other","nn":60,"risk":32,"cat":"amber"},{"name":"Bloxham Bowls Club","lat":52.02105,"lon":-1.37071,"postcode":"OX15 4NF","la":"Cherwell","era":"other","nn":2866,"risk":75,"cat":"red"},{"name":"Brasenose Arms","lat":52.11536,"lon":-1.31897,"postcode":"OX17 1PW","la":"Cherwell","era":"trad","nn":246,"risk":54,"cat":"amber"},{"name":"Bure Farm Public House","lat":51.91032,"lon":-1.15551,"postcode":"OX26 3HA","la":"Cherwell","era":"other","nn":757,"risk":57,"cat":"amber"},{"name":"Dog And Gun","lat":52.06196,"lon":-1.33991,"postcode":"OX16 0TB","la":"Cherwell","era":"other","nn":73,"risk":32,"cat":"amber"},{"name":"Fever And Zinc","lat":52.06062,"lon":-1.33886,"postcode":"OX16 5LA","la":"Cherwell","era":"other","nn":148,"risk":33,"cat":"amber"},{"name":"Gosford All Black RFC","lat":51.80633,"lon":-1.28181,"postcode":"OX5 1UP","la":"Cherwell","era":"other","nn":1276,"risk":63,"cat":"red"},{"name":"Horse And Groom Inn","lat":52.00836,"lon":-1.40716,"postcode":"OX15 4RS","la":"Cherwell","era":"trad","nn":2866,"risk":75,"cat":"red"},{"name":"Horse And Jockey","lat":52.06005,"lon":-1.34172,"postcode":"OX16 9RR","la":"Cherwell","era":"trad","nn":60,"risk":32,"cat":"amber"},{"name":"Pear Tree Inn","lat":51.9963,"lon":-1.49073,"postcode":"OX15 5NU","la":"Cherwell","era":"trad","nn":494,"risk":55,"cat":"amber"},{"name":"Red Lion","lat":51.80463,"lon":-1.31186,"postcode":"OX5 1QD","la":"Cherwell","era":"trad","nn":824,"risk":58,"cat":"amber"},{"name":"Red Lion Cropredy","lat":52.1166,"lon":-1.31598,"postcode":"OX17 1PB","la":"Cherwell","era":"trad","nn":246,"risk":54,"cat":"amber"},{"name":"Safari Garden (The Plough)","lat":51.85608,"lon":-1.11381,"postcode":"OX25 1NY","la":"Cherwell","era":"trad","nn":1634,"risk":66,"cat":"red"},{"name":"The Angel","lat":51.89995,"lon":-1.15286,"postcode":"OX26 6LP","la":"Cherwell","era":"trad","nn":73,"risk":32,"cat":"amber"},{"name":"The Apothecary Tap","lat":52.06177,"lon":-1.33633,"postcode":"OX16 5JH","la":"Cherwell","era":"mod","nn":64,"risk":32,"cat":"amber"},{"name":"The Barley Mow","lat":52.07118,"lon":-1.36266,"postcode":"OX16 1SS","la":"Cherwell","era":"other","nn":1038,"risk":62,"cat":"red"},{"name":"The Bell","lat":52.06269,"lon":-1.32683,"postcode":"OX16 4QJ","la":"Cherwell","era":"other","nn":648,"risk":37,"cat":"amber"},{"name":"The Bell","lat":51.89942,"lon":-1.15223,"postcode":"OX26 6LP","la":"Cherwell","era":"other","nn":50,"risk":32,"cat":"amber"},{"name":"The Bell At Shenington","lat":52.08261,"lon":-1.45949,"postcode":"OX15 6NQ","la":"Cherwell","era":"other","nn":2946,"risk":75,"cat":"red"},{"name":"The Black Bull","lat":51.82333,"lon":-1.29082,"postcode":"OX5 2BT","la":"Cherwell","era":"trad","nn":209,"risk":53,"cat":"amber"},{"name":"The Blinking Owl Inn","lat":52.05521,"lon":-1.39015,"postcode":"OX15 6AE","la":"Cherwell","era":"trad","nn":2586,"risk":73,"cat":"red"},{"name":"The Chatsworth","lat":52.04889,"lon":-1.32731,"postcode":"OX16 9YJ","la":"Cherwell","era":"other","nn":1324,"risk":64,"cat":"red"},{"name":"The Chequers PH","lat":51.85712,"lon":-1.22205,"postcode":"OX25 3QH","la":"Cherwell","era":"other","nn":3031,"risk":76,"cat":"red"},{"name":"The Crown","lat":51.83813,"lon":-1.1853,"postcode":"OX5 2UQ","la":"Cherwell","era":"trad","nn":2434,"risk":72,"cat":"red"},{"name":"The Dirt House","lat":52.09404,"lon":-1.33586,"postcode":"OX17 1RH","la":"Cherwell","era":"other","nn":2636,"risk":73,"cat":"red"},{"name":"The Dun Cow","lat":52.10129,"lon":-1.42891,"postcode":"OX15 6DA","la":"Cherwell","era":"other","nn":2803,"risk":74,"cat":"red"},{"name":"The Easington Public House","lat":52.0518,"lon":-1.3461,"postcode":"OX16 9JU","la":"Cherwell","era":"other","nn":954,"risk":44,"cat":"amber"},{"name":"The Foresters Bar","lat":51.8238,"lon":-1.28788,"postcode":"OX5 2DN","la":"Cherwell","era":"other","nn":209,"risk":53,"cat":"amber"},{"name":"The George Inn","lat":51.99133,"lon":-1.3687,"postcode":"OX15 0RH","la":"Cherwell","era":"trad","nn":3243,"risk":77,"cat":"red"},{"name":"The Green Man","lat":52.12349,"lon":-1.35466,"postcode":"OX17 1BB","la":"Cherwell","era":"other","nn":2599,"risk":73,"cat":"red"},{"name":"The Highwayman Hotel And Spice House","lat":51.8314,"lon":-1.30099,"postcode":"OX5 1BF","la":"Cherwell","era":"other","nn":1138,"risk":62,"cat":"red"},{"name":"The Horse And Groom","lat":51.91548,"lon":-1.26192,"postcode":"OX25 4ND","la":"Cherwell","era":"trad","nn":5184,"risk":89,"cat":"red"},{"name":"The Lamb Inn (formally The Saxon)","lat":51.89902,"lon":-1.15256,"postcode":"OX26 6JW","la":"Cherwell","era":"trad","nn":50,"risk":32,"cat":"amber"},{"name":"The Launton Arms","lat":51.89585,"lon":-1.11958,"postcode":"OX26 5DG","la":"Cherwell","era":"trad","nn":2104,"risk":69,"cat":"red"},{"name":"The Lion At Wendlebury","lat":51.87272,"lon":-1.18585,"postcode":"OX25 2PW","la":"Cherwell","era":"trad","nn":3031,"risk":76,"cat":"red"},{"name":"The Musketeer","lat":52.07009,"lon":-1.34758,"postcode":"OX16 2NZ","la":"Cherwell","era":"other","nn":911,"risk":58,"cat":"amber"},{"name":"The Nut Tree","lat":51.83622,"lon":-1.15,"postcode":"OX5 2RE","la":"Cherwell","era":"other","nn":2434,"risk":72,"cat":"red"},{"name":"The Old Auctioneer","lat":52.06221,"lon":-1.33813,"postcode":"OX16 5NA","la":"Cherwell","era":"other","nn":61,"risk":32,"cat":"amber"},{"name":"The Penny Black","lat":51.8988,"lon":-1.15166,"postcode":"OX26 6JW","la":"Cherwell","era":"other","nn":66,"risk":32,"cat":"amber"},{"name":"The Pepper Pot","lat":52.06702,"lon":-1.32048,"postcode":"OX16 3WT","la":"Cherwell","era":"other","nn":648,"risk":57,"cat":"amber"},{"name":"The Plough Inn","lat":52.03664,"lon":-1.33082,"postcode":"OX15 4BZ","la":"Cherwell","era":"trad","nn":1383,"risk":64,"cat":"red"},{"name":"The Red Lion","lat":52.09135,"lon":-1.3912,"postcode":"OX15 6BQ","la":"Cherwell","era":"trad","nn":2803,"risk":74,"cat":"red"},{"name":"The Red Lion","lat":51.9817,"lon":-1.32185,"postcode":"OX15 0SE","la":"Cherwell","era":"trad","nn":3382,"risk":78,"cat":"red"},{"name":"The Stags Head","lat":52.03751,"lon":-1.44943,"postcode":"OX15 5EJ","la":"Cherwell","era":"trad","nn":2614,"risk":73,"cat":"red"},{"name":"The Sun Inn At Hook Norton","lat":51.99506,"lon":-1.4838,"postcode":"OX15 5NH","la":"Cherwell","era":"trad","nn":494,"risk":55,"cat":"amber"},{"name":"The Swan","lat":52.05957,"lon":-1.34019,"postcode":"OX16 9AA","la":"Cherwell","era":"trad","nn":117,"risk":33,"cat":"amber"},{"name":"The Three Pigeons Inn","lat":52.06365,"lon":-1.33933,"postcode":"OX16 2ED","la":"Cherwell","era":"trad","nn":152,"risk":33,"cat":"amber"},{"name":"The Trigger Pond","lat":51.92412,"lon":-1.18764,"postcode":"OX27 7NE","la":"Cherwell","era":"other","nn":2685,"risk":73,"cat":"red"},{"name":"The Turner Arms Public House","lat":51.86921,"lon":-1.12449,"postcode":"OX25 2LX","la":"Cherwell","era":"trad","nn":1634,"risk":66,"cat":"red"},{"name":"The Turnpike","lat":51.80671,"lon":-1.30036,"postcode":"OX5 1PJ","la":"Cherwell","era":"other","nn":824,"risk":58,"cat":"amber"},{"name":"The Wheatsheaf","lat":52.06086,"lon":-1.33647,"postcode":"OX16 5BH","la":"Cherwell","era":"trad","nn":102,"risk":33,"cat":"amber"},{"name":"The White Hart","lat":51.89732,"lon":-1.15015,"postcode":"OX26 6TB","la":"Cherwell","era":"trad","nn":194,"risk":36,"cat":"amber"},{"name":"The White Horse","lat":51.90648,"lon":-1.14641,"postcode":"OX26 4UA","la":"Cherwell","era":"trad","nn":757,"risk":37,"cat":"amber"},{"name":"The Wine Vaults","lat":52.06225,"lon":-1.33687,"postcode":"OX16 5LW","la":"Cherwell","era":"other","nn":21,"risk":32,"cat":"amber"},{"name":"The Wykham Arms","lat":52.0376,"lon":-1.48764,"postcode":"OX15 5RX","la":"Cherwell","era":"trad","nn":2614,"risk":73,"cat":"red"},{"name":"White Horse","lat":52.0623,"lon":-1.339,"postcode":"OX16 0TH","la":"Cherwell","era":"trad","nn":61,"risk":32,"cat":"amber"},{"name":"Kings Head","lat":51.90264,"lon":-1.64676,"postcode":"OX7 6XQ","la":"Cotswold","era":"trad","nn":1816,"risk":62,"cat":"red"},{"name":"The Feathered Nest Inn","lat":51.88073,"lon":-1.67451,"postcode":"OX7 6SD","la":"Cotswold","era":"trad","nn":1968,"risk":63,"cat":"red"},{"name":"The Fox At Barrington","lat":51.81626,"lon":-1.70453,"postcode":"OX18 4TB","la":"Cotswold","era":"trad","nn":4687,"risk":82,"cat":"red"},{"name":"All Bar One","lat":51.75209,"lon":-1.25624,"postcode":"OX1 4DF","la":"Oxford","era":"mod","nn":0,"risk":24,"cat":"green"},{"name":"Ampleforth Arms","lat":51.75964,"lon":-1.19004,"postcode":"OX3 8HH","la":"Oxford","era":"trad","nn":475,"risk":45,"cat":"amber"},{"name":"Angel And Greyhound","lat":51.75033,"lon":-1.24311,"postcode":"OX4 1AB","la":"Oxford","era":"trad","nn":0,"risk":24,"cat":"green"},{"name":"Angels Cocktail Bar","lat":51.75856,"lon":-1.26149,"postcode":"OX1 2HS","la":"Oxford","era":"trad","nn":108,"risk":25,"cat":"green"},{"name":"Atik","lat":51.75264,"lon":-1.26588,"postcode":"OX1 1JD","la":"Oxford","era":"other","nn":0,"risk":24,"cat":"green"},{"name":"Bear Inn","lat":51.75183,"lon":-1.25588,"postcode":"OX1 4EH","la":"Oxford","era":"trad","nn":30,"risk":24,"cat":"green"},{"name":"Bigfoot","lat":51.74833,"lon":-1.23908,"postcode":"OX4 1JE","la":"Oxford","era":"other","nn":109,"risk":25,"cat":"green"},{"name":"Blackbird Leys Bowls Club","lat":51.72288,"lon":-1.19519,"postcode":"OX4 6EU","la":"Oxford","era":"other","nn":1649,"risk":58,"cat":"amber"},{"name":"BrewDog Oxford","lat":51.74813,"lon":-1.23721,"postcode":"OX4 1HU","la":"Oxford","era":"other","nn":109,"risk":25,"cat":"green"},{"name":"Brookes Bar","lat":51.75439,"lon":-1.22321,"postcode":"OX3 0BP","la":"Oxford","era":"other","nn":508,"risk":28,"cat":"green"},{"name":"Cape Of Good Hope","lat":51.74897,"lon":-1.24314,"postcode":"OX4 1EA","la":"Oxford","era":"other","nn":0,"risk":24,"cat":"green"},{"name":"Cow And Creek","lat":51.75195,"lon":-1.26089,"postcode":"OX1 1LT","la":"Oxford","era":"other","nn":104,"risk":25,"cat":"green"},{"name":"Cowley Retreat","lat":51.74716,"lon":-1.23555,"postcode":"OX4 1UE","la":"Oxford","era":"other","nn":0,"risk":24,"cat":"green"},{"name":"Cricketers Arms","lat":51.73646,"lon":-1.21228,"postcode":"OX4 2EZ","la":"Oxford","era":"trad","nn":319,"risk":26,"cat":"green"},{"name":"Deep Hall","lat":51.75309,"lon":-1.25596,"postcode":"OX1 3DR","la":"Oxford","era":"other","nn":75,"risk":25,"cat":"green"},{"name":"East Oxford Conservative Club","lat":51.74717,"lon":-1.23756,"postcode":"OX4 1EU","la":"Oxford","era":"other","nn":0,"risk":24,"cat":"green"},{"name":"Everest Nepalese Restaurant And Bar","lat":51.74099,"lon":-1.23105,"postcode":"OX4 3AZ","la":"Oxford","era":"other","nn":334,"risk":27,"cat":"green"},{"name":"Frewen Club","lat":51.75077,"lon":-1.2573,"postcode":"OX1 1BT","la":"Oxford","era":"other","nn":0,"risk":24,"cat":"green"},{"name":"Glamorous Oxford","lat":51.75033,"lon":-1.24311,"postcode":"OX4 1AB","la":"Oxford","era":"other","nn":0,"risk":24,"cat":"green"},{"name":"Golden Ball","lat":51.72196,"lon":-1.2207,"postcode":"OX4 4LQ","la":"Oxford","era":"other","nn":372,"risk":47,"cat":"amber"},{"name":"Half Moon","lat":51.75033,"lon":-1.24311,"postcode":"OX4 1AB","la":"Oxford","era":"other","nn":0,"risk":24,"cat":"green"},{"name":"Hank's","lat":51.75186,"lon":-1.25923,"postcode":"OX1 1ER","la":"Oxford","era":"other","nn":87,"risk":25,"cat":"green"},{"name":"Head Of The River","lat":51.74604,"lon":-1.25616,"postcode":"OX1 4LB","la":"Oxford","era":"trad","nn":250,"risk":26,"cat":"green"},{"name":"Headington Conservative Club","lat":51.75678,"lon":-1.20874,"postcode":"OX3 7BZ","la":"Oxford","era":"trad","nn":197,"risk":26,"cat":"green"},{"name":"James Street Tavern","lat":51.74717,"lon":-1.23756,"postcode":"OX4 1EU","la":"Oxford","era":"other","nn":0,"risk":24,"cat":"green"},{"name":"Jericho Tavern","lat":51.75932,"lon":-1.26784,"postcode":"OX2 6BU","la":"Oxford","era":"other","nn":20,"risk":24,"cat":"green"},{"name":"Jesus College Sports Ground","lat":51.74547,"lon":-1.22531,"postcode":"OX4 2AB","la":"Oxford","era":"other","nn":352,"risk":27,"cat":"green"},{"name":"Jolly Postboys","lat":51.7335,"lon":-1.22503,"postcode":"OX4 3PH","la":"Oxford","era":"other","nn":554,"risk":28,"cat":"green"},{"name":"Jude The Obscure","lat":51.76022,"lon":-1.26655,"postcode":"OX2 6AE","la":"Oxford","era":"other","nn":102,"risk":25,"cat":"green"},{"name":"Kiss","lat":51.75264,"lon":-1.26588,"postcode":"OX1 1JD","la":"Oxford","era":"other","nn":0,"risk":24,"cat":"green"},{"name":"Lamb\\\\& Flag","lat":51.75774,"lon":-1.25949,"postcode":"OX1 3JS","la":"Oxford","era":"other","nn":165,"risk":25,"cat":"green"},{"name":"Love Jericho","lat":51.75803,"lon":-1.26379,"postcode":"OX2 6AA","la":"Oxford","era":"other","nn":0,"risk":24,"cat":"green"},{"name":"Lynrace Spirit","lat":51.76104,"lon":-1.26726,"postcode":"OX2 6EB","la":"Oxford","era":"other","nn":25,"risk":24,"cat":"green"},{"name":"Magdalen College Sports Pavillion","lat":51.75639,"lon":-1.23596,"postcode":"OX3 0EQ","la":"Oxford","era":"trad","nn":663,"risk":29,"cat":"green"},{"name":"Marsh Harrier","lat":51.73844,"lon":-1.218,"postcode":"OX4 2HH","la":"Oxford","era":"other","nn":451,"risk":27,"cat":"green"},{"name":"Marston Royal British Legion","lat":51.76413,"lon":-1.23274,"postcode":"OX3 0JW","la":"Oxford","era":"trad","nn":740,"risk":29,"cat":"green"},{"name":"Mason's Arms","lat":51.7585,"lon":-1.19738,"postcode":"OX3 8LH","la":"Oxford","era":"trad","nn":112,"risk":25,"cat":"green"},{"name":"Medley Sailing Club","lat":51.763,"lon":-1.28126,"postcode":"OX2 0NJ","la":"Oxford","era":"other","nn":0,"risk":24,"cat":"green"},{"name":"North Oxford Association Lunch Club","lat":51.77587,"lon":-1.26314,"postcode":"OX2 7DP","la":"Oxford","era":"other","nn":230,"risk":28,"cat":"green"},{"name":"North Oxford Conservative Club","lat":51.77875,"lon":-1.26769,"postcode":"OX2 7LH","la":"Oxford","era":"other","nn":243,"risk":31,"cat":"amber"},{"name":"Northway Social Club","lat":51.76986,"lon":-1.22576,"postcode":"OX3 9RF","la":"Oxford","era":"mod","nn":316,"risk":29,"cat":"green"},{"name":"O2 Academy","lat":51.74716,"lon":-1.23555,"postcode":"OX4 1UE","la":"Oxford","era":"other","nn":0,"risk":24,"cat":"green"},{"name":"Oxford Blue","lat":51.7474,"lon":-1.2396,"postcode":"OX4 1JU","la":"Oxford","era":"other","nn":109,"risk":25,"cat":"green"},{"name":"Oxford Bridge Club","lat":51.77357,"lon":-1.26381,"postcode":"OX2 7AN","la":"Oxford","era":"other","nn":261,"risk":26,"cat":"green"},{"name":"Oxford City Football Club","lat":51.77059,"lon":-1.2302,"postcode":"OX3 0NQ","la":"Oxford","era":"other","nn":0,"risk":27,"cat":"green"},{"name":"OXSRAD Ltd","lat":51.77059,"lon":-1.2302,"postcode":"OX3 0NQ","la":"Oxford","era":"other","nn":0,"risk":27,"cat":"green"},{"name":"Plush","lat":51.75299,"lon":-1.25892,"postcode":"OX1 3HZ","la":"Oxford","era":"other","nn":22,"risk":24,"cat":"green"},{"name":"Prince Of Wales At Iffley","lat":51.73033,"lon":-1.23683,"postcode":"OX4 4EF","la":"Oxford","era":"trad","nn":886,"risk":50,"cat":"amber"},{"name":"Raoul's Bar","lat":51.75803,"lon":-1.26379,"postcode":"OX2 6AA","la":"Oxford","era":"other","nn":0,"risk":24,"cat":"green"},{"name":"Royal Blenheim","lat":51.75011,"lon":-1.25954,"postcode":"OX1 1PT","la":"Oxford","era":"trad","nn":171,"risk":25,"cat":"green"},{"name":"Sandy's Piano Bar","lat":51.75202,"lon":-1.25479,"postcode":"OX1 4HS","la":"Oxford","era":"other","nn":2,"risk":24,"cat":"green"},{"name":"Sixes Social Cricket","lat":51.74934,"lon":-1.26293,"postcode":"OX1 1PB","la":"Oxford","era":"mod","nn":156,"risk":25,"cat":"green"},{"name":"Slug & Lettuce Also T/a Loco Loco, El Rodeo Mexicano, Burrit","lat":51.75137,"lon":-1.26207,"postcode":"OX1 1AY","la":"Oxford","era":"other","nn":0,"risk":24,"cat":"green"},{"name":"South Oxford Bowls Club","lat":51.73634,"lon":-1.25537,"postcode":"OX1 4SY","la":"Oxford","era":"other","nn":243,"risk":43,"cat":"amber"},{"name":"St Aldate's Tavern","lat":51.75125,"lon":-1.25753,"postcode":"OX1 1BU","la":"Oxford","era":"other","nn":55,"risk":25,"cat":"green"},{"name":"Templars Bar","lat":51.73158,"lon":-1.2152,"postcode":"OX4 3UX","la":"Oxford","era":"other","nn":164,"risk":25,"cat":"green"},{"name":"The Anchor","lat":51.76828,"lon":-1.26917,"postcode":"OX2 6TT","la":"Oxford","era":"trad","nn":641,"risk":29,"cat":"green"},{"name":"The Baron","lat":51.74604,"lon":-1.23249,"postcode":"OX4 1UH","la":"Oxford","era":"other","nn":176,"risk":25,"cat":"green"},{"name":"The Black Boy","lat":51.76325,"lon":-1.21083,"postcode":"OX3 9HT","la":"Oxford","era":"other","nn":0,"risk":24,"cat":"green"},{"name":"The Black Swan","lat":51.74698,"lon":-1.23668,"postcode":"OX4 1QG","la":"Oxford","era":"trad","nn":64,"risk":25,"cat":"green"},{"name":"The Bridge","lat":51.75324,"lon":-1.26617,"postcode":"OX1 2EW","la":"Oxford","era":"other","nn":53,"risk":25,"cat":"green"},{"name":"The Britannia Inn","lat":51.75899,"lon":-1.21402,"postcode":"OX3 7AA","la":"Oxford","era":"trad","nn":106,"risk":25,"cat":"green"},{"name":"The Butchers Arms","lat":51.75585,"lon":-1.21118,"postcode":"OX3 7AN","la":"Oxford","era":"trad","nn":197,"risk":26,"cat":"green"},{"name":"The Castle","lat":51.75074,"lon":-1.26295,"postcode":"OX1 1LD","la":"Oxford","era":"other","nn":0,"risk":24,"cat":"green"},{"name":"The Castle Oxford Ltd","lat":51.75074,"lon":-1.26295,"postcode":"OX1 1LD","la":"Oxford","era":"other","nn":0,"risk":24,"cat":"green"},{"name":"The Chequers","lat":51.75203,"lon":-1.25653,"postcode":"OX1 4DH","la":"Oxford","era":"other","nn":21,"risk":24,"cat":"green"},{"name":"The Chequers","lat":51.75947,"lon":-1.19694,"postcode":"OX3 8JN","la":"Oxford","era":"other","nn":112,"risk":28,"cat":"green"},{"name":"The Chester Arms","lat":51.74167,"lon":-1.24062,"postcode":"OX4 1SN","la":"Oxford","era":"trad","nn":368,"risk":27,"cat":"green"},{"name":"The City Arms, 88th Street, Value Mighty, Sin City Burger","lat":51.74514,"lon":-1.2304,"postcode":"OX4 1UR","la":"Oxford","era":"trad","nn":176,"risk":25,"cat":"green"},{"name":"The Coconut Tree","lat":51.75084,"lon":-1.23948,"postcode":"OX4 1AH","la":"Oxford","era":"other","nn":256,"risk":26,"cat":"green"},{"name":"The Corner House","lat":51.74412,"lon":-1.20124,"postcode":"OX3 7JF","la":"Oxford","era":"other","nn":631,"risk":49,"cat":"amber"},{"name":"The Crown Inn","lat":51.75246,"lon":-1.2584,"postcode":"OX1 3HB","la":"Oxford","era":"trad","nn":69,"risk":25,"cat":"green"},{"name":"The Dew Drop Inn","lat":51.77775,"lon":-1.26456,"postcode":"OX2 7DX","la":"Oxford","era":"trad","nn":230,"risk":31,"cat":"amber"},{"name":"The Duke Of Cambridge","lat":51.75821,"lon":-1.26296,"postcode":"OX1 2HU","la":"Oxford","era":"trad","nn":61,"risk":25,"cat":"green"},{"name":"The Duke Of Monmouth","lat":51.73667,"lon":-1.25189,"postcode":"OX1 4TA","la":"Oxford","era":"trad","nn":243,"risk":31,"cat":"amber"},{"name":"The Fir Tree","lat":51.74517,"lon":-1.24027,"postcode":"OX4 1EJ","la":"Oxford","era":"other","nn":253,"risk":26,"cat":"green"},{"name":"The Four Candles","lat":51.75341,"lon":-1.26188,"postcode":"OX1 2BE","la":"Oxford","era":"other","nn":62,"risk":25,"cat":"green"},{"name":"The Gardeners Arms","lat":51.76291,"lon":-1.26549,"postcode":"OX2 6JE","la":"Oxford","era":"trad","nn":234,"risk":26,"cat":"green"},{"name":"The Gardeners Arms","lat":51.76466,"lon":-1.26191,"postcode":"OX2 6LX","la":"Oxford","era":"trad","nn":0,"risk":24,"cat":"green"},{"name":"The Grapes","lat":51.75364,"lon":-1.25941,"postcode":"OX1 2AT","la":"Oxford","era":"other","nn":31,"risk":24,"cat":"green"},{"name":"The Harcourt Arms","lat":51.75946,"lon":-1.26802,"postcode":"OX2 6DG","la":"Oxford","era":"trad","nn":20,"risk":24,"cat":"green"},{"name":"The Holly Bush","lat":51.75116,"lon":-1.27372,"postcode":"OX2 0BD","la":"Oxford","era":"trad","nn":117,"risk":25,"cat":"green"},{"name":"The House","lat":51.75159,"lon":-1.25606,"postcode":"OX1 4EE","la":"Oxford","era":"other","nn":30,"risk":24,"cat":"green"},{"name":"The Jolly Farmers","lat":51.75072,"lon":-1.26237,"postcode":"OX1 1LD","la":"Oxford","era":"other","nn":40,"risk":25,"cat":"green"},{"name":"The Kings Arms","lat":51.75514,"lon":-1.25432,"postcode":"OX1 3SP","la":"Oxford","era":"trad","nn":98,"risk":25,"cat":"green"},{"name":"The Library","lat":51.74716,"lon":-1.23555,"postcode":"OX4 1UE","la":"Oxford","era":"other","nn":0,"risk":24,"cat":"green"},{"name":"The Lighthouse","lat":51.75294,"lon":-1.26558,"postcode":"OX1 1HH","la":"Oxford","era":"other","nn":0,"risk":24,"cat":"green"},{"name":"The Mad Hatter","lat":51.74897,"lon":-1.24314,"postcode":"OX4 1EA","la":"Oxford","era":"other","nn":0,"risk":24,"cat":"green"},{"name":"The Market Tap","lat":51.75277,"lon":-1.25692,"postcode":"OX1 3DX","la":"Oxford","era":"mod","nn":61,"risk":25,"cat":"green"},{"name":"The Medley","lat":51.763,"lon":-1.28126,"postcode":"OX2 0NJ","la":"Oxford","era":"other","nn":0,"risk":24,"cat":"green"},{"name":"The Old Bookbinder's Ale House","lat":51.75873,"lon":-1.2693,"postcode":"OX2 6BT","la":"Oxford","era":"other","nn":119,"risk":25,"cat":"green"},{"name":"The Old Tom","lat":51.75077,"lon":-1.2573,"postcode":"OX1 1BT","la":"Oxford","era":"other","nn":0,"risk":24,"cat":"green"},{"name":"The Original Swan","lat":51.73362,"lon":-1.21171,"postcode":"OX4 2LF","la":"Oxford","era":"trad","nn":319,"risk":26,"cat":"green"},{"name":"The Oxford Retreat","lat":51.75505,"lon":-1.26755,"postcode":"OX1 2TA","la":"Oxford","era":"other","nn":223,"risk":26,"cat":"green"},{"name":"The Oxford Union","lat":51.75303,"lon":-1.25922,"postcode":"OX1 3JB","la":"Oxford","era":"other","nn":22,"risk":24,"cat":"green"},{"name":"The OXO Bar","lat":51.7537,"lon":-1.26266,"postcode":"OX1 2AQ","la":"Oxford","era":"other","nn":62,"risk":25,"cat":"green"},{"name":"The Plough","lat":51.78415,"lon":-1.2817,"postcode":"OX2 8AH","la":"Oxford","era":"trad","nn":749,"risk":34,"cat":"amber"},{"name":"The Plough Inn","lat":51.7535,"lon":-1.25881,"postcode":"OX1 3HA","la":"Oxford","era":"trad","nn":28,"risk":24,"cat":"green"},{"name":"The Porterhouse Grill And Rooms","lat":51.75137,"lon":-1.27113,"postcode":"OX2 0AL","la":"Oxford","era":"mod","nn":179,"risk":26,"cat":"green"},{"name":"The Prince Of Wales","lat":51.73845,"lon":-1.2016,"postcode":"OX4 2QW","la":"Oxford","era":"trad","nn":631,"risk":34,"cat":"amber"},{"name":"The Punter","lat":51.75012,"lon":-1.27355,"postcode":"OX2 0BE","la":"Oxford","era":"other","nn":117,"risk":25,"cat":"green"},{"name":"The Red Lion","lat":51.75419,"lon":-1.26097,"postcode":"OX1 2BN","la":"Oxford","era":"trad","nn":95,"risk":25,"cat":"green"},{"name":"The Red Lion","lat":51.77191,"lon":-1.23603,"postcode":"OX3 0PH","la":"Oxford","era":"trad","nn":427,"risk":27,"cat":"green"},{"name":"The Rickety Press","lat":51.7601,"lon":-1.26802,"postcode":"OX2 6DS","la":"Oxford","era":"other","nn":71,"risk":25,"cat":"green"},{"name":"The Rose And Crown","lat":51.76466,"lon":-1.26191,"postcode":"OX2 6LX","la":"Oxford","era":"trad","nn":0,"risk":24,"cat":"green"},{"name":"The Royal Oak","lat":51.76021,"lon":-1.26134,"postcode":"OX2 6HT","la":"Oxford","era":"trad","nn":183,"risk":26,"cat":"green"},{"name":"The Royal Standard","lat":51.75948,"lon":-1.21269,"postcode":"OX3 9AJ","la":"Oxford","era":"trad","nn":106,"risk":25,"cat":"green"},{"name":"The Rusty Bicycle","lat":51.74234,"lon":-1.23538,"postcode":"OX4 1RB","la":"Oxford","era":"other","nn":334,"risk":27,"cat":"green"},{"name":"The Swan And Castle","lat":51.75137,"lon":-1.26207,"postcode":"OX1 1AY","la":"Oxford","era":"trad","nn":0,"risk":24,"cat":"green"},{"name":"The Tile Shop Alehouse","lat":51.75935,"lon":-1.21064,"postcode":"OX3 7BT","la":"Oxford","era":"other","nn":142,"risk":25,"cat":"green"},{"name":"The Trout Inn","lat":51.78006,"lon":-1.29935,"postcode":"OX2 8PN","la":"Oxford","era":"trad","nn":494,"risk":33,"cat":"amber"},{"name":"The University Club","lat":51.75644,"lon":-1.25153,"postcode":"OX1 3SZ","la":"Oxford","era":"other","nn":203,"risk":26,"cat":"green"},{"name":"The Varsity Club","lat":51.75223,"lon":-1.25677,"postcode":"OX1 4DB","la":"Oxford","era":"other","nn":28,"risk":24,"cat":"green"},{"name":"The Victoria","lat":51.76121,"lon":-1.26751,"postcode":"OX2 6EB","la":"Oxford","era":"trad","nn":25,"risk":24,"cat":"green"},{"name":"The Wheatsheaf","lat":51.75209,"lon":-1.25624,"postcode":"OX1 4DF","la":"Oxford","era":"trad","nn":0,"risk":24,"cat":"green"},{"name":"The White Hart","lat":51.76461,"lon":-1.21253,"postcode":"OX3 9DL","la":"Oxford","era":"trad","nn":190,"risk":26,"cat":"green"},{"name":"The White Hart","lat":51.78391,"lon":-1.29258,"postcode":"OX2 8PQ","la":"Oxford","era":"trad","nn":140,"risk":28,"cat":"green"},{"name":"The White Horse","lat":51.75806,"lon":-1.21882,"postcode":"OX3 7SP","la":"Oxford","era":"trad","nn":346,"risk":27,"cat":"green"},{"name":"The White Horse","lat":51.75463,"lon":-1.2557,"postcode":"OX1 3BB","la":"Oxford","era":"trad","nn":111,"risk":25,"cat":"green"},{"name":"The White House By Tap Social Movement","lat":51.74379,"lon":-1.25617,"postcode":"OX1 4PD","la":"Oxford","era":"mod","nn":250,"risk":26,"cat":"green"},{"name":"The William Morris","lat":51.73241,"lon":-1.21717,"postcode":"OX4 3LR","la":"Oxford","era":"other","nn":164,"risk":25,"cat":"green"},{"name":"The Wolvercote","lat":51.78297,"lon":-1.29393,"postcode":"OX2 8PG","la":"Oxford","era":"other","nn":0,"risk":27,"cat":"green"},{"name":"Thirst","lat":51.75294,"lon":-1.26558,"postcode":"OX1 1HH","la":"Oxford","era":"other","nn":0,"risk":24,"cat":"green"},{"name":"Three Goats Heads","lat":51.7534,"lon":-1.25917,"postcode":"OX1 2DR","la":"Oxford","era":"trad","nn":28,"risk":24,"cat":"green"},{"name":"Tick-Tock Cafe","lat":51.74954,"lon":-1.24274,"postcode":"OX4 1HP","la":"Oxford","era":"other","nn":69,"risk":25,"cat":"green"},{"name":"Turf Tavern","lat":51.75484,"lon":-1.25298,"postcode":"OX1 3SU","la":"Oxford","era":"other","nn":98,"risk":25,"cat":"green"},{"name":"Victoria Arms","lat":51.777,"lon":-1.24747,"postcode":"OX3 0PZ","la":"Oxford","era":"trad","nn":969,"risk":51,"cat":"amber"},{"name":"Viking Club","lat":51.76325,"lon":-1.21083,"postcode":"OX3 9HT","la":"Oxford","era":"trad","nn":0,"risk":24,"cat":"green"},{"name":"Vincents Club","lat":51.75202,"lon":-1.25482,"postcode":"OX1 4HS","la":"Oxford","era":"other","nn":2,"risk":24,"cat":"green"},{"name":"Water Pebbles Ltd - The George Inn","lat":51.72011,"lon":-1.22521,"postcode":"OX4 4PU","la":"Oxford","era":"trad","nn":372,"risk":47,"cat":"amber"},{"name":"West Oxford Bowls Club","lat":51.75254,"lon":-1.27638,"postcode":"OX2 0BT","la":"Oxford","era":"other","nn":212,"risk":26,"cat":"green"},{"name":"West Oxford Democrats Club Ltd","lat":51.7522,"lon":-1.27336,"postcode":"OX2 0AY","la":"Oxford","era":"other","nn":119,"risk":25,"cat":"green"},{"name":"Wig And Pen","lat":51.75355,"lon":-1.26007,"postcode":"OX1 2AU","la":"Oxford","era":"other","nn":46,"risk":25,"cat":"green"},{"name":"Wolvercote","lat":51.78297,"lon":-1.29393,"postcode":"OX2 8PG","la":"Oxford","era":"other","nn":0,"risk":27,"cat":"green"},{"name":"Abingdon Vale Cricket Club","lat":51.66739,"lon":-1.27846,"postcode":"OX14 3HP","la":"South Oxfordshire","era":"other","nn":323,"risk":29,"cat":"green"},{"name":"Aston Rowant Cricket Club","lat":51.68697,"lon":-0.93794,"postcode":"OX39 4ST","la":"South Oxfordshire","era":"other","nn":1980,"risk":63,"cat":"red"},{"name":"Beetle & Wedge Boathouse","lat":51.54761,"lon":-1.14657,"postcode":"OX10 9JF","la":"South Oxfordshire","era":"other","nn":2220,"risk":65,"cat":"red"},{"name":"Birdcage Inn","lat":51.74713,"lon":-0.97742,"postcode":"OX9 3DX","la":"South Oxfordshire","era":"trad","nn":48,"risk":27,"cat":"green"},{"name":"Broadways","lat":51.60647,"lon":-1.23969,"postcode":"OX11 8RG","la":"South Oxfordshire","era":"other","nn":454,"risk":30,"cat":"green"},{"name":"Catherine Wheel","lat":51.66362,"lon":-1.13836,"postcode":"OX10 7AU","la":"South Oxfordshire","era":"other","nn":3925,"risk":77,"cat":"red"},{"name":"Chinnor Rugby Football Club Ltd","lat":51.74806,"lon":-0.95889,"postcode":"OX9 3JL","la":"South Oxfordshire","era":"trad","nn":1001,"risk":56,"cat":"amber"},{"name":"Coach and Horses","lat":51.59968,"lon":-1.12757,"postcode":"OX10 0DT","la":"South Oxfordshire","era":"trad","nn":150,"risk":28,"cat":"green"},{"name":"Coachmakers Arms","lat":51.59777,"lon":-1.12526,"postcode":"OX10 0EU","la":"South Oxfordshire","era":"trad","nn":172,"risk":28,"cat":"green"},{"name":"Cross Keys","lat":51.60103,"lon":-1.12764,"postcode":"OX10 0DB","la":"South Oxfordshire","era":"trad","nn":150,"risk":28,"cat":"green"},{"name":"Cross Keys Inn","lat":51.74523,"lon":-0.9727,"postcode":"OX9 3JS","la":"South Oxfordshire","era":"trad","nn":308,"risk":29,"cat":"green"},{"name":"Didcot Civic Hall","lat":51.60666,"lon":-1.24864,"postcode":"OX11 7HN","la":"South Oxfordshire","era":"other","nn":93,"risk":28,"cat":"green"},{"name":"Didcot Town Football & Social Club","lat":51.61426,"lon":-1.24041,"postcode":"OX11 7GA","la":"South Oxfordshire","era":"mod","nn":316,"risk":29,"cat":"green"},{"name":"Fairmile Sports and Social Club","lat":51.56881,"lon":-1.14483,"postcode":"OX10 9QL","la":"South Oxfordshire","era":"mod","nn":995,"risk":54,"cat":"amber"},{"name":"Garsington Sports and Social Club","lat":51.718,"lon":-1.15745,"postcode":"OX44 9EL","la":"South Oxfordshire","era":"mod","nn":2476,"risk":67,"cat":"red"},{"name":"GWR Staff Association","lat":51.61099,"lon":-1.24282,"postcode":"OX11 7NR","la":"South Oxfordshire","era":"other","nn":93,"risk":28,"cat":"green"},{"name":"Hagbourne Bowling Club","lat":51.59217,"lon":-1.24073,"postcode":"OX11 9LS","la":"South Oxfordshire","era":"other","nn":141,"risk":48,"cat":"amber"},{"name":"Horspath Cricket Club","lat":51.73758,"lon":-1.17457,"postcode":"OX33 1RT","la":"South Oxfordshire","era":"other","nn":242,"risk":49,"cat":"amber"},{"name":"James Figg","lat":51.74693,"lon":-0.97804,"postcode":"OX9 2BL","la":"South Oxfordshire","era":"other","nn":0,"risk":27,"cat":"green"},{"name":"Kings Arms","lat":51.74712,"lon":-1.13305,"postcode":"OX33 1LU","la":"South Oxfordshire","era":"trad","nn":386,"risk":32,"cat":"amber"},{"name":"Kings Arms","lat":51.70775,"lon":-1.23228,"postcode":"OX4 4YB","la":"South Oxfordshire","era":"trad","nn":562,"risk":51,"cat":"amber"},{"name":"Marlborough Club","lat":51.60602,"lon":-1.24775,"postcode":"OX11 8RU","la":"South Oxfordshire","era":"other","nn":93,"risk":28,"cat":"green"},{"name":"Prince of Wales","lat":51.61026,"lon":-1.24217,"postcode":"OX11 7NN","la":"South Oxfordshire","era":"trad","nn":93,"risk":28,"cat":"green"},{"name":"Railway Inn","lat":51.65379,"lon":-1.23645,"postcode":"OX14 3BT","la":"South Oxfordshire","era":"trad","nn":2583,"risk":68,"cat":"red"},{"name":"Red Lion","lat":51.70597,"lon":-0.90792,"postcode":"OX39 4DL","la":"South Oxfordshire","era":"trad","nn":1010,"risk":57,"cat":"amber"},{"name":"Thame Masonic Hall","lat":51.74831,"lon":-0.97993,"postcode":"OX9 2BZ","la":"South Oxfordshire","era":"trad","nn":202,"risk":28,"cat":"green"},{"name":"The Abingdon Arms","lat":51.79654,"lon":-1.18293,"postcode":"OX3 9UU","la":"South Oxfordshire","era":"trad","nn":4093,"risk":78,"cat":"red"},{"name":"The Barn (Didcot) Ltd","lat":51.60934,"lon":-1.25251,"postcode":"OX11 7AD","la":"South Oxfordshire","era":"other","nn":162,"risk":28,"cat":"green"},{"name":"The Bear of North Moreton","lat":51.60077,"lon":-1.19088,"postcode":"OX11 9AT","la":"South Oxfordshire","era":"other","nn":3421,"risk":73,"cat":"red"},{"name":"The Black Horse","lat":51.74693,"lon":-0.97804,"postcode":"OX9 2BL","la":"South Oxfordshire","era":"trad","nn":0,"risk":27,"cat":"green"},{"name":"The Boat House","lat":51.60113,"lon":-1.12145,"postcode":"OX10 0BL","la":"South Oxfordshire","era":"other","nn":0,"risk":27,"cat":"green"},{"name":"The Bull Great Milton","lat":51.72015,"lon":-1.08923,"postcode":"OX44 7NS","la":"South Oxfordshire","era":"trad","nn":4255,"risk":79,"cat":"red"},{"name":"The Catherine Wheel","lat":51.71055,"lon":-1.22548,"postcode":"OX4 4YP","la":"South Oxfordshire","era":"other","nn":562,"risk":51,"cat":"amber"},{"name":"The Comrades Club","lat":51.59969,"lon":-1.1237,"postcode":"OX10 0BD","la":"South Oxfordshire","era":"other","nn":106,"risk":28,"cat":"green"},{"name":"The Crown","lat":51.66843,"lon":-1.08198,"postcode":"OX44 7SS","la":"South Oxfordshire","era":"trad","nn":0,"risk":47,"cat":"amber"},{"name":"The Crown Inn","lat":51.62096,"lon":-1.10694,"postcode":"OX10 6RP","la":"South Oxfordshire","era":"trad","nn":414,"risk":50,"cat":"amber"},{"name":"The Dolphin","lat":51.60061,"lon":-1.12409,"postcode":"OX10 0EL","la":"South Oxfordshire","era":"other","nn":106,"risk":28,"cat":"green"},{"name":"The Falcon","lat":51.74212,"lon":-0.9703,"postcode":"OX9 3JA","la":"South Oxfordshire","era":"other","nn":383,"risk":30,"cat":"green"},{"name":"The Fleur De Lys","lat":51.59112,"lon":-1.23961,"postcode":"OX11 9LN","la":"South Oxfordshire","era":"other","nn":141,"risk":48,"cat":"amber"},{"name":"The Keep Partnership","lat":51.60172,"lon":-1.12436,"postcode":"OX10 8DL","la":"South Oxfordshire","era":"trad","nn":124,"risk":28,"cat":"green"},{"name":"The King & Queen","lat":51.74709,"lon":-1.13866,"postcode":"OX33 1XT","la":"South Oxfordshire","era":"trad","nn":180,"risk":31,"cat":"amber"},{"name":"The Ladygrove Generous George","lat":51.6129,"lon":-1.2364,"postcode":"OX11 7SZ","la":"South Oxfordshire","era":"trad","nn":316,"risk":32,"cat":"amber"},{"name":"The New Club","lat":51.74852,"lon":-1.14318,"postcode":"OX33 1NJ","la":"South Oxfordshire","era":"other","nn":183,"risk":31,"cat":"amber"},{"name":"The Old Nags Head","lat":51.74634,"lon":-0.97681,"postcode":"OX9 2DW","la":"South Oxfordshire","era":"trad","nn":98,"risk":28,"cat":"green"},{"name":"The Queens Arms","lat":51.60946,"lon":-1.25017,"postcode":"OX11 7JY","la":"South Oxfordshire","era":"trad","nn":162,"risk":28,"cat":"green"},{"name":"The Queens Head","lat":51.73961,"lon":-1.1733,"postcode":"OX33 1RU","la":"South Oxfordshire","era":"trad","nn":242,"risk":49,"cat":"amber"},{"name":"The Red Lion","lat":51.66843,"lon":-1.08198,"postcode":"OX44 7SS","la":"South Oxfordshire","era":"trad","nn":0,"risk":47,"cat":"amber"},{"name":"The Red Lion","lat":51.57682,"lon":-1.15123,"postcode":"OX10 9LG","la":"South Oxfordshire","era":"trad","nn":995,"risk":54,"cat":"amber"},{"name":"The Seven Stars At Marsh Baldon","lat":51.69018,"lon":-1.18436,"postcode":"OX44 9LP","la":"South Oxfordshire","era":"other","nn":3606,"risk":75,"cat":"red"},{"name":"The Six Bells","lat":51.74976,"lon":-0.98319,"postcode":"OX9 2AD","la":"South Oxfordshire","era":"other","nn":276,"risk":29,"cat":"green"},{"name":"The Spire and Spoke","lat":51.64307,"lon":-1.00006,"postcode":"OX49 5AD","la":"South Oxfordshire","era":"other","nn":6316,"risk":84,"cat":"red"},{"name":"The Sun","lat":51.7482,"lon":-1.14057,"postcode":"OX33 1NB","la":"South Oxfordshire","era":"other","nn":180,"risk":31,"cat":"amber"},{"name":"The Three Horseshoes","lat":51.62125,"lon":-1.11292,"postcode":"OX10 6LX","la":"South Oxfordshire","era":"trad","nn":414,"risk":50,"cat":"amber"},{"name":"The Three Horseshoes","lat":51.73892,"lon":-0.93723,"postcode":"OX9 3QY","la":"South Oxfordshire","era":"trad","nn":1805,"risk":62,"cat":"red"},{"name":"The Town Arms","lat":51.60113,"lon":-1.12145,"postcode":"OX10 0BL","la":"South Oxfordshire","era":"trad","nn":0,"risk":27,"cat":"green"},{"name":"The Wheatsheaf","lat":51.69832,"lon":-0.91582,"postcode":"OX39 4HX","la":"South Oxfordshire","era":"trad","nn":1010,"risk":57,"cat":"amber"},{"name":"The Wheatsheaf","lat":51.60541,"lon":-1.25407,"postcode":"OX11 0BS","la":"South Oxfordshire","era":"trad","nn":400,"risk":30,"cat":"green"},{"name":"Wallingford Rowing Club Ltd.","lat":51.59811,"lon":-1.12283,"postcode":"OX10 0HD","la":"South Oxfordshire","era":"other","nn":172,"risk":28,"cat":"green"},{"name":"Wallingford Squash Club","lat":51.60115,"lon":-1.12261,"postcode":"OX10 0BW","la":"South Oxfordshire","era":"other","nn":80,"risk":28,"cat":"green"},{"name":"Wheatley Rugby Club","lat":51.75267,"lon":-1.14038,"postcode":"OX33 1QL","la":"South Oxfordshire","era":"other","nn":497,"risk":33,"cat":"amber"},{"name":"The Castle Inn","lat":52.12384,"lon":-1.45475,"postcode":"OX15 6DJ","la":"Stratford-on-Avon","era":"trad","nn":3066,"risk":70,"cat":"red"},{"name":"The Plough","lat":52.12503,"lon":-1.40021,"postcode":"OX17 1BX","la":"Stratford-on-Avon","era":"trad","nn":3114,"risk":70,"cat":"red"},{"name":"8 Bells Bar","lat":51.72586,"lon":-1.35332,"postcode":"OX13 5PR","la":"Vale of White Horse","era":"other","nn":1281,"risk":59,"cat":"amber"},{"name":"Abbey Sailing Club","lat":51.66199,"lon":-1.28355,"postcode":"OX14 5LD","la":"Vale of White Horse","era":"trad","nn":408,"risk":31,"cat":"amber"},{"name":"Abingdon & District Conservative Club Ltd","lat":51.66998,"lon":-1.28729,"postcode":"OX14 5AG","la":"Vale of White Horse","era":"other","nn":46,"risk":28,"cat":"green"},{"name":"Abingdon Arms","lat":51.59096,"lon":-1.42408,"postcode":"OX12 7BH","la":"Vale of White Horse","era":"trad","nn":275,"risk":30,"cat":"green"},{"name":"Abingdon Royal British Legion Club","lat":51.67005,"lon":-1.29495,"postcode":"OX14 1AH","la":"Vale of White Horse","era":"trad","nn":529,"risk":32,"cat":"amber"},{"name":"Abingdon Squash & Racketball Club","lat":51.68064,"lon":-1.28697,"postcode":"OX14 1GG","la":"Vale of White Horse","era":"other","nn":741,"risk":51,"cat":"amber"},{"name":"Abingdon United Football Club & Social Club","lat":51.68178,"lon":-1.27638,"postcode":"OX14 1PL","la":"Vale of White Horse","era":"mod","nn":0,"risk":33,"cat":"amber"},{"name":"Bell Inn","lat":51.60848,"lon":-1.42153,"postcode":"OX12 7JT","la":"Vale of White Horse","era":"trad","nn":359,"risk":48,"cat":"amber"},{"name":"Blackbird","lat":51.58896,"lon":-1.42783,"postcode":"OX12 8AJ","la":"Vale of White Horse","era":"other","nn":43,"risk":28,"cat":"green"},{"name":"Blue Boar","lat":51.58802,"lon":-1.42618,"postcode":"OX12 8BS","la":"Vale of White Horse","era":"other","nn":46,"risk":28,"cat":"green"},{"name":"Bowyer Arms","lat":51.68615,"lon":-1.24191,"postcode":"OX14 3AE","la":"Vale of White Horse","era":"trad","nn":1624,"risk":62,"cat":"red"},{"name":"Challow And Childrey Cricket Club","lat":51.58634,"lon":-1.45094,"postcode":"OX12 9RR","la":"Vale of White Horse","era":"other","nn":163,"risk":49,"cat":"amber"},{"name":"Challows Royal British Legion Club Ltd","lat":51.58781,"lon":-1.45107,"postcode":"OX12 9RP","la":"Vale of White Horse","era":"trad","nn":163,"risk":49,"cat":"amber"},{"name":"College Oak","lat":51.68479,"lon":-1.26537,"postcode":"OX14 2SB","la":"Vale of White Horse","era":"trad","nn":830,"risk":51,"cat":"amber"},{"name":"Comrades Club","lat":51.58537,"lon":-1.42578,"postcode":"OX12 8DJ","la":"Vale of White Horse","era":"other","nn":189,"risk":29,"cat":"green"},{"name":"Crown","lat":51.66698,"lon":-1.342,"postcode":"OX13 6NT","la":"Vale of White Horse","era":"trad","nn":1941,"risk":64,"cat":"red"},{"name":"Cumnor Cricket Club","lat":51.7328,"lon":-1.3385,"postcode":"OX2 9QH","la":"Vale of White Horse","era":"other","nn":495,"risk":51,"cat":"amber"},{"name":"Delaneys Club","lat":51.5879,"lon":-1.42555,"postcode":"OX12 8BU","la":"Vale of White Horse","era":"other","nn":46,"risk":28,"cat":"green"},{"name":"Drayton Park Golf Course","lat":51.63862,"lon":-1.31412,"postcode":"OX14 4LA","la":"Vale of White Horse","era":"other","nn":621,"risk":50,"cat":"amber"},{"name":"Eyston Arms","lat":51.59583,"lon":-1.3364,"postcode":"OX12 8JY","la":"Vale of White Horse","era":"trad","nn":156,"risk":47,"cat":"amber"},{"name":"Frilford Heath Golf Club","lat":51.67773,"lon":-1.36418,"postcode":"OX13 5NW","la":"Vale of White Horse","era":"other","nn":1927,"risk":64,"cat":"red"},{"name":"George and Dragon","lat":51.64562,"lon":-1.27149,"postcode":"OX14 4NJ","la":"Vale of White Horse","era":"trad","nn":684,"risk":53,"cat":"amber"},{"name":"Grove Rugby Club","lat":51.60359,"lon":-1.4234,"postcode":"OX12 0AA","la":"Vale of White Horse","era":"other","nn":559,"risk":49,"cat":"amber"},{"name":"Hanney Royal British Legion 66 Club Ltd","lat":51.63126,"lon":-1.40352,"postcode":"OX12 0JH","la":"Vale of White Horse","era":"trad","nn":984,"risk":55,"cat":"amber"},{"name":"Harwellian Club","lat":51.59805,"lon":-1.29407,"postcode":"OX11 0LG","la":"Vale of White Horse","era":"other","nn":1662,"risk":62,"cat":"red"},{"name":"Hendred Sports Club","lat":51.59769,"lon":-1.34333,"postcode":"OX12 8JS","la":"Vale of White Horse","era":"other","nn":426,"risk":49,"cat":"amber"},{"name":"King Alfreds Head","lat":51.58886,"lon":-1.42723,"postcode":"OX12 8AH","la":"Vale of White Horse","era":"trad","nn":0,"risk":28,"cat":"green"},{"name":"Kings Arms","lat":51.58849,"lon":-1.4239,"postcode":"OX12 8AU","la":"Vale of White Horse","era":"trad","nn":131,"risk":29,"cat":"green"},{"name":"Kings Head & Bell","lat":51.66946,"lon":-1.28175,"postcode":"OX14 5EA","la":"Vale of White Horse","era":"trad","nn":44,"risk":28,"cat":"green"},{"name":"Kingston Bagpuize & Southmoor Bowls Club","lat":51.68217,"lon":-1.41117,"postcode":"OX13 5AP","la":"Vale of White Horse","era":"trad","nn":1213,"risk":59,"cat":"amber"},{"name":"Letcombe Cricket Club","lat":51.57413,"lon":-1.45589,"postcode":"OX12 9LJ","la":"Vale of White Horse","era":"other","nn":1401,"risk":60,"cat":"amber"},{"name":"Lord Nelson","lat":51.58989,"lon":-1.41136,"postcode":"OX12 8HL","la":"Vale of White Horse","era":"trad","nn":880,"risk":52,"cat":"amber"},{"name":"Milton United Football Club","lat":51.60851,"lon":-1.31127,"postcode":"OX13 6AG","la":"Vale of White Horse","era":"other","nn":0,"risk":48,"cat":"amber"},{"name":"Narrows","lat":51.67018,"lon":-1.28249,"postcode":"OX14 5BB","la":"Vale of White Horse","era":"other","nn":38,"risk":28,"cat":"green"},{"name":"North Star","lat":51.62232,"lon":-1.32427,"postcode":"OX13 6SG","la":"Vale of White Horse","era":"other","nn":363,"risk":36,"cat":"amber"},{"name":"Oracle Snooker Club","lat":51.6705,"lon":-1.28574,"postcode":"OX14 5AJ","la":"Vale of White Horse","era":"other","nn":99,"risk":29,"cat":"green"},{"name":"Oxford Rugby Football Club","lat":51.74385,"lon":-1.2812,"postcode":"OX2 0NA","la":"Vale of White Horse","era":"other","nn":0,"risk":33,"cat":"amber"},{"name":"Red lion","lat":51.64559,"lon":-1.31276,"postcode":"OX14 4JB","la":"Vale of White Horse","era":"trad","nn":159,"risk":47,"cat":"amber"},{"name":"Rutherford Appleton Laboratory Recreational Society","lat":51.57258,"lon":-1.31594,"postcode":"OX11 0QX","la":"Vale of White Horse","era":"mod","nn":1538,"risk":61,"cat":"red"},{"name":"Saxton Rovers F.C","lat":51.66546,"lon":-1.28552,"postcode":"OX14 5HR","la":"Vale of White Horse","era":"other","nn":246,"risk":30,"cat":"green"},{"name":"Spread Eagle","lat":51.68178,"lon":-1.27638,"postcode":"OX14 1PL","la":"Vale of White Horse","era":"trad","nn":0,"risk":33,"cat":"amber"},{"name":"Steventon Sports & Social Club","lat":51.62561,"lon":-1.32112,"postcode":"OX13 6RR","la":"Vale of White Horse","era":"mod","nn":264,"risk":35,"cat":"amber"},{"name":"Sutton Courtenay Football Club","lat":51.63991,"lon":-1.27521,"postcode":"OX14 4AR","la":"Vale of White Horse","era":"other","nn":684,"risk":53,"cat":"amber"},{"name":"The Bay Tree","lat":51.61168,"lon":-1.42227,"postcode":"OX12 0AN","la":"Vale of White Horse","era":"other","nn":359,"risk":48,"cat":"amber"},{"name":"The Beacon","lat":51.58665,"lon":-1.42759,"postcode":"OX12 9BX","la":"Vale of White Horse","era":"other","nn":180,"risk":29,"cat":"green"},{"name":"The Bell Inn","lat":51.58886,"lon":-1.42723,"postcode":"OX12 8AH","la":"Vale of White Horse","era":"trad","nn":0,"risk":28,"cat":"green"},{"name":"The Black Horse","lat":51.68333,"lon":-1.32207,"postcode":"OX13 6JH","la":"Vale of White Horse","era":"trad","nn":1104,"risk":58,"cat":"amber"},{"name":"The Black Swan","lat":51.67097,"lon":-1.28375,"postcode":"OX14 3QH","la":"Vale of White Horse","era":"trad","nn":0,"risk":28,"cat":"green"},{"name":"The Blowing Stone Inn","lat":51.58819,"lon":-1.52989,"postcode":"OX12 9QL","la":"Vale of White Horse","era":"trad","nn":2044,"risk":65,"cat":"red"},{"name":"The Blue Boar","lat":51.67097,"lon":-1.28375,"postcode":"OX14 3QH","la":"Vale of White Horse","era":"other","nn":0,"risk":28,"cat":"green"},{"name":"The Blue Boar","lat":51.69268,"lon":-1.43794,"postcode":"OX13 5ET","la":"Vale of White Horse","era":"other","nn":1551,"risk":61,"cat":"red"},{"name":"The Boars Head","lat":51.59248,"lon":-1.37759,"postcode":"OX12 8QA","la":"Vale of White Horse","era":"trad","nn":2351,"risk":67,"cat":"red"},{"name":"The Brewery Tap","lat":51.66982,"lon":-1.28666,"postcode":"OX14 5BZ","la":"Vale of White Horse","era":"mod","nn":46,"risk":28,"cat":"green"},{"name":"The Bystander","lat":51.70664,"lon":-1.31594,"postcode":"OX13 6DN","la":"Vale of White Horse","era":"other","nn":1573,"risk":62,"cat":"red"},{"name":"The Chequers","lat":51.64943,"lon":-1.45278,"postcode":"OX12 0EX","la":"Vale of White Horse","era":"other","nn":2881,"risk":71,"cat":"red"},{"name":"The Cherry Tree","lat":51.6235,"lon":-1.31937,"postcode":"OX13 6RZ","la":"Vale of White Horse","era":"other","nn":0,"risk":33,"cat":"amber"},{"name":"The Fishes Inn","lat":51.74385,"lon":-1.2812,"postcode":"OX2 0NA","la":"Vale of White Horse","era":"trad","nn":0,"risk":33,"cat":"amber"},{"name":"The Fox Inn","lat":51.6235,"lon":-1.31937,"postcode":"OX13 6RZ","la":"Vale of White Horse","era":"trad","nn":0,"risk":33,"cat":"amber"},{"name":"The Fox Inn","lat":51.62355,"lon":-1.451,"postcode":"OX12 0DX","la":"Vale of White Horse","era":"trad","nn":2382,"risk":67,"cat":"red"},{"name":"The Grapes","lat":51.66993,"lon":-1.28287,"postcode":"OX14 5AX","la":"Vale of White Horse","era":"other","nn":27,"risk":28,"cat":"green"},{"name":"The Greyhound","lat":51.71367,"lon":-1.33768,"postcode":"OX13 5PX","la":"Vale of White Horse","era":"trad","nn":1689,"risk":62,"cat":"red"},{"name":"The Interim Inn","lat":51.70071,"lon":-1.37604,"postcode":"OX13 5QW","la":"Vale of White Horse","era":"trad","nn":1853,"risk":64,"cat":"red"},{"name":"The Lamb Inn","lat":51.58965,"lon":-1.42877,"postcode":"OX12 9AB","la":"Vale of White Horse","era":"trad","nn":101,"risk":29,"cat":"green"},{"name":"The Merry Miller","lat":51.69429,"lon":-1.32707,"postcode":"OX13 6JW","la":"Vale of White Horse","era":"trad","nn":1266,"risk":59,"cat":"amber"},{"name":"The Old Anchor","lat":51.66743,"lon":-1.28391,"postcode":"OX14 5EN","la":"Vale of White Horse","era":"trad","nn":246,"risk":30,"cat":"green"},{"name":"The Packhorse","lat":51.60851,"lon":-1.31126,"postcode":"OX13 6AG","la":"Vale of White Horse","era":"trad","nn":0,"risk":48,"cat":"amber"},{"name":"The Plough at Hanney","lat":51.63291,"lon":-1.41752,"postcode":"OX12 0LN","la":"Vale of White Horse","era":"trad","nn":984,"risk":55,"cat":"amber"},{"name":"The Prince Of Wales","lat":51.67871,"lon":-1.30789,"postcode":"OX13 6JQ","la":"Vale of White Horse","era":"trad","nn":1104,"risk":58,"cat":"amber"},{"name":"The Punch Bowl","lat":51.66986,"lon":-1.28171,"postcode":"OX14 3HG","la":"Vale of White Horse","era":"other","nn":44,"risk":28,"cat":"green"},{"name":"The Red Lion","lat":51.5676,"lon":-1.23591,"postcode":"OX11 9PQ","la":"Vale of White Horse","era":"trad","nn":2627,"risk":69,"cat":"red"},{"name":"The Rose & Crown","lat":51.56822,"lon":-1.29482,"postcode":"OX11 0RZ","la":"Vale of White Horse","era":"trad","nn":1538,"risk":61,"cat":"red"},{"name":"The Seacourt Bridge","lat":51.75117,"lon":-1.3006,"postcode":"OX2 9JU","la":"Vale of White Horse","era":"other","nn":1564,"risk":61,"cat":"red"},{"name":"The Star Inn","lat":51.58778,"lon":-1.5003,"postcode":"OX12 9PL","la":"Vale of White Horse","era":"trad","nn":2044,"risk":65,"cat":"red"},{"name":"The Swan","lat":51.58849,"lon":-1.42768,"postcode":"OX12 8AE","la":"Vale of White Horse","era":"trad","nn":52,"risk":28,"cat":"green"},{"name":"The Tandem","lat":51.71812,"lon":-1.24449,"postcode":"OX1 5PG","la":"Vale of White Horse","era":"other","nn":1347,"risk":60,"cat":"amber"},{"name":"The Tipsy Mercer","lat":51.67001,"lon":-1.28325,"postcode":"OX14 5AX","la":"Vale of White Horse","era":"other","nn":27,"risk":28,"cat":"green"},{"name":"The Waggon & Horses","lat":51.68004,"lon":-1.42842,"postcode":"OX13 5BG","la":"Vale of White Horse","era":"trad","nn":1213,"risk":59,"cat":"amber"},{"name":"The Wheatsheaf","lat":51.64418,"lon":-1.3131,"postcode":"OX14 4JA","la":"Vale of White Horse","era":"trad","nn":159,"risk":47,"cat":"amber"},{"name":"The White Hart","lat":51.68602,"lon":-1.38872,"postcode":"OX13 5LW","la":"Vale of White Horse","era":"trad","nn":1605,"risk":62,"cat":"red"},{"name":"Tilsley Park","lat":51.6899,"lon":-1.28523,"postcode":"OX14 1PU","la":"Vale of White Horse","era":"other","nn":1036,"risk":58,"cat":"amber"},{"name":"Vine Inn","lat":51.73358,"lon":-1.33142,"postcode":"OX2 9QN","la":"Vale of White Horse","era":"trad","nn":495,"risk":51,"cat":"amber"},{"name":"Volunteer Inn","lat":51.61841,"lon":-1.40886,"postcode":"OX12 0DH","la":"Vale of White Horse","era":"trad","nn":1191,"risk":59,"cat":"amber"},{"name":"Wheatsheaf Inn","lat":51.59713,"lon":-1.33724,"postcode":"OX12 8JN","la":"Vale of White Horse","era":"trad","nn":156,"risk":47,"cat":"amber"},{"name":"Fawley Social & Recreation Club","lat":51.52847,"lon":-1.43395,"postcode":"OX12 9NH","la":"West Berkshire","era":"mod","nn":4508,"risk":82,"cat":"red"},{"name":"Butchers Arms","lat":52.02173,"lon":-1.27426,"postcode":"OX17 3RD","la":"West Northamptonshire","era":"trad","nn":98,"risk":41,"cat":"amber"},{"name":"David Seward Trading as the George and Dragon","lat":52.09097,"lon":-1.2839,"postcode":"OX17 2JW","la":"West Northamptonshire","era":"trad","nn":2224,"risk":59,"cat":"amber"},{"name":"Dolphin Inn","lat":52.07192,"lon":-1.27399,"postcode":"OX17 2PW","la":"West Northamptonshire","era":"trad","nn":755,"risk":46,"cat":"amber"},{"name":"Greatworth Inn","lat":52.07747,"lon":-1.19697,"postcode":"OX17 2DT","la":"West Northamptonshire","era":"trad","nn":127,"risk":41,"cat":"amber"},{"name":"Greatworth Sports & Social Club","lat":52.07851,"lon":-1.19621,"postcode":"OX17 2DR","la":"West Northamptonshire","era":"mod","nn":127,"risk":41,"cat":"amber"},{"name":"Red Lion","lat":52.11894,"lon":-1.20993,"postcode":"OX17 2BD","la":"West Northamptonshire","era":"trad","nn":2209,"risk":58,"cat":"amber"},{"name":"Star Inn","lat":52.10551,"lon":-1.1861,"postcode":"OX17 2SA","la":"West Northamptonshire","era":"trad","nn":2209,"risk":58,"cat":"amber"},{"name":"The Griffin Inn","lat":52.13587,"lon":-1.27111,"postcode":"OX17 1LB","la":"West Northamptonshire","era":"trad","nn":3738,"risk":69,"cat":"red"},{"name":"The New Inn","lat":52.07179,"lon":-1.26295,"postcode":"OX17 2ND","la":"West Northamptonshire","era":"trad","nn":755,"risk":46,"cat":"amber"},{"name":"The Rose & Crown","lat":52.01837,"lon":-1.23251,"postcode":"OX17 3DP","la":"West Northamptonshire","era":"trad","nn":2741,"risk":62,"cat":"red"},{"name":"The White Horse","lat":52.02086,"lon":-1.27445,"postcode":"OX17 3RF","la":"West Northamptonshire","era":"trad","nn":98,"risk":41,"cat":"amber"},{"name":"Three Connie Inn","lat":52.0979,"lon":-1.22678,"postcode":"OX17 2EX","la":"West Northamptonshire","era":"trad","nn":2607,"risk":61,"cat":"red"},{"name":"Back Lane Tavern","lat":51.84668,"lon":-1.3552,"postcode":"OX20 1UD","la":"West Oxfordshire","era":"other","nn":73,"risk":34,"cat":"amber"},{"name":"Bee Keepers - Eagle Vaults","lat":51.78457,"lon":-1.48583,"postcode":"OX28 6BB","la":"West Oxfordshire","era":"trad","nn":53,"risk":29,"cat":"green"},{"name":"Bird In Hand","lat":51.82479,"lon":-1.50156,"postcode":"OX29 9XP","la":"West Oxfordshire","era":"other","nn":1573,"risk":62,"cat":"red"},{"name":"Bitter And Twisted","lat":51.94238,"lon":-1.54514,"postcode":"OX7 5NH","la":"West Oxfordshire","era":"other","nn":63,"risk":34,"cat":"amber"},{"name":"Burford Golf Club","lat":51.80181,"lon":-1.64049,"postcode":"OX18 4JG","la":"West Oxfordshire","era":"other","nn":648,"risk":35,"cat":"amber"},{"name":"Carterton Social Centre Club","lat":51.75829,"lon":-1.59757,"postcode":"OX18 3JH","la":"West Oxfordshire","era":"mod","nn":167,"risk":32,"cat":"amber"},{"name":"Carterton Squash Club","lat":51.77106,"lon":-1.59909,"postcode":"OX18 1DS","la":"West Oxfordshire","era":"other","nn":1130,"risk":59,"cat":"amber"},{"name":"Cassington Sports & Social Club","lat":51.79523,"lon":-1.34391,"postcode":"OX29 4DR","la":"West Oxfordshire","era":"mod","nn":271,"risk":50,"cat":"amber"},{"name":"Chipping Norton Bowls Club","lat":51.92691,"lon":-1.54103,"postcode":"OX7 5UY","la":"West Oxfordshire","era":"other","nn":1527,"risk":61,"cat":"red"},{"name":"Clanfield Tavern","lat":51.71668,"lon":-1.58672,"postcode":"OX18 2RG","la":"West Oxfordshire","era":"other","nn":2861,"risk":71,"cat":"red"},{"name":"Community Meal, High Street Methodist Church","lat":51.78602,"lon":-1.48474,"postcode":"OX28 6HG","la":"West Oxfordshire","era":"other","nn":63,"risk":29,"cat":"green"},{"name":"Company of Weavers","lat":51.78358,"lon":-1.48469,"postcode":"OX28 6AD","la":"West Oxfordshire","era":"other","nn":71,"risk":29,"cat":"green"},{"name":"Cotswold Arms","lat":51.80823,"lon":-1.63685,"postcode":"OX18 4QF","la":"West Oxfordshire","era":"trad","nn":130,"risk":29,"cat":"green"},{"name":"Eynsham Sports & Social Club","lat":51.78017,"lon":-1.37563,"postcode":"OX29 4HU","la":"West Oxfordshire","era":"mod","nn":54,"risk":31,"cat":"amber"},{"name":"Ferryman Inn","lat":51.7352,"lon":-1.37275,"postcode":"OX29 5AT","la":"West Oxfordshire","era":"trad","nn":1694,"risk":63,"cat":"red"},{"name":"Golden Eagle","lat":51.75788,"lon":-1.5933,"postcode":"OX18 3HQ","la":"West Oxfordshire","era":"trad","nn":68,"risk":31,"cat":"amber"},{"name":"Grapes And Tomatoes Trading Company","lat":51.75909,"lon":-1.59551,"postcode":"OX18 3JG","la":"West Oxfordshire","era":"other","nn":59,"risk":31,"cat":"amber"},{"name":"Harcourt Arms","lat":51.74856,"lon":-1.39987,"postcode":"OX29 5RJ","la":"West Oxfordshire","era":"trad","nn":2387,"risk":67,"cat":"red"},{"name":"Killingworth Castle","lat":51.88001,"lon":-1.36486,"postcode":"OX20 1EJ","la":"West Oxfordshire","era":"other","nn":1533,"risk":61,"cat":"red"},{"name":"Kingham Royal British Legion Club","lat":51.91111,"lon":-1.62413,"postcode":"OX7 6YS","la":"West Oxfordshire","era":"trad","nn":506,"risk":52,"cat":"amber"},{"name":"Lamb And Flag","lat":51.81186,"lon":-1.48827,"postcode":"OX29 9UB","la":"West Oxfordshire","era":"other","nn":1451,"risk":61,"cat":"red"},{"name":"Little Sandy's","lat":51.78434,"lon":-1.48394,"postcode":"OX28 6FG","la":"West Oxfordshire","era":"other","nn":99,"risk":29,"cat":"green"},{"name":"Masons Arms","lat":51.77291,"lon":-1.43177,"postcode":"OX29 6XN","la":"West Oxfordshire","era":"trad","nn":3294,"risk":74,"cat":"red"},{"name":"Milton Hare - The Potted Goose","lat":51.86247,"lon":-1.61784,"postcode":"OX7 6LA","la":"West Oxfordshire","era":"other","nn":1432,"risk":61,"cat":"red"},{"name":"Oxford Downs Cricket Club","lat":51.72867,"lon":-1.44158,"postcode":"OX29 7QH","la":"West Oxfordshire","era":"other","nn":1065,"risk":58,"cat":"amber"},{"name":"Red Lion","lat":51.72497,"lon":-1.508,"postcode":"OX18 2DL","la":"West Oxfordshire","era":"trad","nn":2438,"risk":68,"cat":"red"},{"name":"Red Lion Hotel","lat":51.78011,"lon":-1.37397,"postcode":"OX29 4HW","la":"West Oxfordshire","era":"trad","nn":67,"risk":34,"cat":"amber"},{"name":"Royal Oak Ramsden","lat":51.8358,"lon":-1.4872,"postcode":"OX7 3AU","la":"West Oxfordshire","era":"trad","nn":980,"risk":55,"cat":"amber"},{"name":"Shilton Rose And Crown","lat":51.77551,"lon":-1.61387,"postcode":"OX18 4AB","la":"West Oxfordshire","era":"trad","nn":1130,"risk":59,"cat":"amber"},{"name":"Siege Of Orleans","lat":51.75862,"lon":-1.59512,"postcode":"OX18 3DH","la":"West Oxfordshire","era":"other","nn":59,"risk":31,"cat":"amber"},{"name":"Stonesfield Sports & Social","lat":51.85547,"lon":-1.42826,"postcode":"OX29 8HA","la":"West Oxfordshire","era":"mod","nn":232,"risk":50,"cat":"amber"},{"name":"Sturdy's Castle Country Inn","lat":51.86922,"lon":-1.32888,"postcode":"OX5 3EP","la":"West Oxfordshire","era":"trad","nn":2746,"risk":70,"cat":"red"},{"name":"The Angel","lat":51.80702,"lon":-1.63363,"postcode":"OX18 4SN","la":"West Oxfordshire","era":"trad","nn":1,"risk":28,"cat":"green"},{"name":"The Angel Inn","lat":51.78347,"lon":-1.48571,"postcode":"OX28 6AL","la":"West Oxfordshire","era":"trad","nn":71,"risk":29,"cat":"green"},{"name":"The Beehive","lat":51.75812,"lon":-1.59421,"postcode":"OX18 3HA","la":"West Oxfordshire","era":"other","nn":68,"risk":31,"cat":"amber"},{"name":"The Bell","lat":51.87226,"lon":-1.48275,"postcode":"OX7 3PP","la":"West Oxfordshire","era":"other","nn":74,"risk":34,"cat":"amber"},{"name":"The Bell Inn","lat":51.7661,"lon":-1.48205,"postcode":"OX29 7UP","la":"West Oxfordshire","era":"trad","nn":1825,"risk":63,"cat":"red"},{"name":"The Black Horse","lat":51.72419,"lon":-1.42791,"postcode":"OX29 7RH","la":"West Oxfordshire","era":"trad","nn":535,"risk":52,"cat":"amber"},{"name":"The Black Horse","lat":51.94935,"lon":-1.58233,"postcode":"OX7 5YW","la":"West Oxfordshire","era":"trad","nn":2644,"risk":69,"cat":"red"},{"name":"The Blind Tiger Witney","lat":51.78504,"lon":-1.48578,"postcode":"OX28 6BB","la":"West Oxfordshire","era":"other","nn":49,"risk":29,"cat":"green"},{"name":"The Bull Charlbury","lat":51.87233,"lon":-1.48144,"postcode":"OX7 3RR","la":"West Oxfordshire","era":"trad","nn":0,"risk":33,"cat":"amber"},{"name":"The Bushcraft Company - Blenheim Woods","lat":51.82609,"lon":-1.35936,"postcode":"OX20 1LE","la":"West Oxfordshire","era":"mod","nn":895,"risk":54,"cat":"amber"},{"name":"The Carpenters Arms","lat":51.81335,"lon":-1.63127,"postcode":"OX18 4BH","la":"West Oxfordshire","era":"trad","nn":687,"risk":36,"cat":"amber"},{"name":"The Chequers","lat":51.76513,"lon":-1.56583,"postcode":"OX18 3PR","la":"West Oxfordshire","era":"other","nn":1015,"risk":58,"cat":"amber"},{"name":"The Chequers","lat":51.94295,"lon":-1.54518,"postcode":"OX7 5NP","la":"West Oxfordshire","era":"other","nn":63,"risk":34,"cat":"amber"},{"name":"The Chequers Inn","lat":51.7928,"lon":-1.34343,"postcode":"OX29 4DG","la":"West Oxfordshire","era":"trad","nn":271,"risk":50,"cat":"amber"},{"name":"The Chequers Inn","lat":51.91533,"lon":-1.59089,"postcode":"OX7 6NJ","la":"West Oxfordshire","era":"trad","nn":2081,"risk":65,"cat":"red"},{"name":"The Cotswold Merrymouth Inn","lat":51.86677,"lon":-1.65689,"postcode":"OX7 6HR","la":"West Oxfordshire","era":"trad","nn":1968,"risk":64,"cat":"red"},{"name":"The Crown Inn","lat":51.84724,"lon":-1.35465,"postcode":"OX20 1TE","la":"West Oxfordshire","era":"trad","nn":73,"risk":34,"cat":"amber"},{"name":"The Crown Inn","lat":51.92262,"lon":-1.45044,"postcode":"OX7 4NN","la":"West Oxfordshire","era":"trad","nn":4616,"risk":83,"cat":"red"},{"name":"The Duke Of Marlborough","lat":51.86872,"lon":-1.37768,"postcode":"OX20 1HT","la":"West Oxfordshire","era":"trad","nn":1533,"risk":61,"cat":"red"},{"name":"The Eagle Tavern","lat":51.78385,"lon":-1.48672,"postcode":"OX28 6BL","la":"West Oxfordshire","era":"trad","nn":81,"risk":29,"cat":"green"},{"name":"The Elm Tree","lat":51.79154,"lon":-1.48225,"postcode":"OX28 1NQ","la":"West Oxfordshire","era":"trad","nn":223,"risk":30,"cat":"green"},{"name":"The Evenlode","lat":51.7864,"lon":-1.38573,"postcode":"OX29 4PS","la":"West Oxfordshire","era":"other","nn":981,"risk":55,"cat":"amber"},{"name":"The Falkland Arms","lat":51.96105,"lon":-1.42497,"postcode":"OX7 4DB","la":"West Oxfordshire","era":"trad","nn":4616,"risk":83,"cat":"red"},{"name":"The Fleece Hotel","lat":51.78245,"lon":-1.48446,"postcode":"OX28 4AZ","la":"West Oxfordshire","era":"trad","nn":127,"risk":29,"cat":"green"},{"name":"The Fox","lat":51.83515,"lon":-1.54265,"postcode":"OX29 9NP","la":"West Oxfordshire","era":"trad","nn":3050,"risk":72,"cat":"red"},{"name":"The George & Dragon","lat":51.82521,"lon":-1.38593,"postcode":"OX29 8JX","la":"West Oxfordshire","era":"trad","nn":626,"risk":53,"cat":"amber"},{"name":"The Griffin","lat":51.78706,"lon":-1.47384,"postcode":"OX28 3JH","la":"West Oxfordshire","era":"trad","nn":638,"risk":33,"cat":"amber"},{"name":"The Highway Inn","lat":51.80708,"lon":-1.63647,"postcode":"OX18 4RG","la":"West Oxfordshire","era":"trad","nn":130,"risk":29,"cat":"green"},{"name":"The Hollybush","lat":51.78358,"lon":-1.48856,"postcode":"OX28 6BT","la":"West Oxfordshire","era":"trad","nn":87,"risk":29,"cat":"green"},{"name":"The Horse And Radish","lat":51.79697,"lon":-1.55024,"postcode":"OX29 0RZ","la":"West Oxfordshire","era":"trad","nn":468,"risk":51,"cat":"amber"},{"name":"The Horseshoe","lat":51.72514,"lon":-1.5475,"postcode":"OX18 2HA","la":"West Oxfordshire","era":"trad","nn":324,"risk":50,"cat":"amber"},{"name":"The Jolly Sportsman","lat":51.78032,"lon":-1.37488,"postcode":"OX29 4HT","la":"West Oxfordshire","era":"other","nn":54,"risk":34,"cat":"amber"},{"name":"The Kingham Plough","lat":51.91529,"lon":-1.62123,"postcode":"OX7 6YD","la":"West Oxfordshire","era":"trad","nn":506,"risk":52,"cat":"amber"},{"name":"The Kings Arms Hotel","lat":51.94035,"lon":-1.54557,"postcode":"OX7 5AA","la":"West Oxfordshire","era":"trad","nn":159,"risk":34,"cat":"amber"},{"name":"The Lamb Inn","lat":51.85357,"lon":-1.59967,"postcode":"OX7 6DQ","la":"West Oxfordshire","era":"trad","nn":671,"risk":53,"cat":"amber"},{"name":"The Lamb Inn","lat":51.80643,"lon":-1.50746,"postcode":"OX29 9TW","la":"West Oxfordshire","era":"trad","nn":1451,"risk":61,"cat":"red"},{"name":"The Masons Arms","lat":51.77207,"lon":-1.57542,"postcode":"OX18 3NN","la":"West Oxfordshire","era":"trad","nn":1015,"risk":58,"cat":"amber"},{"name":"The Masons Arms","lat":51.81455,"lon":-1.4412,"postcode":"OX29 6RZ","la":"West Oxfordshire","era":"trad","nn":174,"risk":49,"cat":"amber"},{"name":"The Maytime Inn","lat":51.8,"lon":-1.58294,"postcode":"OX18 4HW","la":"West Oxfordshire","era":"trad","nn":1101,"risk":58,"cat":"amber"},{"name":"The Morris Clown","lat":51.72647,"lon":-1.54331,"postcode":"OX18 2JW","la":"West Oxfordshire","era":"other","nn":324,"risk":50,"cat":"amber"},{"name":"The New Inn","lat":51.78434,"lon":-1.49213,"postcode":"OX28 6AU","la":"West Oxfordshire","era":"trad","nn":183,"risk":30,"cat":"green"},{"name":"THE OXFORDSHIRE YEOMAN","lat":51.81024,"lon":-1.40042,"postcode":"OX29 8AQ","la":"West Oxfordshire","era":"other","nn":1621,"risk":62,"cat":"red"},{"name":"The Plough Inn","lat":51.84267,"lon":-1.47826,"postcode":"OX7 3BY","la":"West Oxfordshire","era":"trad","nn":980,"risk":55,"cat":"amber"},{"name":"The Plough Inn","lat":51.73997,"lon":-1.60984,"postcode":"OX18 2PU","la":"West Oxfordshire","era":"trad","nn":2205,"risk":66,"cat":"red"},{"name":"The Punch Bowl Inn","lat":51.84684,"lon":-1.35299,"postcode":"OX20 1TR","la":"West Oxfordshire","era":"trad","nn":123,"risk":34,"cat":"amber"},{"name":"The Queens Head","lat":51.78164,"lon":-1.37134,"postcode":"OX29 4HH","la":"West Oxfordshire","era":"trad","nn":248,"risk":32,"cat":"amber"},{"name":"The Red Lion","lat":51.9413,"lon":-1.54384,"postcode":"OX7 5BJ","la":"West Oxfordshire","era":"trad","nn":149,"risk":34,"cat":"amber"},{"name":"The Rose & Crown","lat":51.87292,"lon":-1.48289,"postcode":"OX7 3PL","la":"West Oxfordshire","era":"trad","nn":74,"risk":34,"cat":"amber"},{"name":"The Rose Revived","lat":51.71015,"lon":-1.41678,"postcode":"OX29 7QD","la":"West Oxfordshire","era":"trad","nn":1740,"risk":63,"cat":"red"},{"name":"The Rowing Machine","lat":51.78682,"lon":-1.50194,"postcode":"OX28 5AR","la":"West Oxfordshire","era":"other","nn":577,"risk":35,"cat":"amber"},{"name":"The Royal Oak","lat":51.78585,"lon":-1.48561,"postcode":"OX28 6HW","la":"West Oxfordshire","era":"trad","nn":63,"risk":29,"cat":"green"},{"name":"The Royal Oak And Cotswold Pie Company","lat":51.80701,"lon":-1.63362,"postcode":"OX18 4SN","la":"West Oxfordshire","era":"trad","nn":1,"risk":28,"cat":"green"},{"name":"The Star Inn","lat":51.84773,"lon":-1.35583,"postcode":"OX20 1TA","la":"West Oxfordshire","era":"trad","nn":97,"risk":34,"cat":"amber"},{"name":"The Swan Inn","lat":51.8067,"lon":-1.59475,"postcode":"OX18 4DY","la":"West Oxfordshire","era":"trad","nn":1101,"risk":58,"cat":"amber"},{"name":"The Swan Inn","lat":51.86631,"lon":-1.56596,"postcode":"OX7 6AY","la":"West Oxfordshire","era":"trad","nn":2300,"risk":67,"cat":"red"},{"name":"The Talbot Inn","lat":51.77559,"lon":-1.36114,"postcode":"OX29 4BT","la":"West Oxfordshire","era":"trad","nn":972,"risk":55,"cat":"amber"},{"name":"The Three Horseshoes","lat":51.78411,"lon":-1.4895,"postcode":"OX28 6BS","la":"West Oxfordshire","era":"trad","nn":87,"risk":29,"cat":"green"},{"name":"The Three Pigeons","lat":51.79258,"lon":-1.47947,"postcode":"OX28 1DG","la":"West Oxfordshire","era":"other","nn":223,"risk":30,"cat":"green"},{"name":"The Tite Inn","lat":51.90047,"lon":-1.53218,"postcode":"OX7 3NY","la":"West Oxfordshire","era":"trad","nn":3001,"risk":72,"cat":"red"},{"name":"The White Hart","lat":51.79638,"lon":-1.54351,"postcode":"OX29 0RA","la":"West Oxfordshire","era":"trad","nn":468,"risk":51,"cat":"amber"},{"name":"The White Horse","lat":51.85445,"lon":-1.43121,"postcode":"OX29 8EA","la":"West Oxfordshire","era":"trad","nn":232,"risk":50,"cat":"amber"},{"name":"The White House","lat":51.83187,"lon":-1.35031,"postcode":"OX20 1RQ","la":"West Oxfordshire","era":"other","nn":895,"risk":54,"cat":"amber"},{"name":"The Windrush Inn","lat":51.79076,"lon":-1.49649,"postcode":"OX28 6DJ","la":"West Oxfordshire","era":"trad","nn":577,"risk":32,"cat":"amber"},{"name":"The Woodman","lat":51.81531,"lon":-1.44341,"postcode":"OX29 6TT","la":"West Oxfordshire","era":"other","nn":174,"risk":49,"cat":"amber"},{"name":"The Wychwood Inn","lat":51.85946,"lon":-1.59757,"postcode":"OX7 6BA","la":"West Oxfordshire","era":"trad","nn":671,"risk":53,"cat":"amber"},{"name":"Three Horseshoes","lat":51.82442,"lon":-1.39495,"postcode":"OX29 8BE","la":"West Oxfordshire","era":"trad","nn":626,"risk":53,"cat":"amber"},{"name":"Vicky's After School Club - Standlake C Of E School","lat":51.72872,"lon":-1.42529,"postcode":"OX29 7SQ","la":"West Oxfordshire","era":"other","nn":535,"risk":52,"cat":"amber"},{"name":"Windrush Club","lat":51.78881,"lon":-1.48268,"postcode":"OX28 6HT","la":"West Oxfordshire","era":"other","nn":304,"risk":30,"cat":"green"},{"name":"Ye Olde Cross Keys","lat":51.78506,"lon":-1.48507,"postcode":"OX28 6AA","la":"West Oxfordshire","era":"trad","nn":49,"risk":29,"cat":"green"},{"name":"Ye Olde Three Horseshoes","lat":51.87233,"lon":-1.48144,"postcode":"OX7 3RR","la":"West Oxfordshire","era":"trad","nn":0,"risk":33,"cat":"amber"}]