[{"name":"Aberlady Bowling Club","lat":56.00782,"lon":-2.8664,"postcode":"EH32 0RD","la":"East Lothian","era":"other","nn":2270,"risk":65,"cat":"red"},{"name":"Anchor Bar","lat":55.94408,"lon":-3.06044,"postcode":"EH21 6AN","la":"East Lothian","era":"trad","nn":128,"risk":27,"cat":"green"},{"name":"Archerfield  Links Clubhouse","lat":56.04479,"lon":-2.80349,"postcode":"EH39 5HQ","la":"East Lothian","era":"other","nn":0,"risk":31,"cat":"amber"},{"name":"Archerfield House\u00b7& Waterfront Event Centre","lat":56.04479,"lon":-2.80349,"postcode":"EH39 5HQ","la":"East Lothian","era":"other","nn":0,"risk":31,"cat":"amber"},{"name":"Archerfield Walled Garden","lat":56.04493,"lon":-2.80264,"postcode":"EH39 5HQ","la":"East Lothian","era":"other","nn":55,"risk":32,"cat":"amber"},{"name":"Auld Hoose","lat":56.05905,"lon":-2.7185,"postcode":"EH39 4HX","la":"East Lothian","era":"other","nn":33,"risk":27,"cat":"green"},{"name":"Blair Hall (Orange Lodge Meeting Place) LOL228","lat":55.94291,"lon":-2.94429,"postcode":"EH33 1HW","la":"East Lothian","era":"other","nn":270,"risk":28,"cat":"green"},{"name":"Brunton Theatre","lat":55.9439,"lon":-3.05716,"postcode":"EH21 6AF","la":"East Lothian","era":"other","nn":64,"risk":27,"cat":"green"},{"name":"Castlepark Bowling Club","lat":55.95627,"lon":-2.97956,"postcode":"EH32 9JY","la":"East Lothian","era":"other","nn":321,"risk":29,"cat":"green"},{"name":"Coach And Horses","lat":55.94251,"lon":-3.05011,"postcode":"EH21 7EA","la":"East Lothian","era":"trad","nn":134,"risk":27,"cat":"green"},{"name":"Coalgate","lat":55.91254,"lon":-2.94,"postcode":"EH35 5HN","la":"East Lothian","era":"other","nn":1926,"risk":62,"cat":"red"},{"name":"Cockenzie & Port Seton Bowling And Recreation Club","lat":55.9706,"lon":-2.9515,"postcode":"EH32 0BH","la":"East Lothian","era":"other","nn":461,"risk":50,"cat":"amber"},{"name":"Craigielaw Golf Club","lat":56.02229,"lon":-2.68106,"postcode":"EH32 0PY","la":"East Lothian","era":"other","nn":3947,"risk":77,"cat":"red"},{"name":"David Macbeth Moir","lat":55.94337,"lon":-3.05757,"postcode":"EH21 6AG","la":"East Lothian","era":"other","nn":64,"risk":27,"cat":"green"},{"name":"Day Today","lat":55.93676,"lon":-3.01627,"postcode":"EH21 8BQ","la":"East Lothian","era":"other","nn":324,"risk":49,"cat":"amber"},{"name":"Dunbar Bowling Club","lat":55.99889,"lon":-2.51294,"postcode":"EH42 1JX","la":"East Lothian","era":"mod","nn":23,"risk":27,"cat":"green"},{"name":"Dunbar Royal British Legion","lat":56.00317,"lon":-2.51638,"postcode":"EH42 1ES","la":"East Lothian","era":"other","nn":140,"risk":27,"cat":"green"},{"name":"Eagle Inn","lat":56.00156,"lon":-2.51511,"postcode":"EH42 1EW","la":"East Lothian","era":"trad","nn":70,"risk":27,"cat":"green"},{"name":"East Linton Bowling Club","lat":55.98636,"lon":-2.65712,"postcode":"EH40 3AH","la":"East Lothian","era":"other","nn":4264,"risk":79,"cat":"red"},{"name":"East Lothian Co-op Employees Bowling & Social Club","lat":55.94029,"lon":-2.94795,"postcode":"EH33 2BG","la":"East Lothian","era":"mod","nn":187,"risk":28,"cat":"green"},{"name":"Elphinstone Miners Welfare Charitable Society","lat":55.92182,"lon":-2.9661,"postcode":"EH33 2NA","la":"East Lothian","era":"mod","nn":1926,"risk":62,"cat":"red"},{"name":"Eskmills Bowling Club","lat":55.93966,"lon":-3.05855,"postcode":"EH21 7PE","la":"East Lothian","era":"trad","nn":215,"risk":28,"cat":"green"},{"name":"Fisherrow Tap","lat":55.9448,"lon":-3.06247,"postcode":"EH21 6BZ","la":"East Lothian","era":"mod","nn":129,"risk":27,"cat":"green"},{"name":"Fisherrow Yacht Club","lat":55.94508,"lon":-3.06447,"postcode":"EH21 6DG","la":"East Lothian","era":"other","nn":119,"risk":27,"cat":"green"},{"name":"Gifford Bowling & Social Club","lat":55.90449,"lon":-2.75107,"postcode":"EH41 4QL","la":"East Lothian","era":"mod","nn":477,"risk":50,"cat":"amber"},{"name":"Gifford Golf Club","lat":55.9002,"lon":-2.75113,"postcode":"EH41 4JE","la":"East Lothian","era":"other","nn":477,"risk":50,"cat":"amber"},{"name":"Golfers Rest","lat":56.05798,"lon":-2.72126,"postcode":"EH39 4HD","la":"East Lothian","era":"other","nn":146,"risk":27,"cat":"green"},{"name":"Gullane Golf Club","lat":56.03406,"lon":-2.83814,"postcode":"EH31 2BB","la":"East Lothian","era":"other","nn":199,"risk":45,"cat":"amber"},{"name":"Gullane Golf Club Visitors Centre","lat":56.0338,"lon":-2.83497,"postcode":"EH31 2AL","la":"East Lothian","era":"other","nn":199,"risk":45,"cat":"amber"},{"name":"Haddington Bowling Club","lat":55.95433,"lon":-2.78339,"postcode":"EH41 4DL","la":"East Lothian","era":"other","nn":235,"risk":28,"cat":"green"},{"name":"Haddington Rugby Club","lat":55.95165,"lon":-2.78018,"postcode":"EH41 4DB","la":"East Lothian","era":"other","nn":358,"risk":29,"cat":"green"},{"name":"Herringbone","lat":56.0579,"lon":-2.7236,"postcode":"EH39 4AE","la":"East Lothian","era":"other","nn":146,"risk":27,"cat":"green"},{"name":"Horseshoe Tavern","lat":55.93971,"lon":-3.04749,"postcode":"EH21 7AP","la":"East Lothian","era":"trad","nn":351,"risk":29,"cat":"green"},{"name":"Keepers Arms","lat":55.94481,"lon":-2.95496,"postcode":"EH33 1AQ","la":"East Lothian","era":"trad","nn":160,"risk":28,"cat":"green"},{"name":"Levenhall Arms","lat":55.94476,"lon":-3.02639,"postcode":"EH21 7PP","la":"East Lothian","era":"trad","nn":1018,"risk":56,"cat":"amber"},{"name":"Lodge Dunbar Castle No 75","lat":56.00154,"lon":-2.52378,"postcode":"EH42 1DE","la":"East Lothian","era":"mod","nn":484,"risk":30,"cat":"green"},{"name":"Lodge Nisbet Social Club","lat":55.94196,"lon":-2.94827,"postcode":"EH33 2DL","la":"East Lothian","era":"mod","nn":187,"risk":28,"cat":"green"},{"name":"Lodge St John (Fisherrow) No 112","lat":55.94762,"lon":-3.04687,"postcode":"EH21 7SD","la":"East Lothian","era":"other","nn":0,"risk":26,"cat":"green"},{"name":"Lodge Thorntree 1038","lat":55.95857,"lon":-2.98793,"postcode":"EH32 9AZ","la":"East Lothian","era":"other","nn":128,"risk":27,"cat":"green"},{"name":"Longniddry Bowling Club","lat":55.97702,"lon":-2.8977,"postcode":"EH32 0LD","la":"East Lothian","era":"other","nn":293,"risk":48,"cat":"amber"},{"name":"Longniddry British Legion","lat":55.97462,"lon":-2.89579,"postcode":"EH32 0NQ","la":"East Lothian","era":"other","nn":293,"risk":48,"cat":"amber"},{"name":"M C Catering at Luffness New Golf Club","lat":56.01791,"lon":-2.83466,"postcode":"EH32 0QA","la":"East Lothian","era":"other","nn":1724,"risk":61,"cat":"red"},{"name":"Macmerry Bowling Club","lat":55.94052,"lon":-2.9075,"postcode":"EH33 1PL","la":"East Lothian","era":"other","nn":111,"risk":47,"cat":"amber"},{"name":"Macmerry Miners Welfare","lat":55.94144,"lon":-2.90818,"postcode":"EH33 1QF","la":"East Lothian","era":"other","nn":111,"risk":47,"cat":"amber"},{"name":"Masonic Lodge No 57","lat":55.95582,"lon":-2.77509,"postcode":"EH41 3JN","la":"East Lothian","era":"trad","nn":47,"risk":27,"cat":"green"},{"name":"Mercat Bar & Grill","lat":55.9222,"lon":-3.03621,"postcode":"EH21 8PG","la":"East Lothian","era":"mod","nn":2041,"risk":63,"cat":"red"},{"name":"Musselburgh & Fisherrow Welfare Club","lat":55.9442,"lon":-3.06557,"postcode":"EH21 6BQ","la":"East Lothian","era":"other","nn":119,"risk":27,"cat":"green"},{"name":"Musselburgh Athletic FC","lat":55.94316,"lon":-3.06481,"postcode":"EH21 6QA","la":"East Lothian","era":"other","nn":126,"risk":27,"cat":"green"},{"name":"Musselburgh Bowling Club","lat":55.93928,"lon":-3.05346,"postcode":"EH21 7BQ","la":"East Lothian","era":"other","nn":233,"risk":28,"cat":"green"},{"name":"Musselburgh Miners Social Welfare","lat":55.95238,"lon":-2.99642,"postcode":"EH32 9RP","la":"East Lothian","era":"mod","nn":265,"risk":28,"cat":"green"},{"name":"Musselburgh Old Course Golf Club","lat":55.94762,"lon":-3.04687,"postcode":"EH21 7SD","la":"East Lothian","era":"other","nn":0,"risk":26,"cat":"green"},{"name":"Musselburgh Rugby Football Club","lat":55.94085,"lon":-3.0674,"postcode":"EH21 6RN","la":"East Lothian","era":"other","nn":303,"risk":29,"cat":"green"},{"name":"North Berwick Bowling Club","lat":56.05537,"lon":-2.72129,"postcode":"EH39 4PW","la":"East Lothian","era":"other","nn":290,"risk":28,"cat":"green"},{"name":"North Berwick Golf Club Restaurant","lat":56.05873,"lon":-2.72736,"postcode":"EH39 4BB","la":"East Lothian","era":"other","nn":60,"risk":27,"cat":"green"},{"name":"North Berwick Masonic Social Club","lat":56.05934,"lon":-2.7186,"postcode":"EH39 4HY","la":"East Lothian","era":"other","nn":33,"risk":27,"cat":"green"},{"name":"North Berwick Rugby Club","lat":56.05421,"lon":-2.70889,"postcode":"EH39 4DG","la":"East Lothian","era":"other","nn":414,"risk":29,"cat":"green"},{"name":"Pencaitland & Winton Bowling & Community Club","lat":55.91149,"lon":-2.8874,"postcode":"EH34 5DN","la":"East Lothian","era":"other","nn":3280,"risk":72,"cat":"red"},{"name":"Polson Park Bowling Association","lat":55.94526,"lon":-2.96093,"postcode":"EH33 1AN","la":"East Lothian","era":"other","nn":219,"risk":28,"cat":"green"},{"name":"Preston Athletic Football Club","lat":55.95645,"lon":-2.9847,"postcode":"EH32 9NH","la":"East Lothian","era":"other","nn":293,"risk":28,"cat":"green"},{"name":"Preston Lodge Rugby Football Club","lat":55.95402,"lon":-2.99949,"postcode":"EH32 9SA","la":"East Lothian","era":"other","nn":265,"risk":28,"cat":"green"},{"name":"Prestonpans Labour Club","lat":55.96043,"lon":-2.9805,"postcode":"EH32 9EA","la":"East Lothian","era":"other","nn":313,"risk":29,"cat":"green"},{"name":"Prestonpans Royal British Legion","lat":55.95757,"lon":-2.98896,"postcode":"EH32 9BN","la":"East Lothian","era":"trad","nn":104,"risk":27,"cat":"green"},{"name":"Prestoungrange Goth","lat":55.95739,"lon":-2.99059,"postcode":"EH32 9BE","la":"East Lothian","era":"other","nn":104,"risk":27,"cat":"green"},{"name":"Railway Tavern","lat":55.95914,"lon":-2.98497,"postcode":"EH32 9AX","la":"East Lothian","era":"trad","nn":195,"risk":28,"cat":"green"},{"name":"Redcoll Catering Ltd at Glen Golf Club","lat":56.05727,"lon":-2.70511,"postcode":"EH39 4LE","la":"East Lothian","era":"other","nn":414,"risk":34,"cat":"amber"},{"name":"Riverside Tavern","lat":55.94088,"lon":-3.05587,"postcode":"EH21 7BL","la":"East Lothian","era":"other","nn":215,"risk":28,"cat":"green"},{"name":"Ross High Rugby Football Club","lat":55.94135,"lon":-2.95187,"postcode":"EH33 2DB","la":"East Lothian","era":"other","nn":233,"risk":28,"cat":"green"},{"name":"Seton Sands Holiday Park/Terrace Cafe Bar","lat":55.9721,"lon":-2.92986,"postcode":"EH32 0QE","la":"East Lothian","era":"other","nn":1357,"risk":58,"cat":"amber"},{"name":"Sportsman","lat":55.94286,"lon":-3.04805,"postcode":"EH21 7BX","la":"East Lothian","era":"other","nn":134,"risk":27,"cat":"green"},{"name":"Station Yard Micropub","lat":55.99878,"lon":-2.51264,"postcode":"EH42 1JX","la":"East Lothian","era":"mod","nn":23,"risk":27,"cat":"green"},{"name":"Stenton Bowling Club","lat":55.95958,"lon":-2.60788,"postcode":"EH42 1TE","la":"East Lothian","era":"other","nn":4273,"risk":79,"cat":"red"},{"name":"Tantallon Golf Club","lat":56.05838,"lon":-2.72663,"postcode":"EH39 4AH","la":"East Lothian","era":"other","nn":60,"risk":27,"cat":"green"},{"name":"The Bear and Bull","lat":56.00192,"lon":-2.51603,"postcode":"EH42 1JH","la":"East Lothian","era":"trad","nn":70,"risk":27,"cat":"green"},{"name":"The Brig & Barrel","lat":55.99906,"lon":-2.53771,"postcode":"EH42 1NP","la":"East Lothian","era":"other","nn":909,"risk":50,"cat":"amber"},{"name":"The Brig Inn","lat":55.94478,"lon":-2.95752,"postcode":"EH33 1AL","la":"East Lothian","era":"trad","nn":160,"risk":28,"cat":"green"},{"name":"The Dasher","lat":55.95746,"lon":-2.96958,"postcode":"EH32 9QW","la":"East Lothian","era":"other","nn":635,"risk":33,"cat":"amber"},{"name":"The Honourable Company Of Edinburgh Golfers","lat":56.04159,"lon":-2.82119,"postcode":"EH31 2EG","la":"East Lothian","era":"other","nn":1067,"risk":56,"cat":"amber"},{"name":"The New Pheasant","lat":55.9558,"lon":-2.77584,"postcode":"EH41 3JJ","la":"East Lothian","era":"other","nn":47,"risk":27,"cat":"green"},{"name":"The Old Clubhouse","lat":56.03311,"lon":-2.82924,"postcode":"EH31 2AF","la":"East Lothian","era":"other","nn":364,"risk":46,"cat":"amber"},{"name":"The Plough Tavern","lat":55.95523,"lon":-2.77998,"postcode":"EH41 3DS","la":"East Lothian","era":"trad","nn":30,"risk":27,"cat":"green"},{"name":"The Renaissance Club","lat":56.05124,"lon":-2.81281,"postcode":"EH39 5HS","la":"East Lothian","era":"other","nn":921,"risk":38,"cat":"amber"},{"name":"The Victoria Inn","lat":55.95544,"lon":-2.77969,"postcode":"EH41 3JD","la":"East Lothian","era":"trad","nn":30,"risk":27,"cat":"green"},{"name":"The Volunteer Arms","lat":56.00436,"lon":-2.51492,"postcode":"EH42 1HP","la":"East Lothian","era":"trad","nn":161,"risk":28,"cat":"green"},{"name":"Thorntree Inn","lat":55.97141,"lon":-2.95876,"postcode":"EH32 0DQ","la":"East Lothian","era":"trad","nn":461,"risk":50,"cat":"amber"},{"name":"Verdant Leisure Limited","lat":55.95963,"lon":-2.46224,"postcode":"EH42 1SA","la":"East Lothian","era":"other","nn":5364,"risk":84,"cat":"red"},{"name":"Volunteer Arms (Staggs)","lat":55.94423,"lon":-3.0584,"postcode":"EH21 6JE","la":"East Lothian","era":"trad","nn":86,"risk":27,"cat":"green"},{"name":"Wallyford Miners Welfare Society & Social Club","lat":55.93919,"lon":-3.01342,"postcode":"EH21 8AA","la":"East Lothian","era":"mod","nn":324,"risk":49,"cat":"amber"},{"name":"West Barns Bowling Club","lat":55.99525,"lon":-2.55079,"postcode":"EH42 1TU","la":"East Lothian","era":"other","nn":917,"risk":53,"cat":"amber"},{"name":"Whispers","lat":55.94339,"lon":-2.95101,"postcode":"EH33 1LW","la":"East Lothian","era":"other","nn":233,"risk":28,"cat":"green"},{"name":"Winton Brewery Ltd & The Tap Room","lat":55.95617,"lon":-2.79052,"postcode":"EH41 3PP","la":"East Lothian","era":"mod","nn":489,"risk":30,"cat":"green"},{"name":"Wiremill Social Club","lat":55.94565,"lon":-3.04572,"postcode":"EH21 7SB","la":"East Lothian","era":"other","nn":230,"risk":28,"cat":"green"},{"name":"Abode Cafe Bar","lat":55.96641,"lon":-3.17496,"postcode":"EH6 8NY","la":"City of Edinburgh","era":"other","nn":51,"risk":13,"cat":"green"},{"name":"All Bar One","lat":55.95378,"lon":-3.19705,"postcode":"EH2 2PA","la":"City of Edinburgh","era":"mod","nn":68,"risk":13,"cat":"green"},{"name":"All Bar One","lat":55.94839,"lon":-3.36318,"postcode":"EH12 9DN","la":"City of Edinburgh","era":"mod","nn":0,"risk":16,"cat":"green"},{"name":"All Bar One","lat":55.94839,"lon":-3.36318,"postcode":"EH12 9DN","la":"City of Edinburgh","era":"mod","nn":0,"risk":16,"cat":"green"},{"name":"AMBASSADOR SAUNA & LEISURE CLUB","lat":55.9465,"lon":-3.20518,"postcode":"EH3 9AW","la":"City of Edinburgh","era":"other","nn":9,"risk":13,"cat":"green"},{"name":"ANCHOR INN","lat":55.97921,"lon":-3.23147,"postcode":"EH5 1PF","la":"City of Edinburgh","era":"trad","nn":151,"risk":19,"cat":"green"},{"name":"ANDERSONS BAR","lat":55.97239,"lon":-3.1732,"postcode":"EH6 6BU","la":"City of Edinburgh","era":"other","nn":66,"risk":13,"cat":"green"},{"name":"Arcade Bar","lat":55.95037,"lon":-3.18881,"postcode":"EH1 1PB","la":"City of Edinburgh","era":"other","nn":29,"risk":13,"cat":"green"},{"name":"Ardmillan Bowling Club","lat":55.93843,"lon":-3.2253,"postcode":"EH11 2JU","la":"City of Edinburgh","era":"trad","nn":84,"risk":14,"cat":"green"},{"name":"Artful Dodger","lat":55.92261,"lon":-3.28645,"postcode":"EH11 4AW","la":"City of Edinburgh","era":"other","nn":161,"risk":17,"cat":"green"},{"name":"Athletic Arms","lat":55.9388,"lon":-3.22412,"postcode":"EH11 2JX","la":"City of Edinburgh","era":"trad","nn":84,"risk":14,"cat":"green"},{"name":"Auld Hundred","lat":55.95224,"lon":-3.1994,"postcode":"EH2 2NN","la":"City of Edinburgh","era":"other","nn":40,"risk":13,"cat":"green"},{"name":"Auld Reekie Taverns @ Edinburgh Dungeons","lat":55.95127,"lon":-3.19001,"postcode":"EH1 1DF","la":"City of Edinburgh","era":"other","nn":38,"risk":13,"cat":"green"},{"name":"B.M.C. DRIVERS SOCIAL CLUB","lat":55.93723,"lon":-3.2389,"postcode":"EH11 2QY","la":"City of Edinburgh","era":"mod","nn":75,"risk":14,"cat":"green"},{"name":"Baberton Golf Club","lat":55.90706,"lon":-3.28679,"postcode":"EH14 5DU","la":"City of Edinburgh","era":"other","nn":417,"risk":16,"cat":"green"},{"name":"Badger & Co","lat":55.95194,"lon":-3.20364,"postcode":"EH2 3HT","la":"City of Edinburgh","era":"other","nn":41,"risk":13,"cat":"green"},{"name":"Bainfield Bowling & Social Club","lat":55.93265,"lon":-3.2436,"postcode":"EH14 1RU","la":"City of Edinburgh","era":"mod","nn":148,"risk":14,"cat":"green"},{"name":"BALERNO BOWLING CLUB","lat":55.88509,"lon":-3.33906,"postcode":"EH14 7AG","la":"City of Edinburgh","era":"other","nn":138,"risk":34,"cat":"amber"},{"name":"Balgreen Bowling Club","lat":55.93733,"lon":-3.24838,"postcode":"EH11 3AT","la":"City of Edinburgh","era":"other","nn":445,"risk":16,"cat":"green"},{"name":"Ballie Ballerson","lat":55.94578,"lon":-3.19083,"postcode":"EH1 2QN","la":"City of Edinburgh","era":"other","nn":0,"risk":13,"cat":"green"},{"name":"Bannatynes Health Club & Cafe","lat":55.93509,"lon":-3.0958,"postcode":"EH21 8RX","la":"City of Edinburgh","era":"other","nn":81,"risk":31,"cat":"amber"},{"name":"Bannermans Bar","lat":55.94928,"lon":-3.18685,"postcode":"EH1 1LG","la":"City of Edinburgh","era":"other","nn":2,"risk":13,"cat":"green"},{"name":"Banshee Labyrinth","lat":55.94929,"lon":-3.18689,"postcode":"EH1 1LG","la":"City of Edinburgh","era":"other","nn":2,"risk":13,"cat":"green"},{"name":"Bar Salsa","lat":55.94775,"lon":-3.19404,"postcode":"EH1 1JY","la":"City of Edinburgh","era":"mod","nn":55,"risk":13,"cat":"green"},{"name":"Barologist","lat":55.97648,"lon":-3.17141,"postcode":"EH6 6JA","la":"City of Edinburgh","era":"other","nn":112,"risk":14,"cat":"green"},{"name":"Barony Bar","lat":55.95832,"lon":-3.18939,"postcode":"EH1 3RJ","la":"City of Edinburgh","era":"other","nn":54,"risk":13,"cat":"green"},{"name":"Beaten Docket","lat":55.95259,"lon":-3.11428,"postcode":"EH15 1EU","la":"City of Edinburgh","era":"other","nn":36,"risk":13,"cat":"green"},{"name":"Beechwood Bowling Club","lat":55.94372,"lon":-3.23508,"postcode":"EH12 5PW","la":"City of Edinburgh","era":"other","nn":81,"risk":14,"cat":"green"},{"name":"Belushis / Jakes","lat":55.95094,"lon":-3.19017,"postcode":"EH1 1DE","la":"City of Edinburgh","era":"other","nn":26,"risk":13,"cat":"green"},{"name":"BENNETS BAR","lat":55.92651,"lon":-3.20952,"postcode":"EH10 5HT","la":"City of Edinburgh","era":"other","nn":119,"risk":14,"cat":"green"},{"name":"Bensons Bar","lat":55.94153,"lon":-3.22339,"postcode":"EH11 2EG","la":"City of Edinburgh","era":"other","nn":307,"risk":15,"cat":"green"},{"name":"Biddy Mulligans","lat":55.94809,"lon":-3.19503,"postcode":"EH1 2JR","la":"City of Edinburgh","era":"other","nn":16,"risk":13,"cat":"green"},{"name":"Black Cat","lat":55.95158,"lon":-3.20348,"postcode":"EH2 4BA","la":"City of Edinburgh","era":"other","nn":33,"risk":13,"cat":"green"},{"name":"Black Ivy","lat":55.93767,"lon":-3.20276,"postcode":"EH9 1DU","la":"City of Edinburgh","era":"other","nn":259,"risk":15,"cat":"green"},{"name":"BLACKHALL BOWLING CLUB","lat":55.95633,"lon":-3.25003,"postcode":"EH4 3NL","la":"City of Edinburgh","era":"other","nn":547,"risk":22,"cat":"green"},{"name":"Blackwood Bar @ Deaf Action","lat":55.9573,"lon":-3.18956,"postcode":"EH1 3QY","la":"City of Edinburgh","era":"mod","nn":90,"risk":14,"cat":"green"},{"name":"Bonnie & Wild \u00fb Main Bar (Hauf & Howff)","lat":55.95483,"lon":-3.18843,"postcode":"EH1 3AE","la":"City of Edinburgh","era":"mod","nn":0,"risk":13,"cat":"green"},{"name":"Bonnie & Wild \u00fb Main Bar (The Dookit Bar)","lat":55.95483,"lon":-3.18843,"postcode":"EH1 3AE","la":"City of Edinburgh","era":"mod","nn":0,"risk":13,"cat":"green"},{"name":"Bonnie & Wild \u00fb Main Bar (The Tryst Bar, Butt & Ben)","lat":55.95483,"lon":-3.18843,"postcode":"EH1 3AE","la":"City of Edinburgh","era":"mod","nn":0,"risk":13,"cat":"green"},{"name":"Boom Battle Bar","lat":55.95621,"lon":-3.18551,"postcode":"EH1 3AU","la":"City of Edinburgh","era":"other","nn":97,"risk":14,"cat":"green"},{"name":"Born in Scotland","lat":55.95264,"lon":-3.19131,"postcode":"EH1 1BQ","la":"City of Edinburgh","era":"other","nn":0,"risk":13,"cat":"green"},{"name":"Boroughmuir Rugby Club","lat":55.92933,"lon":-3.23456,"postcode":"EH14 1XN","la":"City of Edinburgh","era":"other","nn":411,"risk":16,"cat":"green"},{"name":"Boteco Clube (downstairs)","lat":55.94628,"lon":-3.18924,"postcode":"EH1 1HB","la":"City of Edinburgh","era":"other","nn":79,"risk":14,"cat":"green"},{"name":"Boundary Bar","lat":55.96358,"lon":-3.17757,"postcode":"EH6 8SE","la":"City of Edinburgh","era":"other","nn":88,"risk":14,"cat":"green"},{"name":"Bourban Bar Club","lat":55.9525,"lon":-3.20058,"postcode":"EH2 2JR","la":"City of Edinburgh","era":"mod","nn":36,"risk":13,"cat":"green"},{"name":"Bowlers Rest","lat":55.9739,"lon":-3.16468,"postcode":"EH6 7BD","la":"City of Edinburgh","era":"other","nn":160,"risk":14,"cat":"green"},{"name":"Braid Bowling Club","lat":55.92556,"lon":-3.19896,"postcode":"EH10 6BR","la":"City of Edinburgh","era":"other","nn":576,"risk":17,"cat":"green"},{"name":"BRAMBLE","lat":55.95485,"lon":-3.1975,"postcode":"EH2 1JE","la":"City of Edinburgh","era":"trad","nn":48,"risk":13,"cat":"green"},{"name":"Brass Monkey","lat":55.94723,"lon":-3.18527,"postcode":"EH8 9TU","la":"City of Edinburgh","era":"trad","nn":112,"risk":14,"cat":"green"},{"name":"Brass Monkey Grange","lat":55.93674,"lon":-3.18108,"postcode":"EH9 1UH","la":"City of Edinburgh","era":"trad","nn":63,"risk":13,"cat":"green"},{"name":"Brew Dogs","lat":55.94815,"lon":-3.18996,"postcode":"EH1 1JS","la":"City of Edinburgh","era":"other","nn":91,"risk":14,"cat":"green"},{"name":"Brewhemia","lat":55.9511,"lon":-3.18899,"postcode":"EH1 1DE","la":"City of Edinburgh","era":"other","nn":27,"risk":13,"cat":"green"},{"name":"Bridge & Castle Bar","lat":55.94839,"lon":-3.36318,"postcode":"EH12 9DN","la":"City of Edinburgh","era":"other","nn":0,"risk":16,"cat":"green"},{"name":"BROADFIELDS","lat":55.95537,"lon":-3.1405,"postcode":"EH8 7RU","la":"City of Edinburgh","era":"other","nn":6,"risk":13,"cat":"green"},{"name":"BRUNSTANE BOWLING CLUB","lat":55.94655,"lon":-3.10224,"postcode":"EH15 2QN","la":"City of Edinburgh","era":"other","nn":370,"risk":18,"cat":"green"},{"name":"Buck's Bar","lat":55.94649,"lon":-3.20504,"postcode":"EH3 9AP","la":"City of Edinburgh","era":"other","nn":9,"risk":13,"cat":"green"},{"name":"Buck's Bar","lat":55.95414,"lon":-3.19794,"postcode":"EH2 1EL","la":"City of Edinburgh","era":"other","nn":49,"risk":13,"cat":"green"},{"name":"BURKE AND HARE","lat":55.94573,"lon":-3.2021,"postcode":"EH3 9BX","la":"City of Edinburgh","era":"other","nn":46,"risk":13,"cat":"green"},{"name":"Cabaret Voltaire","lat":55.94893,"lon":-3.18726,"postcode":"EH1 1QR","la":"City of Edinburgh","era":"other","nn":34,"risk":13,"cat":"green"},{"name":"Cafe Brio","lat":55.91128,"lon":-3.31283,"postcode":"EH14 4AR","la":"City of Edinburgh","era":"other","nn":0,"risk":33,"cat":"amber"},{"name":"Cambridge Bar","lat":55.95274,"lon":-3.2059,"postcode":"EH2 4JB","la":"City of Edinburgh","era":"other","nn":67,"risk":13,"cat":"green"},{"name":"Cameo Cinema and Bar","lat":55.94288,"lon":-3.204,"postcode":"EH3 9LZ","la":"City of Edinburgh","era":"other","nn":81,"risk":14,"cat":"green"},{"name":"Candy Bar","lat":55.95266,"lon":-3.20483,"postcode":"EH2 4JN","la":"City of Edinburgh","era":"other","nn":36,"risk":13,"cat":"green"},{"name":"Canons Gait","lat":55.95077,"lon":-3.1824,"postcode":"EH8 8DQ","la":"City of Edinburgh","era":"other","nn":71,"risk":14,"cat":"green"},{"name":"CARRICKVALE GOLF CLUB HOUSE","lat":55.93823,"lon":-3.25643,"postcode":"EH12 5UZ","la":"City of Edinburgh","era":"other","nn":511,"risk":17,"cat":"green"},{"name":"Carrier Quarters","lat":55.97616,"lon":-3.16851,"postcode":"EH6 6PR","la":"City of Edinburgh","era":"mod","nn":4,"risk":13,"cat":"green"},{"name":"Casablanca Cocktail Club by House of Gods","lat":55.9485,"lon":-3.18781,"postcode":"EH1 1JQ","la":"City of Edinburgh","era":"mod","nn":0,"risk":13,"cat":"green"},{"name":"Cask and Barrel","lat":55.95914,"lon":-3.19029,"postcode":"EH1 3RZ","la":"City of Edinburgh","era":"other","nn":58,"risk":13,"cat":"green"},{"name":"Castle Arms","lat":55.94854,"lon":-3.19474,"postcode":"EH1 2PW","la":"City of Edinburgh","era":"trad","nn":40,"risk":13,"cat":"green"},{"name":"Cedar Suite","lat":55.91128,"lon":-3.31283,"postcode":"EH14 4AR","la":"City of Edinburgh","era":"other","nn":0,"risk":33,"cat":"amber"},{"name":"Church Hill Theatre","lat":55.93245,"lon":-3.20982,"postcode":"EH10 4DR","la":"City of Edinburgh","era":"other","nn":349,"risk":15,"cat":"green"},{"name":"CLARKS BAR","lat":55.96009,"lon":-3.20113,"postcode":"EH3 5DQ","la":"City of Edinburgh","era":"other","nn":278,"risk":15,"cat":"green"},{"name":"Clermiston Inn","lat":55.95505,"lon":-3.28535,"postcode":"EH4 7EG","la":"City of Edinburgh","era":"trad","nn":1074,"risk":43,"cat":"amber"},{"name":"Cloisters","lat":55.94347,"lon":-3.20246,"postcode":"EH3 9JH","la":"City of Edinburgh","era":"other","nn":116,"risk":14,"cat":"green"},{"name":"Club Cuba","lat":55.95001,"lon":-3.21022,"postcode":"EH2 4PF","la":"City of Edinburgh","era":"other","nn":52,"risk":13,"cat":"green"},{"name":"Cold Town House","lat":55.94737,"lon":-3.1978,"postcode":"EH1 2JU","la":"City of Edinburgh","era":"other","nn":43,"risk":13,"cat":"green"},{"name":"COLINTON BOWLING CLUB","lat":55.90699,"lon":-3.2474,"postcode":"EH13 0AB","la":"City of Edinburgh","era":"other","nn":680,"risk":38,"cat":"amber"},{"name":"COLTBRIDGE BOWLING CLUB","lat":55.94884,"lon":-3.23251,"postcode":"EH12 6AQ","la":"City of Edinburgh","era":"other","nn":397,"risk":16,"cat":"green"},{"name":"CORSTORPHINE BOWLING CLUB","lat":55.94029,"lon":-3.28137,"postcode":"EH12 7HQ","la":"City of Edinburgh","era":"other","nn":127,"risk":14,"cat":"green"},{"name":"Corstorphine Inn","lat":55.94054,"lon":-3.28336,"postcode":"EH12 7SU","la":"City of Edinburgh","era":"trad","nn":127,"risk":14,"cat":"green"},{"name":"CRAIGLOCKHART SPORTS & TENNIS CENTRE","lat":55.92388,"lon":-3.2357,"postcode":"EH14 1BZ","la":"City of Edinburgh","era":"trad","nn":610,"risk":17,"cat":"green"},{"name":"Craigmillar Hearts Supporters Club","lat":55.93189,"lon":-3.133,"postcode":"EH16 4DZ","la":"City of Edinburgh","era":"trad","nn":583,"risk":37,"cat":"amber"},{"name":"Craigmillar Park Golf Club","lat":55.92452,"lon":-3.18233,"postcode":"EH9 3HG","la":"City of Edinburgh","era":"trad","nn":1042,"risk":43,"cat":"amber"},{"name":"Cramond Inn","lat":55.97971,"lon":-3.30002,"postcode":"EH4 6NU","la":"City of Edinburgh","era":"trad","nn":1653,"risk":47,"cat":"amber"},{"name":"CROSS KEYS INN","lat":55.92255,"lon":-3.24928,"postcode":"EH14 1TL","la":"City of Edinburgh","era":"trad","nn":67,"risk":13,"cat":"green"},{"name":"Crosstown Eatery and Drinkery","lat":55.94436,"lon":-3.20592,"postcode":"EH3 9PU","la":"City of Edinburgh","era":"trad","nn":105,"risk":14,"cat":"green"},{"name":"Currie Bowling Club","lat":55.89328,"lon":-3.31506,"postcode":"EH14 5RT","la":"City of Edinburgh","era":"other","nn":294,"risk":18,"cat":"green"},{"name":"Dalmahoy Hotel & Country Club","lat":55.90653,"lon":-3.3755,"postcode":"EH27 8EB","la":"City of Edinburgh","era":"other","nn":1746,"risk":48,"cat":"amber"},{"name":"David Lloyd Centre","lat":55.94097,"lon":-3.30503,"postcode":"EH12 8LH","la":"City of Edinburgh","era":"other","nn":1044,"risk":43,"cat":"amber"},{"name":"Deacon Brodies Tavern","lat":55.94957,"lon":-3.19298,"postcode":"EH1 2NT","la":"City of Edinburgh","era":"other","nn":56,"risk":13,"cat":"green"},{"name":"Dean Bowling Club","lat":55.95812,"lon":-3.21868,"postcode":"EH4 1AS","la":"City of Edinburgh","era":"other","nn":323,"risk":15,"cat":"green"},{"name":"DICKENS LOUNGE","lat":55.94398,"lon":-3.2189,"postcode":"EH11 2AX","la":"City of Edinburgh","era":"mod","nn":187,"risk":14,"cat":"green"},{"name":"Dirty Dick's","lat":55.95151,"lon":-3.20508,"postcode":"EH2 4LS","la":"City of Edinburgh","era":"other","nn":3,"risk":13,"cat":"green"},{"name":"Dishoom","lat":55.95355,"lon":-3.19222,"postcode":"EH2 2BD","la":"City of Edinburgh","era":"other","nn":0,"risk":13,"cat":"green"},{"name":"Doctors","lat":55.94578,"lon":-3.19083,"postcode":"EH1 2QN","la":"City of Edinburgh","era":"other","nn":0,"risk":13,"cat":"green"},{"name":"Drivers Sports Social Club","lat":55.96558,"lon":-3.19237,"postcode":"EH7 4JE","la":"City of Edinburgh","era":"mod","nn":154,"risk":14,"cat":"green"},{"name":"Drop Kick Murphy's Bar","lat":55.94788,"lon":-3.19134,"postcode":"EH1 2QD","la":"City of Edinburgh","era":"other","nn":18,"risk":13,"cat":"green"},{"name":"Drouthy Neebors","lat":55.9392,"lon":-3.1812,"postcode":"EH8 9PX","la":"City of Edinburgh","era":"other","nn":79,"risk":14,"cat":"green"},{"name":"Duddingston Golf Club Ltd","lat":55.937,"lon":-3.13503,"postcode":"EH15 3QD","la":"City of Edinburgh","era":"other","nn":583,"risk":35,"cat":"amber"},{"name":"Dukes","lat":55.97015,"lon":-3.16996,"postcode":"EH6 8HH","la":"City of Edinburgh","era":"trad","nn":27,"risk":13,"cat":"green"},{"name":"Eastside","lat":55.95354,"lon":-3.19911,"postcode":"EH2 2HT","la":"City of Edinburgh","era":"other","nn":0,"risk":13,"cat":"green"},{"name":"Edinburgh Curling Club Ltd","lat":55.9432,"lon":-3.24344,"postcode":"EH12 5XN","la":"City of Edinburgh","era":"other","nn":467,"risk":16,"cat":"green"},{"name":"Edinburgh Dungeon","lat":55.95116,"lon":-3.19064,"postcode":"EH1 1QB","la":"City of Edinburgh","era":"other","nn":31,"risk":13,"cat":"green"},{"name":"Edinburgh Gin","lat":55.94993,"lon":-3.2078,"postcode":"EH1 2AD","la":"City of Edinburgh","era":"other","nn":0,"risk":13,"cat":"green"},{"name":"Edinburgh Northern Rugby Football Club","lat":55.96256,"lon":-3.22024,"postcode":"EH4 1DN","la":"City of Edinburgh","era":"other","nn":428,"risk":16,"cat":"green"},{"name":"EDINBURGH SOCIETY OF MUSICIANS","lat":55.95185,"lon":-3.2164,"postcode":"EH4 3BL","la":"City of Edinburgh","era":"mod","nn":27,"risk":13,"cat":"green"},{"name":"Edinburgh Thistle Golf Club","lat":55.91568,"lon":-3.20434,"postcode":"EH10 6JZ","la":"City of Edinburgh","era":"other","nn":661,"risk":38,"cat":"amber"},{"name":"Element","lat":55.95205,"lon":-3.20079,"postcode":"EH2 3JF","la":"City of Edinburgh","era":"other","nn":18,"risk":13,"cat":"green"},{"name":"Espy","lat":55.95465,"lon":-3.11117,"postcode":"EH15 1HF","la":"City of Edinburgh","era":"other","nn":269,"risk":15,"cat":"green"},{"name":"Etore's @ The Shandon","lat":55.93301,"lon":-3.23503,"postcode":"EH11 1QY","la":"City of Edinburgh","era":"other","nn":0,"risk":13,"cat":"green"},{"name":"FANTASY PALACE/BAR","lat":55.95011,"lon":-3.20891,"postcode":"EH2 4RN","la":"City of Edinburgh","era":"other","nn":21,"risk":13,"cat":"green"},{"name":"FENMORE SPORTS CLUB","lat":55.91301,"lon":-3.13855,"postcode":"EH17 7HB","la":"City of Edinburgh","era":"other","nn":704,"risk":20,"cat":"green"},{"name":"Ferranti Recreation Club","lat":55.96427,"lon":-3.21213,"postcode":"EH3 5NZ","la":"City of Edinburgh","era":"other","nn":237,"risk":15,"cat":"green"},{"name":"Festival","lat":55.94584,"lon":-3.20628,"postcode":"EH3 8BJ","la":"City of Edinburgh","era":"other","nn":79,"risk":14,"cat":"green"},{"name":"Fierce Beer","lat":55.95147,"lon":-3.20527,"postcode":"EH2 4LS","la":"City of Edinburgh","era":"other","nn":13,"risk":13,"cat":"green"},{"name":"Finnegans Wake","lat":55.94854,"lon":-3.19357,"postcode":"EH1 2HE","la":"City of Edinburgh","era":"trad","nn":37,"risk":13,"cat":"green"},{"name":"Flight Club","lat":55.95483,"lon":-3.18843,"postcode":"EH1 3AE","la":"City of Edinburgh","era":"other","nn":0,"risk":13,"cat":"green"},{"name":"Folly","lat":55.95418,"lon":-3.18737,"postcode":"EH8 8DL","la":"City of Edinburgh","era":"other","nn":4,"risk":13,"cat":"green"},{"name":"Footlights Bar and Grill","lat":55.94599,"lon":-3.2039,"postcode":"EH3 9DY","la":"City of Edinburgh","era":"mod","nn":48,"risk":13,"cat":"green"},{"name":"FOUR IN HAND","lat":55.9621,"lon":-3.17068,"postcode":"EH7 5QH","la":"City of Edinburgh","era":"other","nn":66,"risk":13,"cat":"green"},{"name":"Fox's Bar","lat":55.97268,"lon":-3.17592,"postcode":"EH6 5JD","la":"City of Edinburgh","era":"trad","nn":172,"risk":14,"cat":"green"},{"name":"Frankensteins","lat":55.9474,"lon":-3.19168,"postcode":"EH1 1EN","la":"City of Edinburgh","era":"other","nn":57,"risk":13,"cat":"green"},{"name":"Froth and Flame","lat":55.94631,"lon":-3.21198,"postcode":"EH3 8EB","la":"City of Edinburgh","era":"other","nn":24,"risk":13,"cat":"green"},{"name":"GARDENER'S ARMS","lat":55.90459,"lon":-3.13053,"postcode":"EH17 8RN","la":"City of Edinburgh","era":"trad","nn":131,"risk":16,"cat":"green"},{"name":"Genting Casino Edinburgh","lat":55.95582,"lon":-3.1916,"postcode":"EH1 3EB","la":"City of Edinburgh","era":"other","nn":15,"risk":13,"cat":"green"},{"name":"Genting Casino Leith","lat":55.98123,"lon":-3.17527,"postcode":"EH6 6JB","la":"City of Edinburgh","era":"other","nn":480,"risk":16,"cat":"green"},{"name":"George IV Bar","lat":55.94802,"lon":-3.19154,"postcode":"EH1 1EJ","la":"City of Edinburgh","era":"trad","nn":2,"risk":13,"cat":"green"},{"name":"Ghillie Dhu","lat":55.94993,"lon":-3.2078,"postcode":"EH1 2AD","la":"City of Edinburgh","era":"other","nn":0,"risk":13,"cat":"green"},{"name":"GILMERTON BOWLING CLUB","lat":55.90351,"lon":-3.1363,"postcode":"EH17 8QP","la":"City of Edinburgh","era":"other","nn":200,"risk":17,"cat":"green"},{"name":"Gilmerton Miners Welfare","lat":55.90548,"lon":-3.13487,"postcode":"EH17 8RE","la":"City of Edinburgh","era":"other","nn":162,"risk":14,"cat":"green"},{"name":"GLOBE","lat":55.94977,"lon":-3.18709,"postcode":"EH1 1LG","la":"City of Edinburgh","era":"other","nn":53,"risk":13,"cat":"green"},{"name":"Gogarburn Golf Club - Club House","lat":55.93315,"lon":-3.35005,"postcode":"EH28 8NN","la":"City of Edinburgh","era":"other","nn":1492,"risk":46,"cat":"amber"},{"name":"Goldenacre Bowling Club","lat":55.96895,"lon":-3.20103,"postcode":"EH3 5NE","la":"City of Edinburgh","era":"other","nn":0,"risk":13,"cat":"green"},{"name":"Gorgie Mills Bowling Club","lat":55.93626,"lon":-3.24149,"postcode":"EH11 2RH","la":"City of Edinburgh","era":"trad","nn":195,"risk":14,"cat":"green"},{"name":"Granary Bar","lat":55.97645,"lon":-3.16919,"postcode":"EH6 6QN","la":"City of Edinburgh","era":"other","nn":25,"risk":13,"cat":"green"},{"name":"Grapes","lat":55.94141,"lon":-3.18174,"postcode":"EH8 9JG","la":"City of Edinburgh","era":"other","nn":106,"risk":14,"cat":"green"},{"name":"Greyfriars Bobby Bar","lat":55.94681,"lon":-3.19153,"postcode":"EH1 2QE","la":"City of Edinburgh","era":"other","nn":66,"risk":13,"cat":"green"},{"name":"Grosvenor Bar","lat":55.94999,"lon":-3.20939,"postcode":"EH2 4RT","la":"City of Edinburgh","era":"other","nn":33,"risk":13,"cat":"green"},{"name":"Guildford Arms","lat":55.95368,"lon":-3.19053,"postcode":"EH2 2AA","la":"City of Edinburgh","era":"trad","nn":12,"risk":13,"cat":"green"},{"name":"Half Way House","lat":55.95087,"lon":-3.18889,"postcode":"EH1 1BX","la":"City of Edinburgh","era":"other","nn":27,"risk":13,"cat":"green"},{"name":"Hamilton's Bar & Kitchen","lat":55.95815,"lon":-3.20783,"postcode":"EH3 5AU","la":"City of Edinburgh","era":"mod","nn":86,"risk":14,"cat":"green"},{"name":"Hanover Tap","lat":55.95459,"lon":-3.19816,"postcode":"EH2 1DR","la":"City of Edinburgh","era":"mod","nn":50,"risk":13,"cat":"green"},{"name":"Hawes Inn","lat":55.99034,"lon":-3.38498,"postcode":"EH30 9TA","la":"City of Edinburgh","era":"trad","nn":490,"risk":16,"cat":"green"},{"name":"Haymarket Bar","lat":55.94642,"lon":-3.21615,"postcode":"EH12 5DS","la":"City of Edinburgh","era":"other","nn":36,"risk":13,"cat":"green"},{"name":"HAYMARKET BOY SCOUTS ASSOCIATI","lat":55.93377,"lon":-3.28226,"postcode":"EH12 7NW","la":"City of Edinburgh","era":"other","nn":383,"risk":16,"cat":"green"},{"name":"Heads and Tales","lat":55.94993,"lon":-3.2078,"postcode":"EH1 2AD","la":"City of Edinburgh","era":"trad","nn":0,"risk":13,"cat":"green"},{"name":"Hectors Public House","lat":55.95883,"lon":-3.20965,"postcode":"EH4 1LR","la":"City of Edinburgh","era":"other","nn":40,"risk":13,"cat":"green"},{"name":"Heriot's Cricket Club","lat":55.96909,"lon":-3.20664,"postcode":"EH3 5QL","la":"City of Edinburgh","era":"other","nn":215,"risk":15,"cat":"green"},{"name":"Hey Palu","lat":55.94598,"lon":-3.20273,"postcode":"EH3 9AH","la":"City of Edinburgh","era":"other","nn":48,"risk":13,"cat":"green"},{"name":"HILLSIDE BOWLING CLUB","lat":55.95784,"lon":-3.17427,"postcode":"EH7 5EG","la":"City of Edinburgh","era":"other","nn":184,"risk":14,"cat":"green"},{"name":"Holyrood 9A","lat":55.9494,"lon":-3.18274,"postcode":"EH8 8AE","la":"City of Edinburgh","era":"other","nn":143,"risk":14,"cat":"green"},{"name":"Home Bar","lat":55.94228,"lon":-3.20329,"postcode":"EH3 9JP","la":"City of Edinburgh","era":"other","nn":54,"risk":13,"cat":"green"},{"name":"Hoot the Redeemer","lat":55.95249,"lon":-3.19638,"postcode":"EH2 2DL","la":"City of Edinburgh","era":"other","nn":45,"risk":13,"cat":"green"},{"name":"Hunters Tryst Restaurant","lat":55.90226,"lon":-3.22086,"postcode":"EH13 9NG","la":"City of Edinburgh","era":"other","nn":399,"risk":33,"cat":"amber"},{"name":"Indigo Yard","lat":55.9511,"lon":-3.20971,"postcode":"EH2 4QZ","la":"City of Edinburgh","era":"mod","nn":18,"risk":13,"cat":"green"},{"name":"Innis & Gunn Brewery Taproom","lat":55.97552,"lon":-3.17019,"postcode":"EH6 6RA","la":"City of Edinburgh","era":"other","nn":39,"risk":13,"cat":"green"},{"name":"Innis & Gunn Brewery Taproom","lat":55.94666,"lon":-3.20525,"postcode":"EH3 9AW","la":"City of Edinburgh","era":"other","nn":0,"risk":13,"cat":"green"},{"name":"Inverleith Rugby Club","lat":55.96879,"lon":-3.21606,"postcode":"EH3 5PN","la":"City of Edinburgh","era":"other","nn":560,"risk":17,"cat":"green"},{"name":"IONA BAR","lat":55.96314,"lon":-3.17103,"postcode":"EH6 8LF","la":"City of Edinburgh","era":"other","nn":63,"risk":13,"cat":"green"},{"name":"Jeremiah's Tap Room","lat":55.95836,"lon":-3.18365,"postcode":"EH7 4AA","la":"City of Edinburgh","era":"mod","nn":77,"risk":14,"cat":"green"},{"name":"Jessie Mays","lat":55.93697,"lon":-3.23779,"postcode":"EH11 2QZ","la":"City of Edinburgh","era":"other","nn":75,"risk":14,"cat":"green"},{"name":"JEWEL MINERS WELFARE","lat":55.94041,"lon":-3.11551,"postcode":"EH15 3LJ","la":"City of Edinburgh","era":"other","nn":1072,"risk":43,"cat":"amber"},{"name":"Joker and Thief","lat":55.96046,"lon":-3.18143,"postcode":"EH7 4AQ","la":"City of Edinburgh","era":"other","nn":78,"risk":14,"cat":"green"},{"name":"Joseph Pearce","lat":55.95895,"lon":-3.18302,"postcode":"EH7 4AA","la":"City of Edinburgh","era":"other","nn":70,"risk":14,"cat":"green"},{"name":"JUNIPER GREEN BOWLING CLUB","lat":55.90273,"lon":-3.28847,"postcode":"EH14 5EN","la":"City of Edinburgh","era":"other","nn":49,"risk":18,"cat":"green"},{"name":"Juniper Green Inn","lat":55.90338,"lon":-3.28548,"postcode":"EH14 5EL","la":"City of Edinburgh","era":"trad","nn":200,"risk":17,"cat":"green"},{"name":"Kaptain Karaage / The High Dive","lat":55.94196,"lon":-3.17914,"postcode":"EH8 9QY","la":"City of Edinburgh","era":"other","nn":174,"risk":14,"cat":"green"},{"name":"Kay's Bar","lat":55.95573,"lon":-3.20505,"postcode":"EH3 6HF","la":"City of Edinburgh","era":"other","nn":149,"risk":14,"cat":"green"},{"name":"Kilderkin","lat":55.95222,"lon":-3.17706,"postcode":"EH8 8BS","la":"City of Edinburgh","era":"other","nn":210,"risk":14,"cat":"green"},{"name":"KING'S THEATRE","lat":55.94187,"lon":-3.20281,"postcode":"EH3 9LQ","la":"City of Edinburgh","era":"trad","nn":54,"risk":13,"cat":"green"},{"name":"Kingsknowe Golf Club","lat":55.91401,"lon":-3.2626,"postcode":"EH14 2JD","la":"City of Edinburgh","era":"trad","nn":647,"risk":35,"cat":"amber"},{"name":"Kinleith Arms","lat":55.90229,"lon":-3.28848,"postcode":"EH14 5EN","la":"City of Edinburgh","era":"trad","nn":49,"risk":18,"cat":"green"},{"name":"Kirkliston Bowling Club","lat":55.95555,"lon":-3.403,"postcode":"EH29 9BG","la":"City of Edinburgh","era":"other","nn":61,"risk":33,"cat":"amber"},{"name":"Kitty O\u00c6Sheas","lat":55.95357,"lon":-3.20036,"postcode":"EH2 1EP","la":"City of Edinburgh","era":"other","nn":3,"risk":13,"cat":"green"},{"name":"La Belle Angele","lat":55.94847,"lon":-3.18742,"postcode":"EH1 1HJ","la":"City of Edinburgh","era":"trad","nn":24,"risk":13,"cat":"green"},{"name":"La Sal","lat":55.94409,"lon":-3.18211,"postcode":"EH8 9HL","la":"City of Edinburgh","era":"other","nn":104,"risk":14,"cat":"green"},{"name":"Last Word","lat":55.95774,"lon":-3.20652,"postcode":"EH3 5AL","la":"City of Edinburgh","era":"other","nn":16,"risk":13,"cat":"green"},{"name":"Leith Depot","lat":55.96842,"lon":-3.17406,"postcode":"EH6 5DT","la":"City of Edinburgh","era":"mod","nn":113,"risk":14,"cat":"green"},{"name":"Leith Ex Servicemen's Club Ltd","lat":55.96742,"lon":-3.17371,"postcode":"EH6 8NT","la":"City of Edinburgh","era":"other","nn":113,"risk":14,"cat":"green"},{"name":"LEITH FRANKLIN ACADEMICALS CRICKET CLUB","lat":55.97119,"lon":-3.15586,"postcode":"EH6 7QR","la":"City of Edinburgh","era":"other","nn":0,"risk":13,"cat":"green"},{"name":"LIBERTON BOWLING CLUB","lat":55.91258,"lon":-3.16042,"postcode":"EH16 6RY","la":"City of Edinburgh","era":"other","nn":216,"risk":20,"cat":"green"},{"name":"LIBERTON FP RUGBY CLUB","lat":55.91937,"lon":-3.1655,"postcode":"EH16 6TS","la":"City of Edinburgh","era":"other","nn":685,"risk":35,"cat":"amber"},{"name":"Liberton Golf Club","lat":55.91877,"lon":-3.14792,"postcode":"EH16 5UJ","la":"City of Edinburgh","era":"other","nn":418,"risk":21,"cat":"green"},{"name":"LIBERTON LODGE NO 1201","lat":55.91437,"lon":-3.15907,"postcode":"EH16 6JQ","la":"City of Edinburgh","era":"other","nn":216,"risk":17,"cat":"green"},{"name":"LIME LITE","lat":55.95517,"lon":-3.15007,"postcode":"EH8 7AA","la":"City of Edinburgh","era":"other","nn":0,"risk":13,"cat":"green"},{"name":"Little White Pig","lat":55.9571,"lon":-3.19401,"postcode":"EH3 6NN","la":"City of Edinburgh","era":"other","nn":94,"risk":14,"cat":"green"},{"name":"Lochend Golf Club","lat":55.9638,"lon":-3.13629,"postcode":"EH7 6RG","la":"City of Edinburgh","era":"other","nn":968,"risk":37,"cat":"amber"},{"name":"LODGE 1029 COLINTON AND CURRIE","lat":55.89677,"lon":-3.30879,"postcode":"EH14 5PX","la":"City of Edinburgh","era":"other","nn":61,"risk":16,"cat":"green"},{"name":"Lodge of General Masons No 8","lat":55.94967,"lon":-3.18563,"postcode":"EH1 1NB","la":"City of Edinburgh","era":"trad","nn":0,"risk":13,"cat":"green"},{"name":"LODGE ST MARGARET SOCIAL CLUB","lat":55.98909,"lon":-3.39533,"postcode":"EH30 9HX","la":"City of Edinburgh","era":"mod","nn":75,"risk":14,"cat":"green"},{"name":"LODGE TRAFALGAR","lat":55.97202,"lon":-3.17238,"postcode":"EH6 6BQ","la":"City of Edinburgh","era":"other","nn":66,"risk":13,"cat":"green"},{"name":"logan\u00c6s Rest","lat":55.95914,"lon":-3.15007,"postcode":"EH7 6JD","la":"City of Edinburgh","era":"other","nn":441,"risk":16,"cat":"green"},{"name":"LONDON ROAD FOUNDRY BOWLING CLUB","lat":55.95463,"lon":-3.13,"postcode":"EH7 6SG","la":"City of Edinburgh","era":"mod","nn":659,"risk":18,"cat":"green"},{"name":"Longstone Hearts Sports and Social Club","lat":55.92549,"lon":-3.26061,"postcode":"EH14 2BA","la":"City of Edinburgh","era":"mod","nn":401,"risk":16,"cat":"green"},{"name":"Luckies","lat":55.9338,"lon":-3.24478,"postcode":"EH11 2RT","la":"City of Edinburgh","era":"other","nn":148,"risk":14,"cat":"green"},{"name":"LUTTON PLACE BOWLING CLUB","lat":55.93993,"lon":-3.17821,"postcode":"EH8 9PE","la":"City of Edinburgh","era":"other","nn":91,"risk":14,"cat":"green"},{"name":"Mackays on the Mile","lat":55.95117,"lon":-3.18151,"postcode":"EH8 8BJ","la":"City of Edinburgh","era":"other","nn":71,"risk":14,"cat":"green"},{"name":"Maggie Dicksons","lat":55.94796,"lon":-3.19516,"postcode":"EH1 2JR","la":"City of Edinburgh","era":"other","nn":16,"risk":13,"cat":"green"},{"name":"MAITLAND BOWLING CLUB","lat":55.96575,"lon":-3.26539,"postcode":"EH4 5AB","la":"City of Edinburgh","era":"other","nn":260,"risk":15,"cat":"green"},{"name":"Malones","lat":55.94631,"lon":-3.21445,"postcode":"EH3 8DT","la":"City of Edinburgh","era":"other","nn":27,"risk":13,"cat":"green"},{"name":"Malones Leith","lat":55.97476,"lon":-3.16744,"postcode":"EH6 6RS","la":"City of Edinburgh","era":"other","nn":62,"risk":13,"cat":"green"},{"name":"Malt and Hops","lat":55.97583,"lon":-3.16991,"postcode":"EH6 6QU","la":"City of Edinburgh","era":"other","nn":39,"risk":13,"cat":"green"},{"name":"MASONIC HALLS","lat":55.95346,"lon":-3.20295,"postcode":"EH2 3JP","la":"City of Edinburgh","era":"trad","nn":110,"risk":14,"cat":"green"},{"name":"MASONIC LODGE","lat":55.94551,"lon":-3.23559,"postcode":"EH12 5NJ","la":"City of Edinburgh","era":"trad","nn":12,"risk":13,"cat":"green"},{"name":"MASONIC LODGE WAVERLEY NO. 597","lat":55.95784,"lon":-3.17131,"postcode":"EH7 5RG","la":"City of Edinburgh","era":"trad","nn":129,"risk":14,"cat":"green"},{"name":"Mathers","lat":55.95028,"lon":-3.20906,"postcode":"EH2 4PA","la":"City of Edinburgh","era":"other","nn":21,"risk":13,"cat":"green"},{"name":"Mather's","lat":55.95718,"lon":-3.18791,"postcode":"EH1 3JU","la":"City of Edinburgh","era":"other","nn":27,"risk":13,"cat":"green"},{"name":"MAYFIELD BOWLING CLUB","lat":55.93284,"lon":-3.17167,"postcode":"EH9 2BJ","la":"City of Edinburgh","era":"other","nn":480,"risk":16,"cat":"green"},{"name":"McCowans Brewhouse","lat":55.94128,"lon":-3.21504,"postcode":"EH11 1AL","la":"City of Edinburgh","era":"other","nn":94,"risk":14,"cat":"green"},{"name":"McGonagalls","lat":55.948,"lon":-3.19154,"postcode":"EH1 1EJ","la":"City of Edinburgh","era":"other","nn":2,"risk":13,"cat":"green"},{"name":"MECHANIC ARMS","lat":55.90518,"lon":-3.13234,"postcode":"EH17 8QH","la":"City of Edinburgh","era":"trad","nn":131,"risk":14,"cat":"green"},{"name":"Merchants Of Edinburgh Golf Club","lat":55.9205,"lon":-3.22321,"postcode":"EH10 5PY","la":"City of Edinburgh","era":"mod","nn":864,"risk":24,"cat":"green"},{"name":"MERCHISTON HEARTS SOCIAL CLUB","lat":55.93896,"lon":-3.22845,"postcode":"EH11 2NB","la":"City of Edinburgh","era":"mod","nn":129,"risk":14,"cat":"green"},{"name":"MERCHISTON TENNIS AND BOWLING CLUB","lat":55.93538,"lon":-3.22102,"postcode":"EH11 1LH","la":"City of Edinburgh","era":"other","nn":336,"risk":15,"cat":"green"},{"name":"Merlin Roadhouse","lat":55.92931,"lon":-3.21002,"postcode":"EH10 4PU","la":"City of Edinburgh","era":"other","nn":207,"risk":14,"cat":"green"},{"name":"Middleton's Bar","lat":55.95981,"lon":-3.17186,"postcode":"EH7 5PW","la":"City of Edinburgh","era":"other","nn":222,"risk":15,"cat":"green"},{"name":"Miller & Carter","lat":55.95261,"lon":-3.19983,"postcode":"EH2 2ND","la":"City of Edinburgh","era":"trad","nn":37,"risk":13,"cat":"green"},{"name":"Milne's Bar","lat":55.95295,"lon":-3.19664,"postcode":"EH2 2PJ","la":"City of Edinburgh","era":"other","nn":47,"risk":13,"cat":"green"},{"name":"Monkey Barrel Comedy","lat":55.94911,"lon":-3.18778,"postcode":"EH1 1QR","la":"City of Edinburgh","era":"trad","nn":13,"risk":13,"cat":"green"},{"name":"Montpeliers Bruntsfield","lat":55.93587,"lon":-3.2093,"postcode":"EH10 4DG","la":"City of Edinburgh","era":"other","nn":382,"risk":16,"cat":"green"},{"name":"Montys","lat":55.94599,"lon":-3.21332,"postcode":"EH3 8DZ","la":"City of Edinburgh","era":"other","nn":68,"risk":13,"cat":"green"},{"name":"MORRISON & GIBB SOCIAL CLUB","lat":55.96236,"lon":-3.19927,"postcode":"EH3 5HB","la":"City of Edinburgh","era":"mod","nn":123,"risk":14,"cat":"green"},{"name":"Mortonhall Golf Club (Club House)","lat":55.9104,"lon":-3.20925,"postcode":"EH10 6PB","la":"City of Edinburgh","era":"other","nn":661,"risk":38,"cat":"amber"},{"name":"Murrayfield Golf Club (Golf Club)","lat":55.94998,"lon":-3.25115,"postcode":"EH12 6EU","la":"City of Edinburgh","era":"other","nn":661,"risk":23,"cat":"green"},{"name":"MURRAYFIELD INDOOR SPORTS CLUB","lat":55.94318,"lon":-3.23595,"postcode":"EH12 5PE","la":"City of Edinburgh","era":"other","nn":81,"risk":14,"cat":"green"},{"name":"Nauticus","lat":55.96915,"lon":-3.1684,"postcode":"EH6 8HR","la":"City of Edinburgh","era":"other","nn":95,"risk":14,"cat":"green"},{"name":"New Club","lat":55.95202,"lon":-3.19805,"postcode":"EH2 2BB","la":"City of Edinburgh","era":"other","nn":75,"risk":14,"cat":"green"},{"name":"NEWBRIDGE BOWLING CLUB","lat":55.9388,"lon":-3.40736,"postcode":"EH28 8SS","la":"City of Edinburgh","era":"other","nn":1882,"risk":49,"cat":"amber"},{"name":"Newcraighall Miners Welfare Club","lat":55.93798,"lon":-3.08346,"postcode":"EH21 8QU","la":"City of Edinburgh","era":"other","nn":771,"risk":36,"cat":"amber"},{"name":"Newliston Arms","lat":55.95598,"lon":-3.4024,"postcode":"EH29 9AB","la":"City of Edinburgh","era":"trad","nn":61,"risk":33,"cat":"amber"},{"name":"No. 1 High Street","lat":55.9508,"lon":-3.18482,"postcode":"EH1 1SR","la":"City of Edinburgh","era":"other","nn":59,"risk":13,"cat":"green"},{"name":"NORTHERN BOWLING CLUB","lat":55.96413,"lon":-3.20047,"postcode":"EH3 5LA","la":"City of Edinburgh","era":"other","nn":56,"risk":13,"cat":"green"},{"name":"Nuffield Health & Well Being","lat":55.94078,"lon":-3.21624,"postcode":"EH11 1AW","la":"City of Edinburgh","era":"other","nn":94,"risk":14,"cat":"green"},{"name":"O2 Academy Edinburgh","lat":55.92678,"lon":-3.24743,"postcode":"EH14 1RJ","la":"City of Edinburgh","era":"other","nn":417,"risk":16,"cat":"green"},{"name":"Ocean Mist Leith","lat":55.97673,"lon":-3.16966,"postcode":"EH6 6QN","la":"City of Edinburgh","era":"other","nn":26,"risk":13,"cat":"green"},{"name":"Oceana Sports & Music Bar","lat":55.97409,"lon":-3.18537,"postcode":"EH6 4ET","la":"City of Edinburgh","era":"other","nn":126,"risk":14,"cat":"green"},{"name":"O'Connors","lat":55.96293,"lon":-3.19555,"postcode":"EH7 4EB","la":"City of Edinburgh","era":"other","nn":108,"risk":14,"cat":"green"},{"name":"Old Chain Pier","lat":55.98005,"lon":-3.2042,"postcode":"EH5 3ED","la":"City of Edinburgh","era":"other","nn":176,"risk":32,"cat":"amber"},{"name":"OLIVERS PUB","lat":55.95138,"lon":-3.2042,"postcode":"EH2 4BA","la":"City of Edinburgh","era":"other","nn":17,"risk":13,"cat":"green"},{"name":"One Canon","lat":55.96234,"lon":-3.1973,"postcode":"EH3 5HA","la":"City of Edinburgh","era":"other","nn":41,"risk":13,"cat":"green"},{"name":"Orchard Bar","lat":55.96382,"lon":-3.20119,"postcode":"EH3 5JZ","la":"City of Edinburgh","era":"other","nn":56,"risk":13,"cat":"green"},{"name":"Orocco Pier","lat":55.99033,"lon":-3.39651,"postcode":"EH30 9PP","la":"City of Edinburgh","era":"other","nn":34,"risk":13,"cat":"green"},{"name":"Ox184","lat":55.94876,"lon":-3.18815,"postcode":"EH1 1JJ","la":"City of Edinburgh","era":"other","nn":36,"risk":13,"cat":"green"},{"name":"Oxford Bar","lat":55.95297,"lon":-3.20468,"postcode":"EH2 4JB","la":"City of Edinburgh","era":"other","nn":36,"risk":13,"cat":"green"},{"name":"P.D.T. (Please Dont Tell)","lat":55.94971,"lon":-3.20853,"postcode":"EH2 4RG","la":"City of Edinburgh","era":"other","nn":50,"risk":13,"cat":"green"},{"name":"Panda & Sons","lat":55.95326,"lon":-3.20679,"postcode":"EH2 4NF","la":"City of Edinburgh","era":"other","nn":80,"risk":14,"cat":"green"},{"name":"Parkside Bowling Club","lat":55.94011,"lon":-3.17271,"postcode":"EH16 5BG","la":"City of Edinburgh","era":"other","nn":224,"risk":15,"cat":"green"},{"name":"Philly's","lat":55.93264,"lon":-3.31471,"postcode":"EH12 9DF","la":"City of Edinburgh","era":"other","nn":1105,"risk":43,"cat":"amber"},{"name":"Pilgrim Bar","lat":55.94877,"lon":-3.18581,"postcode":"EH1 1LY","la":"City of Edinburgh","era":"other","nn":52,"risk":13,"cat":"green"},{"name":"Planet Bar & Kitchen","lat":55.95752,"lon":-3.18441,"postcode":"EH1 3AF","la":"City of Edinburgh","era":"mod","nn":66,"risk":13,"cat":"green"},{"name":"Platform 5","lat":55.94616,"lon":-3.21851,"postcode":"EH12 5DR","la":"City of Edinburgh","era":"other","nn":61,"risk":13,"cat":"green"},{"name":"Police Scotland Club","lat":55.95642,"lon":-3.19072,"postcode":"EH1 3EP","la":"City of Edinburgh","era":"other","nn":87,"risk":14,"cat":"green"},{"name":"POLWARTH TAVERN","lat":55.93791,"lon":-3.21808,"postcode":"EH11 1HR","la":"City of Edinburgh","era":"other","nn":138,"risk":14,"cat":"green"},{"name":"Porters Bar","lat":55.95486,"lon":-3.14756,"postcode":"EH8 7EH","la":"City of Edinburgh","era":"other","nn":28,"risk":13,"cat":"green"},{"name":"Portland Bar","lat":55.97803,"lon":-3.18075,"postcode":"EH6 6LA","la":"City of Edinburgh","era":"other","nn":99,"risk":14,"cat":"green"},{"name":"PORTOBELLO BAR","lat":55.95239,"lon":-3.11383,"postcode":"EH15 1EU","la":"City of Edinburgh","era":"other","nn":36,"risk":13,"cat":"green"},{"name":"PORTOBELLO LODGE NO 226","lat":55.95419,"lon":-3.11542,"postcode":"EH15 1HL","la":"City of Edinburgh","era":"other","nn":90,"risk":14,"cat":"green"},{"name":"Portobello Tap","lat":55.95405,"lon":-3.11684,"postcode":"EH15 1AW","la":"City of Edinburgh","era":"mod","nn":90,"risk":14,"cat":"green"},{"name":"Porty Vault","lat":55.95182,"lon":-3.11074,"postcode":"EH15 2AW","la":"City of Edinburgh","era":"other","nn":19,"risk":13,"cat":"green"},{"name":"Potterrow Venue Bar (EUSA)","lat":55.94617,"lon":-3.18799,"postcode":"EH8 9AL","la":"City of Edinburgh","era":"mod","nn":79,"risk":14,"cat":"green"},{"name":"Powerleague Portobello Community Club","lat":55.9565,"lon":-3.11775,"postcode":"EH15 1DR","la":"City of Edinburgh","era":"other","nn":142,"risk":14,"cat":"green"},{"name":"Powerleague Sighthill Community Club","lat":55.92777,"lon":-3.28787,"postcode":"EH11 4EQ","la":"City of Edinburgh","era":"other","nn":581,"risk":20,"cat":"green"},{"name":"Prestonfield Golf Club","lat":55.93656,"lon":-3.1665,"postcode":"EH16 5HS","la":"City of Edinburgh","era":"other","nn":501,"risk":17,"cat":"green"},{"name":"Queen Charlotte Rooms","lat":55.97332,"lon":-3.16703,"postcode":"EH6 7EX","la":"City of Edinburgh","era":"other","nn":108,"risk":14,"cat":"green"},{"name":"Queen's Arms","lat":55.95354,"lon":-3.20034,"postcode":"EH2 1EP","la":"City of Edinburgh","era":"trad","nn":3,"risk":13,"cat":"green"},{"name":"Queens Retreat","lat":55.98347,"lon":-3.39198,"postcode":"EH30 9PH","la":"City of Edinburgh","era":"trad","nn":500,"risk":17,"cat":"green"},{"name":"QUEENSBERRY BOWLING CLUB","lat":55.97785,"lon":-3.23159,"postcode":"EH5 1NX","la":"City of Edinburgh","era":"trad","nn":151,"risk":19,"cat":"green"},{"name":"QUEENSFERRY BOWLING CLUB","lat":55.98796,"lon":-3.39161,"postcode":"EH30 9HZ","la":"City of Edinburgh","era":"trad","nn":263,"risk":15,"cat":"green"},{"name":"Rabble","lat":55.95388,"lon":-3.20058,"postcode":"EH2 1LH","la":"City of Edinburgh","era":"other","nn":38,"risk":13,"cat":"green"},{"name":"RATHO BOWLING AND RECREATION C","lat":55.92207,"lon":-3.37944,"postcode":"EH28 8RB","la":"City of Edinburgh","era":"other","nn":843,"risk":39,"cat":"amber"},{"name":"Ratho Park Golf Club","lat":55.92316,"lon":-3.36605,"postcode":"EH28 8NX","la":"City of Edinburgh","era":"other","nn":843,"risk":39,"cat":"amber"},{"name":"Ravelston Golf Club (Club House)","lat":55.95445,"lon":-3.25815,"postcode":"EH4 3NZ","la":"City of Edinburgh","era":"other","nn":547,"risk":34,"cat":"amber"},{"name":"Red Squirrel","lat":55.94787,"lon":-3.20593,"postcode":"EH1 2DJ","la":"City of Edinburgh","era":"other","nn":0,"risk":13,"cat":"green"},{"name":"REGENT BAR","lat":55.95668,"lon":-3.17138,"postcode":"EH7 5DL","la":"City of Edinburgh","era":"other","nn":129,"risk":14,"cat":"green"},{"name":"RFC Cougars (Corstorphine Rugby Club)","lat":55.93471,"lon":-3.27583,"postcode":"EH12 7DX","la":"City of Edinburgh","era":"other","nn":278,"risk":15,"cat":"green"},{"name":"Riccarton Inn","lat":55.8964,"lon":-3.30951,"postcode":"EH14 5NX","la":"City of Edinburgh","era":"trad","nn":61,"risk":16,"cat":"green"},{"name":"ROBERTSON'S THIRTY SEVEN BAR","lat":55.95278,"lon":-3.19774,"postcode":"EH2 2NH","la":"City of Edinburgh","era":"other","nn":27,"risk":13,"cat":"green"},{"name":"Robins Nest","lat":55.91508,"lon":-3.14922,"postcode":"EH17 7PX","la":"City of Edinburgh","era":"other","nn":418,"risk":18,"cat":"green"},{"name":"Rose and Crown","lat":55.95146,"lon":-3.20396,"postcode":"EH2 4BA","la":"City of Edinburgh","era":"trad","nn":17,"risk":13,"cat":"green"},{"name":"Rose Street Brewery","lat":55.95255,"lon":-3.19909,"postcode":"EH2 2NH","la":"City of Edinburgh","era":"trad","nn":40,"risk":13,"cat":"green"},{"name":"ROSEBURN BAR","lat":55.94537,"lon":-3.23398,"postcode":"EH12 5NG","la":"City of Edinburgh","era":"other","nn":101,"risk":14,"cat":"green"},{"name":"Roseleaf","lat":55.97595,"lon":-3.17352,"postcode":"EH6 6EW","la":"City of Edinburgh","era":"other","nn":144,"risk":14,"cat":"green"},{"name":"Roxy Lanes","lat":55.9526,"lon":-3.19568,"postcode":"EH2 2QA","la":"City of Edinburgh","era":"other","nn":45,"risk":13,"cat":"green"},{"name":"Royal British Legion","lat":55.96169,"lon":-3.19572,"postcode":"EH7 4EL","la":"City of Edinburgh","era":"trad","nn":122,"risk":14,"cat":"green"},{"name":"Royal Burgess Golfing Society Of Edinburgh","lat":55.96217,"lon":-3.3058,"postcode":"EH4 6BU","la":"City of Edinburgh","era":"other","nn":1079,"risk":43,"cat":"amber"},{"name":"ROYAL FORTH YACHT CLUB","lat":55.98458,"lon":-3.2231,"postcode":"EH5 1HF","la":"City of Edinburgh","era":"trad","nn":793,"risk":36,"cat":"amber"},{"name":"ROYAL HIGH SCHOOL ATHLETIC CLUB","lat":55.9647,"lon":-3.28599,"postcode":"EH4 6AQ","la":"City of Edinburgh","era":"trad","nn":371,"risk":21,"cat":"green"},{"name":"Royal Mile Tavern","lat":55.95046,"lon":-3.18678,"postcode":"EH1 1SG","la":"City of Edinburgh","era":"trad","nn":13,"risk":13,"cat":"green"},{"name":"Royal Scots Club","lat":55.95635,"lon":-3.19788,"postcode":"EH3 6QE","la":"City of Edinburgh","era":"trad","nn":67,"risk":13,"cat":"green"},{"name":"Ruma","lat":55.95742,"lon":-3.18814,"postcode":"EH1 3JU","la":"City of Edinburgh","era":"other","nn":30,"risk":13,"cat":"green"},{"name":"Rutland Hotel, Kyloe & The Huxley","lat":55.94908,"lon":-3.20824,"postcode":"EH1 2AN","la":"City of Edinburgh","era":"other","nn":73,"risk":14,"cat":"green"},{"name":"Ryries Bar","lat":55.94562,"lon":-3.2183,"postcode":"EH12 5EY","la":"City of Edinburgh","era":"other","nn":61,"risk":13,"cat":"green"},{"name":"Saffron Catering","lat":55.95448,"lon":-3.19958,"postcode":"EH2 1JX","la":"City of Edinburgh","era":"other","nn":48,"risk":13,"cat":"green"},{"name":"Salt Horse Beer Shop","lat":55.94967,"lon":-3.18563,"postcode":"EH1 1NB","la":"City of Edinburgh","era":"trad","nn":0,"risk":13,"cat":"green"},{"name":"Sandy Bell's Public House","lat":55.94609,"lon":-3.1914,"postcode":"EH1 2QH","la":"City of Edinburgh","era":"other","nn":50,"risk":13,"cat":"green"},{"name":"Satyr","lat":55.96641,"lon":-3.17578,"postcode":"EH6 5EL","la":"City of Edinburgh","era":"other","nn":51,"risk":13,"cat":"green"},{"name":"SCOTSMAN'S LOUNGE","lat":55.95036,"lon":-3.18812,"postcode":"EH1 1BU","la":"City of Edinburgh","era":"mod","nn":30,"risk":13,"cat":"green"},{"name":"Scotties Lounge Bar","lat":55.95542,"lon":-3.14053,"postcode":"EH8 7RU","la":"City of Edinburgh","era":"mod","nn":6,"risk":13,"cat":"green"},{"name":"Scottish Arts Club","lat":55.94877,"lon":-3.20975,"postcode":"EH1 2BW","la":"City of Edinburgh","era":"other","nn":55,"risk":13,"cat":"green"},{"name":"Scotts Bar","lat":55.9513,"lon":-3.20508,"postcode":"EH2 4AZ","la":"City of Edinburgh","era":"other","nn":22,"risk":13,"cat":"green"},{"name":"Scrap Heap Golf","lat":55.94933,"lon":-3.18742,"postcode":"EH1 1QR","la":"City of Edinburgh","era":"other","nn":30,"risk":13,"cat":"green"},{"name":"Seafield Bowling Club","lat":55.97119,"lon":-3.15586,"postcode":"EH6 7QR","la":"City of Edinburgh","era":"other","nn":0,"risk":13,"cat":"green"},{"name":"Shakespeares","lat":55.94787,"lon":-3.20593,"postcode":"EH1 2DJ","la":"City of Edinburgh","era":"other","nn":0,"risk":13,"cat":"green"},{"name":"Shandwicks","lat":55.95068,"lon":-3.20642,"postcode":"EH2 4AW","la":"City of Edinburgh","era":"other","nn":94,"risk":14,"cat":"green"},{"name":"Sheep Heid Inn","lat":55.94217,"lon":-3.14754,"postcode":"EH15 3QA","la":"City of Edinburgh","era":"trad","nn":968,"risk":40,"cat":"amber"},{"name":"Shoogley Peg","lat":55.95153,"lon":-3.2051,"postcode":"EH2 4LS","la":"City of Edinburgh","era":"other","nn":3,"risk":13,"cat":"green"},{"name":"Sighthill Bowling Club","lat":55.92207,"lon":-3.28885,"postcode":"EH11 4NT","la":"City of Edinburgh","era":"other","nn":161,"risk":17,"cat":"green"},{"name":"Silk","lat":55.94712,"lon":-3.20113,"postcode":"EH1 2JY","la":"City of Edinburgh","era":"other","nn":123,"risk":14,"cat":"green"},{"name":"Silverknowes Golf Club","lat":55.97301,"lon":-3.27255,"postcode":"EH4 5ET","la":"City of Edinburgh","era":"other","nn":820,"risk":19,"cat":"green"},{"name":"Sinatras","lat":55.9549,"lon":-3.14711,"postcode":"EH8 7EH","la":"City of Edinburgh","era":"other","nn":28,"risk":13,"cat":"green"},{"name":"SLATEFORD BOWLING CLUB","lat":55.92315,"lon":-3.24913,"postcode":"EH14 1TH","la":"City of Edinburgh","era":"other","nn":67,"risk":13,"cat":"green"},{"name":"Slug & Lettuce","lat":55.95704,"lon":-3.18504,"postcode":"EH1 3AA","la":"City of Edinburgh","era":"other","nn":66,"risk":13,"cat":"green"},{"name":"Smoke & Mirrors","lat":55.97111,"lon":-3.17028,"postcode":"EH6 7AD","la":"City of Edinburgh","era":"other","nn":34,"risk":13,"cat":"green"},{"name":"Sneaky Pete's","lat":55.94822,"lon":-3.1915,"postcode":"EH1 1JW","la":"City of Edinburgh","era":"other","nn":23,"risk":13,"cat":"green"},{"name":"Southsider","lat":55.94519,"lon":-3.1838,"postcode":"EH8 9EF","la":"City of Edinburgh","era":"other","nn":127,"risk":14,"cat":"green"},{"name":"Spey Lounge","lat":55.96968,"lon":-3.17218,"postcode":"EH6 8LS","la":"City of Edinburgh","era":"mod","nn":75,"risk":14,"cat":"green"},{"name":"Spitaki","lat":55.96466,"lon":-3.19053,"postcode":"EH7 4JA","la":"City of Edinburgh","era":"other","nn":154,"risk":14,"cat":"green"},{"name":"Spry Wines & Ante Coffee","lat":55.95933,"lon":-3.18391,"postcode":"EH7 4AE","la":"City of Edinburgh","era":"other","nn":70,"risk":14,"cat":"green"},{"name":"St Bernard's Bar","lat":55.95896,"lon":-3.21025,"postcode":"EH4 1HN","la":"City of Edinburgh","era":"other","nn":36,"risk":13,"cat":"green"},{"name":"St Vincent Bar","lat":55.95795,"lon":-3.20352,"postcode":"EH3 6SW","la":"City of Edinburgh","era":"other","nn":188,"risk":14,"cat":"green"},{"name":"Stable Bar & Restaurant","lat":55.90396,"lon":-3.18147,"postcode":"EH16 6TJ","la":"City of Edinburgh","era":"mod","nn":1008,"risk":43,"cat":"amber"},{"name":"Stag's Head Hotel","lat":55.99052,"lon":-3.39693,"postcode":"EH30 9PP","la":"City of Edinburgh","era":"trad","nn":34,"risk":13,"cat":"green"},{"name":"Stand Comedy Club","lat":55.9558,"lon":-3.19184,"postcode":"EH1 3EB","la":"City of Edinburgh","era":"other","nn":15,"risk":13,"cat":"green"},{"name":"Star Bar","lat":55.95729,"lon":-3.19548,"postcode":"EH3 6LQ","la":"City of Edinburgh","era":"other","nn":94,"risk":14,"cat":"green"},{"name":"Starbank Inn","lat":55.97897,"lon":-3.20212,"postcode":"EH5 3BZ","la":"City of Edinburgh","era":"trad","nn":176,"risk":14,"cat":"green"},{"name":"STELLA MARIS CENTRE","lat":55.97304,"lon":-3.16869,"postcode":"EH6 6AW","la":"City of Edinburgh","era":"other","nn":108,"risk":14,"cat":"green"},{"name":"Stewarts Dockside Tap","lat":55.97616,"lon":-3.16845,"postcode":"EH6 6PR","la":"City of Edinburgh","era":"mod","nn":4,"risk":13,"cat":"green"},{"name":"Stramash","lat":55.9485,"lon":-3.18781,"postcode":"EH1 1JQ","la":"City of Edinburgh","era":"trad","nn":0,"risk":13,"cat":"green"},{"name":"Stratfords Bar","lat":55.93704,"lon":-3.23481,"postcode":"EH11 1TU","la":"City of Edinburgh","era":"other","nn":186,"risk":14,"cat":"green"},{"name":"STRATHMORE BAR","lat":55.96392,"lon":-3.17628,"postcode":"EH6 8SG","la":"City of Edinburgh","era":"other","nn":6,"risk":13,"cat":"green"},{"name":"SUMMERSIDE BOWLING CLUB","lat":55.97551,"lon":-3.18971,"postcode":"EH6 4NT","la":"City of Edinburgh","era":"other","nn":312,"risk":15,"cat":"green"},{"name":"Supercube","lat":55.953,"lon":-3.19914,"postcode":"EH2 2LR","la":"City of Edinburgh","era":"other","nn":25,"risk":13,"cat":"green"},{"name":"Superico Bar & Lounge","lat":55.95443,"lon":-3.19736,"postcode":"EH2 1DJ","la":"City of Edinburgh","era":"mod","nn":48,"risk":13,"cat":"green"},{"name":"Swanny's Bar","lat":55.9764,"lon":-3.17919,"postcode":"EH6 6HP","la":"City of Edinburgh","era":"trad","nn":108,"risk":14,"cat":"green"},{"name":"Swanston Brasserie","lat":55.89353,"lon":-3.21718,"postcode":"EH10 7DS","la":"City of Edinburgh","era":"trad","nn":998,"risk":40,"cat":"amber"},{"name":"Swany's","lat":55.93465,"lon":-3.17868,"postcode":"EH9 1SX","la":"City of Edinburgh","era":"trad","nn":132,"risk":14,"cat":"green"},{"name":"TAM O'SHANTER","lat":55.97097,"lon":-3.17302,"postcode":"EH6 5HX","la":"City of Edinburgh","era":"other","nn":112,"risk":14,"cat":"green"},{"name":"Tanfield Bowling Club","lat":55.96225,"lon":-3.21339,"postcode":"EH3 5NY","la":"City of Edinburgh","era":"other","nn":237,"risk":15,"cat":"green"},{"name":"Tanner's Lounge Bar","lat":55.90732,"lon":-3.27393,"postcode":"EH14 5BA","la":"City of Edinburgh","era":"mod","nn":802,"risk":24,"cat":"green"},{"name":"Teuchters Landing","lat":55.97753,"lon":-3.17131,"postcode":"EH6 6LU","la":"City of Edinburgh","era":"other","nn":117,"risk":14,"cat":"green"},{"name":"The Abbey Bar","lat":55.93965,"lon":-3.17958,"postcode":"EH8 9PP","la":"City of Edinburgh","era":"trad","nn":83,"risk":14,"cat":"green"},{"name":"The Abbotsford Bar","lat":55.95329,"lon":-3.19473,"postcode":"EH2 2PR","la":"City of Edinburgh","era":"other","nn":83,"risk":14,"cat":"green"},{"name":"The Abbott's Choice","lat":55.8955,"lon":-3.31253,"postcode":"EH14 5NP","la":"City of Edinburgh","era":"other","nn":213,"risk":17,"cat":"green"},{"name":"The Advocate","lat":55.94955,"lon":-3.18803,"postcode":"EH1 1QW","la":"City of Edinburgh","era":"other","nn":10,"risk":13,"cat":"green"},{"name":"The Albanach","lat":55.95018,"lon":-3.18848,"postcode":"EH1 1PE","la":"City of Edinburgh","era":"other","nn":29,"risk":13,"cat":"green"},{"name":"The Alchemist","lat":55.95354,"lon":-3.19911,"postcode":"EH2 2HT","la":"City of Edinburgh","era":"other","nn":0,"risk":13,"cat":"green"},{"name":"The Alexander Graham Bell","lat":55.95181,"lon":-3.20536,"postcode":"EH2 4JZ","la":"City of Edinburgh","era":"other","nn":35,"risk":13,"cat":"green"},{"name":"THE ASSOCIATION OF UKRAINIANS","lat":55.9567,"lon":-3.17914,"postcode":"EH7 5AB","la":"City of Edinburgh","era":"other","nn":328,"risk":15,"cat":"green"},{"name":"The Auld Hoose","lat":55.94351,"lon":-3.1803,"postcode":"EH8 9QN","la":"City of Edinburgh","era":"other","nn":129,"risk":14,"cat":"green"},{"name":"The Aviator","lat":55.9373,"lon":-3.18088,"postcode":"EH9 1PU","la":"City of Edinburgh","era":"other","nn":63,"risk":13,"cat":"green"},{"name":"The Bailie Bar","lat":55.95767,"lon":-3.20675,"postcode":"EH3 5AL","la":"City of Edinburgh","era":"other","nn":0,"risk":13,"cat":"green"},{"name":"The Bailie Kitchen Franchise","lat":55.95767,"lon":-3.20675,"postcode":"EH3 5AL","la":"City of Edinburgh","era":"mod","nn":0,"risk":13,"cat":"green"},{"name":"The Balerno Inn","lat":55.88389,"lon":-3.33846,"postcode":"EH14 7EQ","la":"City of Edinburgh","era":"trad","nn":138,"risk":34,"cat":"amber"},{"name":"The Ball Room & Rosso Resturant","lat":55.92701,"lon":-3.20784,"postcode":"EH10 4RB","la":"City of Edinburgh","era":"other","nn":88,"risk":14,"cat":"green"},{"name":"The Ball Room Sports Bar & Pool Hall","lat":55.95517,"lon":-3.15007,"postcode":"EH8 7AA","la":"City of Edinburgh","era":"mod","nn":0,"risk":13,"cat":"green"},{"name":"The Beehive Inn","lat":55.94748,"lon":-3.19713,"postcode":"EH1 2JU","la":"City of Edinburgh","era":"trad","nn":26,"risk":13,"cat":"green"},{"name":"The Beer House","lat":55.95264,"lon":-3.19131,"postcode":"EH1 1BQ","la":"City of Edinburgh","era":"other","nn":0,"risk":13,"cat":"green"},{"name":"The Black Fox","lat":55.96207,"lon":-3.17931,"postcode":"EH7 5HN","la":"City of Edinburgh","era":"trad","nn":200,"risk":14,"cat":"green"},{"name":"The Black Rose Tavern","lat":55.95269,"lon":-3.19814,"postcode":"EH2 2NH","la":"City of Edinburgh","era":"trad","nn":27,"risk":13,"cat":"green"},{"name":"The Blackbird","lat":55.94109,"lon":-3.20377,"postcode":"EH3 9LH","la":"City of Edinburgh","era":"other","nn":104,"risk":14,"cat":"green"},{"name":"The Boathouse","lat":55.95814,"lon":-3.11884,"postcode":"EH15 1DU","la":"City of Edinburgh","era":"other","nn":195,"risk":14,"cat":"green"},{"name":"The Bon Vivant","lat":55.95405,"lon":-3.19952,"postcode":"EH2 1DY","la":"City of Edinburgh","era":"other","nn":44,"risk":13,"cat":"green"},{"name":"The Bongo Club","lat":55.94814,"lon":-3.19351,"postcode":"EH1 1JX","la":"City of Edinburgh","era":"other","nn":44,"risk":13,"cat":"green"},{"name":"The Bonnington","lat":55.96937,"lon":-3.18423,"postcode":"EH6 5BE","la":"City of Edinburgh","era":"other","nn":527,"risk":17,"cat":"green"},{"name":"The Booking Office","lat":55.95264,"lon":-3.19131,"postcode":"EH1 1BQ","la":"City of Edinburgh","era":"trad","nn":0,"risk":13,"cat":"green"},{"name":"The Botanist","lat":55.95572,"lon":-3.18812,"postcode":"EH1 3AR","la":"City of Edinburgh","era":"other","nn":84,"risk":14,"cat":"green"},{"name":"THE BOW BAR","lat":55.94842,"lon":-3.19413,"postcode":"EH1 2HH","la":"City of Edinburgh","era":"other","nn":37,"risk":13,"cat":"green"},{"name":"The Brass Monkey","lat":55.96437,"lon":-3.17762,"postcode":"EH6 5BR","la":"City of Edinburgh","era":"trad","nn":79,"risk":14,"cat":"green"},{"name":"The Broughton","lat":55.95843,"lon":-3.19024,"postcode":"EH1 3SA","la":"City of Edinburgh","era":"other","nn":54,"risk":13,"cat":"green"},{"name":"The Bruntsfield Links Golfing Society","lat":55.96785,"lon":-3.28402,"postcode":"EH4 6JH","la":"City of Edinburgh","era":"mod","nn":371,"risk":16,"cat":"green"},{"name":"The Caley Picture House","lat":55.94787,"lon":-3.20593,"postcode":"EH1 2DJ","la":"City of Edinburgh","era":"other","nn":0,"risk":13,"cat":"green"},{"name":"The Caley Sampling Room","lat":55.93767,"lon":-3.22581,"postcode":"EH11 2JR","la":"City of Edinburgh","era":"other","nn":91,"risk":14,"cat":"green"},{"name":"The Canny Mans","lat":55.92757,"lon":-3.20885,"postcode":"EH10 4QU","la":"City of Edinburgh","era":"other","nn":88,"risk":14,"cat":"green"},{"name":"The Cask & Barrel","lat":55.93894,"lon":-3.18002,"postcode":"EH8 9PZ","la":"City of Edinburgh","era":"other","nn":79,"risk":14,"cat":"green"},{"name":"The Caves and The Rowantree","lat":55.94846,"lon":-3.18643,"postcode":"EH1 1NS","la":"City of Edinburgh","era":"other","nn":45,"risk":13,"cat":"green"},{"name":"THE CELTIC LODGE","lat":55.94908,"lon":-3.1932,"postcode":"EH1 2PS","la":"City of Edinburgh","era":"other","nn":56,"risk":13,"cat":"green"},{"name":"The Central Bar","lat":55.97029,"lon":-3.17168,"postcode":"EH6 8LN","la":"City of Edinburgh","era":"other","nn":53,"risk":13,"cat":"green"},{"name":"The Centurion","lat":55.94289,"lon":-3.28862,"postcode":"EH12 7XD","la":"City of Edinburgh","era":"other","nn":347,"risk":15,"cat":"green"},{"name":"The Champagne Bar","lat":55.94839,"lon":-3.36318,"postcode":"EH12 9DN","la":"City of Edinburgh","era":"other","nn":0,"risk":16,"cat":"green"},{"name":"The Chanter (K-Town Chicken and Locked & Loaded)","lat":55.94567,"lon":-3.20444,"postcode":"EH3 9AF","la":"City of Edinburgh","era":"other","nn":39,"risk":13,"cat":"green"},{"name":"The Chaumer","lat":55.95357,"lon":-3.20479,"postcode":"EH2 4NA","la":"City of Edinburgh","era":"other","nn":67,"risk":13,"cat":"green"},{"name":"The City Cafe","lat":55.94922,"lon":-3.18786,"postcode":"EH1 1QR","la":"City of Edinburgh","era":"other","nn":13,"risk":13,"cat":"green"},{"name":"The Cocktail Geeks","lat":55.95132,"lon":-3.18467,"postcode":"EH8 8FS","la":"City of Edinburgh","era":"other","nn":59,"risk":13,"cat":"green"},{"name":"The Cocktail Mafia","lat":55.95125,"lon":-3.20959,"postcode":"EH2 4QZ","la":"City of Edinburgh","era":"other","nn":18,"risk":13,"cat":"green"},{"name":"The Conan Doyle","lat":55.95646,"lon":-3.18791,"postcode":"EH1 3JD","la":"City of Edinburgh","era":"other","nn":61,"risk":13,"cat":"green"},{"name":"The Cuddie Brae","lat":55.9349,"lon":-3.09455,"postcode":"EH21 8RX","la":"City of Edinburgh","era":"other","nn":81,"risk":31,"cat":"amber"},{"name":"The Dagda Bar","lat":55.94214,"lon":-3.18386,"postcode":"EH8 9NG","la":"City of Edinburgh","era":"other","nn":155,"risk":14,"cat":"green"},{"name":"The Devil's Advocate","lat":55.95002,"lon":-3.19125,"postcode":"EH1 1ND","la":"City of Edinburgh","era":"other","nn":84,"risk":14,"cat":"green"},{"name":"The Dome Bar & Grill","lat":55.95338,"lon":-3.19604,"postcode":"EH2 2PF","la":"City of Edinburgh","era":"mod","nn":60,"risk":13,"cat":"green"},{"name":"The Doo'cot","lat":55.96641,"lon":-3.25274,"postcode":"EH4 2UA","la":"City of Edinburgh","era":"other","nn":791,"risk":36,"cat":"amber"},{"name":"The Doric Tavern","lat":55.95088,"lon":-3.19057,"postcode":"EH1 1DE","la":"City of Edinburgh","era":"other","nn":21,"risk":13,"cat":"green"},{"name":"The Drumsheugh Baths Club Ltd","lat":55.95209,"lon":-3.21629,"postcode":"EH4 3BL","la":"City of Edinburgh","era":"other","nn":27,"risk":13,"cat":"green"},{"name":"The Earl of Marchmont","lat":55.93793,"lon":-3.19277,"postcode":"EH9 1HG","la":"City of Edinburgh","era":"other","nn":576,"risk":17,"cat":"green"},{"name":"The Ensign Ewart","lat":55.94926,"lon":-3.19452,"postcode":"EH1 2PE","la":"City of Edinburgh","era":"other","nn":68,"risk":13,"cat":"green"},{"name":"The Ferry Tap","lat":55.98975,"lon":-3.39513,"postcode":"EH30 9HN","la":"City of Edinburgh","era":"mod","nn":75,"risk":14,"cat":"green"},{"name":"The Fiddlers Arms","lat":55.94696,"lon":-3.19846,"postcode":"EH1 2HY","la":"City of Edinburgh","era":"trad","nn":22,"risk":13,"cat":"green"},{"name":"The Fountain","lat":55.94027,"lon":-3.21796,"postcode":"EH11 1AX","la":"City of Edinburgh","era":"other","nn":120,"risk":14,"cat":"green"},{"name":"The Fox and Faun","lat":55.9489,"lon":-3.21061,"postcode":"EH2 4SD","la":"City of Edinburgh","era":"trad","nn":55,"risk":13,"cat":"green"},{"name":"The Golden Rule","lat":55.93906,"lon":-3.21893,"postcode":"EH11 1BT","la":"City of Edinburgh","era":"other","nn":138,"risk":14,"cat":"green"},{"name":"The Goldenacre","lat":55.97097,"lon":-3.20743,"postcode":"EH3 5QY","la":"City of Edinburgh","era":"other","nn":215,"risk":15,"cat":"green"},{"name":"The Golf Tavern","lat":55.93994,"lon":-3.20378,"postcode":"EH10 4HR","la":"City of Edinburgh","era":"other","nn":129,"risk":14,"cat":"green"},{"name":"The Good Companions","lat":55.90563,"lon":-3.22309,"postcode":"EH13 9JT","la":"City of Edinburgh","era":"other","nn":399,"risk":36,"cat":"amber"},{"name":"The Grange Sports Club","lat":55.95967,"lon":-3.21429,"postcode":"EH4 1HQ","la":"City of Edinburgh","era":"other","nn":229,"risk":15,"cat":"green"},{"name":"The Green Room","lat":55.9496,"lon":-3.21221,"postcode":"EH3 7NG","la":"City of Edinburgh","era":"other","nn":21,"risk":13,"cat":"green"},{"name":"The Greenmantle","lat":55.94392,"lon":-3.18376,"postcode":"EH8 9JP","la":"City of Edinburgh","era":"other","nn":104,"risk":14,"cat":"green"},{"name":"The Guild of Foresters","lat":55.95522,"lon":-3.11774,"postcode":"EH15 1DA","la":"City of Edinburgh","era":"other","nn":142,"risk":14,"cat":"green"},{"name":"The Hanging Bat","lat":55.94563,"lon":-3.20506,"postcode":"EH3 9AD","la":"City of Edinburgh","era":"other","nn":39,"risk":13,"cat":"green"},{"name":"THE HARBOUR INN","lat":55.98055,"lon":-3.19509,"postcode":"EH6 4LW","la":"City of Edinburgh","era":"trad","nn":472,"risk":16,"cat":"green"},{"name":"The Harp and Castle","lat":55.96502,"lon":-3.17713,"postcode":"EH6 5BU","la":"City of Edinburgh","era":"other","nn":79,"risk":14,"cat":"green"},{"name":"The Hermitage","lat":55.92453,"lon":-3.20968,"postcode":"EH10 6AA","la":"City of Edinburgh","era":"other","nn":63,"risk":13,"cat":"green"},{"name":"The Inn on the Mile","lat":55.94891,"lon":-3.18671,"postcode":"EH1 1LL","la":"City of Edinburgh","era":"trad","nn":34,"risk":13,"cat":"green"},{"name":"The Jolly Botanist","lat":55.94635,"lon":-3.2153,"postcode":"EH3 8DT","la":"City of Edinburgh","era":"other","nn":35,"risk":13,"cat":"green"},{"name":"The Kenilworth Bar","lat":55.95188,"lon":-3.20173,"postcode":"EH2 3JD","la":"City of Edinburgh","era":"other","nn":31,"risk":13,"cat":"green"},{"name":"The King's Wark","lat":55.97586,"lon":-3.16897,"postcode":"EH6 6QU","la":"City of Edinburgh","era":"trad","nn":44,"risk":13,"cat":"green"},{"name":"The Kingsknowe","lat":55.9197,"lon":-3.26474,"postcode":"EH14 2ED","la":"City of Edinburgh","era":"trad","nn":647,"risk":18,"cat":"green"},{"name":"The Laich Bar","lat":55.93203,"lon":-3.24933,"postcode":"EH11 3AD","la":"City of Edinburgh","era":"other","nn":345,"risk":15,"cat":"green"},{"name":"THE LAST DROP","lat":55.94789,"lon":-3.19539,"postcode":"EH1 2JR","la":"City of Edinburgh","era":"other","nn":17,"risk":13,"cat":"green"},{"name":"THE LEITH DOCKERS CLUB LTD.","lat":55.97084,"lon":-3.17002,"postcode":"EH6 7EE","la":"City of Edinburgh","era":"other","nn":34,"risk":13,"cat":"green"},{"name":"The Lioness Of Leith","lat":55.97004,"lon":-3.16958,"postcode":"EH6 8HH","la":"City of Edinburgh","era":"trad","nn":27,"risk":13,"cat":"green"},{"name":"The Mad Hatter","lat":55.94655,"lon":-3.2145,"postcode":"EH3 8DU","la":"City of Edinburgh","era":"other","nn":27,"risk":13,"cat":"green"},{"name":"The Malt Shovel","lat":55.9507,"lon":-3.19068,"postcode":"EH1 1BP","la":"City of Edinburgh","era":"other","nn":21,"risk":13,"cat":"green"},{"name":"THE MARKSMAN BAR","lat":55.9705,"lon":-3.17092,"postcode":"EH6 8HG","la":"City of Edinburgh","era":"other","nn":53,"risk":13,"cat":"green"},{"name":"The Mercat Bar & Kitchen","lat":55.94704,"lon":-3.21578,"postcode":"EH12 5DX","la":"City of Edinburgh","era":"mod","nn":51,"risk":13,"cat":"green"},{"name":"The Merchant's Hall","lat":55.95265,"lon":-3.19717,"postcode":"EH2 2EP","la":"City of Edinburgh","era":"other","nn":38,"risk":13,"cat":"green"},{"name":"The Mid Yoken","lat":55.95261,"lon":-3.30287,"postcode":"EH12 8XF","la":"City of Edinburgh","era":"other","nn":1079,"risk":43,"cat":"amber"},{"name":"The Mitre","lat":55.9505,"lon":-3.18697,"postcode":"EH1 1SG","la":"City of Edinburgh","era":"other","nn":13,"risk":13,"cat":"green"},{"name":"The Mother Superior","lat":55.96949,"lon":-3.17339,"postcode":"EH6 5HB","la":"City of Edinburgh","era":"other","nn":78,"risk":14,"cat":"green"},{"name":"The Murrayfield","lat":55.94561,"lon":-3.23555,"postcode":"EH12 5NQ","la":"City of Edinburgh","era":"other","nn":12,"risk":13,"cat":"green"},{"name":"The New Melville Bridge Club","lat":55.94221,"lon":-3.26538,"postcode":"EH12 7BA","la":"City of Edinburgh","era":"other","nn":711,"risk":38,"cat":"amber"},{"name":"The Newsroom","lat":55.95379,"lon":-3.18813,"postcode":"EH1 3AT","la":"City of Edinburgh","era":"other","nn":64,"risk":13,"cat":"green"},{"name":"The Norhet","lat":55.96561,"lon":-3.27258,"postcode":"EH4 5BZ","la":"City of Edinburgh","era":"other","nn":68,"risk":13,"cat":"green"},{"name":"The Office","lat":55.96259,"lon":-3.17127,"postcode":"EH7 5NA","la":"City of Edinburgh","era":"other","nn":63,"risk":13,"cat":"green"},{"name":"The Old Bell Inn","lat":55.93573,"lon":-3.17956,"postcode":"EH9 1PH","la":"City of Edinburgh","era":"trad","nn":132,"risk":14,"cat":"green"},{"name":"The Ormelie Tavern","lat":55.94922,"lon":-3.0987,"postcode":"EH15 2ET","la":"City of Edinburgh","era":"other","nn":370,"risk":18,"cat":"green"},{"name":"The Ox","lat":55.95904,"lon":-3.19121,"postcode":"EH3 6LX","la":"City of Edinburgh","era":"other","nn":58,"risk":13,"cat":"green"},{"name":"The Peartree","lat":55.94443,"lon":-3.18533,"postcode":"EH8 9DD","la":"City of Edinburgh","era":"other","nn":113,"risk":14,"cat":"green"},{"name":"The Penny Black","lat":55.95422,"lon":-3.18737,"postcode":"EH1 3AT","la":"City of Edinburgh","era":"other","nn":4,"risk":13,"cat":"green"},{"name":"The Persevere Bar","lat":55.96839,"lon":-3.16772,"postcode":"EH6 8HT","la":"City of Edinburgh","era":"other","nn":95,"risk":14,"cat":"green"},{"name":"The Pleasance EUSA","lat":55.94757,"lon":-3.18185,"postcode":"EH8 9TJ","la":"City of Edinburgh","era":"other","nn":211,"risk":14,"cat":"green"},{"name":"THE PROM BAR","lat":55.9796,"lon":-3.18769,"postcode":"EH6 4JG","la":"City of Edinburgh","era":"other","nn":465,"risk":16,"cat":"green"},{"name":"The Raging Bull","lat":55.94513,"lon":-3.20492,"postcode":"EH3 9AA","la":"City of Edinburgh","era":"trad","nn":57,"risk":13,"cat":"green"},{"name":"THE ROYAL BINGO CLUB","lat":55.90212,"lon":-3.13426,"postcode":"EH17 8QR","la":"City of Edinburgh","era":"trad","nn":200,"risk":17,"cat":"green"},{"name":"THE ROYAL NAVY & ROYAL MARINES CLUB","lat":55.96271,"lon":-3.19724,"postcode":"EH7 4EW","la":"City of Edinburgh","era":"trad","nn":41,"risk":13,"cat":"green"},{"name":"THE ROYAL OAK","lat":55.94808,"lon":-3.18624,"postcode":"EH1 1LT","la":"City of Edinburgh","era":"trad","nn":45,"risk":13,"cat":"green"},{"name":"The Safari Lounge","lat":55.95715,"lon":-3.16832,"postcode":"EH7 5SN","la":"City of Edinburgh","era":"mod","nn":198,"risk":14,"cat":"green"},{"name":"The Salisbury Arms","lat":55.93822,"lon":-3.17398,"postcode":"EH16 5AD","la":"City of Edinburgh","era":"trad","nn":224,"risk":15,"cat":"green"},{"name":"The Scottish Engineer","lat":55.96137,"lon":-3.24162,"postcode":"EH4 2NF","la":"City of Edinburgh","era":"other","nn":767,"risk":36,"cat":"amber"},{"name":"The Shack","lat":55.95213,"lon":-3.2015,"postcode":"EH2 3DT","la":"City of Edinburgh","era":"other","nn":31,"risk":13,"cat":"green"},{"name":"The Shandon Bar & Snooker Hall","lat":55.93301,"lon":-3.23503,"postcode":"EH11 1QY","la":"City of Edinburgh","era":"mod","nn":0,"risk":13,"cat":"green"},{"name":"The Ship On The Shore","lat":55.97668,"lon":-3.16925,"postcode":"EH6 6QN","la":"City of Edinburgh","era":"trad","nn":25,"risk":13,"cat":"green"},{"name":"The Silver Wing","lat":55.92342,"lon":-3.2756,"postcode":"EH11 4SB","la":"City of Edinburgh","era":"other","nn":682,"risk":18,"cat":"green"},{"name":"The Sir Walter Scott - Airside","lat":55.94853,"lon":-3.3638,"postcode":"EH12 9DN","la":"City of Edinburgh","era":"other","nn":42,"risk":16,"cat":"green"},{"name":"The Skylark","lat":55.95179,"lon":-3.11104,"postcode":"EH15 2AW","la":"City of Edinburgh","era":"other","nn":19,"risk":13,"cat":"green"},{"name":"The Southern","lat":55.94056,"lon":-3.181,"postcode":"EH8 9PR","la":"City of Edinburgh","era":"other","nn":106,"risk":14,"cat":"green"},{"name":"The Spartans Community Football Academy","lat":55.97202,"lon":-3.23043,"postcode":"EH5 2HF","la":"City of Edinburgh","era":"other","nn":652,"risk":23,"cat":"green"},{"name":"The Spylaw Tavern","lat":55.90764,"lon":-3.25825,"postcode":"EH13 0JT","la":"City of Edinburgh","era":"other","nn":680,"risk":23,"cat":"green"},{"name":"The St Margaret's Social Club","lat":55.96574,"lon":-3.26957,"postcode":"EH4 5AD","la":"City of Edinburgh","era":"mod","nn":188,"risk":14,"cat":"green"},{"name":"The Standing Order","lat":55.95286,"lon":-3.19945,"postcode":"EH2 2LR","la":"City of Edinburgh","era":"other","nn":25,"risk":13,"cat":"green"},{"name":"The Stockbridge Tap Bar","lat":55.95911,"lon":-3.21075,"postcode":"EH4 1HN","la":"City of Edinburgh","era":"mod","nn":36,"risk":13,"cat":"green"},{"name":"The Street","lat":55.95699,"lon":-3.18765,"postcode":"EH1 3JT","la":"City of Edinburgh","era":"other","nn":27,"risk":13,"cat":"green"},{"name":"The Terrace","lat":55.9366,"lon":-3.27875,"postcode":"EH12 7JB","la":"City of Edinburgh","era":"other","nn":278,"risk":15,"cat":"green"},{"name":"The Toby Carvery","lat":55.90375,"lon":-3.16531,"postcode":"EH16 6PG","la":"City of Edinburgh","era":"other","nn":679,"risk":35,"cat":"amber"},{"name":"The Tor Inn","lat":55.96601,"lon":-3.1555,"postcode":"EH7 6HN","la":"City of Edinburgh","era":"trad","nn":577,"risk":17,"cat":"green"},{"name":"The Torfin","lat":55.94305,"lon":-3.28305,"postcode":"EH12 8AX","la":"City of Edinburgh","era":"other","nn":54,"risk":13,"cat":"green"},{"name":"The Tourmalet","lat":55.96397,"lon":-3.17625,"postcode":"EH6 8SQ","la":"City of Edinburgh","era":"other","nn":6,"risk":13,"cat":"green"},{"name":"The Tron","lat":55.94962,"lon":-3.18811,"postcode":"EH1 1QW","la":"City of Edinburgh","era":"other","nn":10,"risk":13,"cat":"green"},{"name":"The Village Inn","lat":55.92491,"lon":-3.25425,"postcode":"EH14 2ER","la":"City of Edinburgh","era":"trad","nn":65,"risk":13,"cat":"green"},{"name":"THE VILLAGE PUB","lat":55.97408,"lon":-3.18335,"postcode":"EH6 4DN","la":"City of Edinburgh","era":"other","nn":126,"risk":14,"cat":"green"},{"name":"THE VINE BAR","lat":55.97722,"lon":-3.18013,"postcode":"EH6 6HS","la":"City of Edinburgh","era":"other","nn":99,"risk":14,"cat":"green"},{"name":"The Voodoo Rooms","lat":55.95377,"lon":-3.19061,"postcode":"EH2 2AA","la":"City of Edinburgh","era":"mod","nn":12,"risk":13,"cat":"green"},{"name":"The Waiting Room","lat":55.92489,"lon":-3.21045,"postcode":"EH10 5HZ","la":"City of Edinburgh","era":"other","nn":63,"risk":13,"cat":"green"},{"name":"THE WALLY DUG","lat":55.9568,"lon":-3.19858,"postcode":"EH3 6LS","la":"City of Edinburgh","era":"other","nn":67,"risk":13,"cat":"green"},{"name":"The Wash","lat":55.9498,"lon":-3.194,"postcode":"EH1 2LP","la":"City of Edinburgh","era":"other","nn":68,"risk":13,"cat":"green"},{"name":"The Wee Vault","lat":55.94658,"lon":-3.21566,"postcode":"EH12 5DS","la":"City of Edinburgh","era":"other","nn":35,"risk":13,"cat":"green"},{"name":"The White Hart Inn","lat":55.94753,"lon":-3.19673,"postcode":"EH1 2JU","la":"City of Edinburgh","era":"trad","nn":26,"risk":13,"cat":"green"},{"name":"THE WOODHALL ARMS","lat":55.89692,"lon":-3.30495,"postcode":"EH14 5NZ","la":"City of Edinburgh","era":"trad","nn":240,"risk":17,"cat":"green"},{"name":"The World's End","lat":55.95033,"lon":-3.18549,"postcode":"EH1 1TB","la":"City of Edinburgh","era":"other","nn":67,"risk":13,"cat":"green"},{"name":"Thistle Street Bar","lat":55.95417,"lon":-3.19885,"postcode":"EH2 1DY","la":"City of Edinburgh","era":"other","nn":44,"risk":13,"cat":"green"},{"name":"Thomsons Bar","lat":55.94628,"lon":-3.21236,"postcode":"EH3 8EB","la":"City of Edinburgh","era":"other","nn":24,"risk":13,"cat":"green"},{"name":"Tiles Bistro Bar","lat":55.95355,"lon":-3.19222,"postcode":"EH2 2BD","la":"City of Edinburgh","era":"other","nn":0,"risk":13,"cat":"green"},{"name":"Tim'rous Beastie","lat":55.97531,"lon":-3.16736,"postcode":"EH6 6PW","la":"City of Edinburgh","era":"other","nn":62,"risk":13,"cat":"green"},{"name":"Tolbooth Tavern","lat":55.95152,"lon":-3.18019,"postcode":"EH8 8BN","la":"City of Edinburgh","era":"other","nn":90,"risk":14,"cat":"green"},{"name":"TONIC","lat":55.9527,"lon":-3.20409,"postcode":"EH2 3BN","la":"City of Edinburgh","era":"other","nn":46,"risk":13,"cat":"green"},{"name":"Traverse Bar Restaurant & TBC Coffee Shop","lat":55.94749,"lon":-3.2043,"postcode":"EH1 2ED","la":"City of Edinburgh","era":"mod","nn":48,"risk":13,"cat":"green"},{"name":"Turnhouse Golf Club","lat":55.95021,"lon":-3.33551,"postcode":"EH12 0AD","la":"City of Edinburgh","era":"mod","nn":1735,"risk":48,"cat":"amber"},{"name":"TYNECASTLE ARMS","lat":55.93859,"lon":-3.23041,"postcode":"EH11 2NP","la":"City of Edinburgh","era":"trad","nn":129,"risk":14,"cat":"green"},{"name":"Usher Hall","lat":55.94746,"lon":-3.20507,"postcode":"EH1 2EA","la":"City of Edinburgh","era":"other","nn":48,"risk":13,"cat":"green"},{"name":"Valley Park Community Centre","lat":55.89809,"lon":-3.15647,"postcode":"EH17 8EU","la":"City of Edinburgh","era":"other","nn":239,"risk":32,"cat":"amber"},{"name":"Velveteen","lat":55.94666,"lon":-3.20525,"postcode":"EH3 9AW","la":"City of Edinburgh","era":"other","nn":0,"risk":13,"cat":"green"},{"name":"Victoria Bar","lat":55.96562,"lon":-3.17563,"postcode":"EH6 8PD","la":"City of Edinburgh","era":"trad","nn":89,"risk":14,"cat":"green"},{"name":"Viva Bar","lat":55.95221,"lon":-3.20081,"postcode":"EH2 3DT","la":"City of Edinburgh","era":"other","nn":18,"risk":13,"cat":"green"},{"name":"Voyage of Buck","lat":55.9495,"lon":-3.2125,"postcode":"EH3 7NG","la":"City of Edinburgh","era":"other","nn":21,"risk":13,"cat":"green"},{"name":"WATERSIDE SOCIAL CLUB (MASONIC LODGE","lat":55.9246,"lon":-3.25338,"postcode":"EH14 2ER","la":"City of Edinburgh","era":"other","nn":65,"risk":13,"cat":"green"},{"name":"WAVERLEY INN","lat":55.90023,"lon":-3.1564,"postcode":"EH17 8HG","la":"City of Edinburgh","era":"trad","nn":239,"risk":32,"cat":"amber"},{"name":"Wee Buddha","lat":55.95593,"lon":-3.20269,"postcode":"EH3 6HH","la":"City of Edinburgh","era":"other","nn":149,"risk":14,"cat":"green"},{"name":"West Port Oracle","lat":55.94683,"lon":-3.1982,"postcode":"EH1 2JA","la":"City of Edinburgh","era":"other","nn":22,"risk":13,"cat":"green"},{"name":"WESTERN BAR","lat":55.94606,"lon":-3.20166,"postcode":"EH3 9DP","la":"City of Edinburgh","era":"other","nn":46,"risk":13,"cat":"green"},{"name":"Westmains Catering at Carlton Bridge Club","lat":55.96895,"lon":-3.20103,"postcode":"EH3 5NE","la":"City of Edinburgh","era":"other","nn":0,"risk":13,"cat":"green"},{"name":"Westsider / Hailes Bar","lat":55.91539,"lon":-3.28489,"postcode":"EH14 2SW","la":"City of Edinburgh","era":"other","nn":783,"risk":23,"cat":"green"},{"name":"Whighams Seafood & Wine Bar","lat":55.95084,"lon":-3.2079,"postcode":"EH2 4EL","la":"City of Edinburgh","era":"other","nn":94,"risk":14,"cat":"green"},{"name":"Whiski","lat":55.95052,"lon":-3.18655,"postcode":"EH1 1SG","la":"City of Edinburgh","era":"other","nn":15,"risk":13,"cat":"green"},{"name":"White Horse Oyster and Seafood Bar","lat":55.95061,"lon":-3.18355,"postcode":"EH8 8AA","la":"City of Edinburgh","era":"trad","nn":74,"risk":14,"cat":"green"},{"name":"White Lady","lat":55.94295,"lon":-3.2822,"postcode":"EH12 8AT","la":"City of Edinburgh","era":"other","nn":54,"risk":13,"cat":"green"},{"name":"Whitehouse & Grange Bowling Club","lat":55.93317,"lon":-3.19641,"postcode":"EH9 2AR","la":"City of Edinburgh","era":"mod","nn":576,"risk":17,"cat":"green"},{"name":"Windsor Buffet","lat":55.9599,"lon":-3.18218,"postcode":"EH7 4AH","la":"City of Edinburgh","era":"other","nn":78,"risk":14,"cat":"green"},{"name":"Winstons","lat":55.94228,"lon":-3.28155,"postcode":"EH12 7HD","la":"City of Edinburgh","era":"other","nn":85,"risk":14,"cat":"green"},{"name":"Ye Olde Inn","lat":55.96567,"lon":-3.27367,"postcode":"EH4 5BZ","la":"City of Edinburgh","era":"trad","nn":68,"risk":13,"cat":"green"},{"name":"Anchor Tavern","lat":56.01779,"lon":-3.60821,"postcode":"EH51 0AG","la":"Falkirk","era":"trad","nn":73,"risk":26,"cat":"green"},{"name":"Blackness Boat Club","lat":56.00387,"lon":-3.5215,"postcode":"EH49 7NQ","la":"Falkirk","era":"other","nn":3924,"risk":76,"cat":"red"},{"name":"Bo'ness Barrel","lat":56.01714,"lon":-3.60799,"postcode":"EH51 9HD","la":"Falkirk","era":"other","nn":73,"risk":26,"cat":"green"},{"name":"Bo'ness Chemical Workers Social Club","lat":56.00963,"lon":-3.60997,"postcode":"EH51 0DS","la":"Falkirk","era":"mod","nn":677,"risk":30,"cat":"green"},{"name":"Bridgeness & Carriden Miners Welfare","lat":56.01618,"lon":-3.58333,"postcode":"EH51 9LF","la":"Falkirk","era":"other","nn":712,"risk":51,"cat":"amber"},{"name":"Corbie Inn","lat":56.01548,"lon":-3.61304,"postcode":"EH51 0AS","la":"Falkirk","era":"trad","nn":364,"risk":28,"cat":"green"},{"name":"Crown Bar","lat":56.0159,"lon":-3.59477,"postcode":"EH51 9PQ","la":"Falkirk","era":"trad","nn":695,"risk":33,"cat":"amber"},{"name":"Kinneil Bowling & Social Club","lat":56.01008,"lon":-3.62578,"postcode":"EH51 0BH","la":"Falkirk","era":"other","nn":984,"risk":50,"cat":"amber"},{"name":"Lodge Douglas No 409","lat":56.01625,"lon":-3.60594,"postcode":"EH51 9NJ","la":"Falkirk","era":"other","nn":162,"risk":27,"cat":"green"},{"name":"Arniston Miners Welfare Club","lat":55.84743,"lon":-3.05749,"postcode":"EH23 4AQ","la":"Midlothian","era":"other","nn":1270,"risk":59,"cat":"amber"},{"name":"Bannoc Brewhouse","lat":55.87433,"lon":-3.10707,"postcode":"EH19 3HB","la":"Midlothian","era":"other","nn":91,"risk":28,"cat":"green"},{"name":"Bilston Miners Club","lat":55.87203,"lon":-3.17883,"postcode":"EH25 9RW","la":"Midlothian","era":"other","nn":1710,"risk":62,"cat":"red"},{"name":"Black Bull","lat":55.89244,"lon":-3.06927,"postcode":"EH22 1DS","la":"Midlothian","era":"trad","nn":145,"risk":29,"cat":"green"},{"name":"Bonnyrigg Rose Social Club","lat":55.87489,"lon":-3.1044,"postcode":"EH19 3AE","la":"Midlothian","era":"other","nn":59,"risk":28,"cat":"green"},{"name":"Calderwood Arms","lat":55.87437,"lon":-3.10459,"postcode":"EH19 3AS","la":"Midlothian","era":"trad","nn":59,"risk":28,"cat":"green"},{"name":"Coach & Horses","lat":55.89527,"lon":-3.06789,"postcode":"EH22 1AY","la":"Midlothian","era":"trad","nn":63,"risk":28,"cat":"green"},{"name":"Corner Pocket Club","lat":55.89276,"lon":-3.07153,"postcode":"EH22 1HA","la":"Midlothian","era":"other","nn":87,"risk":28,"cat":"green"},{"name":"Cuiken Inn","lat":55.83585,"lon":-3.22072,"postcode":"EH26 8NW","la":"Midlothian","era":"trad","nn":349,"risk":35,"cat":"amber"},{"name":"Dalkeith Miners Welfare Club","lat":55.89204,"lon":-3.05789,"postcode":"EH22 2AT","la":"Midlothian","era":"other","nn":543,"risk":32,"cat":"amber"},{"name":"Dalkeith Rugby Club","lat":55.89127,"lon":-3.07568,"postcode":"EH22 3BQ","la":"Midlothian","era":"other","nn":261,"risk":30,"cat":"green"},{"name":"Danderhall Miners Social Club","lat":55.91754,"lon":-3.11188,"postcode":"EH22 1QU","la":"Midlothian","era":"mod","nn":155,"risk":49,"cat":"amber"},{"name":"Dean Tavern","lat":55.8689,"lon":-3.06888,"postcode":"EH22 4NA","la":"Midlothian","era":"other","nn":1728,"risk":62,"cat":"red"},{"name":"Easthouses Miners Welfare And Social Club","lat":55.88009,"lon":-3.04965,"postcode":"EH22 4ED","la":"Midlothian","era":"mod","nn":1426,"risk":60,"cat":"amber"},{"name":"Edmonstone Inn","lat":55.91716,"lon":-3.11427,"postcode":"EH22 1QX","la":"Midlothian","era":"trad","nn":155,"risk":49,"cat":"amber"},{"name":"Fishers Tryst","lat":55.84899,"lon":-3.20064,"postcode":"EH26 0RD","la":"Midlothian","era":"other","nn":1925,"risk":64,"cat":"red"},{"name":"Flotterstone Inn","lat":55.85681,"lon":-3.26798,"postcode":"EH26 0PP","la":"Midlothian","era":"trad","nn":3760,"risk":77,"cat":"red"},{"name":"Forresters Arms","lat":55.87849,"lon":-3.14948,"postcode":"EH20 9RE","la":"Midlothian","era":"trad","nn":52,"risk":33,"cat":"amber"},{"name":"Harrow Hotel","lat":55.893,"lon":-3.07286,"postcode":"EH22 1HF","la":"Midlothian","era":"other","nn":87,"risk":28,"cat":"green"},{"name":"Juniperlea Inn","lat":55.83242,"lon":-2.88838,"postcode":"EH37 5TE","la":"Midlothian","era":"trad","nn":6170,"risk":85,"cat":"red"},{"name":"Justinlees Inn","lat":55.88825,"lon":-3.08015,"postcode":"EH22 3AT","la":"Midlothian","era":"trad","nn":437,"risk":31,"cat":"amber"},{"name":"Loanhead Masonic Lodge","lat":55.87881,"lon":-3.15009,"postcode":"EH20 9RE","la":"Midlothian","era":"trad","nn":52,"risk":33,"cat":"amber"},{"name":"Loanhead Miners Welfare","lat":55.87685,"lon":-3.15269,"postcode":"EH20 9AQ","la":"Midlothian","era":"trad","nn":271,"risk":35,"cat":"amber"},{"name":"Lodge Dalhousie-Bonnyrigg","lat":55.87691,"lon":-3.10698,"postcode":"EH19 2DB","la":"Midlothian","era":"other","nn":194,"risk":29,"cat":"green"},{"name":"Lodge Dalkeith Kilwinning No.10","lat":55.89585,"lon":-3.06837,"postcode":"EH22 1BE","la":"Midlothian","era":"trad","nn":69,"risk":28,"cat":"green"},{"name":"Lodge Rosslyn St Clair No.606","lat":55.85717,"lon":-3.16468,"postcode":"EH25 9LD","la":"Midlothian","era":"other","nn":214,"risk":49,"cat":"amber"},{"name":"Mason's Arms","lat":55.87772,"lon":-3.14782,"postcode":"EH20 9RB","la":"Midlothian","era":"trad","nn":134,"risk":31,"cat":"amber"},{"name":"Maysons Arms","lat":55.89573,"lon":-3.06728,"postcode":"EH22 1AZ","la":"Midlothian","era":"trad","nn":63,"risk":28,"cat":"green"},{"name":"Melville Inn","lat":55.89505,"lon":-3.09641,"postcode":"EH18 1AR","la":"Midlothian","era":"trad","nn":1265,"risk":59,"cat":"amber"},{"name":"Old Crown Inn","lat":55.82629,"lon":-3.22111,"postcode":"EH26 8HS","la":"Midlothian","era":"trad","nn":230,"risk":32,"cat":"amber"},{"name":"Pathhead Sports And Social Club","lat":55.86827,"lon":-2.96874,"postcode":"EH37 5PZ","la":"Midlothian","era":"other","nn":241,"risk":49,"cat":"amber"},{"name":"Penicuik Bowling Club","lat":55.82699,"lon":-3.22458,"postcode":"EH26 9BT","la":"Midlothian","era":"other","nn":230,"risk":32,"cat":"amber"},{"name":"Penicuik Royal British Legion Club","lat":55.82907,"lon":-3.21427,"postcode":"EH26 8JF","la":"Midlothian","era":"trad","nn":527,"risk":31,"cat":"amber"},{"name":"Polton Bowling And Social Club","lat":55.87175,"lon":-3.13699,"postcode":"EH18 1JT","la":"Midlothian","era":"mod","nn":947,"risk":54,"cat":"amber"},{"name":"Polton Inn","lat":55.87776,"lon":-3.11728,"postcode":"EH18 1BS","la":"Midlothian","era":"trad","nn":649,"risk":32,"cat":"amber"},{"name":"Royal British Legion","lat":55.85907,"lon":-3.16407,"postcode":"EH25 9LN","la":"Midlothian","era":"trad","nn":214,"risk":49,"cat":"amber"},{"name":"Royal Oak","lat":55.87352,"lon":-3.1073,"postcode":"EH19 3DE","la":"Midlothian","era":"trad","nn":91,"risk":28,"cat":"green"},{"name":"Salters Inn Ltd","lat":55.8961,"lon":-3.05304,"postcode":"EH22 2DQ","la":"Midlothian","era":"trad","nn":543,"risk":34,"cat":"amber"},{"name":"Shottstown Miners Welfare","lat":55.83284,"lon":-3.22231,"postcode":"EH26 8AT","la":"Midlothian","era":"other","nn":126,"risk":29,"cat":"green"},{"name":"Stobsmill Inn","lat":55.83822,"lon":-3.04547,"postcode":"EH23 4HX","la":"Midlothian","era":"trad","nn":1270,"risk":59,"cat":"amber"},{"name":"The Anvil Inn","lat":55.87532,"lon":-3.1057,"postcode":"EH19 2DA","la":"Midlothian","era":"trad","nn":95,"risk":28,"cat":"green"},{"name":"The Buccleuch","lat":55.89403,"lon":-3.06951,"postcode":"EH22 1HZ","la":"Midlothian","era":"other","nn":11,"risk":28,"cat":"green"},{"name":"The Foresters","lat":55.86667,"lon":-2.96615,"postcode":"EH37 5PT","la":"Midlothian","era":"other","nn":241,"risk":49,"cat":"amber"},{"name":"The Roadhouse","lat":55.83222,"lon":-3.22399,"postcode":"EH26 8NJ","la":"Midlothian","era":"other","nn":126,"risk":29,"cat":"green"},{"name":"The Ship Inn","lat":55.89413,"lon":-3.06948,"postcode":"EH22 1HZ","la":"Midlothian","era":"trad","nn":11,"risk":28,"cat":"green"},{"name":"Central Bar","lat":55.6524,"lon":-3.18892,"postcode":"EH45 8RS","la":"Scottish Borders","era":"other","nn":21,"risk":25,"cat":"green"},{"name":"County Hotel","lat":55.65148,"lon":-3.19017,"postcode":"EH45 8AN","la":"Scottish Borders","era":"other","nn":129,"risk":26,"cat":"green"},{"name":"Henry Ballantyne Memorial Club","lat":55.62252,"lon":-3.01739,"postcode":"EH43 6AT","la":"Scottish Borders","era":"other","nn":2779,"risk":67,"cat":"red"},{"name":"Innerleithen Bowling Club","lat":55.61844,"lon":-3.06615,"postcode":"EH44 6QT","la":"Scottish Borders","era":"trad","nn":252,"risk":32,"cat":"amber"},{"name":"Innerleithen Union Club","lat":55.61585,"lon":-3.07476,"postcode":"EH44 6QX","la":"Scottish Borders","era":"trad","nn":612,"risk":34,"cat":"amber"},{"name":"Lodge Peebles Kilwinning No 24","lat":55.65251,"lon":-3.1892,"postcode":"EH45 8RX","la":"Scottish Borders","era":"trad","nn":21,"risk":25,"cat":"green"},{"name":"Lodge St Ronans 856","lat":55.61961,"lon":-3.06271,"postcode":"EH44 6HN","la":"Scottish Borders","era":"other","nn":84,"risk":31,"cat":"amber"},{"name":"Neidpath Inn","lat":55.65197,"lon":-3.19481,"postcode":"EH45 8JF","la":"Scottish Borders","era":"trad","nn":204,"risk":27,"cat":"green"},{"name":"Peebles Golf Club","lat":55.65484,"lon":-3.19858,"postcode":"EH45 8EU","la":"Scottish Borders","era":"other","nn":0,"risk":25,"cat":"green"},{"name":"Peebles Golf Club","lat":55.65484,"lon":-3.19858,"postcode":"EH45 8EU","la":"Scottish Borders","era":"other","nn":0,"risk":25,"cat":"green"},{"name":"The Bridge Inn","lat":55.65085,"lon":-3.19224,"postcode":"EH45 8AW","la":"Scottish Borders","era":"trad","nn":147,"risk":26,"cat":"green"},{"name":"Vale Of Leithen Social Club","lat":55.61975,"lon":-3.06139,"postcode":"EH44 6JL","la":"Scottish Borders","era":"mod","nn":84,"risk":31,"cat":"amber"},{"name":"West Linton Bowling Club","lat":55.75204,"lon":-3.35866,"postcode":"EH46 7EP","la":"Scottish Borders","era":"other","nn":11820,"risk":83,"cat":"red"},{"name":"Black Bull Inn","lat":55.89234,"lon":-3.48104,"postcode":"EH53 0AA","la":"West Lothian","era":"trad","nn":71,"risk":47,"cat":"amber"},{"name":"Buchan Arms","lat":55.93361,"lon":-3.47883,"postcode":"EH52 5RH","la":"West Lothian","era":"trad","nn":565,"risk":53,"cat":"amber"},{"name":"Carlton Club","lat":55.8842,"lon":-3.51262,"postcode":"EH54 6NB","la":"West Lothian","era":"other","nn":0,"risk":34,"cat":"amber"},{"name":"Cawburn Inn","lat":55.9088,"lon":-3.49484,"postcode":"EH53 0PD","la":"West Lothian","era":"trad","nn":1077,"risk":60,"cat":"amber"},{"name":"Coopers Bar","lat":55.88423,"lon":-3.76372,"postcode":"EH48 3RL","la":"West Lothian","era":"trad","nn":2756,"risk":71,"cat":"red"},{"name":"Du Vin Bouchers Limited","lat":55.97683,"lon":-3.59886,"postcode":"EH49 7AQ","la":"West Lothian","era":"other","nn":0,"risk":32,"cat":"amber"},{"name":"Ewington Hotel","lat":55.85008,"lon":-3.62359,"postcode":"EH47 8AU","la":"West Lothian","era":"other","nn":3081,"risk":74,"cat":"red"},{"name":"Fork and Field","lat":55.89267,"lon":-3.48008,"postcode":"EH53 0AR","la":"West Lothian","era":"other","nn":71,"risk":47,"cat":"amber"},{"name":"Linlithgow Rugby Club","lat":55.97257,"lon":-3.62124,"postcode":"EH49 6DB","la":"West Lothian","era":"other","nn":685,"risk":54,"cat":"amber"},{"name":"Masonic Arms","lat":55.93168,"lon":-3.47044,"postcode":"EH52 5QF","la":"West Lothian","era":"trad","nn":565,"risk":53,"cat":"amber"},{"name":"Mid Calder Bowling Club","lat":55.89337,"lon":-3.47996,"postcode":"EH53 0AT","la":"West Lothian","era":"other","nn":78,"risk":48,"cat":"amber"},{"name":"Middleton Hall Bowling Club","lat":55.92727,"lon":-3.50616,"postcode":"EH52 5PS","la":"West Lothian","era":"other","nn":1843,"risk":65,"cat":"red"},{"name":"N B Leisure","lat":55.9007,"lon":-3.64158,"postcode":"EH48 1NX","la":"West Lothian","era":"other","nn":365,"risk":52,"cat":"amber"},{"name":"Olde Market Inn","lat":55.86359,"lon":-3.70543,"postcode":"EH47 0QZ","la":"West Lothian","era":"trad","nn":2535,"risk":70,"cat":"red"},{"name":"Paraffin Lamp Liv Ltd","lat":55.8842,"lon":-3.51262,"postcode":"EH54 6NB","la":"West Lothian","era":"other","nn":0,"risk":34,"cat":"amber"},{"name":"Platform 3","lat":55.97678,"lon":-3.59824,"postcode":"EH49 7AB","la":"West Lothian","era":"other","nn":39,"risk":32,"cat":"amber"},{"name":"Stirrup Stane","lat":55.89921,"lon":-3.49243,"postcode":"EH54 5LU","la":"West Lothian","era":"other","nn":297,"risk":52,"cat":"amber"},{"name":"Tally Ho","lat":55.96022,"lon":-3.46583,"postcode":"EH52 6TP","la":"West Lothian","era":"other","nn":3068,"risk":73,"cat":"red"},{"name":"The Central Inn","lat":55.85053,"lon":-3.57425,"postcode":"EH55 8BY","la":"West Lothian","era":"trad","nn":1604,"risk":63,"cat":"red"},{"name":"The Footballers and Cricketers Arms","lat":55.97648,"lon":-3.60255,"postcode":"EH49 7EJ","la":"West Lothian","era":"trad","nn":233,"risk":34,"cat":"amber"},{"name":"The Four Mary's","lat":55.97683,"lon":-3.59886,"postcode":"EH49 7ED","la":"West Lothian","era":"other","nn":0,"risk":32,"cat":"amber"},{"name":"The Mall Cafe Bar","lat":55.8842,"lon":-3.51262,"postcode":"EH54 6NB","la":"West Lothian","era":"other","nn":0,"risk":34,"cat":"amber"},{"name":"The Murray","lat":55.86063,"lon":-3.55592,"postcode":"EH55 8SR","la":"West Lothian","era":"other","nn":1604,"risk":63,"cat":"red"},{"name":"The NewYearField Lloyds","lat":55.88163,"lon":-3.5167,"postcode":"EH54 6XA","la":"West Lothian","era":"other","nn":382,"risk":37,"cat":"amber"},{"name":"The Rowan Tree","lat":55.88504,"lon":-3.69163,"postcode":"EH48 3PR","la":"West Lothian","era":"other","nn":2535,"risk":70,"cat":"red"},{"name":"The Saltire","lat":55.90182,"lon":-3.54602,"postcode":"EH54 8PT","la":"West Lothian","era":"other","nn":2859,"risk":72,"cat":"red"},{"name":"The Tower","lat":55.89738,"lon":-3.49589,"postcode":"EH54 5DZ","la":"West Lothian","era":"other","nn":297,"risk":52,"cat":"amber"},{"name":"The Willow Tree","lat":55.97583,"lon":-3.61191,"postcode":"EH49 7AZ","la":"West Lothian","era":"trad","nn":586,"risk":34,"cat":"amber"},{"name":"Urban Cocktail Kitchen","lat":55.9035,"lon":-3.6385,"postcode":"EH48 4PB","la":"West Lothian","era":"mod","nn":365,"risk":52,"cat":"amber"}]