[{"name":"Addingham Cricket Club","lat":53.942,"lon":-1.87559,"postcode":"LS29 0LT","la":"Bradford","era":"other","nn":378,"risk":18,"cat":"green"},{"name":"Addingham Social Club","lat":53.94369,"lon":-1.88144,"postcode":"LS29 0LZ","la":"Bradford","era":"mod","nn":88,"risk":15,"cat":"green"},{"name":"Bar Tat","lat":53.92585,"lon":-1.82647,"postcode":"LS29 9DZ","la":"Bradford","era":"mod","nn":0,"risk":15,"cat":"green"},{"name":"Ben Rhydding Golf Club (Bar Only)","lat":53.91957,"lon":-1.79475,"postcode":"LS29 8SB","la":"Bradford","era":"mod","nn":504,"risk":38,"cat":"amber"},{"name":"Ben Rhydding Sports Club","lat":53.92827,"lon":-1.78799,"postcode":"LS29 8AW","la":"Bradford","era":"other","nn":807,"risk":38,"cat":"amber"},{"name":"Bini Brew Co","lat":53.92819,"lon":-1.81757,"postcode":"LS29 8EZ","la":"Bradford","era":"other","nn":318,"risk":17,"cat":"green"},{"name":"Bracken Ghyll Golf Club","lat":53.94947,"lon":-1.89678,"postcode":"LS29 0SL","la":"Bradford","era":"other","nn":766,"risk":25,"cat":"green"},{"name":"Burley in Wharfedale Sports Club","lat":53.91217,"lon":-1.7505,"postcode":"LS29 7NF","la":"Bradford","era":"other","nn":130,"risk":16,"cat":"green"},{"name":"Burley Social Club (Bar Only)","lat":53.91435,"lon":-1.75245,"postcode":"LS29 7JW","la":"Bradford","era":"mod","nn":94,"risk":16,"cat":"green"},{"name":"Fairfax Club (Bar Only)","lat":53.89173,"lon":-1.74779,"postcode":"LS29 6EY","la":"Bradford","era":"mod","nn":0,"risk":20,"cat":"green"},{"name":"Fleece Inn","lat":53.94403,"lon":-1.88022,"postcode":"LS29 0LY","la":"Bradford","era":"trad","nn":88,"risk":15,"cat":"green"},{"name":"Fuggle & Golding Tap House","lat":53.92618,"lon":-1.82102,"postcode":"LS29 8DS","la":"Bradford","era":"mod","nn":154,"risk":16,"cat":"green"},{"name":"Hollygarth Social Club (Wet sales)","lat":53.9294,"lon":-1.80089,"postcode":"LS29 8LY","la":"Bradford","era":"other","nn":661,"risk":37,"cat":"amber"},{"name":"Ilkley Bowling Club - Bar","lat":53.92607,"lon":-1.82781,"postcode":"LS29 9EW","la":"Bradford","era":"other","nn":91,"risk":15,"cat":"green"},{"name":"Ilkley Constitutional Club","lat":53.9259,"lon":-1.8249,"postcode":"LS29 9DX","la":"Bradford","era":"other","nn":58,"risk":15,"cat":"green"},{"name":"Ilkley Cricket Club","lat":53.93004,"lon":-1.82679,"postcode":"LS29 0AA","la":"Bradford","era":"other","nn":0,"risk":15,"cat":"green"},{"name":"Ilkley Golf Club - (Bar only)","lat":53.93286,"lon":-1.83677,"postcode":"LS29 0BE","la":"Bradford","era":"mod","nn":487,"risk":18,"cat":"green"},{"name":"Ilkley Lawn Tennis And Squash Club","lat":53.92855,"lon":-1.83546,"postcode":"LS29 9BG","la":"Bradford","era":"other","nn":344,"risk":17,"cat":"green"},{"name":"Ilkley Moor Vaults","lat":53.92783,"lon":-1.83035,"postcode":"LS29 9HD","la":"Bradford","era":"other","nn":257,"risk":17,"cat":"green"},{"name":"Ilkley Rugby Football Club","lat":53.93008,"lon":-1.82315,"postcode":"LS29 0AF","la":"Bradford","era":"other","nn":238,"risk":17,"cat":"green"},{"name":"Masonic Lodge","lat":53.92585,"lon":-1.82647,"postcode":"LS29 9DZ","la":"Bradford","era":"trad","nn":0,"risk":15,"cat":"green"},{"name":"Menston Cricket Club","lat":53.89135,"lon":-1.73189,"postcode":"LS29 6DT","la":"Bradford","era":"other","nn":148,"risk":18,"cat":"green"},{"name":"Olicana Bridge Club","lat":53.92381,"lon":-1.82289,"postcode":"LS29 9LF","la":"Bradford","era":"other","nn":82,"risk":15,"cat":"green"},{"name":"Olicanian Cricket Club","lat":53.93004,"lon":-1.82679,"postcode":"LS29 0AA","la":"Bradford","era":"other","nn":0,"risk":15,"cat":"green"},{"name":"Red Lion Hotel","lat":53.9135,"lon":-1.74748,"postcode":"LS29 7BT","la":"Bradford","era":"trad","nn":31,"risk":15,"cat":"green"},{"name":"The Burley Tap (Bar Only)","lat":53.91334,"lon":-1.75059,"postcode":"LS29 7JL","la":"Bradford","era":"mod","nn":77,"risk":15,"cat":"green"},{"name":"The Chevin Hotel","lat":53.89135,"lon":-1.72077,"postcode":"LS29 6BE","la":"Bradford","era":"other","nn":729,"risk":25,"cat":"green"},{"name":"The Courtyard","lat":53.92548,"lon":-1.82306,"postcode":"LS29 8DE","la":"Bradford","era":"mod","nn":101,"risk":16,"cat":"green"},{"name":"The Craven Heifer Inn","lat":53.94475,"lon":-1.88825,"postcode":"LS29 0PL","la":"Bradford","era":"trad","nn":42,"risk":15,"cat":"green"},{"name":"The Flying Duck","lat":53.92642,"lon":-1.8251,"postcode":"LS29 9DS","la":"Bradford","era":"other","nn":59,"risk":15,"cat":"green"},{"name":"The Fox","lat":53.89268,"lon":-1.73198,"postcode":"LS29 6EB","la":"Bradford","era":"trad","nn":148,"risk":16,"cat":"green"},{"name":"The Gin Lounge","lat":53.9241,"lon":-1.82022,"postcode":"LS29 8SR","la":"Bradford","era":"mod","nn":124,"risk":16,"cat":"green"},{"name":"The Hermit Inn","lat":53.90052,"lon":-1.76725,"postcode":"LS29 7AS","la":"Bradford","era":"trad","nn":1606,"risk":49,"cat":"amber"},{"name":"The Ilkley Tap","lat":53.92477,"lon":-1.82753,"postcode":"LS29 9PA","la":"Bradford","era":"mod","nn":138,"risk":16,"cat":"green"},{"name":"The Lister Arms","lat":53.9256,"lon":-1.82563,"postcode":"LS29 9LB","la":"Bradford","era":"trad","nn":58,"risk":15,"cat":"green"},{"name":"The Lord Addingham","lat":53.9444,"lon":-1.88849,"postcode":"LS29 0PD","la":"Bradford","era":"other","nn":42,"risk":15,"cat":"green"},{"name":"The Malt Shovel","lat":53.89064,"lon":-1.74496,"postcode":"LS29 6LL","la":"Bradford","era":"other","nn":222,"risk":16,"cat":"green"},{"name":"The Menston Arms (Bar Only)","lat":53.89173,"lon":-1.74779,"postcode":"LS29 6EY","la":"Bradford","era":"other","nn":0,"risk":20,"cat":"green"},{"name":"The Menstone","lat":53.88988,"lon":-1.73384,"postcode":"LS29 6JW","la":"Bradford","era":"other","nn":207,"risk":16,"cat":"green"},{"name":"The Midland Hotel","lat":53.92437,"lon":-1.82206,"postcode":"LS29 8HA","la":"Bradford","era":"other","nn":0,"risk":15,"cat":"green"},{"name":"The Queens Head","lat":53.91326,"lon":-1.74772,"postcode":"LS29 7BU","la":"Bradford","era":"trad","nn":31,"risk":15,"cat":"green"},{"name":"The Station Pub (Bar Only)","lat":53.92437,"lon":-1.82206,"postcode":"LS29 8HA","la":"Bradford","era":"mod","nn":0,"risk":15,"cat":"green"},{"name":"The Swan","lat":53.94475,"lon":-1.88468,"postcode":"LS29 0NS","la":"Bradford","era":"trad","nn":233,"risk":16,"cat":"green"},{"name":"The Ticket Office - (Bar Only)","lat":53.92468,"lon":-1.82235,"postcode":"LS29 8HF","la":"Bradford","era":"mod","nn":40,"risk":15,"cat":"green"},{"name":"Wheatley Arms","lat":53.92377,"lon":-1.79765,"postcode":"LS29 8PP","la":"Bradford","era":"trad","nn":504,"risk":23,"cat":"green"},{"name":"White Horse Inn (Bar Only)","lat":53.91392,"lon":-1.75121,"postcode":"LS29 7JN","la":"Bradford","era":"other","nn":77,"risk":15,"cat":"green"},{"name":"147 Sports Bar","lat":53.79256,"lon":-1.66997,"postcode":"LS28 7RZ","la":"Leeds","era":"other","nn":40,"risk":14,"cat":"green"},{"name":"360 Champagne And Cocktails","lat":53.79647,"lon":-1.54369,"postcode":"LS1 5AY","la":"Leeds","era":"other","nn":81,"risk":14,"cat":"green"},{"name":"Abbey Inn","lat":53.82671,"lon":-1.63783,"postcode":"LS13 1EQ","la":"Leeds","era":"trad","nn":680,"risk":21,"cat":"green"},{"name":"Acorn Inn","lat":53.81971,"lon":-1.63424,"postcode":"LS13 1NS","la":"Leeds","era":"trad","nn":127,"risk":17,"cat":"green"},{"name":"Adel War Memorial Association Ltd","lat":53.8552,"lon":-1.58714,"postcode":"LS16 8DE","la":"Leeds","era":"other","nn":488,"risk":37,"cat":"amber"},{"name":"Admiral Casino","lat":53.79876,"lon":-1.54038,"postcode":"LS1 6PU","la":"Leeds","era":"other","nn":35,"risk":14,"cat":"green"},{"name":"Adrian Club And Institute","lat":53.8245,"lon":-1.48988,"postcode":"LS8 2NN","la":"Leeds","era":"other","nn":321,"risk":33,"cat":"amber"},{"name":"Aire Bar","lat":53.79488,"lon":-1.53914,"postcode":"LS2 7EW","la":"Leeds","era":"other","nn":106,"risk":14,"cat":"green"},{"name":"Albert Inn","lat":53.86612,"lon":-1.67876,"postcode":"LS19 7TA","la":"Leeds","era":"trad","nn":0,"risk":13,"cat":"green"},{"name":"Alfred","lat":53.82834,"lon":-1.56625,"postcode":"LS6 4HY","la":"Leeds","era":"other","nn":74,"risk":19,"cat":"green"},{"name":"All Bar One","lat":53.79858,"lon":-1.54895,"postcode":"LS1 5BN","la":"Leeds","era":"mod","nn":53,"risk":14,"cat":"green"},{"name":"Alwoodley Community Centre","lat":53.85935,"lon":-1.55493,"postcode":"LS17 7NZ","la":"Leeds","era":"other","nn":1165,"risk":44,"cat":"amber"},{"name":"Anglers Club","lat":53.8013,"lon":-1.52411,"postcode":"LS9 7TB","la":"Leeds","era":"other","nn":177,"risk":15,"cat":"green"},{"name":"Arcadia Ale Wine Bar","lat":53.8222,"lon":-1.57814,"postcode":"LS6 2UE","la":"Leeds","era":"other","nn":140,"risk":14,"cat":"green"},{"name":"Armley Conservative Club","lat":53.79859,"lon":-1.59662,"postcode":"LS12 3NU","la":"Leeds","era":"other","nn":331,"risk":16,"cat":"green"},{"name":"Armley Liberal Club Ltd","lat":53.80052,"lon":-1.58754,"postcode":"LS12 2AT","la":"Leeds","era":"other","nn":311,"risk":16,"cat":"green"},{"name":"Back Room","lat":53.79538,"lon":-1.54133,"postcode":"LS1 6DT","la":"Leeds","era":"other","nn":0,"risk":13,"cat":"green"},{"name":"Bannatyne Cookridge Hall","lat":53.86221,"lon":-1.61129,"postcode":"LS16 7NL","la":"Leeds","era":"other","nn":593,"risk":23,"cat":"green"},{"name":"Bar Fibre","lat":53.79534,"lon":-1.54223,"postcode":"LS1 6LY","la":"Leeds","era":"mod","nn":0,"risk":13,"cat":"green"},{"name":"Bar Tat Sports Bar","lat":53.79809,"lon":-1.44575,"postcode":"LS15 7AX","la":"Leeds","era":"mod","nn":295,"risk":16,"cat":"green"},{"name":"Bar Three","lat":53.92779,"lon":-1.38702,"postcode":"LS22 6LQ","la":"Leeds","era":"mod","nn":78,"risk":14,"cat":"green"},{"name":"Baracoa","lat":53.79538,"lon":-1.54133,"postcode":"LS1 6DT","la":"Leeds","era":"other","nn":0,"risk":13,"cat":"green"},{"name":"Bardsey Sports Club","lat":53.89043,"lon":-1.44197,"postcode":"LS17 9AQ","la":"Leeds","era":"other","nn":807,"risk":39,"cat":"amber"},{"name":"Barnbow Social Club","lat":53.80671,"lon":-1.43488,"postcode":"LS15 8ST","la":"Leeds","era":"mod","nn":425,"risk":16,"cat":"green"},{"name":"Be At One","lat":53.79569,"lon":-1.54428,"postcode":"LS1 6EA","la":"Leeds","era":"other","nn":37,"risk":14,"cat":"green"},{"name":"Be At One Leeds Greek Street","lat":53.79851,"lon":-1.54815,"postcode":"LS1 5RW","la":"Leeds","era":"other","nn":53,"risk":14,"cat":"green"},{"name":"Becketts Bank","lat":53.79815,"lon":-1.5475,"postcode":"LS1 5JD","la":"Leeds","era":"other","nn":53,"risk":14,"cat":"green"},{"name":"Beechwood Working Mens Club","lat":53.82865,"lon":-1.46818,"postcode":"LS14 1BS","la":"Leeds","era":"trad","nn":1008,"risk":43,"cat":"amber"},{"name":"Beer House","lat":53.79514,"lon":-1.54764,"postcode":"LS1 4DT","la":"Leeds","era":"other","nn":99,"risk":14,"cat":"green"},{"name":"Belgrave Music Hall And Canteen","lat":53.80092,"lon":-1.54103,"postcode":"LS2 8JP","la":"Leeds","era":"other","nn":0,"risk":13,"cat":"green"},{"name":"Belle Isle Working Mens Club","lat":53.75389,"lon":-1.52668,"postcode":"LS10 3PE","la":"Leeds","era":"trad","nn":1434,"risk":46,"cat":"amber"},{"name":"Bingley Arms","lat":53.88159,"lon":-1.44872,"postcode":"LS17 9DR","la":"Leeds","era":"trad","nn":1078,"risk":44,"cat":"amber"},{"name":"Black Bull","lat":53.90561,"lon":-1.69404,"postcode":"LS21 3AQ","la":"Leeds","era":"trad","nn":0,"risk":13,"cat":"green"},{"name":"Black Horse","lat":53.9049,"lon":-1.69624,"postcode":"LS21 3AS","la":"Leeds","era":"trad","nn":24,"risk":14,"cat":"green"},{"name":"Black Lion","lat":53.81615,"lon":-1.62844,"postcode":"LS13 2NJ","la":"Leeds","era":"trad","nn":267,"risk":15,"cat":"green"},{"name":"Blayds Bar","lat":53.79454,"lon":-1.54315,"postcode":"LS1 4AD","la":"Leeds","era":"other","nn":23,"risk":14,"cat":"green"},{"name":"Bojangles","lat":53.79743,"lon":-1.6609,"postcode":"LS28 7AA","la":"Leeds","era":"other","nn":0,"risk":13,"cat":"green"},{"name":"Boom Battle Bar","lat":53.79796,"lon":-1.53836,"postcode":"LS2 7AU","la":"Leeds","era":"other","nn":160,"risk":15,"cat":"green"},{"name":"Bootlegger Bars","lat":53.79886,"lon":-1.5468,"postcode":"LS1 5JA","la":"Leeds","era":"other","nn":3,"risk":13,"cat":"green"},{"name":"Bottle And Bean","lat":53.92876,"lon":-1.38674,"postcode":"LS22 6LP","la":"Leeds","era":"other","nn":18,"risk":14,"cat":"green"},{"name":"Boundary House","lat":53.73488,"lon":-1.41005,"postcode":"LS26 9EE","la":"Leeds","era":"other","nn":797,"risk":39,"cat":"amber"},{"name":"Bowers Tap-Loco Loco, El Rodeo Mexicano, Burrito Bandits","lat":53.79565,"lon":-1.54241,"postcode":"LS1 6LY","la":"Leeds","era":"mod","nn":31,"risk":14,"cat":"green"},{"name":"Brackenwood Community Association","lat":53.83684,"lon":-1.52532,"postcode":"LS8 1RG","la":"Leeds","era":"other","nn":686,"risk":38,"cat":"amber"},{"name":"Bradford Golf Club","lat":53.86864,"lon":-1.73712,"postcode":"LS20 8NP","la":"Leeds","era":"other","nn":1313,"risk":45,"cat":"amber"},{"name":"Bramley Band Working Mens Club","lat":53.80886,"lon":-1.62371,"postcode":"LS13 2BG","la":"Leeds","era":"trad","nn":333,"risk":21,"cat":"green"},{"name":"Bramley Working Mens Club","lat":53.80504,"lon":-1.63105,"postcode":"LS13 4BY","la":"Leeds","era":"trad","nn":642,"risk":23,"cat":"green"},{"name":"Brew Dog","lat":53.7955,"lon":-1.54047,"postcode":"LS2 7DA","la":"Leeds","era":"other","nn":38,"risk":14,"cat":"green"},{"name":"Brewdog","lat":53.80093,"lon":-1.53792,"postcode":"LS2 7PF","la":"Leeds","era":"other","nn":69,"risk":14,"cat":"green"},{"name":"Brewhouse","lat":53.86617,"lon":-1.68522,"postcode":"LS19 7SP","la":"Leeds","era":"other","nn":73,"risk":14,"cat":"green"},{"name":"Bridgewater Arms","lat":53.80437,"lon":-1.58336,"postcode":"LS4 2DG","la":"Leeds","era":"trad","nn":0,"risk":13,"cat":"green"},{"name":"Broadway","lat":53.76775,"lon":-1.55353,"postcode":"LS11 5LD","la":"Leeds","era":"other","nn":337,"risk":16,"cat":"green"},{"name":"Brooklyn Bar","lat":53.79538,"lon":-1.54133,"postcode":"LS1 6DT","la":"Leeds","era":"other","nn":0,"risk":13,"cat":"green"},{"name":"Brown Cow And Dragon","lat":53.79796,"lon":-1.45024,"postcode":"LS15 7AY","la":"Leeds","era":"trad","nn":126,"risk":14,"cat":"green"},{"name":"Brown Hare Public House","lat":53.80587,"lon":-1.50535,"postcode":"LS9 6JF","la":"Leeds","era":"other","nn":450,"risk":17,"cat":"green"},{"name":"Brownlee Arms","lat":53.84278,"lon":-1.63489,"postcode":"LS18 5AA","la":"Leeds","era":"trad","nn":241,"risk":15,"cat":"green"},{"name":"Bruntcliffe Working Mens Club","lat":53.74499,"lon":-1.62337,"postcode":"LS27 0LY","la":"Leeds","era":"trad","nn":0,"risk":13,"cat":"green"},{"name":"Bulls Head","lat":53.78572,"lon":-1.55985,"postcode":"LS11 9NR","la":"Leeds","era":"trad","nn":320,"risk":16,"cat":"green"},{"name":"Burley Conservative Club","lat":53.80891,"lon":-1.58529,"postcode":"LS4 2JS","la":"Leeds","era":"other","nn":408,"risk":16,"cat":"green"},{"name":"Buzz Bingo","lat":53.79158,"lon":-1.61383,"postcode":"LS12 4QN","la":"Leeds","era":"other","nn":554,"risk":17,"cat":"green"},{"name":"Cafe Bar (Leeds College Of Music)","lat":53.79824,"lon":-1.53127,"postcode":"LS2 7PD","la":"Leeds","era":"mod","nn":0,"risk":13,"cat":"green"},{"name":"Call Lane Social","lat":53.79538,"lon":-1.54133,"postcode":"LS1 6DT","la":"Leeds","era":"mod","nn":0,"risk":13,"cat":"green"},{"name":"Calverley Arms","lat":53.82179,"lon":-1.68027,"postcode":"LS28 5QQ","la":"Leeds","era":"trad","nn":905,"risk":25,"cat":"green"},{"name":"Calverley Conservative Club","lat":53.82737,"lon":-1.69075,"postcode":"LS28 5PT","la":"Leeds","era":"other","nn":185,"risk":17,"cat":"green"},{"name":"Calverley St Wilfreds CC","lat":53.82884,"lon":-1.69208,"postcode":"LS28 5PY","la":"Leeds","era":"other","nn":139,"risk":19,"cat":"green"},{"name":"Carousel / Home","lat":53.80006,"lon":-1.54566,"postcode":"LS2 8DY","la":"Leeds","era":"other","nn":61,"risk":14,"cat":"green"},{"name":"Carriers Arms","lat":53.73987,"lon":-1.59474,"postcode":"LS27 9HG","la":"Leeds","era":"trad","nn":282,"risk":15,"cat":"green"},{"name":"CENTRAL","lat":53.81463,"lon":-1.5332,"postcode":"LS7 3DU","la":"Leeds","era":"other","nn":189,"risk":15,"cat":"green"},{"name":"Chapel Allerton Club","lat":53.82869,"lon":-1.53685,"postcode":"LS7 4NB","la":"Leeds","era":"other","nn":0,"risk":13,"cat":"green"},{"name":"Chapel Street Social Club","lat":53.7971,"lon":-1.46706,"postcode":"LS15 7JS","la":"Leeds","era":"mod","nn":0,"risk":31,"cat":"amber"},{"name":"Chilliwhisk Kitchen","lat":53.82779,"lon":-1.58272,"postcode":"LS16 5JG","la":"Leeds","era":"mod","nn":16,"risk":14,"cat":"green"},{"name":"Christine Clark","lat":53.80981,"lon":-1.65162,"postcode":"LS28 6PE","la":"Leeds","era":"other","nn":64,"risk":14,"cat":"green"},{"name":"Churwell W M C","lat":53.76324,"lon":-1.58772,"postcode":"LS27 7RR","la":"Leeds","era":"other","nn":98,"risk":32,"cat":"amber"},{"name":"Clitherow House Social Club","lat":53.90678,"lon":-1.69507,"postcode":"LS21 3AY","la":"Leeds","era":"mod","nn":84,"risk":14,"cat":"green"},{"name":"Clothiers Arms","lat":53.86608,"lon":-1.68413,"postcode":"LS19 7PP","la":"Leeds","era":"trad","nn":0,"risk":13,"cat":"green"},{"name":"Coach And Horses","lat":53.74788,"lon":-1.50738,"postcode":"LS26 0SF","la":"Leeds","era":"trad","nn":0,"risk":18,"cat":"green"},{"name":"Cock Beck Inn","lat":53.81511,"lon":-1.43807,"postcode":"LS15 8LA","la":"Leeds","era":"trad","nn":822,"risk":22,"cat":"green"},{"name":"Commercial Armley","lat":53.79548,"lon":-1.60019,"postcode":"LS12 3HZ","la":"Leeds","era":"other","nn":418,"risk":16,"cat":"green"},{"name":"Commercial Hotel","lat":53.79222,"lon":-1.67015,"postcode":"LS28 8BL","la":"Leeds","era":"other","nn":40,"risk":14,"cat":"green"},{"name":"Commercial Inn","lat":53.7445,"lon":-1.59796,"postcode":"LS27 8AG","la":"Leeds","era":"trad","nn":138,"risk":14,"cat":"green"},{"name":"Commercial Inn","lat":53.76082,"lon":-1.59098,"postcode":"LS27 7QR","la":"Leeds","era":"trad","nn":318,"risk":33,"cat":"amber"},{"name":"Control","lat":53.80437,"lon":-1.58336,"postcode":"LS4 2DG","la":"Leeds","era":"other","nn":0,"risk":13,"cat":"green"},{"name":"Cookridge Cricket Club","lat":53.86359,"lon":-1.62002,"postcode":"LS16 7LY","la":"Leeds","era":"other","nn":577,"risk":35,"cat":"amber"},{"name":"Cooper Bar And Brasserie","lat":53.87332,"lon":-1.71086,"postcode":"LS20 8AH","la":"Leeds","era":"other","nn":176,"risk":15,"cat":"green"},{"name":"Corner House Club","lat":53.8417,"lon":-1.53179,"postcode":"LS17 6QE","la":"Leeds","era":"mod","nn":686,"risk":38,"cat":"amber"},{"name":"Corpus Christi Catholic Mens Club","lat":53.79782,"lon":-1.4858,"postcode":"LS9 0HB","la":"Leeds","era":"other","nn":279,"risk":20,"cat":"green"},{"name":"Cricketers Arms","lat":53.81972,"lon":-1.46172,"postcode":"LS14 6JW","la":"Leeds","era":"trad","nn":678,"risk":38,"cat":"amber"},{"name":"Cromwells Bar And Kitchen","lat":53.90807,"lon":-1.4133,"postcode":"LS22 5BL","la":"Leeds","era":"mod","nn":336,"risk":33,"cat":"amber"},{"name":"Cross Church Street WMC","lat":53.75123,"lon":-1.60231,"postcode":"LS27 9DX","la":"Leeds","era":"trad","nn":208,"risk":15,"cat":"green"},{"name":"Cross Flatts Beeston Rec And WMC","lat":53.77034,"lon":-1.5594,"postcode":"LS11 7HE","la":"Leeds","era":"trad","nn":259,"risk":15,"cat":"green"},{"name":"Cross Gates And Dist Recreation Hall","lat":53.80635,"lon":-1.44603,"postcode":"LS15 8EB","la":"Leeds","era":"trad","nn":264,"risk":15,"cat":"green"},{"name":"Cross Gates Working Mens Club","lat":53.80564,"lon":-1.4562,"postcode":"LS15 7LP","la":"Leeds","era":"trad","nn":320,"risk":16,"cat":"green"},{"name":"Crowd Of Favours","lat":53.79618,"lon":-1.5377,"postcode":"LS2 7EA","la":"Leeds","era":"other","nn":29,"risk":14,"cat":"green"},{"name":"Crown And Anchor","lat":53.82243,"lon":-1.6579,"postcode":"LS13 1HP","la":"Leeds","era":"trad","nn":0,"risk":13,"cat":"green"},{"name":"Crown Inn","lat":53.92801,"lon":-1.38589,"postcode":"LS22 6LR","la":"Leeds","era":"trad","nn":0,"risk":13,"cat":"green"},{"name":"Cuckoo","lat":53.79527,"lon":-1.54089,"postcode":"LS1 7BT","la":"Leeds","era":"other","nn":0,"risk":13,"cat":"green"},{"name":"Cuthbert Broderick","lat":53.8019,"lon":-1.54787,"postcode":"LS1 3HJ","la":"Leeds","era":"other","nn":19,"risk":14,"cat":"green"},{"name":"Denison Hall WMC","lat":53.79672,"lon":-1.59254,"postcode":"LS12 3LL","la":"Leeds","era":"other","nn":57,"risk":14,"cat":"green"},{"name":"Dewsbury Road Social Club","lat":53.77012,"lon":-1.55033,"postcode":"LS11 5LR","la":"Leeds","era":"mod","nn":337,"risk":16,"cat":"green"},{"name":"Dirty Martini Leeds","lat":53.79734,"lon":-1.54984,"postcode":"LS1 2HL","la":"Leeds","era":"other","nn":150,"risk":15,"cat":"green"},{"name":"Doghouse Bar And Bagel Shop","lat":53.79607,"lon":-1.53873,"postcode":"LS2 7DJ","la":"Leeds","era":"mod","nn":40,"risk":14,"cat":"green"},{"name":"Dollhouse","lat":53.79567,"lon":-1.54194,"postcode":"LS1 6NJ","la":"Leeds","era":"other","nn":10,"risk":14,"cat":"green"},{"name":"Dragon Hotel","lat":53.78369,"lon":-1.58197,"postcode":"LS12 4TJ","la":"Leeds","era":"trad","nn":707,"risk":36,"cat":"amber"},{"name":"Duck And Drake","lat":53.79611,"lon":-1.53812,"postcode":"LS2 7DR","la":"Leeds","era":"other","nn":29,"risk":14,"cat":"green"},{"name":"East End Park Working Mens Club","lat":53.79628,"lon":-1.51137,"postcode":"LS9 9NA","la":"Leeds","era":"trad","nn":246,"risk":15,"cat":"green"},{"name":"East Leeds Community Sports  And Social Club","lat":53.79119,"lon":-1.52008,"postcode":"LS9 8QS","la":"Leeds","era":"mod","nn":306,"risk":16,"cat":"green"},{"name":"East Leeds Snooker Centre","lat":53.80866,"lon":-1.42931,"postcode":"LS15 8AF","la":"Leeds","era":"other","nn":425,"risk":21,"cat":"green"},{"name":"Editors Draft","lat":53.79709,"lon":-1.55571,"postcode":"LS1 4LT","la":"Leeds","era":"other","nn":0,"risk":13,"cat":"green"},{"name":"Editor's Draught","lat":53.79709,"lon":-1.55571,"postcode":"LS1 4LT","la":"Leeds","era":"other","nn":0,"risk":13,"cat":"green"},{"name":"Edmund House Club","lat":53.79197,"lon":-1.51561,"postcode":"LS9 8QJ","la":"Leeds","era":"mod","nn":306,"risk":16,"cat":"green"},{"name":"Ego @ The Wellington","lat":53.8438,"lon":-1.46754,"postcode":"LS17 8LZ","la":"Leeds","era":"trad","nn":1405,"risk":46,"cat":"amber"},{"name":"Eiger Studios","lat":53.78325,"lon":-1.54103,"postcode":"LS11 5NF","la":"Leeds","era":"mod","nn":258,"risk":15,"cat":"green"},{"name":"Emmott Arms","lat":53.84996,"lon":-1.67092,"postcode":"LS19 6PP","la":"Leeds","era":"trad","nn":438,"risk":19,"cat":"green"},{"name":"Falcon Sports And Social Club","lat":53.90497,"lon":-1.69659,"postcode":"LS21 3AT","la":"Leeds","era":"mod","nn":24,"risk":14,"cat":"green"},{"name":"Farsley Celtic Football","lat":53.80882,"lon":-1.66684,"postcode":"LS28 5BE","la":"Leeds","era":"other","nn":352,"risk":16,"cat":"green"},{"name":"Farsley Conservative Club","lat":53.81366,"lon":-1.67108,"postcode":"LS28 5HX","la":"Leeds","era":"other","nn":0,"risk":13,"cat":"green"},{"name":"Farsley Cricket And Bowling Club","lat":53.81386,"lon":-1.67598,"postcode":"LS28 5JE","la":"Leeds","era":"other","nn":281,"risk":15,"cat":"green"},{"name":"Farsley Working Mens Club","lat":53.81177,"lon":-1.66958,"postcode":"LS28 5EU","la":"Leeds","era":"trad","nn":0,"risk":13,"cat":"green"},{"name":"Fleece Inn","lat":53.7881,"lon":-1.66572,"postcode":"LS28 8LU","la":"Leeds","era":"trad","nn":377,"risk":16,"cat":"green"},{"name":"Flight Club Darts","lat":53.79931,"lon":-1.54729,"postcode":"LS1 5QL","la":"Leeds","era":"other","nn":60,"risk":14,"cat":"green"},{"name":"Forum Leisure Centre","lat":53.79824,"lon":-1.53127,"postcode":"LS2 7UA","la":"Leeds","era":"other","nn":0,"risk":13,"cat":"green"},{"name":"Fountain Head Inn","lat":53.80551,"lon":-1.52057,"postcode":"LS9 7JX","la":"Leeds","era":"trad","nn":196,"risk":15,"cat":"green"},{"name":"Fountain Inn","lat":53.74382,"lon":-1.60045,"postcode":"LS27 9EB","la":"Leeds","era":"trad","nn":0,"risk":13,"cat":"green"},{"name":"Fox And Grapes","lat":53.85121,"lon":-1.39177,"postcode":"LS15 4NJ","la":"Leeds","era":"trad","nn":2148,"risk":51,"cat":"amber"},{"name":"Fox And Hounds","lat":53.90165,"lon":-1.33769,"postcode":"LS23 6AJ","la":"Leeds","era":"trad","nn":1034,"risk":43,"cat":"amber"},{"name":"Fox And Hounds","lat":53.88602,"lon":-1.62311,"postcode":"LS16 9BA","la":"Leeds","era":"trad","nn":1452,"risk":46,"cat":"amber"},{"name":"Fox And Hounds (Cookridge)","lat":53.84889,"lon":-1.62908,"postcode":"LS16 7BT","la":"Leeds","era":"trad","nn":363,"risk":18,"cat":"green"},{"name":"Further North Bar","lat":53.83076,"lon":-1.5382,"postcode":"LS7 4NZ","la":"Leeds","era":"other","nn":98,"risk":14,"cat":"green"},{"name":"Gaping Goose","lat":53.78704,"lon":-1.39781,"postcode":"LS25 1LR","la":"Leeds","era":"other","nn":617,"risk":23,"cat":"green"},{"name":"Garden Gate","lat":53.78077,"lon":-1.52737,"postcode":"LS10 2QB","la":"Leeds","era":"other","nn":95,"risk":14,"cat":"green"},{"name":"Gardeners Arms","lat":53.7462,"lon":-1.57849,"postcode":"LS27 8SU","la":"Leeds","era":"trad","nn":986,"risk":40,"cat":"amber"},{"name":"Garforth Country Club","lat":53.79697,"lon":-1.38627,"postcode":"LS25 1PZ","la":"Leeds","era":"other","nn":47,"risk":14,"cat":"green"},{"name":"Garforth Golf Club","lat":53.81576,"lon":-1.39073,"postcode":"LS25 2DS","la":"Leeds","era":"other","nn":1489,"risk":46,"cat":"amber"},{"name":"Garforth Working Mens Club Committee","lat":53.79249,"lon":-1.39583,"postcode":"LS25 1AU","la":"Leeds","era":"trad","nn":574,"risk":17,"cat":"green"},{"name":"Gildersome Arms","lat":53.75577,"lon":-1.62033,"postcode":"LS27 7LL","la":"Leeds","era":"trad","nn":326,"risk":21,"cat":"green"},{"name":"Gildersome Conservative Club","lat":53.75635,"lon":-1.63296,"postcode":"LS27 7HX","la":"Leeds","era":"other","nn":202,"risk":15,"cat":"green"},{"name":"Gildersome Sports Club","lat":53.75216,"lon":-1.63431,"postcode":"LS27 7HP","la":"Leeds","era":"other","nn":475,"risk":19,"cat":"green"},{"name":"Gipton Working Mens Club","lat":53.80831,"lon":-1.49407,"postcode":"LS9 6QE","la":"Leeds","era":"trad","nn":603,"risk":23,"cat":"green"},{"name":"Goals Soccer Centre","lat":53.80597,"lon":-1.58901,"postcode":"LS4 2AW","la":"Leeds","era":"other","nn":408,"risk":16,"cat":"green"},{"name":"Great Preston Snooker And Sports Club","lat":53.76091,"lon":-1.38981,"postcode":"LS26 8AX","la":"Leeds","era":"other","nn":0,"risk":31,"cat":"amber"},{"name":"Grilling Me Softly","lat":53.79074,"lon":-1.55337,"postcode":"LS11 9YJ","la":"Leeds","era":"other","nn":115,"risk":14,"cat":"green"},{"name":"Groove Pad Beer And Vinyls","lat":53.90519,"lon":-1.69284,"postcode":"LS21 3NX","la":"Leeds","era":"other","nn":0,"risk":13,"cat":"green"},{"name":"Grove Hill Club","lat":53.90378,"lon":-1.70186,"postcode":"LS21 3JN","la":"Leeds","era":"other","nn":103,"risk":14,"cat":"green"},{"name":"Grove Inn","lat":53.79093,"lon":-1.54789,"postcode":"LS11 5PL","la":"Leeds","era":"trad","nn":257,"risk":15,"cat":"green"},{"name":"Guiseley Cricket Club","lat":53.87669,"lon":-1.71959,"postcode":"LS20 8BT","la":"Leeds","era":"other","nn":286,"risk":15,"cat":"green"},{"name":"Guiseley Factory WMC","lat":53.87732,"lon":-1.7054,"postcode":"LS20 9DT","la":"Leeds","era":"other","nn":201,"risk":17,"cat":"green"},{"name":"Half Way House","lat":53.81003,"lon":-1.65071,"postcode":"LS28 6PE","la":"Leeds","era":"other","nn":64,"risk":14,"cat":"green"},{"name":"Halfway House","lat":53.73747,"lon":-1.61311,"postcode":"LS27 0BL","la":"Leeds","era":"other","nn":201,"risk":15,"cat":"green"},{"name":"Hall Park Cricket Club","lat":53.83758,"lon":-1.64793,"postcode":"LS18 5JY","la":"Leeds","era":"other","nn":335,"risk":16,"cat":"green"},{"name":"Halton Moor Sports And Social Club","lat":53.79534,"lon":-1.48513,"postcode":"LS15 0DE","la":"Leeds","era":"mod","nn":279,"risk":33,"cat":"amber"},{"name":"Hare And Hounds Inn","lat":53.74841,"lon":-1.48034,"postcode":"LS26 0QD","la":"Leeds","era":"trad","nn":215,"risk":17,"cat":"green"},{"name":"Harehills Labour Club","lat":53.80862,"lon":-1.5127,"postcode":"LS9 7BX","la":"Leeds","era":"other","nn":0,"risk":13,"cat":"green"},{"name":"Harehills Labour Club (Catering)","lat":53.80862,"lon":-1.5127,"postcode":"LS9 7BX","la":"Leeds","era":"other","nn":0,"risk":13,"cat":"green"},{"name":"Harehills Liberal Club","lat":53.80986,"lon":-1.50654,"postcode":"LS9 6BJ","la":"Leeds","era":"other","nn":361,"risk":16,"cat":"green"},{"name":"Harehills WMC","lat":53.80921,"lon":-1.51192,"postcode":"LS9 7AP","la":"Leeds","era":"other","nn":83,"risk":14,"cat":"green"},{"name":"Havana Bar","lat":53.74654,"lon":-1.60234,"postcode":"LS27 9BR","la":"Leeds","era":"other","nn":26,"risk":14,"cat":"green"},{"name":"Hawkhill Tavern","lat":53.87176,"lon":-1.7114,"postcode":"LS20 8AR","la":"Leeds","era":"other","nn":176,"risk":17,"cat":"green"},{"name":"Hawkworth Wood Conservative Club","lat":53.82873,"lon":-1.62209,"postcode":"LS5 3LX","la":"Leeds","era":"other","nn":677,"risk":36,"cat":"amber"},{"name":"Head Of Steam","lat":53.82089,"lon":-1.57874,"postcode":"LS6 3HG","la":"Leeds","era":"trad","nn":0,"risk":13,"cat":"green"},{"name":"Head Of Steam","lat":53.79754,"lon":-1.54672,"postcode":"LS1 5HD","la":"Leeds","era":"trad","nn":85,"risk":14,"cat":"green"},{"name":"Hedley Verity","lat":53.80365,"lon":-1.54916,"postcode":"LS1 3HQ","la":"Leeds","era":"other","nn":0,"risk":13,"cat":"green"},{"name":"Heist Bar And Grill Ltd","lat":53.74622,"lon":-1.60204,"postcode":"LS27 9BR","la":"Leeds","era":"mod","nn":15,"risk":14,"cat":"green"},{"name":"Hi Fi Club","lat":53.79649,"lon":-1.54111,"postcode":"LS1 6DE","la":"Leeds","era":"other","nn":65,"risk":14,"cat":"green"},{"name":"Hideout Pudsey","lat":53.79756,"lon":-1.66405,"postcode":"LS28 7LJ","la":"Leeds","era":"other","nn":161,"risk":15,"cat":"green"},{"name":"High Farm","lat":53.85528,"lon":-1.60518,"postcode":"LS16 7AQ","la":"Leeds","era":"other","nn":868,"risk":40,"cat":"amber"},{"name":"Holbeck Bowling Club","lat":53.77056,"lon":-1.57125,"postcode":"LS11 8DP","la":"Leeds","era":"other","nn":284,"risk":15,"cat":"green"},{"name":"Holbeck WMC","lat":53.78512,"lon":-1.55509,"postcode":"LS11 9QX","la":"Leeds","era":"other","nn":0,"risk":13,"cat":"green"},{"name":"Horse And Farrier","lat":53.90706,"lon":-1.69388,"postcode":"LS21 1BQ","la":"Leeds","era":"trad","nn":84,"risk":14,"cat":"green"},{"name":"Horse And Trumpet","lat":53.79907,"lon":-1.54289,"postcode":"LS1 6LR","la":"Leeds","era":"trad","nn":22,"risk":14,"cat":"green"},{"name":"Horsforth Conservative Club","lat":53.839,"lon":-1.63932,"postcode":"LS18 5BP","la":"Leeds","era":"other","nn":252,"risk":15,"cat":"green"},{"name":"Horsforth Golf Club","lat":53.84999,"lon":-1.65727,"postcode":"LS18 5EX","la":"Leeds","era":"other","nn":895,"risk":40,"cat":"amber"},{"name":"Horsforth Hotel","lat":53.83294,"lon":-1.6392,"postcode":"LS18 4NA","la":"Leeds","era":"other","nn":201,"risk":15,"cat":"green"},{"name":"Howl","lat":53.79973,"lon":-1.53936,"postcode":"LS2 7NL","la":"Leeds","era":"other","nn":0,"risk":13,"cat":"green"},{"name":"Howley Hall Golf Club","lat":53.72531,"lon":-1.61683,"postcode":"LS27 0NX","la":"Leeds","era":"other","nn":560,"risk":37,"cat":"amber"},{"name":"Hunslet Carr Sports And Social Club","lat":53.77213,"lon":-1.53302,"postcode":"LS10 2JJ","la":"Leeds","era":"mod","nn":0,"risk":13,"cat":"green"},{"name":"Hunslet Rugby League Football Club","lat":53.76424,"lon":-1.54198,"postcode":"LS11 5DJ","la":"Leeds","era":"other","nn":853,"risk":24,"cat":"green"},{"name":"Hyde Park Hotel","lat":53.81511,"lon":-1.56211,"postcode":"LS6 2AS","la":"Leeds","era":"other","nn":437,"risk":17,"cat":"green"},{"name":"Inn At Scarcroft","lat":53.8714,"lon":-1.44717,"postcode":"LS14 3AT","la":"Leeds","era":"trad","nn":215,"risk":35,"cat":"amber"},{"name":"Jakes Bar And Still Room","lat":53.79527,"lon":-1.54089,"postcode":"LS1 7BT","la":"Leeds","era":"mod","nn":0,"risk":13,"cat":"green"},{"name":"Jigger And Jar","lat":53.79488,"lon":-1.388,"postcode":"LS25 1AA","la":"Leeds","era":"other","nn":60,"risk":14,"cat":"green"},{"name":"Jubilee Social Club","lat":53.81619,"lon":-1.54931,"postcode":"LS6 2LZ","la":"Leeds","era":"mod","nn":133,"risk":14,"cat":"green"},{"name":"Jug And Barrel","lat":53.80732,"lon":-1.66211,"postcode":"LS28 6EZ","la":"Leeds","era":"other","nn":285,"risk":15,"cat":"green"},{"name":"Junction Inn","lat":53.90407,"lon":-1.69159,"postcode":"LS21 1AD","la":"Leeds","era":"trad","nn":11,"risk":14,"cat":"green"},{"name":"K-CUBE","lat":53.80095,"lon":-1.54381,"postcode":"LS2 8LW","la":"Leeds","era":"other","nn":81,"risk":14,"cat":"green"},{"name":"King On The Lane","lat":53.84493,"lon":-1.55081,"postcode":"LS17 5NY","la":"Leeds","era":"trad","nn":484,"risk":37,"cat":"amber"},{"name":"Kings Arms Public House","lat":53.79102,"lon":-1.67144,"postcode":"LS28 8PU","la":"Leeds","era":"trad","nn":121,"risk":14,"cat":"green"},{"name":"Kippax Central W M Club","lat":53.7665,"lon":-1.36578,"postcode":"LS25 7QB","la":"Leeds","era":"other","nn":44,"risk":14,"cat":"green"},{"name":"Kippax Ex Service And Social Club","lat":53.76771,"lon":-1.37049,"postcode":"LS25 7HF","la":"Leeds","era":"mod","nn":82,"risk":14,"cat":"green"},{"name":"Kippax W S S Club No Boots Allowed","lat":53.76483,"lon":-1.36207,"postcode":"LS25 7BP","la":"Leeds","era":"other","nn":303,"risk":16,"cat":"green"},{"name":"Kirkstall Bridge Inn","lat":53.81615,"lon":-1.6064,"postcode":"LS5 3BW","la":"Leeds","era":"trad","nn":316,"risk":16,"cat":"green"},{"name":"Lawnswood Red Triangle","lat":53.84407,"lon":-1.59652,"postcode":"LS16 6HQ","la":"Leeds","era":"other","nn":1370,"risk":46,"cat":"amber"},{"name":"Lazy Lounge","lat":53.79594,"lon":-1.55331,"postcode":"LS1 4JY","la":"Leeds","era":"mod","nn":116,"risk":14,"cat":"green"},{"name":"Leeds Academy","lat":53.80186,"lon":-1.54758,"postcode":"LS2 3AW","la":"Leeds","era":"other","nn":0,"risk":13,"cat":"green"},{"name":"Leeds Bradford Airport Premier Inn","lat":53.86527,"lon":-1.67033,"postcode":"LS19 7AW","la":"Leeds","era":"trad","nn":561,"risk":17,"cat":"green"},{"name":"Leeds Golf Club","lat":53.83394,"lon":-1.48683,"postcode":"LS8 2LJ","la":"Leeds","era":"other","nn":1068,"risk":43,"cat":"amber"},{"name":"Leeds Grand Theatre And Opera House","lat":53.79986,"lon":-1.54124,"postcode":"LS1 6NU","la":"Leeds","era":"other","nn":0,"risk":13,"cat":"green"},{"name":"Leeds Postal Sports Association Club","lat":53.81499,"lon":-1.60061,"postcode":"LS5 3AS","la":"Leeds","era":"other","nn":0,"risk":13,"cat":"green"},{"name":"Leeds University (Terrace Bar)","lat":53.80736,"lon":-1.55839,"postcode":"LS2 9JZ","la":"Leeds","era":"other","nn":0,"risk":13,"cat":"green"},{"name":"Leeds University Student Union (Old Bar)","lat":53.80736,"lon":-1.55839,"postcode":"LS2 9JZ","la":"Leeds","era":"other","nn":0,"risk":13,"cat":"green"},{"name":"Leeds University Student Union (Stylus And Function)","lat":53.80736,"lon":-1.55839,"postcode":"LS2 9JZ","la":"Leeds","era":"other","nn":0,"risk":13,"cat":"green"},{"name":"Leeds West Indian Centre","lat":53.81223,"lon":-1.53634,"postcode":"LS7 3JA","la":"Leeds","era":"other","nn":233,"risk":15,"cat":"green"},{"name":"Liv Bar","lat":53.80056,"lon":-1.54057,"postcode":"LS1 6NU","la":"Leeds","era":"other","nn":24,"risk":14,"cat":"green"},{"name":"Main Line Social Club","lat":53.7961,"lon":-1.62042,"postcode":"LS13 4LS","la":"Leeds","era":"mod","nn":664,"risk":23,"cat":"green"},{"name":"Malt Shovel Inn","lat":53.79773,"lon":-1.58758,"postcode":"LS12 3AG","la":"Leeds","era":"trad","nn":311,"risk":16,"cat":"green"},{"name":"Manahatta","lat":53.82106,"lon":-1.57904,"postcode":"LS6 3JJ","la":"Leeds","era":"other","nn":27,"risk":14,"cat":"green"},{"name":"Masonic Hall","lat":53.93312,"lon":-1.3838,"postcode":"LS22 7SZ","la":"Leeds","era":"trad","nn":256,"risk":15,"cat":"green"},{"name":"Masons Arms","lat":53.79743,"lon":-1.6609,"postcode":"LS28 7AA","la":"Leeds","era":"trad","nn":0,"risk":13,"cat":"green"},{"name":"Mean Eyed Cat Bar","lat":53.80049,"lon":-1.54002,"postcode":"LS1 6PQ","la":"Leeds","era":"other","nn":0,"risk":13,"cat":"green"},{"name":"Meanwood Conservative Club","lat":53.82769,"lon":-1.56641,"postcode":"LS6 4AZ","la":"Leeds","era":"other","nn":74,"risk":16,"cat":"green"},{"name":"Mecca Bingo (Cross Gates)","lat":53.80903,"lon":-1.45434,"postcode":"LS15 7PE","la":"Leeds","era":"trad","nn":154,"risk":15,"cat":"green"},{"name":"Mecca Bingo (Leeds)","lat":53.79627,"lon":-1.53671,"postcode":"LS2 7DY","la":"Leeds","era":"other","nn":0,"risk":13,"cat":"green"},{"name":"Merkur Cashino","lat":53.80731,"lon":-1.45111,"postcode":"LS15 8DX","la":"Leeds","era":"other","nn":286,"risk":15,"cat":"green"},{"name":"Methley Ex Services Club","lat":53.73951,"lon":-1.40079,"postcode":"LS26 9HZ","la":"Leeds","era":"other","nn":234,"risk":20,"cat":"green"},{"name":"Methley WMC","lat":53.73688,"lon":-1.39362,"postcode":"LS26 9AA","la":"Leeds","era":"other","nn":436,"risk":34,"cat":"amber"},{"name":"Mews","lat":53.92889,"lon":-1.38657,"postcode":"LS22 6NQ","la":"Leeds","era":"other","nn":18,"risk":14,"cat":"green"},{"name":"Mexborough Arms","lat":53.8583,"lon":-1.42707,"postcode":"LS14 3DX","la":"Leeds","era":"trad","nn":1964,"risk":50,"cat":"amber"},{"name":"Milford Rl Sports Club","lat":53.81499,"lon":-1.60061,"postcode":"LS5 3AS","la":"Leeds","era":"other","nn":0,"risk":13,"cat":"green"},{"name":"Miller And Carter","lat":53.78735,"lon":-1.40719,"postcode":"LS25 1NB","la":"Leeds","era":"trad","nn":617,"risk":35,"cat":"amber"},{"name":"Mine","lat":53.80736,"lon":-1.55839,"postcode":"LS2 9JZ","la":"Leeds","era":"other","nn":0,"risk":13,"cat":"green"},{"name":"Miners Arms","lat":53.79654,"lon":-1.38618,"postcode":"LS25 1PX","la":"Leeds","era":"trad","nn":0,"risk":13,"cat":"green"},{"name":"Mint Warehouse","lat":53.79054,"lon":-1.55725,"postcode":"LS11 9UD","la":"Leeds","era":"other","nn":256,"risk":15,"cat":"green"},{"name":"Mission Nightclub","lat":53.79472,"lon":-1.54297,"postcode":"LS1 4LJ","la":"Leeds","era":"other","nn":0,"risk":13,"cat":"green"},{"name":"Mojo","lat":53.80049,"lon":-1.54002,"postcode":"LS1 6PQ","la":"Leeds","era":"other","nn":0,"risk":13,"cat":"green"},{"name":"Mook","lat":53.79576,"lon":-1.54197,"postcode":"LS1 6NJ","la":"Leeds","era":"other","nn":9,"risk":14,"cat":"green"},{"name":"Moorside Social Club","lat":53.81408,"lon":-1.55468,"postcode":"LS6 2NY","la":"Leeds","era":"mod","nn":303,"risk":16,"cat":"green"},{"name":"Moortown Social Club","lat":53.84889,"lon":-1.55388,"postcode":"LS17 5LA","la":"Leeds","era":"mod","nn":484,"risk":37,"cat":"amber"},{"name":"Moot Hall Arms","lat":53.79525,"lon":-1.54534,"postcode":"LS1 5DQ","la":"Leeds","era":"trad","nn":9,"risk":14,"cat":"green"},{"name":"Morley Conservative Club","lat":53.74938,"lon":-1.60178,"postcode":"LS27 9JH","la":"Leeds","era":"other","nn":42,"risk":14,"cat":"green"},{"name":"Morley Cricket And Sports Club","lat":53.74233,"lon":-1.61222,"postcode":"LS27 0JJ","la":"Leeds","era":"other","nn":0,"risk":13,"cat":"green"},{"name":"Morley Masonic Club","lat":53.73852,"lon":-1.6156,"postcode":"LS27 0QG","la":"Leeds","era":"trad","nn":0,"risk":13,"cat":"green"},{"name":"Morley Mercantile Club","lat":53.74579,"lon":-1.60022,"postcode":"LS27 8HN","la":"Leeds","era":"other","nn":53,"risk":14,"cat":"green"},{"name":"Morley Rugby Football Club","lat":53.74233,"lon":-1.61222,"postcode":"LS27 0JJ","la":"Leeds","era":"other","nn":0,"risk":13,"cat":"green"},{"name":"Morley Sports Lounge","lat":53.74382,"lon":-1.60045,"postcode":"LS27 9EB","la":"Leeds","era":"mod","nn":0,"risk":13,"cat":"green"},{"name":"Morley United Services Club Ltd","lat":53.74167,"lon":-1.59776,"postcode":"LS27 9AL","la":"Leeds","era":"other","nn":185,"risk":15,"cat":"green"},{"name":"Mr Foleys Cask Ale House","lat":53.79928,"lon":-1.54891,"postcode":"LS1 5RG","la":"Leeds","era":"other","nn":78,"risk":14,"cat":"green"},{"name":"Mustard Pot","lat":53.82908,"lon":-1.53936,"postcode":"LS7 3QY","la":"Leeds","era":"other","nn":0,"risk":13,"cat":"green"},{"name":"Myrtle Tavern","lat":53.8361,"lon":-1.57045,"postcode":"LS6 4NE","la":"Leeds","era":"other","nn":905,"risk":37,"cat":"amber"},{"name":"Nags Head","lat":53.78801,"lon":-1.61975,"postcode":"LS12 5AQ","la":"Leeds","era":"trad","nn":556,"risk":22,"cat":"green"},{"name":"Napoleons Casino And Restaurant","lat":53.79909,"lon":-1.56223,"postcode":"LS3 1LX","la":"Leeds","era":"other","nn":206,"risk":15,"cat":"green"},{"name":"Nation Of Shopkeepers","lat":53.80056,"lon":-1.5475,"postcode":"LS2 3AG","la":"Leeds","era":"other","nn":30,"risk":14,"cat":"green"},{"name":"Nelsons Arms","lat":53.75285,"lon":-1.59914,"postcode":"LS27 8LS","la":"Leeds","era":"trad","nn":276,"risk":15,"cat":"green"},{"name":"New Burley Club","lat":53.8128,"lon":-1.59108,"postcode":"LS4 2SZ","la":"Leeds","era":"other","nn":576,"risk":17,"cat":"green"},{"name":"New Farnley And District Community Association","lat":53.77577,"lon":-1.6274,"postcode":"LS12 5EA","la":"Leeds","era":"other","nn":796,"risk":39,"cat":"amber"},{"name":"New Headingley Club","lat":53.819,"lon":-1.57987,"postcode":"LS6 3BG","la":"Leeds","era":"trad","nn":169,"risk":15,"cat":"green"},{"name":"New Inn","lat":53.76246,"lon":-1.58702,"postcode":"LS27 7SS","la":"Leeds","era":"trad","nn":98,"risk":32,"cat":"amber"},{"name":"New Inn","lat":53.92889,"lon":-1.38723,"postcode":"LS22 6LL","la":"Leeds","era":"trad","nn":35,"risk":14,"cat":"green"},{"name":"New Inn","lat":53.87566,"lon":-1.7066,"postcode":"LS20 9JA","la":"Leeds","era":"trad","nn":201,"risk":17,"cat":"green"},{"name":"New Inn","lat":53.86706,"lon":-1.67995,"postcode":"LS19 7SU","la":"Leeds","era":"trad","nn":130,"risk":14,"cat":"green"},{"name":"New Inn","lat":53.75999,"lon":-1.63417,"postcode":"LS27 7AE","la":"Leeds","era":"trad","nn":224,"risk":15,"cat":"green"},{"name":"New Inn","lat":53.88195,"lon":-1.56238,"postcode":"LS16 8AU","la":"Leeds","era":"trad","nn":2560,"risk":54,"cat":"amber"},{"name":"New Inn (Farsley)","lat":53.81366,"lon":-1.67108,"postcode":"LS28 5HX","la":"Leeds","era":"trad","nn":0,"risk":13,"cat":"green"},{"name":"New Inn (Headingley)","lat":53.82703,"lon":-1.58213,"postcode":"LS6 4BA","la":"Leeds","era":"trad","nn":93,"risk":14,"cat":"green"},{"name":"New Inn (Pudsey)","lat":53.83005,"lon":-1.69154,"postcode":"LS28 5RH","la":"Leeds","era":"trad","nn":139,"risk":19,"cat":"green"},{"name":"New Masons Arms","lat":53.74703,"lon":-1.453,"postcode":"LS26 8JR","la":"Leeds","era":"trad","nn":220,"risk":32,"cat":"amber"},{"name":"New Travellers Rest","lat":53.81042,"lon":-1.45432,"postcode":"LS15 7PF","la":"Leeds","era":"other","nn":154,"risk":15,"cat":"green"},{"name":"Newmarket","lat":53.79532,"lon":-1.38852,"postcode":"LS25 1AF","la":"Leeds","era":"other","nn":0,"risk":13,"cat":"green"},{"name":"Newmarket Inn","lat":53.79532,"lon":-1.38852,"postcode":"LS25 1AF","la":"Leeds","era":"trad","nn":0,"risk":13,"cat":"green"},{"name":"Nigel Bell Catering","lat":53.73852,"lon":-1.6156,"postcode":"LS27 0QG","la":"Leeds","era":"other","nn":0,"risk":13,"cat":"green"},{"name":"North Bar","lat":53.79986,"lon":-1.54124,"postcode":"LS1 6NU","la":"Leeds","era":"other","nn":0,"risk":13,"cat":"green"},{"name":"Northbar (Otley)","lat":53.90377,"lon":-1.69288,"postcode":"LS21 3AB","la":"Leeds","era":"mod","nn":0,"risk":13,"cat":"green"},{"name":"Northern Market","lat":53.80097,"lon":-1.54808,"postcode":"LS1 3DW","la":"Leeds","era":"other","nn":60,"risk":14,"cat":"green"},{"name":"Northern Snooker Centre","lat":53.80058,"lon":-1.56563,"postcode":"LS3 1LT","la":"Leeds","era":"other","nn":278,"risk":15,"cat":"green"},{"name":"Old Ball","lat":53.84799,"lon":-1.6371,"postcode":"LS18 5SB","la":"Leeds","era":"other","nn":375,"risk":16,"cat":"green"},{"name":"Old Cock","lat":53.90434,"lon":-1.69213,"postcode":"LS21 1AA","la":"Leeds","era":"other","nn":47,"risk":14,"cat":"green"},{"name":"Old Griffin Head","lat":53.75785,"lon":-1.62383,"postcode":"LS27 7ES","la":"Leeds","era":"trad","nn":326,"risk":16,"cat":"green"},{"name":"Old Hall Hotel","lat":53.81177,"lon":-1.66958,"postcode":"LS28 5EU","la":"Leeds","era":"other","nn":0,"risk":13,"cat":"green"},{"name":"Old Modernians Association","lat":53.86873,"lon":-1.62116,"postcode":"LS16 7ND","la":"Leeds","era":"other","nn":577,"risk":35,"cat":"amber"},{"name":"Old Red Lion","lat":53.82684,"lon":-1.45151,"postcode":"LS14 2AD","la":"Leeds","era":"trad","nn":771,"risk":36,"cat":"amber"},{"name":"Old Star Inn","lat":53.89431,"lon":-1.45239,"postcode":"LS17 9EJ","la":"Leeds","era":"trad","nn":807,"risk":39,"cat":"amber"},{"name":"Old Tree Inn","lat":53.76615,"lon":-1.3661,"postcode":"LS25 7AH","la":"Leeds","era":"trad","nn":30,"risk":14,"cat":"green"},{"name":"Old Unicorn","lat":53.81087,"lon":-1.62746,"postcode":"LS13 3NA","la":"Leeds","era":"other","nn":333,"risk":18,"cat":"green"},{"name":"Old White Hart Inn","lat":53.77219,"lon":-1.56793,"postcode":"LS11 8BZ","la":"Leeds","era":"trad","nn":284,"risk":15,"cat":"green"},{"name":"O'Neills","lat":53.79559,"lon":-1.54589,"postcode":"LS1 5DA","la":"Leeds","era":"other","nn":0,"risk":13,"cat":"green"},{"name":"Oporto","lat":53.79527,"lon":-1.54089,"postcode":"LS1 7BT","la":"Leeds","era":"other","nn":0,"risk":13,"cat":"green"},{"name":"Orchard","lat":53.82182,"lon":-1.48808,"postcode":"LS8 3HL","la":"Leeds","era":"other","nn":321,"risk":36,"cat":"amber"},{"name":"Original Oak","lat":53.81964,"lon":-1.57575,"postcode":"LS6 2DG","la":"Leeds","era":"trad","nn":25,"risk":14,"cat":"green"},{"name":"Otley Conservative Club","lat":53.9056,"lon":-1.69288,"postcode":"LS21 3AG","la":"Leeds","era":"other","nn":46,"risk":14,"cat":"green"},{"name":"Otley Golf Club","lat":53.9,"lon":-1.72734,"postcode":"LS21 3NG","la":"Leeds","era":"other","nn":869,"risk":40,"cat":"amber"},{"name":"Otley Rugby Union Football Club","lat":53.90644,"lon":-1.68674,"postcode":"LS21 1HE","la":"Leeds","era":"other","nn":258,"risk":15,"cat":"green"},{"name":"Otley Social Working Mens Club","lat":53.91359,"lon":-1.71271,"postcode":"LS21 2DJ","la":"Leeds","era":"other","nn":1025,"risk":43,"cat":"amber"},{"name":"Oulton And Woodlesford Sports And Social Club","lat":53.74177,"lon":-1.4526,"postcode":"LS26 8EL","la":"Leeds","era":"mod","nn":586,"risk":35,"cat":"amber"},{"name":"Outlaws Yacht Club","lat":53.79627,"lon":-1.53671,"postcode":"LS2 7DY","la":"Leeds","era":"other","nn":0,"risk":13,"cat":"green"},{"name":"Parnaby Tavern","lat":53.77066,"lon":-1.52328,"postcode":"LS10 2AB","la":"Leeds","era":"other","nn":661,"risk":21,"cat":"green"},{"name":"Pendas Arms","lat":53.83348,"lon":-1.45519,"postcode":"LS14 2DF","la":"Leeds","era":"trad","nn":777,"risk":39,"cat":"amber"},{"name":"Phranakhon Tapas And Bar","lat":53.79686,"lon":-1.5521,"postcode":"LS1 2DS","la":"Leeds","era":"mod","nn":87,"risk":14,"cat":"green"},{"name":"Picture House","lat":53.74402,"lon":-1.59989,"postcode":"LS27 8HE","la":"Leeds","era":"other","nn":43,"risk":14,"cat":"green"},{"name":"Players Bar","lat":53.80058,"lon":-1.54542,"postcode":"LS2 8ER","la":"Leeds","era":"other","nn":61,"risk":14,"cat":"green"},{"name":"PMH Catering (Pudsey) Ltd","lat":53.79504,"lon":-1.66491,"postcode":"LS28 7RF","la":"Leeds","era":"other","nn":0,"risk":13,"cat":"green"},{"name":"Pool Sports And Social Club","lat":53.90167,"lon":-1.62485,"postcode":"LS21 1LG","la":"Leeds","era":"mod","nn":259,"risk":35,"cat":"amber"},{"name":"Pop World","lat":53.80189,"lon":-1.54752,"postcode":"LS2 3AW","la":"Leeds","era":"other","nn":5,"risk":13,"cat":"green"},{"name":"Preston","lat":53.8267,"lon":-1.50578,"postcode":"LS8 2HU","la":"Leeds","era":"other","nn":240,"risk":33,"cat":"amber"},{"name":"Princess Hotel","lat":53.85268,"lon":-1.69298,"postcode":"LS19 6BJ","la":"Leeds","era":"trad","nn":777,"risk":24,"cat":"green"},{"name":"Prospect Bar","lat":53.74901,"lon":-1.60212,"postcode":"LS27 8EG","la":"Leeds","era":"other","nn":27,"risk":14,"cat":"green"},{"name":"Pryzm","lat":53.80138,"lon":-1.54479,"postcode":"LS2 8LX","la":"Leeds","era":"other","nn":0,"risk":13,"cat":"green"},{"name":"Pudsey Liberal Club","lat":53.79703,"lon":-1.66117,"postcode":"LS28 7BQ","la":"Leeds","era":"other","nn":0,"risk":13,"cat":"green"},{"name":"Pudsey St Lawrence Cricket Club","lat":53.79408,"lon":-1.67258,"postcode":"LS28 7SQ","la":"Leeds","era":"other","nn":241,"risk":15,"cat":"green"},{"name":"Pudsey Tavern","lat":53.79703,"lon":-1.66117,"postcode":"LS28 7BQ","la":"Leeds","era":"other","nn":0,"risk":13,"cat":"green"},{"name":"Q360 Lounge","lat":53.81857,"lon":-1.51428,"postcode":"LS8 2SH","la":"Leeds","era":"mod","nn":524,"risk":35,"cat":"amber"},{"name":"Queens Court","lat":53.79534,"lon":-1.54223,"postcode":"LS1 6LY","la":"Leeds","era":"trad","nn":0,"risk":13,"cat":"green"},{"name":"Queens Hotel","lat":53.74502,"lon":-1.60061,"postcode":"LS27 8DW","la":"Leeds","era":"trad","nn":68,"risk":14,"cat":"green"},{"name":"Queenswood Social Club","lat":53.82048,"lon":-1.59571,"postcode":"LS6 3HT","la":"Leeds","era":"other","nn":541,"risk":17,"cat":"green"},{"name":"Ramgarhia Sports Centre","lat":53.80873,"lon":-1.53446,"postcode":"LS7 3AP","la":"Leeds","era":"trad","nn":408,"risk":16,"cat":"green"},{"name":"Rawdon And Guiseley Conservative Club","lat":53.85017,"lon":-1.68192,"postcode":"LS19 6NL","la":"Leeds","era":"other","nn":383,"risk":19,"cat":"green"},{"name":"Rawdon Cricket Club","lat":53.85182,"lon":-1.6768,"postcode":"LS19 6DZ","la":"Leeds","era":"other","nn":383,"risk":21,"cat":"green"},{"name":"Rebound Social","lat":53.79614,"lon":-1.55158,"postcode":"LS1 4EA","la":"Leeds","era":"mod","nn":87,"risk":14,"cat":"green"},{"name":"Red Lion","lat":53.85459,"lon":-1.48429,"postcode":"LS17 8HH","la":"Leeds","era":"trad","nn":1464,"risk":46,"cat":"amber"},{"name":"Revolucion De Cuba","lat":53.79538,"lon":-1.54133,"postcode":"LS1 6DT","la":"Leeds","era":"other","nn":0,"risk":13,"cat":"green"},{"name":"Revolution","lat":53.80186,"lon":-1.54758,"postcode":"LS2 3AW","la":"Leeds","era":"other","nn":0,"risk":13,"cat":"green"},{"name":"Robin Hood","lat":53.86588,"lon":-1.6879,"postcode":"LS19 7EP","la":"Leeds","era":"other","nn":151,"risk":15,"cat":"green"},{"name":"Rodley Cricket Club","lat":53.8229,"lon":-1.65509,"postcode":"LS13 1RL","la":"Leeds","era":"other","nn":192,"risk":15,"cat":"green"},{"name":"Rodley Social Club","lat":53.82243,"lon":-1.6579,"postcode":"LS13 1HP","la":"Leeds","era":"mod","nn":0,"risk":13,"cat":"green"},{"name":"Rolands","lat":53.79527,"lon":-1.54089,"postcode":"LS1 7BT","la":"Leeds","era":"other","nn":0,"risk":13,"cat":"green"},{"name":"Rose \\\\& Crown","lat":53.90397,"lon":-1.69161,"postcode":"LS21 1AD","la":"Leeds","era":"trad","nn":11,"risk":14,"cat":"green"},{"name":"Rosebud Inn","lat":53.74278,"lon":-1.49894,"postcode":"LS26 0SJ","la":"Leeds","era":"trad","nn":637,"risk":18,"cat":"green"},{"name":"Rothwell Labour Club","lat":53.75679,"lon":-1.46616,"postcode":"LS26 0HG","la":"Leeds","era":"other","nn":1124,"risk":44,"cat":"amber"},{"name":"Rothwell WMC","lat":53.74795,"lon":-1.47713,"postcode":"LS26 0BB","la":"Leeds","era":"other","nn":101,"risk":19,"cat":"green"},{"name":"Rowland Road WMC","lat":53.77631,"lon":-1.54952,"postcode":"LS11 6ED","la":"Leeds","era":"other","nn":464,"risk":17,"cat":"green"},{"name":"Roxy Ball Room","lat":53.80049,"lon":-1.54002,"postcode":"LS1 6PQ","la":"Leeds","era":"other","nn":0,"risk":13,"cat":"green"},{"name":"Roxy Ballroom","lat":53.79597,"lon":-1.54459,"postcode":"LS1 6HW","la":"Leeds","era":"other","nn":37,"risk":14,"cat":"green"},{"name":"Royal Hotel","lat":53.7902,"lon":-1.67023,"postcode":"LS28 8PR","la":"Leeds","era":"trad","nn":121,"risk":14,"cat":"green"},{"name":"Royal Park Hotel","lat":53.80966,"lon":-1.57028,"postcode":"LS6 1NY","la":"Leeds","era":"trad","nn":809,"risk":19,"cat":"green"},{"name":"SALT Granary Wharf","lat":53.79332,"lon":-1.55085,"postcode":"LS1 4GH","la":"Leeds","era":"other","nn":57,"risk":14,"cat":"green"},{"name":"Sandinista","lat":53.80092,"lon":-1.54103,"postcode":"LS2 8JP","la":"Leeds","era":"other","nn":0,"risk":13,"cat":"green"},{"name":"Santiago","lat":53.80026,"lon":-1.54042,"postcode":"LS1 6PG","la":"Leeds","era":"other","nn":33,"risk":14,"cat":"green"},{"name":"Scarbrough Hotel","lat":53.79539,"lon":-1.54619,"postcode":"LS1 5DY","la":"Leeds","era":"other","nn":30,"risk":14,"cat":"green"},{"name":"Scarcroft Golf Club","lat":53.87187,"lon":-1.45036,"postcode":"LS14 3BQ","la":"Leeds","era":"other","nn":215,"risk":35,"cat":"amber"},{"name":"Seacroft Working Mens Club","lat":53.81515,"lon":-1.46856,"postcode":"LS14 6EW","la":"Leeds","era":"trad","nn":678,"risk":38,"cat":"amber"},{"name":"Sela Bar","lat":53.79986,"lon":-1.54124,"postcode":"LS1 6NU","la":"Leeds","era":"other","nn":0,"risk":13,"cat":"green"},{"name":"Seven Hills","lat":53.7491,"lon":-1.60259,"postcode":"LS27 9DJ","la":"Leeds","era":"other","nn":32,"risk":14,"cat":"green"},{"name":"Sheepscar Bar And Grill","lat":53.81411,"lon":-1.53788,"postcode":"LS7 3EJ","la":"Leeds","era":"mod","nn":233,"risk":15,"cat":"green"},{"name":"Silks Gentlemens Lounge","lat":53.79425,"lon":-1.54613,"postcode":"LS1 4SP","la":"Leeds","era":"mod","nn":0,"risk":13,"cat":"green"},{"name":"Slap And Pickle","lat":53.7955,"lon":-1.54513,"postcode":"LS1 5DL","la":"Leeds","era":"other","nn":0,"risk":13,"cat":"green"},{"name":"Slap And Pickle Burgers","lat":53.79753,"lon":-1.5329,"postcode":"LS9 8AH","la":"Leeds","era":"other","nn":0,"risk":13,"cat":"green"},{"name":"Slug And Lettuce","lat":53.79848,"lon":-1.5467,"postcode":"LS1 5HU","la":"Leeds","era":"other","nn":32,"risk":14,"cat":"green"},{"name":"Slug And Lettuce","lat":53.79578,"lon":-1.54616,"postcode":"LS1 5DA","la":"Leeds","era":"other","nn":28,"risk":14,"cat":"green"},{"name":"Smokestack","lat":53.79534,"lon":-1.54223,"postcode":"LS1 6LY","la":"Leeds","era":"other","nn":0,"risk":13,"cat":"green"},{"name":"Snug And Chatter","lat":53.92882,"lon":-1.38596,"postcode":"LS22 6NQ","la":"Leeds","era":"other","nn":41,"risk":14,"cat":"green"},{"name":"South Leeds Conservative Club","lat":53.77184,"lon":-1.56241,"postcode":"LS11 7JH","la":"Leeds","era":"other","nn":259,"risk":15,"cat":"green"},{"name":"Space Night Club","lat":53.79584,"lon":-1.54197,"postcode":"LS1 6DL","la":"Leeds","era":"other","nn":0,"risk":13,"cat":"green"},{"name":"St Josephs Catholic Club","lat":53.78012,"lon":-1.52829,"postcode":"LS10 2QE","la":"Leeds","era":"other","nn":95,"risk":14,"cat":"green"},{"name":"Stanningley ARLFC And Social Club","lat":53.81757,"lon":-1.65794,"postcode":"LS13 1PA","la":"Leeds","era":"mod","nn":541,"risk":17,"cat":"green"},{"name":"Star Inn","lat":53.79349,"lon":-1.59316,"postcode":"LS12 4NA","la":"Leeds","era":"trad","nn":208,"risk":15,"cat":"green"},{"name":"Station Hop","lat":53.74901,"lon":-1.60171,"postcode":"LS27 8JW","la":"Leeds","era":"other","nn":27,"risk":14,"cat":"green"},{"name":"Station Hotel","lat":53.80467,"lon":-1.45162,"postcode":"LS15 8BZ","la":"Leeds","era":"other","nn":295,"risk":16,"cat":"green"},{"name":"Station Hotel","lat":53.77931,"lon":-1.53583,"postcode":"LS10 1DQ","la":"Leeds","era":"other","nn":233,"risk":15,"cat":"green"},{"name":"Stone Trough Inn","lat":53.85631,"lon":-1.68052,"postcode":"LS19 6LP","la":"Leeds","era":"trad","nn":555,"risk":17,"cat":"green"},{"name":"Stump Cross Inn","lat":53.73682,"lon":-1.60557,"postcode":"LS27 0DD","la":"Leeds","era":"trad","nn":314,"risk":16,"cat":"green"},{"name":"Swan And Talbot Inn","lat":53.92891,"lon":-1.38525,"postcode":"LS22 6NN","la":"Leeds","era":"trad","nn":48,"risk":14,"cat":"green"},{"name":"Swarcliffe Working Mens Club","lat":53.82056,"lon":-1.44653,"postcode":"LS14 5HE","la":"Leeds","era":"trad","nn":771,"risk":36,"cat":"amber"},{"name":"Swillington Miners Welfare Scheme","lat":53.76626,"lon":-1.42129,"postcode":"LS26 8DT","la":"Leeds","era":"other","nn":2153,"risk":51,"cat":"amber"},{"name":"Tails And Spirits","lat":53.79425,"lon":-1.54613,"postcode":"LS1 4SP","la":"Leeds","era":"other","nn":0,"risk":13,"cat":"green"},{"name":"Tapped","lat":53.79616,"lon":-1.54582,"postcode":"LS1 5EL","la":"Leeds","era":"other","nn":47,"risk":14,"cat":"green"},{"name":"Templar Hotel","lat":53.80006,"lon":-1.53881,"postcode":"LS2 7NU","la":"Leeds","era":"other","nn":52,"risk":14,"cat":"green"},{"name":"Teresa LTD","lat":53.80065,"lon":-1.5363,"postcode":"LS2 7QZ","la":"Leeds","era":"other","nn":111,"risk":14,"cat":"green"},{"name":"Test Bar","lat":53.81395,"lon":-1.67171,"postcode":"LS28 5UJ","la":"Leeds","era":"other","nn":53,"risk":14,"cat":"green"},{"name":"The Adelphi","lat":53.79212,"lon":-1.53964,"postcode":"LS10 1JQ","la":"Leeds","era":"other","nn":117,"risk":14,"cat":"green"},{"name":"The Albion","lat":53.89461,"lon":-1.348,"postcode":"LS23 6HU","la":"Leeds","era":"other","nn":1034,"risk":43,"cat":"amber"},{"name":"The Angel","lat":53.74788,"lon":-1.50738,"postcode":"LS26 0SF","la":"Leeds","era":"trad","nn":0,"risk":18,"cat":"green"},{"name":"The Angel Inn","lat":53.79815,"lon":-1.5427,"postcode":"LS1 6LN","la":"Leeds","era":"trad","nn":30,"risk":14,"cat":"green"},{"name":"The Arabian Horse","lat":53.83033,"lon":-1.34243,"postcode":"LS25 3AA","la":"Leeds","era":"trad","nn":3076,"risk":57,"cat":"amber"},{"name":"The Arch Bar","lat":53.79322,"lon":-1.54737,"postcode":"LS1 4BQ","la":"Leeds","era":"other","nn":107,"risk":14,"cat":"green"},{"name":"The Arkle","lat":53.75299,"lon":-1.60505,"postcode":"LS27 9PP","la":"Leeds","era":"other","nn":266,"risk":15,"cat":"green"},{"name":"The Back Room","lat":53.79538,"lon":-1.54133,"postcode":"LS1 6DT","la":"Leeds","era":"other","nn":0,"risk":13,"cat":"green"},{"name":"The Bankhouse","lat":53.78445,"lon":-1.67176,"postcode":"LS28 8EB","la":"Leeds","era":"other","nn":568,"risk":17,"cat":"green"},{"name":"The Barley Corn Inn","lat":53.82329,"lon":-1.42257,"postcode":"LS15 4DH","la":"Leeds","era":"trad","nn":868,"risk":40,"cat":"amber"},{"name":"The Barnbow","lat":53.80801,"lon":-1.44316,"postcode":"LS15 8EH","la":"Leeds","era":"other","nn":264,"risk":15,"cat":"green"},{"name":"The Barnleigh","lat":53.80327,"lon":-1.64274,"postcode":"LS13 4NX","la":"Leeds","era":"other","nn":750,"risk":19,"cat":"green"},{"name":"The Bay Horse","lat":53.90561,"lon":-1.69404,"postcode":"LS21 3AQ","la":"Leeds","era":"trad","nn":0,"risk":13,"cat":"green"},{"name":"The Beacon","lat":53.81176,"lon":-1.64329,"postcode":"LS13 3ER","la":"Leeds","era":"other","nn":524,"risk":17,"cat":"green"},{"name":"The Bird In Hand","lat":53.78933,"lon":-1.38348,"postcode":"LS25 1JW","la":"Leeds","era":"other","nn":536,"risk":17,"cat":"green"},{"name":"The Black Bull","lat":53.74847,"lon":-1.47586,"postcode":"LS26 0AX","la":"Leeds","era":"trad","nn":101,"risk":19,"cat":"green"},{"name":"The Black Bull","lat":53.83648,"lon":-1.64248,"postcode":"LS18 4RH","la":"Leeds","era":"trad","nn":97,"risk":14,"cat":"green"},{"name":"The Black Swan","lat":53.83191,"lon":-1.39332,"postcode":"LS15 4JP","la":"Leeds","era":"trad","nn":322,"risk":36,"cat":"amber"},{"name":"The Blands Arms","lat":53.7966,"lon":-1.33136,"postcode":"LS25 4AQ","la":"Leeds","era":"trad","nn":2898,"risk":56,"cat":"amber"},{"name":"The Bowling Green","lat":53.90377,"lon":-1.69288,"postcode":"LS21 3AB","la":"Leeds","era":"other","nn":0,"risk":13,"cat":"green"},{"name":"The Box","lat":53.82082,"lon":-1.57697,"postcode":"LS6 2AD","la":"Leeds","era":"other","nn":117,"risk":14,"cat":"green"},{"name":"The Bramley Villagers","lat":53.81657,"lon":-1.63245,"postcode":"LS13 2HF","la":"Leeds","era":"trad","nn":267,"risk":15,"cat":"green"},{"name":"The Brewery Tap","lat":53.7955,"lon":-1.54513,"postcode":"LS1 5DL","la":"Leeds","era":"mod","nn":0,"risk":13,"cat":"green"},{"name":"The Brick","lat":53.79306,"lon":-1.60577,"postcode":"LS12 3TP","la":"Leeds","era":"other","nn":454,"risk":17,"cat":"green"},{"name":"The Bridge","lat":53.83408,"lon":-1.61716,"postcode":"LS18 4HN","la":"Leeds","era":"other","nn":572,"risk":22,"cat":"green"},{"name":"The Bridge Inn","lat":53.7943,"lon":-1.54191,"postcode":"LS1 7HG","la":"Leeds","era":"trad","nn":84,"risk":14,"cat":"green"},{"name":"The Britannia Hotel","lat":53.79915,"lon":-1.65177,"postcode":"LS28 9AP","la":"Leeds","era":"trad","nn":286,"risk":15,"cat":"green"},{"name":"The British Oak","lat":53.74706,"lon":-1.47799,"postcode":"LS26 0AG","la":"Leeds","era":"trad","nn":114,"risk":14,"cat":"green"},{"name":"The Brotherhood Of Pursuits And Pastimes","lat":53.79986,"lon":-1.54124,"postcode":"LS1 6NU","la":"Leeds","era":"other","nn":0,"risk":13,"cat":"green"},{"name":"The Buffers","lat":53.83035,"lon":-1.42823,"postcode":"LS15 4AL","la":"Leeds","era":"other","nn":868,"risk":40,"cat":"amber"},{"name":"The Butchers Arms (Pub Only)","lat":53.79504,"lon":-1.66491,"postcode":"LS28 7RF","la":"Leeds","era":"trad","nn":0,"risk":13,"cat":"green"},{"name":"The Butterbowl","lat":53.78609,"lon":-1.60969,"postcode":"LS12 5JQ","la":"Leeds","era":"other","nn":581,"risk":20,"cat":"green"},{"name":"The Chemic Tavern","lat":53.81522,"lon":-1.55047,"postcode":"LS6 2NG","la":"Leeds","era":"other","nn":133,"risk":14,"cat":"green"},{"name":"The Chequers Inn","lat":53.76188,"lon":-1.31172,"postcode":"LS25 5LP","la":"Leeds","era":"trad","nn":2319,"risk":52,"cat":"amber"},{"name":"The Cocktail Pickers Club","lat":53.79892,"lon":-1.37531,"postcode":"LS25 2BF","la":"Leeds","era":"other","nn":262,"risk":15,"cat":"green"},{"name":"The Commercial","lat":53.74011,"lon":-1.39739,"postcode":"LS26 9JE","la":"Leeds","era":"other","nn":234,"risk":33,"cat":"amber"},{"name":"The Commercial Hotel","lat":53.76612,"lon":-1.36655,"postcode":"LS25 7AJ","la":"Leeds","era":"other","nn":30,"risk":14,"cat":"green"},{"name":"The Crossed Shuttle","lat":53.79666,"lon":-1.66185,"postcode":"LS28 7BJ","la":"Leeds","era":"trad","nn":20,"risk":14,"cat":"green"},{"name":"The Crusader","lat":53.78498,"lon":-1.37831,"postcode":"LS25 2BY","la":"Leeds","era":"other","nn":591,"risk":35,"cat":"amber"},{"name":"The Curious Hop","lat":53.90519,"lon":-1.69284,"postcode":"LS21 3NX","la":"Leeds","era":"other","nn":0,"risk":13,"cat":"green"},{"name":"The Dahlak","lat":53.80443,"lon":-1.51822,"postcode":"LS9 7TZ","la":"Leeds","era":"other","nn":196,"risk":15,"cat":"green"},{"name":"The Dalesman","lat":53.83396,"lon":-1.60844,"postcode":"LS16 5EA","la":"Leeds","era":"other","nn":572,"risk":37,"cat":"amber"},{"name":"The Decanter","lat":53.79877,"lon":-1.54666,"postcode":"LS1 5JQ","la":"Leeds","era":"other","nn":12,"risk":14,"cat":"green"},{"name":"The Deer Park","lat":53.84424,"lon":-1.5078,"postcode":"LS8 2DQ","la":"Leeds","era":"other","nn":106,"risk":32,"cat":"amber"},{"name":"The Devon","lat":53.80211,"lon":-1.44412,"postcode":"LS15 8LR","la":"Leeds","era":"other","nn":460,"risk":17,"cat":"green"},{"name":"The Dexter","lat":53.85784,"lon":-1.50591,"postcode":"LS17 8RZ","la":"Leeds","era":"other","nn":1464,"risk":46,"cat":"amber"},{"name":"The Duncan","lat":53.79584,"lon":-1.54197,"postcode":"LS1 6DL","la":"Leeds","era":"other","nn":0,"risk":13,"cat":"green"},{"name":"The Eldon","lat":53.81021,"lon":-1.55548,"postcode":"LS2 9DX","la":"Leeds","era":"other","nn":266,"risk":15,"cat":"green"},{"name":"The Engine","lat":53.77213,"lon":-1.53302,"postcode":"LS10 2JJ","la":"Leeds","era":"other","nn":0,"risk":13,"cat":"green"},{"name":"The Engine Shed","lat":53.90527,"lon":-1.41521,"postcode":"LS22 5AA","la":"Leeds","era":"other","nn":336,"risk":36,"cat":"amber"},{"name":"The Falconers Rest","lat":53.73845,"lon":-1.54715,"postcode":"LS10 4EP","la":"Leeds","era":"other","nn":1231,"risk":45,"cat":"amber"},{"name":"The Faversham","lat":53.80479,"lon":-1.55906,"postcode":"LS2 9NG","la":"Leeds","era":"other","nn":289,"risk":15,"cat":"green"},{"name":"The Fenton","lat":53.80564,"lon":-1.54957,"postcode":"LS2 3ED","la":"Leeds","era":"other","nn":223,"risk":15,"cat":"green"},{"name":"The Fleece","lat":53.81408,"lon":-1.67053,"postcode":"LS28 5LF","la":"Leeds","era":"trad","nn":59,"risk":14,"cat":"green"},{"name":"The Fleece","lat":53.83412,"lon":-1.64886,"postcode":"LS18 4DT","la":"Leeds","era":"trad","nn":340,"risk":16,"cat":"green"},{"name":"The Fleece Otley","lat":53.90409,"lon":-1.70037,"postcode":"LS21 3DT","la":"Leeds","era":"trad","nn":103,"risk":14,"cat":"green"},{"name":"The Fly Line","lat":53.79707,"lon":-1.37776,"postcode":"LS25 2EB","la":"Leeds","era":"other","nn":262,"risk":15,"cat":"green"},{"name":"The Fox And Grapes","lat":53.79048,"lon":-1.67735,"postcode":"LS28 8HU","la":"Leeds","era":"trad","nn":393,"risk":16,"cat":"green"},{"name":"The Fox And Newt","lat":53.80002,"lon":-1.55952,"postcode":"LS3 1LD","la":"Leeds","era":"trad","nn":206,"risk":15,"cat":"green"},{"name":"The Gardeners Arms","lat":53.77765,"lon":-1.53368,"postcode":"LS10 2BG","la":"Leeds","era":"trad","nn":233,"risk":15,"cat":"green"},{"name":"The General Elliott","lat":53.7973,"lon":-1.54055,"postcode":"LS1 6DS","la":"Leeds","era":"other","nn":87,"risk":14,"cat":"green"},{"name":"The George","lat":53.80095,"lon":-1.55125,"postcode":"LS1 3BB","la":"Leeds","era":"trad","nn":191,"risk":15,"cat":"green"},{"name":"The Golden Beam","lat":53.81952,"lon":-1.57606,"postcode":"LS6 1BL","la":"Leeds","era":"other","nn":25,"risk":14,"cat":"green"},{"name":"The Golden Fleece","lat":53.79165,"lon":-1.59261,"postcode":"LS12 4JJ","la":"Leeds","era":"trad","nn":73,"risk":14,"cat":"green"},{"name":"The Great Northern","lat":53.80324,"lon":-1.66656,"postcode":"LS28 6AA","la":"Leeds","era":"other","nn":85,"risk":14,"cat":"green"},{"name":"The Greedy Duck","lat":53.72634,"lon":-1.62516,"postcode":"LS27 0NZ","la":"Leeds","era":"other","nn":560,"risk":35,"cat":"amber"},{"name":"The Griffin","lat":53.79559,"lon":-1.54589,"postcode":"LS1 5DA","la":"Leeds","era":"trad","nn":0,"risk":13,"cat":"green"},{"name":"The Head Of Steam","lat":53.79533,"lon":-1.54534,"postcode":"LS1 5DQ","la":"Leeds","era":"trad","nn":9,"risk":14,"cat":"green"},{"name":"The Headingley Taps","lat":53.82089,"lon":-1.57874,"postcode":"LS6 3HG","la":"Leeds","era":"other","nn":0,"risk":13,"cat":"green"},{"name":"The Holbeck","lat":53.78512,"lon":-1.55509,"postcode":"LS11 9QX","la":"Leeds","era":"other","nn":0,"risk":13,"cat":"green"},{"name":"The Hop","lat":53.79375,"lon":-1.54897,"postcode":"LS1 4BR","la":"Leeds","era":"other","nn":102,"risk":14,"cat":"green"},{"name":"The Hope Inn","lat":53.79759,"lon":-1.52347,"postcode":"LS9 8ES","la":"Leeds","era":"trad","nn":238,"risk":15,"cat":"green"},{"name":"The Irish Centre","lat":53.79742,"lon":-1.51458,"postcode":"LS9 9NT","la":"Leeds","era":"other","nn":89,"risk":14,"cat":"green"},{"name":"The Irish Centre (Tuesday Club)","lat":53.79711,"lon":-1.51582,"postcode":"LS9 9NT","la":"Leeds","era":"other","nn":89,"risk":14,"cat":"green"},{"name":"The Lamb And Flag","lat":53.79497,"lon":-1.53694,"postcode":"LS2 7HD","la":"Leeds","era":"other","nn":62,"risk":14,"cat":"green"},{"name":"The Leeds Rifleman","lat":53.80687,"lon":-1.54233,"postcode":"LS7 1HA","la":"Leeds","era":"other","nn":495,"risk":17,"cat":"green"},{"name":"The Leodis","lat":53.80083,"lon":-1.45932,"postcode":"LS15 7QH","la":"Leeds","era":"other","nn":573,"risk":17,"cat":"green"},{"name":"The Library Bar And Venue","lat":53.81181,"lon":-1.5585,"postcode":"LS2 3AP","la":"Leeds","era":"mod","nn":266,"risk":15,"cat":"green"},{"name":"The Liquorist","lat":53.79861,"lon":-1.5473,"postcode":"LS1 5RW","la":"Leeds","era":"other","nn":41,"risk":14,"cat":"green"},{"name":"The Lord Darcy","lat":53.85632,"lon":-1.53015,"postcode":"LS17 8EH","la":"Leeds","era":"other","nn":1599,"risk":47,"cat":"amber"},{"name":"The Lord Gascoignes","lat":53.79654,"lon":-1.38618,"postcode":"LS25 1PX","la":"Leeds","era":"other","nn":0,"risk":13,"cat":"green"},{"name":"The Lost And Found Leeds Club","lat":53.798,"lon":-1.54455,"postcode":"LS1 6JL","la":"Leeds","era":"other","nn":0,"risk":13,"cat":"green"},{"name":"The Malt Brewhouse","lat":53.84076,"lon":-1.63619,"postcode":"LS18 4AQ","la":"Leeds","era":"other","nn":241,"risk":15,"cat":"green"},{"name":"The Manor Inn","lat":53.79664,"lon":-1.66215,"postcode":"LS28 7BJ","la":"Leeds","era":"trad","nn":20,"risk":14,"cat":"green"},{"name":"The Marsh Inn","lat":53.79441,"lon":-1.67747,"postcode":"LS28 7EX","la":"Leeds","era":"trad","nn":323,"risk":16,"cat":"green"},{"name":"The Maven","lat":53.7963,"lon":-1.53968,"postcode":"LS1 7DH","la":"Leeds","era":"other","nn":36,"risk":14,"cat":"green"},{"name":"The Merchant","lat":53.80138,"lon":-1.54479,"postcode":"LS2 8LX","la":"Leeds","era":"other","nn":0,"risk":13,"cat":"green"},{"name":"The Midnight Bell","lat":53.79166,"lon":-1.55256,"postcode":"LS11 5WD","la":"Leeds","era":"other","nn":115,"risk":14,"cat":"green"},{"name":"The Midway","lat":53.87041,"lon":-1.69211,"postcode":"LS19 7PL","la":"Leeds","era":"other","nn":575,"risk":17,"cat":"green"},{"name":"The Miners Arms","lat":53.74798,"lon":-1.59318,"postcode":"LS27 8LG","la":"Leeds","era":"trad","nn":498,"risk":17,"cat":"green"},{"name":"The Moorgate","lat":53.77547,"lon":-1.37556,"postcode":"LS25 7EP","la":"Leeds","era":"other","nn":926,"risk":37,"cat":"amber"},{"name":"The Moorhouse Inn","lat":53.78143,"lon":-1.54347,"postcode":"LS11 5NQ","la":"Leeds","era":"other","nn":52,"risk":14,"cat":"green"},{"name":"The Morley Dashers","lat":53.73889,"lon":-1.6023,"postcode":"LS27 0BY","la":"Leeds","era":"other","nn":314,"risk":16,"cat":"green"},{"name":"The Mustard Pot","lat":53.82908,"lon":-1.53936,"postcode":"LS7 3QY","la":"Leeds","era":"other","nn":0,"risk":13,"cat":"green"},{"name":"The Nags Head","lat":53.82869,"lon":-1.53685,"postcode":"LS7 4NB","la":"Leeds","era":"trad","nn":0,"risk":13,"cat":"green"},{"name":"The New Conservatory","lat":53.798,"lon":-1.54455,"postcode":"LS1 6JL","la":"Leeds","era":"other","nn":0,"risk":13,"cat":"green"},{"name":"The New George","lat":53.81497,"lon":-1.60172,"postcode":"LS5 3AQ","la":"Leeds","era":"trad","nn":73,"risk":14,"cat":"green"},{"name":"The New Inn","lat":53.82903,"lon":-1.39385,"postcode":"LS15 4JF","la":"Leeds","era":"trad","nn":322,"risk":36,"cat":"amber"},{"name":"The New Inn (Great Preston)","lat":53.76091,"lon":-1.38981,"postcode":"LS26 8AX","la":"Leeds","era":"trad","nn":0,"risk":31,"cat":"amber"},{"name":"The New Penny","lat":53.79527,"lon":-1.54089,"postcode":"LS1 7BT","la":"Leeds","era":"other","nn":0,"risk":13,"cat":"green"},{"name":"The New Tommy Wass Ltd","lat":53.76475,"lon":-1.56168,"postcode":"LS11 7LJ","la":"Leeds","era":"other","nn":631,"risk":18,"cat":"green"},{"name":"The Oddfellows","lat":53.80284,"lon":-1.66545,"postcode":"LS28 6BN","la":"Leeds","era":"other","nn":49,"risk":14,"cat":"green"},{"name":"The Old Crown","lat":53.80567,"lon":-1.66588,"postcode":"LS28 6ER","la":"Leeds","era":"trad","nn":274,"risk":15,"cat":"green"},{"name":"The Old Peacock","lat":53.77664,"lon":-1.57216,"postcode":"LS11 8TU","la":"Leeds","era":"other","nn":567,"risk":22,"cat":"green"},{"name":"The Old Red Bus Station","lat":53.79973,"lon":-1.53936,"postcode":"LS2 7NL","la":"Leeds","era":"other","nn":0,"risk":13,"cat":"green"},{"name":"The Otley Tap House","lat":53.90597,"lon":-1.6906,"postcode":"LS21 1AE","la":"Leeds","era":"mod","nn":0,"risk":13,"cat":"green"},{"name":"The Otley Tavern","lat":53.90485,"lon":-1.69307,"postcode":"LS21 3AE","la":"Leeds","era":"other","nn":40,"risk":14,"cat":"green"},{"name":"The Owl Inn","lat":53.82317,"lon":-1.66434,"postcode":"LS13 1LB","la":"Leeds","era":"trad","nn":430,"risk":16,"cat":"green"},{"name":"The Pack Horse","lat":53.79756,"lon":-1.54278,"postcode":"LS1 6AT","la":"Leeds","era":"trad","nn":56,"risk":14,"cat":"green"},{"name":"The Palace","lat":53.82236,"lon":-1.53655,"postcode":"LS2 7DJ","la":"Leeds","era":"other","nn":335,"risk":16,"cat":"green"},{"name":"The Park Playground UK","lat":53.8043,"lon":-1.5788,"postcode":"LS4 2BB","la":"Leeds","era":"other","nn":299,"risk":16,"cat":"green"},{"name":"The Parkfield Suite","lat":53.80311,"lon":-1.66486,"postcode":"LS28 6BS","la":"Leeds","era":"other","nn":49,"risk":14,"cat":"green"},{"name":"The Penny Hill","lat":53.77924,"lon":-1.52759,"postcode":"LS10 2AR","la":"Leeds","era":"other","nn":107,"risk":14,"cat":"green"},{"name":"The Podger","lat":53.79208,"lon":-1.37678,"postcode":"LS25 1NT","la":"Leeds","era":"other","nn":536,"risk":17,"cat":"green"},{"name":"The Primrose","lat":53.81504,"lon":-1.54479,"postcode":"LS7 2HZ","la":"Leeds","era":"other","nn":99,"risk":14,"cat":"green"},{"name":"The Prospect","lat":53.77213,"lon":-1.53301,"postcode":"LS10 2JJ","la":"Leeds","era":"other","nn":0,"risk":13,"cat":"green"},{"name":"The Queen","lat":53.7887,"lon":-1.58858,"postcode":"LS12 4EU","la":"Leeds","era":"trad","nn":422,"risk":16,"cat":"green"},{"name":"The Queens Arms","lat":53.84526,"lon":-1.63375,"postcode":"LS18 5AT","la":"Leeds","era":"trad","nn":286,"risk":15,"cat":"green"},{"name":"The Railway Inn","lat":53.82782,"lon":-1.66465,"postcode":"LS13 1NR","la":"Leeds","era":"trad","nn":518,"risk":17,"cat":"green"},{"name":"The Red Lion","lat":53.92801,"lon":-1.38589,"postcode":"LS22 6LR","la":"Leeds","era":"trad","nn":0,"risk":13,"cat":"green"},{"name":"The Red Lion","lat":53.90519,"lon":-1.69447,"postcode":"LS21 3HN","la":"Leeds","era":"trad","nn":0,"risk":13,"cat":"green"},{"name":"The Regent","lat":53.79658,"lon":-1.54005,"postcode":"LS1 6DP","la":"Leeds","era":"other","nn":12,"risk":14,"cat":"green"},{"name":"The Regent","lat":53.82999,"lon":-1.53746,"postcode":"LS7 4PE","la":"Leeds","era":"other","nn":98,"risk":14,"cat":"green"},{"name":"The Rock","lat":53.81909,"lon":-1.63587,"postcode":"LS13 1EP","la":"Leeds","era":"other","nn":127,"risk":14,"cat":"green"},{"name":"The Rodley Barge","lat":53.82243,"lon":-1.6579,"postcode":"LS13 1HP","la":"Leeds","era":"other","nn":0,"risk":13,"cat":"green"},{"name":"The Rookery Bar Ltd","lat":53.90501,"lon":-1.69399,"postcode":"LS21 3HJ","la":"Leeds","era":"mod","nn":38,"risk":14,"cat":"green"},{"name":"The Rose And Crown","lat":53.79973,"lon":-1.52369,"postcode":"LS9 7PZ","la":"Leeds","era":"trad","nn":177,"risk":15,"cat":"green"},{"name":"The Roundhay","lat":53.82502,"lon":-1.50808,"postcode":"LS8 4AR","la":"Leeds","era":"other","nn":240,"risk":18,"cat":"green"},{"name":"The Roundhay Fox","lat":53.83952,"lon":-1.50403,"postcode":"LS8 2EP","la":"Leeds","era":"trad","nn":580,"risk":35,"cat":"amber"},{"name":"The Royal","lat":53.74888,"lon":-1.6011,"postcode":"LS27 8JW","la":"Leeds","era":"trad","nn":43,"risk":14,"cat":"green"},{"name":"The Royal Oak","lat":53.93084,"lon":-1.38432,"postcode":"LS22 6NR","la":"Leeds","era":"trad","nn":223,"risk":15,"cat":"green"},{"name":"The Royalty","lat":53.89219,"lon":-1.69732,"postcode":"LS21 3DG","la":"Leeds","era":"trad","nn":1188,"risk":44,"cat":"amber"},{"name":"The Shed","lat":53.79472,"lon":-1.54297,"postcode":"LS1 4LJ","la":"Leeds","era":"other","nn":0,"risk":13,"cat":"green"},{"name":"The Ship Inn","lat":53.79834,"lon":-1.54239,"postcode":"LS1 6LH","la":"Leeds","era":"trad","nn":30,"risk":14,"cat":"green"},{"name":"The Skyrack","lat":53.81935,"lon":-1.57736,"postcode":"LS6 3AW","la":"Leeds","era":"other","nn":87,"risk":14,"cat":"green"},{"name":"The Slip Inn","lat":53.746,"lon":-1.60095,"postcode":"LS27 8DT","la":"Leeds","era":"trad","nn":53,"risk":14,"cat":"green"},{"name":"The Social","lat":53.80042,"lon":-1.54186,"postcode":"LS2 8JE","la":"Leeds","era":"mod","nn":74,"risk":14,"cat":"green"},{"name":"The Spinning Wheel","lat":53.78165,"lon":-1.54417,"postcode":"LS11 5NG","la":"Leeds","era":"trad","nn":52,"risk":14,"cat":"green"},{"name":"The Swan Inn","lat":53.88082,"lon":-1.35346,"postcode":"LS23 6QA","la":"Leeds","era":"trad","nn":1574,"risk":47,"cat":"amber"},{"name":"The Tavern/Arriba Arriba","lat":53.83716,"lon":-1.64155,"postcode":"LS18 4RJ","la":"Leeds","era":"other","nn":0,"risk":13,"cat":"green"},{"name":"The Tetley","lat":53.79299,"lon":-1.54063,"postcode":"LS10 1JQ","la":"Leeds","era":"other","nn":117,"risk":14,"cat":"green"},{"name":"The Thomas Osborne","lat":53.84419,"lon":-1.50942,"postcode":"LS8 1AP","la":"Leeds","era":"other","nn":106,"risk":32,"cat":"amber"},{"name":"The Three Horse Shoes","lat":53.82792,"lon":-1.58282,"postcode":"LS16 5JG","la":"Leeds","era":"trad","nn":0,"risk":13,"cat":"green"},{"name":"The Three Hulats","lat":53.82512,"lon":-1.53448,"postcode":"LS7 3NB","la":"Leeds","era":"other","nn":335,"risk":16,"cat":"green"},{"name":"The Three Swords","lat":53.8323,"lon":-1.64206,"postcode":"LS18 4QB","la":"Leeds","era":"other","nn":201,"risk":15,"cat":"green"},{"name":"The Vault","lat":53.74633,"lon":-1.60217,"postcode":"LS27 9BR","la":"Leeds","era":"other","nn":15,"risk":14,"cat":"green"},{"name":"The Wardrobe","lat":53.79753,"lon":-1.5329,"postcode":"LS9 8AH","la":"Leeds","era":"other","nn":0,"risk":13,"cat":"green"},{"name":"The Warehouse","lat":53.7992,"lon":-1.55333,"postcode":"LS1 2RG","la":"Leeds","era":"other","nn":65,"risk":14,"cat":"green"},{"name":"The White Horse","lat":53.7966,"lon":-1.65125,"postcode":"LS28 9BR","la":"Leeds","era":"trad","nn":286,"risk":15,"cat":"green"},{"name":"The White Swan","lat":53.90597,"lon":-1.6906,"postcode":"LS21 1AE","la":"Leeds","era":"trad","nn":0,"risk":13,"cat":"green"},{"name":"The White Swan","lat":53.79896,"lon":-1.54316,"postcode":"LS1 6LG","la":"Leeds","era":"trad","nn":22,"risk":14,"cat":"green"},{"name":"The Wire Club","lat":53.79648,"lon":-1.54012,"postcode":"LS1 6DN","la":"Leeds","era":"other","nn":12,"risk":14,"cat":"green"},{"name":"The Woodcock","lat":53.77002,"lon":-1.6346,"postcode":"LS12 5HR","la":"Leeds","era":"other","nn":796,"risk":37,"cat":"amber"},{"name":"The Woodman Inn","lat":53.7971,"lon":-1.46706,"postcode":"LS15 7JS","la":"Leeds","era":"trad","nn":0,"risk":31,"cat":"amber"},{"name":"The Woolpack Yeadon","lat":53.86039,"lon":-1.69221,"postcode":"LS19 7SE","la":"Leeds","era":"trad","nn":673,"risk":18,"cat":"green"},{"name":"Thewlis Cocktail Bar","lat":53.79884,"lon":-1.54679,"postcode":"LS1 5JA","la":"Leeds","era":"other","nn":3,"risk":13,"cat":"green"},{"name":"Thornhill Arms","lat":53.82936,"lon":-1.68531,"postcode":"LS28 5NF","la":"Leeds","era":"trad","nn":416,"risk":19,"cat":"green"},{"name":"Three Horse Shoes","lat":53.74882,"lon":-1.45445,"postcode":"LS26 8JU","la":"Leeds","era":"trad","nn":220,"risk":32,"cat":"amber"},{"name":"Three Legs","lat":53.79883,"lon":-1.54089,"postcode":"LS1 6PU","la":"Leeds","era":"other","nn":35,"risk":14,"cat":"green"},{"name":"Threes A Crowd","lat":53.80155,"lon":-1.53782,"postcode":"LS2 7PN","la":"Leeds","era":"other","nn":69,"risk":14,"cat":"green"},{"name":"Tinshill And Cookridge Club And Institute","lat":53.84684,"lon":-1.62477,"postcode":"LS16 6PF","la":"Leeds","era":"other","nn":363,"risk":16,"cat":"green"},{"name":"Tipsy Calf","lat":53.75816,"lon":-1.63274,"postcode":"LS27 7JB","la":"Leeds","era":"other","nn":202,"risk":15,"cat":"green"},{"name":"Tipsy Cow","lat":53.74309,"lon":-1.59632,"postcode":"LS27 8BU","la":"Leeds","era":"other","nn":185,"risk":15,"cat":"green"},{"name":"Toby Carvery (Horsforth)","lat":53.8355,"lon":-1.64424,"postcode":"LS18 4DH","la":"Leeds","era":"other","nn":158,"risk":15,"cat":"green"},{"name":"Toby Carvery (Morley)","lat":53.74499,"lon":-1.62337,"postcode":"LS27 0LY","la":"Leeds","era":"other","nn":0,"risk":13,"cat":"green"},{"name":"Town Hall Tavern","lat":53.79937,"lon":-1.55239,"postcode":"LS1 2RA","la":"Leeds","era":"other","nn":65,"risk":14,"cat":"green"},{"name":"Travellers Rest","lat":53.79906,"lon":-1.60888,"postcode":"LS12 3PY","la":"Leeds","era":"other","nn":697,"risk":18,"cat":"green"},{"name":"Trax","lat":53.81596,"lon":-1.53142,"postcode":"LS7 4EE","la":"Leeds","era":"other","nn":189,"risk":15,"cat":"green"},{"name":"United Services Club","lat":53.80309,"lon":-1.49653,"postcode":"LS9 6LA","la":"Leeds","era":"other","nn":603,"risk":18,"cat":"green"},{"name":"Upper Wortley Liberal Club","lat":53.7916,"lon":-1.59371,"postcode":"LS12 4JN","la":"Leeds","era":"other","nn":73,"risk":14,"cat":"green"},{"name":"Venue","lat":53.83716,"lon":-1.64155,"postcode":"LS18 4RJ","la":"Leeds","era":"other","nn":0,"risk":13,"cat":"green"},{"name":"Vertical Drinks T/A North","lat":53.81509,"lon":-1.5433,"postcode":"LS7 2DF","la":"Leeds","era":"other","nn":99,"risk":14,"cat":"green"},{"name":"Verve","lat":53.80053,"lon":-1.5402,"postcode":"LS1 6PQ","la":"Leeds","era":"other","nn":13,"risk":14,"cat":"green"},{"name":"Vesper Gate","lat":53.82342,"lon":-1.61416,"postcode":"LS5 3NG","la":"Leeds","era":"other","nn":787,"risk":36,"cat":"amber"},{"name":"Village Bar","lat":53.81225,"lon":-1.67135,"postcode":"LS28 5LD","la":"Leeds","era":"other","nn":128,"risk":14,"cat":"green"},{"name":"Vinoteca","lat":53.74544,"lon":-1.60134,"postcode":"LS27 8EB","la":"Leeds","era":"other","nn":67,"risk":14,"cat":"green"},{"name":"Vocation Bars Leeds","lat":53.80063,"lon":-1.54706,"postcode":"LS2 8BE","la":"Leeds","era":"other","nn":30,"risk":14,"cat":"green"},{"name":"Waggon And Horses Inn","lat":53.80895,"lon":-1.65875,"postcode":"LS28 6HL","la":"Leeds","era":"trad","nn":285,"risk":15,"cat":"green"},{"name":"Walkabout Leeds (88th Street, Value Mighty, Sin City Burger","lat":53.80365,"lon":-1.54916,"postcode":"LS1 3HQ","la":"Leeds","era":"other","nn":0,"risk":13,"cat":"green"},{"name":"Water Lake Boat House","lat":53.79298,"lon":-1.55019,"postcode":"LS11 5PS","la":"Leeds","era":"other","nn":57,"risk":14,"cat":"green"},{"name":"Wax Bar","lat":53.79986,"lon":-1.54124,"postcode":"LS1 6NU","la":"Leeds","era":"other","nn":0,"risk":13,"cat":"green"},{"name":"West End House","lat":53.81737,"lon":-1.60205,"postcode":"LS5 3HS","la":"Leeds","era":"other","nn":268,"risk":15,"cat":"green"},{"name":"West Leeds Sports And Social Club","lat":53.79136,"lon":-1.57986,"postcode":"LS12 1HH","la":"Leeds","era":"mod","nn":645,"risk":18,"cat":"green"},{"name":"West Park Leeds RUFC","lat":53.87738,"lon":-1.60651,"postcode":"LS16 9JR","la":"Leeds","era":"other","nn":1359,"risk":45,"cat":"amber"},{"name":"Wetherby Sports Association","lat":53.92579,"lon":-1.39129,"postcode":"LS22 5FN","la":"Leeds","era":"other","nn":358,"risk":16,"cat":"green"},{"name":"Wetherspoons","lat":53.79418,"lon":-1.5476,"postcode":"LS1 4DT","la":"Leeds","era":"other","nn":97,"risk":14,"cat":"green"},{"name":"Wharf Chambers","lat":53.79531,"lon":-1.53769,"postcode":"LS2 7EQ","la":"Leeds","era":"other","nn":62,"risk":14,"cat":"green"},{"name":"Wharfedale Masonic Hall","lat":53.90131,"lon":-1.70677,"postcode":"LS21 3LG","la":"Leeds","era":"trad","nn":422,"risk":16,"cat":"green"},{"name":"Whitakers Arms","lat":53.90519,"lon":-1.69447,"postcode":"LS21 3HN","la":"Leeds","era":"trad","nn":0,"risk":13,"cat":"green"},{"name":"White Cross Hotel","lat":53.87745,"lon":-1.72377,"postcode":"LS20 8LY","la":"Leeds","era":"trad","nn":286,"risk":33,"cat":"amber"},{"name":"White Hart Public House","lat":53.90222,"lon":-1.6287,"postcode":"LS21 1LH","la":"Leeds","era":"trad","nn":259,"risk":35,"cat":"amber"},{"name":"White Horse Hotel","lat":53.79931,"lon":-1.50658,"postcode":"LS9 9DN","la":"Leeds","era":"trad","nn":461,"risk":17,"cat":"green"},{"name":"White Horse Inn","lat":53.7964,"lon":-1.59321,"postcode":"LS12 3HD","la":"Leeds","era":"trad","nn":57,"risk":14,"cat":"green"},{"name":"White House","lat":53.82893,"lon":-1.5015,"postcode":"LS8 2JU","la":"Leeds","era":"other","nn":375,"risk":21,"cat":"green"},{"name":"White Swan","lat":53.76699,"lon":-1.37075,"postcode":"LS25 7JP","la":"Leeds","era":"trad","nn":82,"risk":14,"cat":"green"},{"name":"White Swan Hotel","lat":53.86612,"lon":-1.67876,"postcode":"LS19 7TA","la":"Leeds","era":"trad","nn":0,"risk":13,"cat":"green"},{"name":"Whitelocks","lat":53.79722,"lon":-1.54339,"postcode":"LS1 6HB","la":"Leeds","era":"other","nn":56,"risk":14,"cat":"green"},{"name":"Whitkirk Social Club","lat":53.79691,"lon":-1.45097,"postcode":"LS15 0AA","la":"Leeds","era":"mod","nn":126,"risk":14,"cat":"green"},{"name":"William IV","lat":53.78362,"lon":-1.6019,"postcode":"LS12 4QA","la":"Leeds","era":"other","nn":581,"risk":38,"cat":"amber"},{"name":"Windmill Inn","lat":53.91502,"lon":-1.40783,"postcode":"LS22 4HT","la":"Leeds","era":"trad","nn":852,"risk":39,"cat":"amber"},{"name":"Winstons","lat":53.77248,"lon":-1.54668,"postcode":"LS11 5LS","la":"Leeds","era":"other","nn":356,"risk":16,"cat":"green"},{"name":"Woodhall Hills Golf Club","lat":53.81586,"lon":-1.69845,"postcode":"LS28 5UN","la":"Leeds","era":"other","nn":1363,"risk":45,"cat":"amber"},{"name":"Woodhouse Cricket Club","lat":53.82297,"lon":-1.56178,"postcode":"LS6 2BH","la":"Leeds","era":"mod","nn":606,"risk":20,"cat":"green"},{"name":"Woodies","lat":53.82792,"lon":-1.58282,"postcode":"LS16 5JG","la":"Leeds","era":"other","nn":0,"risk":13,"cat":"green"},{"name":"Woodside Micro Pub","lat":53.83933,"lon":-1.62208,"postcode":"LS18 5DN","la":"Leeds","era":"other","nn":667,"risk":21,"cat":"green"},{"name":"Wykebeck Arms","lat":53.80019,"lon":-1.48225,"postcode":"LS9 0EW","la":"Leeds","era":"trad","nn":352,"risk":21,"cat":"green"},{"name":"Yeadon Catering","lat":53.85828,"lon":-1.58184,"postcode":"LS16 8DW","la":"Leeds","era":"other","nn":488,"risk":37,"cat":"amber"},{"name":"Yeadon Constitutional Club","lat":53.86556,"lon":-1.68567,"postcode":"LS19 7RG","la":"Leeds","era":"other","nn":73,"risk":14,"cat":"green"},{"name":"Yeadon Cricket Club","lat":53.86612,"lon":-1.67876,"postcode":"LS19 7TA","la":"Leeds","era":"other","nn":0,"risk":13,"cat":"green"},{"name":"Yeadon Liberal Club","lat":53.86608,"lon":-1.68413,"postcode":"LS19 7PP","la":"Leeds","era":"other","nn":0,"risk":13,"cat":"green"},{"name":"Yew Tree Inn","lat":53.91187,"lon":-1.69733,"postcode":"LS21 2AU","la":"Leeds","era":"trad","nn":580,"risk":18,"cat":"green"},{"name":"Yorkshire Amateur AFC","lat":53.8223,"lon":-1.51917,"postcode":"LS8 4EE","la":"Leeds","era":"other","nn":524,"risk":35,"cat":"amber"},{"name":"Yorkshire Dance Centre","lat":53.79753,"lon":-1.5329,"postcode":"LS9 8AH","la":"Leeds","era":"other","nn":0,"risk":13,"cat":"green"},{"name":"Coach And Horses","lat":53.88594,"lon":-1.25857,"postcode":"LS24 8AA","la":"North Yorkshire","era":"trad","nn":397,"risk":22,"cat":"green"},{"name":"Crooked Billet","lat":53.82456,"lon":-1.29659,"postcode":"LS24 9QN","la":"North Yorkshire","era":"other","nn":3076,"risk":58,"cat":"amber"},{"name":"Elmete Social Club","lat":53.79676,"lon":-1.25217,"postcode":"LS25 6BG","la":"North Yorkshire","era":"other","nn":1942,"risk":50,"cat":"amber"},{"name":"Howden Arms","lat":53.88319,"lon":-1.26376,"postcode":"LS24 9AT","la":"North Yorkshire","era":"trad","nn":31,"risk":20,"cat":"green"},{"name":"Manor Farm Youth Centre","lat":53.88301,"lon":-1.26412,"postcode":"LS24 9HA","la":"North Yorkshire","era":"other","nn":31,"risk":20,"cat":"green"},{"name":"Swan Hotel","lat":53.77954,"lon":-1.24718,"postcode":"LS25 5AR","la":"North Yorkshire","era":"trad","nn":1942,"risk":50,"cat":"amber"},{"name":"Tadcaster Social Club","lat":53.88473,"lon":-1.26427,"postcode":"LS24 9AS","la":"North Yorkshire","era":"mod","nn":174,"risk":21,"cat":"green"},{"name":"The Roebuck","lat":53.92412,"lon":-1.69684,"postcode":"LS21 2EY","la":"North Yorkshire","era":"other","nn":1363,"risk":46,"cat":"amber"},{"name":"The Scotts Arms","lat":53.93031,"lon":-1.45253,"postcode":"LS22 4BD","la":"North Yorkshire","era":"trad","nn":2516,"risk":54,"cat":"amber"},{"name":"The White Swan Inn","lat":53.91606,"lon":-1.27627,"postcode":"LS24 8BQ","la":"North Yorkshire","era":"trad","nn":3544,"risk":62,"cat":"red"},{"name":"Timble Inn","lat":53.97185,"lon":-1.72705,"postcode":"LS21 2NN","la":"North Yorkshire","era":"trad","nn":3086,"risk":58,"cat":"amber"}]