[{"name":"Coseley Conservative Club","lat":52.54226,"lon":-2.08674,"postcode":"WV14 9DJ","la":"Dudley","era":"other","nn":89,"risk":21,"cat":"green"},{"name":"Coseley Cricket Club","lat":52.54552,"lon":-2.07926,"postcode":"WV14 8YB","la":"Dudley","era":"other","nn":546,"risk":24,"cat":"green"},{"name":"Coseley Ex-Servicemens","lat":52.54167,"lon":-2.09443,"postcode":"WV14 9JX","la":"Dudley","era":"other","nn":263,"risk":22,"cat":"green"},{"name":"Coseley Tavern","lat":52.54143,"lon":-2.09829,"postcode":"WV14 9QY","la":"Dudley","era":"other","nn":263,"risk":22,"cat":"green"},{"name":"Coseley Working Mens Club","lat":52.54348,"lon":-2.08924,"postcode":"WV14 9JH","la":"Dudley","era":"trad","nn":216,"risk":22,"cat":"green"},{"name":"HURST HILL LABOUR CLUB","lat":52.54352,"lon":-2.10416,"postcode":"WV14 9EY","la":"Dudley","era":"other","nn":460,"risk":24,"cat":"green"},{"name":"Rising Sun","lat":52.54911,"lon":-2.08478,"postcode":"WV14 8XH","la":"Dudley","era":"other","nn":546,"risk":24,"cat":"green"},{"name":"The Apple Tree Inn","lat":52.5394,"lon":-2.08755,"postcode":"WV14 9EW","la":"Dudley","era":"trad","nn":177,"risk":22,"cat":"green"},{"name":"The New Inn","lat":52.5408,"lon":-2.09048,"postcode":"WV14 9LQ","la":"Dudley","era":"trad","nn":185,"risk":22,"cat":"green"},{"name":"The Old Chainyards","lat":52.54171,"lon":-2.0877,"postcode":"WV14 9DW","la":"Dudley","era":"mod","nn":80,"risk":21,"cat":"green"},{"name":"The Royal","lat":52.54099,"lon":-2.08776,"postcode":"WV14 9DP","la":"Dudley","era":"trad","nn":80,"risk":21,"cat":"green"},{"name":"AFC Bridgnorth","lat":52.54007,"lon":-2.42757,"postcode":"WV16 4HS","la":"Shropshire","era":"other","nn":176,"risk":19,"cat":"green"},{"name":"At The George Inn","lat":52.53259,"lon":-2.42099,"postcode":"WV16 4AX","la":"Shropshire","era":"trad","nn":107,"risk":19,"cat":"green"},{"name":"Bache Arms","lat":52.4499,"lon":-2.3828,"postcode":"WV16 6JU","la":"Shropshire","era":"trad","nn":182,"risk":39,"cat":"amber"},{"name":"Bell And Talbot","lat":52.53522,"lon":-2.42457,"postcode":"WV16 4QU","la":"Shropshire","era":"trad","nn":195,"risk":19,"cat":"green"},{"name":"Black Boy Inn","lat":52.5352,"lon":-2.4172,"postcode":"WV16 4BG","la":"Shropshire","era":"trad","nn":149,"risk":19,"cat":"green"},{"name":"Boycott Arms","lat":52.55466,"lon":-2.29295,"postcode":"WV5 7DH","la":"Shropshire","era":"trad","nn":1106,"risk":48,"cat":"amber"},{"name":"Bridgnorth Bowling Club","lat":52.53674,"lon":-2.42603,"postcode":"WV16 4LB","la":"Shropshire","era":"other","nn":195,"risk":19,"cat":"green"},{"name":"Bridgnorth Club","lat":52.53385,"lon":-2.4145,"postcode":"WV15 6AF","la":"Shropshire","era":"other","nn":21,"risk":18,"cat":"green"},{"name":"Bridgnorth Cricket & Hockey Clubs","lat":52.54021,"lon":-2.42497,"postcode":"WV16 4HL","la":"Shropshire","era":"other","nn":176,"risk":19,"cat":"green"},{"name":"Bridgnorth Golf Club","lat":52.54257,"lon":-2.42022,"postcode":"WV16 4SF","la":"Shropshire","era":"other","nn":415,"risk":21,"cat":"green"},{"name":"Bylet Bowling Club","lat":52.53316,"lon":-2.41479,"postcode":"WV15 6BA","la":"Shropshire","era":"other","nn":78,"risk":18,"cat":"green"},{"name":"Chelmarsh Sailing Club","lat":52.48613,"lon":-2.38636,"postcode":"WV16 6BL","la":"Shropshire","era":"trad","nn":1252,"risk":49,"cat":"amber"},{"name":"Chelmarsh Sports & Social Club","lat":52.48268,"lon":-2.40888,"postcode":"WV16 6BA","la":"Shropshire","era":"other","nn":0,"risk":38,"cat":"amber"},{"name":"Claverley Cricket Club","lat":52.53365,"lon":-2.31486,"postcode":"WV5 7AE","la":"Shropshire","era":"other","nn":709,"risk":40,"cat":"amber"},{"name":"Dog And Davenport Arms","lat":52.5585,"lon":-2.3577,"postcode":"WV15 5LF","la":"Shropshire","era":"trad","nn":273,"risk":37,"cat":"amber"},{"name":"Fosters Arms","lat":52.53506,"lon":-2.41362,"postcode":"WV15 5AG","la":"Shropshire","era":"trad","nn":0,"risk":18,"cat":"green"},{"name":"Halfway House Inn","lat":52.51452,"lon":-2.43086,"postcode":"WV16 5LS","la":"Shropshire","era":"other","nn":1674,"risk":52,"cat":"amber"},{"name":"Harp Hotel","lat":52.63356,"lon":-2.27517,"postcode":"WV7 3JF","la":"Shropshire","era":"other","nn":48,"risk":23,"cat":"green"},{"name":"Highley Working Mens Club","lat":52.44851,"lon":-2.38138,"postcode":"WV16 6LN","la":"Shropshire","era":"trad","nn":182,"risk":39,"cat":"amber"},{"name":"Howard Arms","lat":52.5001,"lon":-2.57844,"postcode":"WV16 6SQ","la":"Shropshire","era":"trad","nn":3189,"risk":63,"cat":"red"},{"name":"Jewel Of The Severn","lat":52.53687,"lon":-2.42024,"postcode":"WV16 4DS","la":"Shropshire","era":"other","nn":0,"risk":18,"cat":"green"},{"name":"Old Castle Inn","lat":52.53342,"lon":-2.42019,"postcode":"WV16 4AB","la":"Shropshire","era":"trad","nn":0,"risk":18,"cat":"green"},{"name":"Parlors Hall Hotel","lat":52.53479,"lon":-2.41324,"postcode":"WV15 5AL","la":"Shropshire","era":"other","nn":39,"risk":18,"cat":"green"},{"name":"Quatt Cricket Club","lat":52.48935,"lon":-2.35908,"postcode":"WV15 6QW","la":"Shropshire","era":"other","nn":1718,"risk":52,"cat":"amber"},{"name":"Railwaymans Arms","lat":52.53054,"lon":-2.42059,"postcode":"WV16 5DT","la":"Shropshire","era":"trad","nn":229,"risk":19,"cat":"green"},{"name":"Shakespeare Inn","lat":52.53337,"lon":-2.41959,"postcode":"WV16 4AD","la":"Shropshire","era":"trad","nn":41,"risk":18,"cat":"green"},{"name":"The Acton At Morville","lat":52.54257,"lon":-2.48542,"postcode":"WV16 4RJ","la":"Shropshire","era":"other","nn":3339,"risk":64,"cat":"red"},{"name":"The Atrium","lat":52.53674,"lon":-2.42063,"postcode":"WV16 4DB","la":"Shropshire","era":"other","nn":14,"risk":18,"cat":"green"},{"name":"The Bandon Arms","lat":52.53506,"lon":-2.41362,"postcode":"WV15 5AG","la":"Shropshire","era":"trad","nn":0,"risk":18,"cat":"green"},{"name":"The Bear","lat":52.53722,"lon":-2.4209,"postcode":"WV16 4ET","la":"Shropshire","era":"other","nn":45,"risk":18,"cat":"green"},{"name":"The Black Horse","lat":52.53397,"lon":-2.41474,"postcode":"WV15 6AF","la":"Shropshire","era":"trad","nn":21,"risk":18,"cat":"green"},{"name":"The Boatyard","lat":52.53419,"lon":-2.41488,"postcode":"WV15 5AA","la":"Shropshire","era":"mod","nn":26,"risk":18,"cat":"green"},{"name":"The Boyne Arms","lat":52.4639,"lon":-2.56885,"postcode":"WV16 6QH","la":"Shropshire","era":"trad","nn":3318,"risk":64,"cat":"red"},{"name":"The Bull's Head Inn","lat":52.48268,"lon":-2.40888,"postcode":"WV16 6BA","la":"Shropshire","era":"trad","nn":0,"risk":38,"cat":"amber"},{"name":"The Cider House","lat":52.49853,"lon":-2.33866,"postcode":"WV15 6EB","la":"Shropshire","era":"other","nn":1718,"risk":52,"cat":"amber"},{"name":"The Court","lat":52.53522,"lon":-2.42156,"postcode":"WV16 4DW","la":"Shropshire","era":"other","nn":0,"risk":18,"cat":"green"},{"name":"The Crown","lat":52.63398,"lon":-2.27527,"postcode":"WV7 3JA","la":"Shropshire","era":"trad","nn":48,"risk":23,"cat":"green"},{"name":"The Crown","lat":52.53589,"lon":-2.4203,"postcode":"WV16 4DB","la":"Shropshire","era":"trad","nn":55,"risk":18,"cat":"green"},{"name":"The Crown Inn","lat":52.53744,"lon":-2.30644,"postcode":"WV5 7DU","la":"Shropshire","era":"trad","nn":162,"risk":36,"cat":"amber"},{"name":"The Danery","lat":52.51223,"lon":-2.38623,"postcode":"WV15 6QJ","la":"Shropshire","era":"other","nn":2902,"risk":61,"cat":"red"},{"name":"The Falcon","lat":52.53384,"lon":-2.41332,"postcode":"WV15 6AG","la":"Shropshire","era":"other","nn":80,"risk":18,"cat":"green"},{"name":"The Golden Lion Inn","lat":52.53687,"lon":-2.42024,"postcode":"WV16 4DS","la":"Shropshire","era":"trad","nn":0,"risk":18,"cat":"green"},{"name":"The Greenhouse","lat":52.53567,"lon":-2.41927,"postcode":"WV16 4DX","la":"Shropshire","era":"other","nn":0,"risk":18,"cat":"green"},{"name":"The Harp","lat":52.53631,"lon":-2.41989,"postcode":"WV16 4DX","la":"Shropshire","era":"other","nn":55,"risk":18,"cat":"green"},{"name":"The Hideout","lat":52.53567,"lon":-2.41927,"postcode":"WV16 4DX","la":"Shropshire","era":"other","nn":0,"risk":18,"cat":"green"},{"name":"The Jeroboam Wine Bar","lat":52.53683,"lon":-2.42077,"postcode":"WV16 4DB","la":"Shropshire","era":"other","nn":14,"risk":18,"cat":"green"},{"name":"The New Inn","lat":52.53522,"lon":-2.42156,"postcode":"WV16 4DW","la":"Shropshire","era":"trad","nn":0,"risk":18,"cat":"green"},{"name":"The Old Bush","lat":52.63552,"lon":-2.27912,"postcode":"WV7 3JT","la":"Shropshire","era":"other","nn":311,"risk":25,"cat":"green"},{"name":"The Old Gate Inn","lat":52.52913,"lon":-2.27705,"postcode":"WV5 7EB","la":"Shropshire","era":"trad","nn":1584,"risk":51,"cat":"amber"},{"name":"The Pheasant At Neenton","lat":52.48654,"lon":-2.53694,"postcode":"WV16 6RJ","la":"Shropshire","era":"other","nn":3189,"risk":63,"cat":"red"},{"name":"The Plough","lat":52.53744,"lon":-2.30404,"postcode":"WV5 7DX","la":"Shropshire","era":"trad","nn":162,"risk":36,"cat":"amber"},{"name":"The Royal","lat":52.63481,"lon":-2.28761,"postcode":"WV7 3BW","la":"Shropshire","era":"trad","nn":579,"risk":27,"cat":"green"},{"name":"The Royal Oak","lat":52.46174,"lon":-2.34303,"postcode":"WV15 6LL","la":"Shropshire","era":"trad","nn":190,"risk":39,"cat":"amber"},{"name":"The Royle","lat":52.53567,"lon":-2.41927,"postcode":"WV16 4DX","la":"Shropshire","era":"other","nn":0,"risk":18,"cat":"green"},{"name":"The Squirrel Inn","lat":52.46337,"lon":-2.34384,"postcode":"WV15 6LW","la":"Shropshire","era":"trad","nn":190,"risk":39,"cat":"amber"},{"name":"The Stable Bar","lat":52.53614,"lon":-2.42194,"postcode":"WV16 4QN","la":"Shropshire","era":"other","nn":106,"risk":19,"cat":"green"},{"name":"The Summer House Inn","lat":52.62044,"lon":-2.26047,"postcode":"WV7 3AT","la":"Shropshire","era":"other","nn":1763,"risk":53,"cat":"amber"},{"name":"The Vine","lat":52.53506,"lon":-2.41362,"postcode":"WV15 5AG","la":"Shropshire","era":"other","nn":0,"risk":18,"cat":"green"},{"name":"The Wheel","lat":52.55338,"lon":-2.34962,"postcode":"WV15 5NR","la":"Shropshire","era":"other","nn":789,"risk":43,"cat":"amber"},{"name":"The Woodberry Inn","lat":52.53864,"lon":-2.43009,"postcode":"WV16 4LF","la":"Shropshire","era":"trad","nn":233,"risk":19,"cat":"green"},{"name":"The Woodman","lat":52.54794,"lon":-2.2809,"postcode":"WV5 7DG","la":"Shropshire","era":"other","nn":1106,"risk":48,"cat":"amber"},{"name":"Three Horseshoes Inn","lat":52.42185,"lon":-2.58481,"postcode":"WV16 6QT","la":"Shropshire","era":"trad","nn":4799,"risk":74,"cat":"red"},{"name":"Unicorn Inn","lat":52.47641,"lon":-2.37702,"postcode":"WV16 6BN","la":"Shropshire","era":"trad","nn":1252,"risk":49,"cat":"amber"},{"name":"White Lion","lat":52.53342,"lon":-2.42019,"postcode":"WV16 4AB","la":"Shropshire","era":"trad","nn":0,"risk":18,"cat":"green"},{"name":"Worfield Cricket Club","lat":52.5598,"lon":-2.36111,"postcode":"WV15 5JZ","la":"Shropshire","era":"other","nn":273,"risk":40,"cat":"amber"},{"name":"Ye Olde Punch Bowl Inn","lat":52.52782,"lon":-2.44242,"postcode":"WV16 5NQ","la":"Shropshire","era":"trad","nn":1461,"risk":51,"cat":"amber"},{"name":"Anchor Inn","lat":52.65346,"lon":-2.12912,"postcode":"WV10 7PW","la":"South Staffordshire","era":"trad","nn":283,"risk":31,"cat":"amber"},{"name":"Broad Lane WMC","lat":52.63558,"lon":-2.03466,"postcode":"WV11 2RH","la":"South Staffordshire","era":"other","nn":409,"risk":50,"cat":"amber"},{"name":"Burg Inns Ltd T/A The Bentlands","lat":52.62241,"lon":-2.19425,"postcode":"WV8 2BP","la":"South Staffordshire","era":"trad","nn":739,"risk":37,"cat":"amber"},{"name":"Bushbury Grid Sports And Social Club","lat":52.63522,"lon":-2.11212,"postcode":"WV10 7JB","la":"Wolverhampton","era":"mod","nn":788,"risk":47,"cat":"amber"},{"name":"Charlie's Sports Bar And Grill","lat":52.63047,"lon":-2.20244,"postcode":"WV8 1DB","la":"South Staffordshire","era":"mod","nn":28,"risk":27,"cat":"green"},{"name":"Chillington Hall","lat":52.65866,"lon":-2.2034,"postcode":"WV8 1RE","la":"South Staffordshire","era":"other","nn":2314,"risk":65,"cat":"red"},{"name":"Codsall Conservative Club","lat":52.63046,"lon":-2.20202,"postcode":"WV8 1DB","la":"South Staffordshire","era":"other","nn":28,"risk":27,"cat":"green"},{"name":"Coven Village Cafe","lat":52.6558,"lon":-2.1308,"postcode":"WV9 5DB","la":"South Staffordshire","era":"other","nn":283,"risk":34,"cat":"amber"},{"name":"Essington Rugby Club","lat":52.62403,"lon":-2.05688,"postcode":"WV11 2DW","la":"South Staffordshire","era":"other","nn":219,"risk":31,"cat":"amber"},{"name":"Essington Working Mens Club","lat":52.62474,"lon":-2.05991,"postcode":"WV11 2DW","la":"South Staffordshire","era":"trad","nn":117,"risk":30,"cat":"green"},{"name":"Featherstone Farm Hotel","lat":52.65233,"lon":-2.10375,"postcode":"WV10 7NW","la":"South Staffordshire","era":"other","nn":1536,"risk":60,"cat":"amber"},{"name":"Finchfield Hockey Club","lat":52.54383,"lon":-2.20275,"postcode":"WV5 8DQ","la":"South Staffordshire","era":"other","nn":902,"risk":50,"cat":"amber"},{"name":"Himley Hall Sailing Club","lat":52.56926,"lon":-2.15261,"postcode":"WV3 7LZ","la":"Wolverhampton","era":"other","nn":516,"risk":27,"cat":"green"},{"name":"Love And Liquor","lat":52.63045,"lon":-2.19962,"postcode":"WV8 1PT","la":"South Staffordshire","era":"other","nn":79,"risk":27,"cat":"green"},{"name":"Medicine At The Crown","lat":52.63065,"lon":-2.20124,"postcode":"WV8 1DB","la":"South Staffordshire","era":"trad","nn":40,"risk":27,"cat":"green"},{"name":"Miller & Carter","lat":52.55052,"lon":-2.17043,"postcode":"WV4 5NG","la":"South Staffordshire","era":"trad","nn":716,"risk":49,"cat":"amber"},{"name":"Minerva Inn","lat":52.62469,"lon":-2.06165,"postcode":"WV11 2BX","la":"South Staffordshire","era":"trad","nn":117,"risk":30,"cat":"green"},{"name":"Mount Pleasant","lat":52.53605,"lon":-2.19896,"postcode":"WV5 8BP","la":"South Staffordshire","era":"other","nn":143,"risk":30,"cat":"green"},{"name":"Old Wulfrunians Club Limited","lat":52.57558,"lon":-2.19425,"postcode":"WV3 8NA","la":"South Staffordshire","era":"other","nn":216,"risk":33,"cat":"amber"},{"name":"Pattingham Club","lat":52.58697,"lon":-2.2677,"postcode":"WV6 7BH","la":"South Staffordshire","era":"other","nn":259,"risk":46,"cat":"amber"},{"name":"Pear And Partridge (Perton)","lat":52.60226,"lon":-2.20816,"postcode":"WV6 7XZ","la":"South Staffordshire","era":"other","nn":1031,"risk":56,"cat":"amber"},{"name":"Penn Golf Club Ltd","lat":52.55208,"lon":-2.14699,"postcode":"WV4 5JN","la":"South Staffordshire","era":"other","nn":0,"risk":29,"cat":"green"},{"name":"Pigot Arms","lat":52.58907,"lon":-2.26502,"postcode":"WV6 7BQ","la":"South Staffordshire","era":"trad","nn":37,"risk":44,"cat":"amber"},{"name":"Rainbow Inn","lat":52.6589,"lon":-2.13469,"postcode":"WV9 5DH","la":"South Staffordshire","era":"trad","nn":433,"risk":47,"cat":"amber"},{"name":"Rebecca Portwood","lat":52.55208,"lon":-2.14699,"postcode":"WV4 5JN","la":"South Staffordshire","era":"other","nn":0,"risk":29,"cat":"green"},{"name":"Round Oak Inn","lat":52.53577,"lon":-2.20103,"postcode":"WV5 8BU","la":"South Staffordshire","era":"trad","nn":143,"risk":45,"cat":"amber"},{"name":"Springhill Cricket Club","lat":52.5581,"lon":-2.18691,"postcode":"WV4 4TN","la":"South Staffordshire","era":"other","nn":984,"risk":51,"cat":"amber"},{"name":"The Barley Mow Pub","lat":52.55208,"lon":-2.14699,"postcode":"WV4 5JN","la":"South Staffordshire","era":"other","nn":0,"risk":29,"cat":"green"},{"name":"The Bell Inn","lat":52.54651,"lon":-2.21778,"postcode":"WV5 7JB","la":"South Staffordshire","era":"trad","nn":1059,"risk":57,"cat":"amber"},{"name":"The Bull","lat":52.63041,"lon":-2.20078,"postcode":"WV8 1PU","la":"South Staffordshire","era":"trad","nn":40,"risk":27,"cat":"green"},{"name":"The Codsall Station","lat":52.6273,"lon":-2.20167,"postcode":"WV8 2EH","la":"South Staffordshire","era":"other","nn":351,"risk":29,"cat":"green"},{"name":"The Crown","lat":52.58884,"lon":-2.26542,"postcode":"WV6 7BQ","la":"South Staffordshire","era":"trad","nn":37,"risk":44,"cat":"amber"},{"name":"The Dartmouth Arms","lat":52.60319,"lon":-2.31428,"postcode":"WV6 7HU","la":"South Staffordshire","era":"trad","nn":2704,"risk":68,"cat":"red"},{"name":"The Dog & Partridge","lat":52.67667,"lon":-2.09214,"postcode":"WV10 7DW","la":"South Staffordshire","era":"other","nn":1808,"risk":62,"cat":"red"},{"name":"The Elms","lat":52.65461,"lon":-2.08128,"postcode":"WV10 7JR","la":"South Staffordshire","era":"trad","nn":1536,"risk":60,"cat":"amber"},{"name":"The Fox At Shipley","lat":52.56123,"lon":-2.26505,"postcode":"WV6 7EH","la":"South Staffordshire","era":"trad","nn":1825,"risk":62,"cat":"red"},{"name":"The Greyhound","lat":52.5628,"lon":-2.19923,"postcode":"WV4 4UN","la":"South Staffordshire","era":"trad","nn":984,"risk":54,"cat":"amber"},{"name":"The Oaken Arms","lat":52.62091,"lon":-2.2291,"postcode":"WV8 2HX","la":"South Staffordshire","era":"trad","nn":1983,"risk":63,"cat":"red"},{"name":"The Pendrell Arms","lat":52.64116,"lon":-2.22461,"postcode":"WV8 1QR","la":"South Staffordshire","era":"trad","nn":1911,"risk":63,"cat":"red"},{"name":"The Red Lion","lat":52.53535,"lon":-2.17842,"postcode":"WV5 0JJ","la":"South Staffordshire","era":"trad","nn":237,"risk":31,"cat":"amber"},{"name":"The Vine","lat":52.53663,"lon":-2.18123,"postcode":"WV5 9DT","la":"South Staffordshire","era":"other","nn":231,"risk":31,"cat":"amber"},{"name":"Three Hammers Bar And Bistro Ltd","lat":52.6507,"lon":-2.12675,"postcode":"WV10 7PP","la":"South Staffordshire","era":"mod","nn":347,"risk":34,"cat":"amber"},{"name":"Waggon And Horses","lat":52.52587,"lon":-2.20209,"postcode":"WV5 0AQ","la":"South Staffordshire","era":"trad","nn":1103,"risk":57,"cat":"amber"},{"name":"Walsall Football Club","lat":52.63776,"lon":-2.03954,"postcode":"WV11 2RG","la":"South Staffordshire","era":"other","nn":409,"risk":50,"cat":"amber"},{"name":"Wergs Golf Club","lat":52.60801,"lon":-2.18822,"postcode":"WV6 8UA","la":"Wolverhampton","era":"other","nn":294,"risk":46,"cat":"amber"},{"name":"Willenhall RUFC","lat":52.63125,"lon":-2.06038,"postcode":"WV11 2BA","la":"South Staffordshire","era":"other","nn":725,"risk":37,"cat":"amber"},{"name":"Wolverhampton Boat Club","lat":52.62499,"lon":-2.16582,"postcode":"WV8 1RS","la":"South Staffordshire","era":"other","nn":1002,"risk":56,"cat":"amber"},{"name":"Wolverhampton Casuals FC","lat":52.64562,"lon":-2.1249,"postcode":"WV10 7PR","la":"South Staffordshire","era":"other","nn":578,"risk":36,"cat":"amber"},{"name":"Wolverhampton Rugby Union Football Club Ltd","lat":52.57594,"lon":-2.1911,"postcode":"WV3 8NA","la":"South Staffordshire","era":"other","nn":216,"risk":33,"cat":"amber"},{"name":"Wombourne Club","lat":52.53409,"lon":-2.18222,"postcode":"WV5 0LE","la":"South Staffordshire","era":"other","nn":265,"risk":31,"cat":"amber"},{"name":"Wombourne Cricket Tennis Bowling & Social Club","lat":52.53603,"lon":-2.1845,"postcode":"WV5 9EZ","la":"South Staffordshire","era":"mod","nn":101,"risk":27,"cat":"green"},{"name":"Wombourne Pool Bar Ltd","lat":52.53542,"lon":-2.18562,"postcode":"WV5 9JB","la":"South Staffordshire","era":"mod","nn":101,"risk":27,"cat":"green"},{"name":"Woodman Inn","lat":52.62674,"lon":-2.18038,"postcode":"WV8 1HZ","la":"South Staffordshire","era":"trad","nn":1002,"risk":56,"cat":"amber"},{"name":"Wrottesley Arms","lat":52.59396,"lon":-2.20135,"postcode":"WV6 7QU","la":"South Staffordshire","era":"trad","nn":958,"risk":53,"cat":"amber"},{"name":"9 John Street","lat":52.58318,"lon":-2.05427,"postcode":"WV13 1PW","la":"Walsall","era":"other","nn":35,"risk":24,"cat":"green"},{"name":"Amery Unionist Club","lat":52.6067,"lon":-2.04136,"postcode":"WV12 5RY","la":"Walsall","era":"other","nn":273,"risk":26,"cat":"green"},{"name":"Cross Keys Inn","lat":52.59617,"lon":-2.04994,"postcode":"WV12 4LB","la":"Walsall","era":"trad","nn":419,"risk":27,"cat":"green"},{"name":"Crown Inn","lat":52.58339,"lon":-2.05356,"postcode":"WV13 1PQ","la":"Walsall","era":"trad","nn":19,"risk":24,"cat":"green"},{"name":"Duke Of Cambridge","lat":52.60701,"lon":-2.03472,"postcode":"WV12 5QD","la":"Walsall","era":"trad","nn":208,"risk":25,"cat":"green"},{"name":"Gilberts Bar","lat":52.5845,"lon":-2.05914,"postcode":"WV13 2NY","la":"Walsall","era":"other","nn":14,"risk":24,"cat":"green"},{"name":"J Ds Snooker And Pool Club","lat":52.5829,"lon":-2.06467,"postcode":"WV13 3DZ","la":"Walsall","era":"other","nn":414,"risk":27,"cat":"green"},{"name":"Jolly Collier","lat":52.60182,"lon":-2.04531,"postcode":"WV12 4QG","la":"Walsall","era":"other","nn":327,"risk":26,"cat":"green"},{"name":"Jubilee House (Pub)","lat":52.59619,"lon":-2.0427,"postcode":"WV12 4HB","la":"Walsall","era":"mod","nn":490,"risk":27,"cat":"green"},{"name":"Keymaster","lat":52.58714,"lon":-2.03458,"postcode":"WV13 2RN","la":"Walsall","era":"other","nn":282,"risk":28,"cat":"green"},{"name":"Navigation Inn","lat":52.59611,"lon":-2.06257,"postcode":"WV11 3SU","la":"Walsall","era":"trad","nn":853,"risk":35,"cat":"amber"},{"name":"Poets Corner","lat":52.61049,"lon":-2.02939,"postcode":"WV12 5HY","la":"Walsall","era":"other","nn":528,"risk":27,"cat":"green"},{"name":"Pool Hayes PH","lat":52.59989,"lon":-2.04897,"postcode":"WV12 4PX","la":"Walsall","era":"other","nn":327,"risk":26,"cat":"green"},{"name":"Prince Of Wales","lat":52.5852,"lon":-2.04916,"postcode":"WV13 2DU","la":"Walsall","era":"trad","nn":297,"risk":26,"cat":"green"},{"name":"Royal George","lat":52.58329,"lon":-2.05378,"postcode":"WV13 2AQ","la":"Walsall","era":"trad","nn":19,"risk":24,"cat":"green"},{"name":"Short Heath Liberal Club","lat":52.6035,"lon":-2.03501,"postcode":"WV12 5PG","la":"Walsall","era":"other","nn":0,"risk":24,"cat":"green"},{"name":"Short Heath Royal British Legion Clu","lat":52.60518,"lon":-2.03538,"postcode":"WV12 5PT","la":"Walsall","era":"trad","nn":167,"risk":25,"cat":"green"},{"name":"The County Public House","lat":52.58317,"lon":-2.05207,"postcode":"WV13 2ES","la":"Walsall","era":"other","nn":104,"risk":24,"cat":"green"},{"name":"The Falcon Inn","lat":52.58456,"lon":-2.05896,"postcode":"WV13 2NR","la":"Walsall","era":"trad","nn":14,"risk":24,"cat":"green"},{"name":"The Forge Tavern","lat":52.59229,"lon":-2.0515,"postcode":"WV13 1DT","la":"Walsall","era":"trad","nn":395,"risk":26,"cat":"green"},{"name":"The Malthouse","lat":52.58333,"lon":-2.05617,"postcode":"WV13 2BG","la":"Walsall","era":"other","nn":130,"risk":25,"cat":"green"},{"name":"The Milestone","lat":52.61513,"lon":-2.04329,"postcode":"WV12 5DT","la":"Walsall","era":"other","nn":820,"risk":32,"cat":"amber"},{"name":"The Noahs Ark","lat":52.58755,"lon":-2.0387,"postcode":"WV13 1JB","la":"Walsall","era":"other","nn":282,"risk":26,"cat":"green"},{"name":"The Old Oak","lat":52.58587,"lon":-2.04375,"postcode":"WV13 2EB","la":"Walsall","era":"trad","nn":76,"risk":24,"cat":"green"},{"name":"The Swan","lat":52.6056,"lon":-2.03776,"postcode":"WV12 5QA","la":"Walsall","era":"trad","nn":167,"risk":25,"cat":"green"},{"name":"The Whimsey","lat":52.60021,"lon":-2.0396,"postcode":"WV12 4JR","la":"Walsall","era":"other","nn":425,"risk":27,"cat":"green"},{"name":"The Workers Rest","lat":52.5847,"lon":-2.05461,"postcode":"WV13 1PB","la":"Walsall","era":"other","nn":127,"risk":25,"cat":"green"},{"name":"Three Crowns","lat":52.58519,"lon":-2.05631,"postcode":"WV13 1RT","la":"Walsall","era":"trad","nn":127,"risk":25,"cat":"green"},{"name":"Three Tuns","lat":52.58536,"lon":-2.04448,"postcode":"WV13 2EG","la":"Walsall","era":"other","nn":76,"risk":24,"cat":"green"},{"name":"United Kingdom Inn","lat":52.6035,"lon":-2.03501,"postcode":"WV12 5PG","la":"Walsall","era":"trad","nn":0,"risk":24,"cat":"green"},{"name":"Willenhall Liberal Club","lat":52.58879,"lon":-2.05253,"postcode":"WV13 1DF","la":"Walsall","era":"other","nn":395,"risk":26,"cat":"green"},{"name":"Yale Sports & Social Club","lat":52.58253,"lon":-2.04917,"postcode":"WV13 2HA","la":"Walsall","era":"mod","nn":208,"risk":25,"cat":"green"},{"name":"44 Club","lat":52.55706,"lon":-2.10158,"postcode":"WV4 6LQ","la":"Wolverhampton","era":"other","nn":318,"risk":29,"cat":"green"},{"name":"Albert Lawn Tennis Club","lat":52.60195,"lon":-2.15739,"postcode":"WV6 9NA","la":"Wolverhampton","era":"other","nn":392,"risk":27,"cat":"green"},{"name":"Ashmore Inn","lat":52.61296,"lon":-2.06111,"postcode":"WV11 2LJ","la":"Wolverhampton","era":"trad","nn":320,"risk":29,"cat":"green"},{"name":"Bank Wolverhampton","lat":52.58679,"lon":-2.1265,"postcode":"WV1 1EA","la":"Wolverhampton","era":"other","nn":22,"risk":24,"cat":"green"},{"name":"Banks's Brewery Shop And Visitor Centre","lat":52.58541,"lon":-2.13783,"postcode":"WV1 4JT","la":"Wolverhampton","era":"other","nn":36,"risk":24,"cat":"green"},{"name":"Bar At Oxley Park Golf Club Limited","lat":52.6071,"lon":-2.13221,"postcode":"WV10 6DE","la":"Wolverhampton","era":"mod","nn":202,"risk":25,"cat":"green"},{"name":"Berry Brook Farm","lat":52.61766,"lon":-2.0946,"postcode":"WV10 8QD","la":"Wolverhampton","era":"other","nn":1110,"risk":54,"cat":"amber"},{"name":"Bilston Churchill Cons Club","lat":52.5677,"lon":-2.0731,"postcode":"WV14 7LS","la":"Wolverhampton","era":"other","nn":77,"risk":24,"cat":"green"},{"name":"Bilston Sports & Social Club","lat":52.56908,"lon":-2.08314,"postcode":"WV14 6AY","la":"Wolverhampton","era":"mod","nn":212,"risk":25,"cat":"green"},{"name":"Bilston Town Bowling Club","lat":52.56975,"lon":-2.0802,"postcode":"WV14 6AU","la":"Wolverhampton","era":"other","nn":212,"risk":25,"cat":"green"},{"name":"Bilston Town Hall","lat":52.56698,"lon":-2.075,"postcode":"WV14 0AP","la":"Wolverhampton","era":"other","nn":83,"risk":24,"cat":"green"},{"name":"Bird In Hand","lat":52.60242,"lon":-2.10176,"postcode":"WV10 0NF","la":"Wolverhampton","era":"other","nn":683,"risk":31,"cat":"amber"},{"name":"Bohemian","lat":52.5869,"lon":-2.12478,"postcode":"WV1 1EQ","la":"Wolverhampton","era":"other","nn":0,"risk":24,"cat":"green"},{"name":"Bradmore Arms","lat":52.57611,"lon":-2.156,"postcode":"WV3 7HX","la":"Wolverhampton","era":"trad","nn":133,"risk":25,"cat":"green"},{"name":"Bradmore Club","lat":52.57355,"lon":-2.1565,"postcode":"WV3 7ER","la":"Wolverhampton","era":"other","nn":217,"risk":25,"cat":"green"},{"name":"Bruford Arms","lat":52.57582,"lon":-2.14656,"postcode":"WV3 0AY","la":"Wolverhampton","era":"trad","nn":0,"risk":24,"cat":"green"},{"name":"Bruford Arms Grill","lat":52.57582,"lon":-2.14656,"postcode":"WV3 0AY","la":"Wolverhampton","era":"trad","nn":0,"risk":24,"cat":"green"},{"name":"Chill Spot","lat":52.56659,"lon":-2.07396,"postcode":"WV14 0AJ","la":"Wolverhampton","era":"other","nn":83,"risk":24,"cat":"green"},{"name":"Chill Wine Bar","lat":52.59819,"lon":-2.16815,"postcode":"WV6 8QT","la":"Wolverhampton","era":"other","nn":221,"risk":25,"cat":"green"},{"name":"Chillington W.M Club","lat":52.58166,"lon":-2.10421,"postcode":"WV1 2BT","la":"Wolverhampton","era":"other","nn":281,"risk":26,"cat":"green"},{"name":"Cleveland Arms","lat":52.58214,"lon":-2.0862,"postcode":"WV1 2QN","la":"Wolverhampton","era":"trad","nn":209,"risk":28,"cat":"green"},{"name":"Combermere Arms","lat":52.58577,"lon":-2.14007,"postcode":"WV3 0TY","la":"Wolverhampton","era":"trad","nn":156,"risk":25,"cat":"green"},{"name":"Corpus Christi Social Centre","lat":52.61451,"lon":-2.05712,"postcode":"WV11 2LT","la":"Wolverhampton","era":"mod","nn":320,"risk":26,"cat":"green"},{"name":"Crazy Gin","lat":52.5846,"lon":-2.12943,"postcode":"WV1 3NP","la":"Wolverhampton","era":"other","nn":31,"risk":24,"cat":"green"},{"name":"Dive","lat":52.58628,"lon":-2.12875,"postcode":"WV1 1TS","la":"Wolverhampton","era":"other","nn":3,"risk":24,"cat":"green"},{"name":"Dog And Gun","lat":52.5998,"lon":-2.17295,"postcode":"WV6 8SB","la":"Wolverhampton","era":"other","nn":370,"risk":31,"cat":"amber"},{"name":"Dog And Partridge","lat":52.59981,"lon":-2.08219,"postcode":"WV11 1SZ","la":"Wolverhampton","era":"other","nn":46,"risk":24,"cat":"green"},{"name":"Duke Of York","lat":52.58609,"lon":-2.12521,"postcode":"WV1 1HD","la":"Wolverhampton","era":"trad","nn":57,"risk":24,"cat":"green"},{"name":"Elisabeth Arms","lat":52.55564,"lon":-2.09611,"postcode":"WV14 9XW","la":"Wolverhampton","era":"trad","nn":403,"risk":44,"cat":"amber"},{"name":"Emerald Club","lat":52.59441,"lon":-2.1243,"postcode":"WV1 1PP","la":"Wolverhampton","era":"other","nn":314,"risk":26,"cat":"green"},{"name":"Fordhouses Cricket Club","lat":52.62814,"lon":-2.13855,"postcode":"WV9 5HH","la":"Wolverhampton","era":"other","nn":338,"risk":46,"cat":"amber"},{"name":"Golden Lion","lat":52.55403,"lon":-2.07436,"postcode":"WV14 8UP","la":"Wolverhampton","era":"trad","nn":0,"risk":24,"cat":"green"},{"name":"Golden Silver Suite","lat":52.57735,"lon":-2.12886,"postcode":"WV2 4HX","la":"Wolverhampton","era":"other","nn":76,"risk":24,"cat":"green"},{"name":"Goldthorn Pub","lat":52.5675,"lon":-2.12791,"postcode":"WV2 3HU","la":"Wolverhampton","era":"other","nn":978,"risk":51,"cat":"amber"},{"name":"Gorgeous Nightclub","lat":52.58464,"lon":-2.13204,"postcode":"WV1 4LF","la":"Wolverhampton","era":"other","nn":137,"risk":25,"cat":"green"},{"name":"Grand Theatre","lat":52.5865,"lon":-2.12422,"postcode":"WV1 1DE","la":"Wolverhampton","era":"other","nn":59,"risk":24,"cat":"green"},{"name":"Hail To The Ale Micropub","lat":52.60876,"lon":-2.16083,"postcode":"WV6 9EF","la":"Wolverhampton","era":"other","nn":281,"risk":31,"cat":"amber"},{"name":"Harrowby Arms","lat":52.62521,"lon":-2.13718,"postcode":"WV10 6RQ","la":"Wolverhampton","era":"trad","nn":338,"risk":46,"cat":"amber"},{"name":"Hatherton Arms","lat":52.59424,"lon":-2.12893,"postcode":"WV1 1QL","la":"Wolverhampton","era":"trad","nn":188,"risk":25,"cat":"green"},{"name":"Heritage Centre","lat":52.59291,"lon":-2.1461,"postcode":"WV6 0EN","la":"Wolverhampton","era":"other","nn":294,"risk":26,"cat":"green"},{"name":"Hogshead T/a K-Town Chicken T/a Chick Box","lat":52.58822,"lon":-2.12607,"postcode":"WV1 1NA","la":"Wolverhampton","era":"trad","nn":129,"risk":25,"cat":"green"},{"name":"Horse And Jockey","lat":52.56532,"lon":-2.07646,"postcode":"WV14 0AX","la":"Wolverhampton","era":"trad","nn":111,"risk":25,"cat":"green"},{"name":"Horse And Jockey","lat":52.54758,"lon":-2.10675,"postcode":"WV14 9SB","la":"Wolverhampton","era":"trad","nn":484,"risk":27,"cat":"green"},{"name":"ICB","lat":52.59787,"lon":-2.12704,"postcode":"WV1 1PA","la":"Wolverhampton","era":"other","nn":423,"risk":27,"cat":"green"},{"name":"Jones Road Working Mens Club","lat":52.60318,"lon":-2.13242,"postcode":"WV10 6JQ","la":"Wolverhampton","era":"trad","nn":371,"risk":26,"cat":"green"},{"name":"Kazbar Bar And Grill","lat":52.57698,"lon":-2.1323,"postcode":"WV2 4HJ","la":"Wolverhampton","era":"mod","nn":169,"risk":25,"cat":"green"},{"name":"Leaping Wolf Food","lat":52.59324,"lon":-2.13117,"postcode":"WV1 4RB","la":"Wolverhampton","era":"other","nn":3,"risk":24,"cat":"green"},{"name":"Lockworks @ Lighthouse","lat":52.58738,"lon":-2.12304,"postcode":"WV1 1HT","la":"Wolverhampton","era":"mod","nn":45,"risk":24,"cat":"green"},{"name":"London Midland Railway Clubs","lat":52.61116,"lon":-2.12275,"postcode":"WV10 9TU","la":"Wolverhampton","era":"trad","nn":527,"risk":28,"cat":"green"},{"name":"Market Tavern","lat":52.56512,"lon":-2.07807,"postcode":"WV14 0BJ","la":"Wolverhampton","era":"other","nn":111,"risk":25,"cat":"green"},{"name":"McGhee's Irish Bar","lat":52.58619,"lon":-2.12671,"postcode":"WV1 1HN","la":"Wolverhampton","era":"other","nn":15,"risk":24,"cat":"green"},{"name":"Midland Snooker Club","lat":52.56175,"lon":-2.05996,"postcode":"WV14 7DW","la":"Wolverhampton","era":"other","nn":722,"risk":31,"cat":"amber"},{"name":"Moreton Arms","lat":52.63247,"lon":-2.12289,"postcode":"WV10 6PX","la":"Wolverhampton","era":"trad","nn":488,"risk":45,"cat":"amber"},{"name":"Mount Tavern","lat":52.56481,"lon":-2.14716,"postcode":"WV4 5SF","la":"Wolverhampton","era":"other","nn":168,"risk":25,"cat":"green"},{"name":"Nickleodeon","lat":52.59692,"lon":-2.09029,"postcode":"WV11 1BP","la":"Wolverhampton","era":"other","nn":374,"risk":26,"cat":"green"},{"name":"North Street Social","lat":52.58593,"lon":-2.12989,"postcode":"WV1 1RE","la":"Wolverhampton","era":"mod","nn":29,"risk":24,"cat":"green"},{"name":"Oddfellows","lat":52.58719,"lon":-2.17539,"postcode":"WV6 8AA","la":"Wolverhampton","era":"other","nn":183,"risk":28,"cat":"green"},{"name":"Old Still","lat":52.58598,"lon":-2.12621,"postcode":"WV1 1ST","la":"Wolverhampton","era":"other","nn":41,"risk":24,"cat":"green"},{"name":"Parkfield Central Bar","lat":52.56611,"lon":-2.11023,"postcode":"WV4 6HQ","la":"Wolverhampton","era":"other","nn":896,"risk":50,"cat":"amber"},{"name":"Pavilion Bar \\\\& Restaurant","lat":52.61494,"lon":-2.13137,"postcode":"WV10 6AJ","la":"Wolverhampton","era":"other","nn":532,"risk":28,"cat":"green"},{"name":"Penn Bowling Club","lat":52.55945,"lon":-2.14932,"postcode":"WV4 5PY","la":"Wolverhampton","era":"other","nn":315,"risk":26,"cat":"green"},{"name":"Penn Cricket Club","lat":52.55667,"lon":-2.1484,"postcode":"WV4 5RU","la":"Wolverhampton","era":"other","nn":315,"risk":26,"cat":"green"},{"name":"Plough & Harrow","lat":52.58271,"lon":-2.13045,"postcode":"WV2 4LD","la":"Wolverhampton","era":"trad","nn":63,"risk":24,"cat":"green"},{"name":"Polish Catholic Club","lat":52.60888,"lon":-2.13159,"postcode":"WV10 6DQ","la":"Wolverhampton","era":"other","nn":167,"risk":25,"cat":"green"},{"name":"Popworld","lat":52.58602,"lon":-2.12949,"postcode":"WV1 1RD","la":"Wolverhampton","era":"other","nn":29,"risk":24,"cat":"green"},{"name":"Purity Venue","lat":52.58227,"lon":-2.13162,"postcode":"WV3 0NF","la":"Wolverhampton","era":"other","nn":36,"risk":24,"cat":"green"},{"name":"Red Lion","lat":52.60838,"lon":-2.0885,"postcode":"WV11 1LE","la":"Wolverhampton","era":"trad","nn":295,"risk":26,"cat":"green"},{"name":"Red Lion Bar And Grill","lat":52.57627,"lon":-2.10663,"postcode":"WV2 2HU","la":"Wolverhampton","era":"other","nn":536,"risk":28,"cat":"green"},{"name":"Rhythms (Previously Robin 2)","lat":52.56756,"lon":-2.07422,"postcode":"WV14 7LJ","la":"Wolverhampton","era":"other","nn":77,"risk":24,"cat":"green"},{"name":"Royal British Legion","lat":52.55327,"lon":-2.11216,"postcode":"WV4 6PW","la":"Wolverhampton","era":"trad","nn":192,"risk":30,"cat":"green"},{"name":"Royal London","lat":52.58699,"lon":-2.12652,"postcode":"WV1 1LX","la":"Wolverhampton","era":"trad","nn":22,"risk":24,"cat":"green"},{"name":"Royal Oak","lat":52.5906,"lon":-2.18192,"postcode":"WV6 8EJ","la":"Wolverhampton","era":"trad","nn":577,"risk":30,"cat":"green"},{"name":"Royal Oak","lat":52.58589,"lon":-2.14296,"postcode":"WV3 9PH","la":"Wolverhampton","era":"trad","nn":196,"risk":25,"cat":"green"},{"name":"S A Food & Grill","lat":52.57246,"lon":-2.09657,"postcode":"WV2 2PD","la":"Wolverhampton","era":"mod","nn":0,"risk":24,"cat":"green"},{"name":"Sinderella's","lat":52.58629,"lon":-2.12879,"postcode":"WV1 1TS","la":"Wolverhampton","era":"other","nn":3,"risk":24,"cat":"green"},{"name":"Sir Henry Newbolt","lat":52.5639,"lon":-2.08005,"postcode":"WV14 0EP","la":"Wolverhampton","era":"other","nn":0,"risk":24,"cat":"green"},{"name":"Slug & Lettuce","lat":52.58596,"lon":-2.12885,"postcode":"WV1 1TL","la":"Wolverhampton","era":"other","nn":35,"risk":24,"cat":"green"},{"name":"Springvale Cricket Club","lat":52.56425,"lon":-2.08881,"postcode":"WV14 0QR","la":"Wolverhampton","era":"other","nn":501,"risk":27,"cat":"green"},{"name":"St Josephs Catholic Club","lat":52.58386,"lon":-2.10749,"postcode":"WV1 2HG","la":"Wolverhampton","era":"other","nn":330,"risk":26,"cat":"green"},{"name":"Steelman's Lounge","lat":52.56661,"lon":-2.06704,"postcode":"WV14 7EX","la":"Wolverhampton","era":"other","nn":427,"risk":27,"cat":"green"},{"name":"Summerhouse","lat":52.59516,"lon":-2.14972,"postcode":"WV6 0RS","la":"Wolverhampton","era":"other","nn":79,"risk":24,"cat":"green"},{"name":"Sunbeam","lat":52.58623,"lon":-2.12233,"postcode":"WV1 1LD","la":"Wolverhampton","era":"other","nn":94,"risk":24,"cat":"green"},{"name":"The Angel","lat":52.60022,"lon":-2.08236,"postcode":"WV11 1ST","la":"Wolverhampton","era":"trad","nn":0,"risk":24,"cat":"green"},{"name":"The Angel Inn","lat":52.57246,"lon":-2.09657,"postcode":"WV2 2PD","la":"Wolverhampton","era":"trad","nn":0,"risk":24,"cat":"green"},{"name":"The Beehive","lat":52.58461,"lon":-2.10038,"postcode":"WV1 2LQ","la":"Wolverhampton","era":"other","nn":138,"risk":25,"cat":"green"},{"name":"The Billy Wright","lat":52.58644,"lon":-2.12583,"postcode":"WV1 1HW","la":"Wolverhampton","era":"other","nn":56,"risk":24,"cat":"green"},{"name":"The Bluebrick","lat":52.5882,"lon":-2.11864,"postcode":"WV10 0BA","la":"Wolverhampton","era":"other","nn":140,"risk":25,"cat":"green"},{"name":"The Broadway","lat":52.60923,"lon":-2.05055,"postcode":"WV12 5UJ","la":"Walsall","era":"other","nn":681,"risk":28,"cat":"green"},{"name":"The Builders Arms","lat":52.57573,"lon":-2.1228,"postcode":"WV2 1EY","la":"Wolverhampton","era":"trad","nn":226,"risk":25,"cat":"green"},{"name":"The Canalside Club","lat":52.61251,"lon":-2.145,"postcode":"WV10 6TZ","la":"Wolverhampton","era":"other","nn":663,"risk":33,"cat":"amber"},{"name":"The Castle Inn Wednesfield Ltd","lat":52.60637,"lon":-2.08034,"postcode":"WV11 1NW","la":"Wolverhampton","era":"trad","nn":432,"risk":27,"cat":"green"},{"name":"The Chestnut Tree","lat":52.57942,"lon":-2.17209,"postcode":"WV3 8BT","la":"Wolverhampton","era":"other","nn":716,"risk":31,"cat":"amber"},{"name":"The Claregate","lat":52.60634,"lon":-2.15961,"postcode":"WV6 9ED","la":"Wolverhampton","era":"other","nn":281,"risk":26,"cat":"green"},{"name":"The Clarendon Hotel","lat":52.5851,"lon":-2.13773,"postcode":"WV3 0TN","la":"Wolverhampton","era":"other","nn":36,"risk":24,"cat":"green"},{"name":"The Crown","lat":52.57715,"lon":-2.1252,"postcode":"WV2 3BT","la":"Wolverhampton","era":"trad","nn":222,"risk":25,"cat":"green"},{"name":"The Crown","lat":52.60646,"lon":-2.19174,"postcode":"WV6 9BP","la":"Wolverhampton","era":"trad","nn":294,"risk":46,"cat":"amber"},{"name":"The Dartmouth Arms (Wet Sales)","lat":52.57914,"lon":-2.12139,"postcode":"WV2 1DF","la":"Wolverhampton","era":"trad","nn":339,"risk":26,"cat":"green"},{"name":"The Fieldhouse","lat":52.58743,"lon":-2.19212,"postcode":"WV6 8DP","la":"Wolverhampton","era":"other","nn":624,"risk":31,"cat":"amber"},{"name":"The Firs","lat":52.57784,"lon":-2.18679,"postcode":"WV3 8HG","la":"Wolverhampton","era":"other","nn":360,"risk":31,"cat":"amber"},{"name":"The Gate House","lat":52.6102,"lon":-2.1304,"postcode":"WV10 6EE","la":"Wolverhampton","era":"other","nn":167,"risk":25,"cat":"green"},{"name":"The Gate Inn","lat":52.57246,"lon":-2.09657,"postcode":"WV2 2PD","la":"Wolverhampton","era":"trad","nn":0,"risk":24,"cat":"green"},{"name":"The George Wallis Also T/a K-Town, Chik Box, Lock And Loaded","lat":52.58486,"lon":-2.1293,"postcode":"WV1 3NP","la":"Wolverhampton","era":"trad","nn":31,"risk":24,"cat":"green"},{"name":"The Giffard Arms","lat":52.58463,"lon":-2.13001,"postcode":"WV1 3NX","la":"Wolverhampton","era":"trad","nn":39,"risk":24,"cat":"green"},{"name":"The Glassy Junction","lat":52.58353,"lon":-2.10139,"postcode":"WV1 2HR","la":"Wolverhampton","era":"other","nn":138,"risk":25,"cat":"green"},{"name":"The Goose","lat":52.58634,"lon":-2.12664,"postcode":"WV1 1DN","la":"Wolverhampton","era":"other","nn":13,"risk":24,"cat":"green"},{"name":"The Grapes","lat":52.57838,"lon":-2.07395,"postcode":"WV14 6JG","la":"Wolverhampton","era":"other","nn":803,"risk":47,"cat":"amber"},{"name":"The Great Western","lat":52.5871,"lon":-2.11765,"postcode":"WV10 0DG","la":"Wolverhampton","era":"other","nn":140,"risk":25,"cat":"green"},{"name":"The Great Western","lat":52.55403,"lon":-2.07436,"postcode":"WV14 8UP","la":"Wolverhampton","era":"other","nn":0,"risk":24,"cat":"green"},{"name":"The Gunmakers Arms","lat":52.57539,"lon":-2.15758,"postcode":"WV3 7JE","la":"Wolverhampton","era":"trad","nn":133,"risk":25,"cat":"green"},{"name":"The Hangar","lat":52.57672,"lon":-2.12841,"postcode":"WV2 4HP","la":"Wolverhampton","era":"other","nn":76,"risk":24,"cat":"green"},{"name":"The Harp Inn","lat":52.58374,"lon":-2.11528,"postcode":"WV1 3LP","la":"Wolverhampton","era":"trad","nn":407,"risk":27,"cat":"green"},{"name":"The Hollybush","lat":52.55684,"lon":-2.16835,"postcode":"WV4 4HU","la":"Wolverhampton","era":"trad","nn":272,"risk":31,"cat":"amber"},{"name":"The Lancaster","lat":52.6072,"lon":-2.06418,"postcode":"WV11 3EL","la":"Wolverhampton","era":"other","nn":673,"risk":31,"cat":"amber"},{"name":"The Leaping Wolf","lat":52.59322,"lon":-2.13119,"postcode":"WV1 4RB","la":"Wolverhampton","era":"other","nn":3,"risk":24,"cat":"green"},{"name":"The Lych Gate Tavern","lat":52.58622,"lon":-2.12832,"postcode":"WV1 1TX","la":"Wolverhampton","era":"other","nn":0,"risk":24,"cat":"green"},{"name":"The Mermaid","lat":52.58246,"lon":-2.19644,"postcode":"WV6 8BN","la":"Wolverhampton","era":"other","nn":624,"risk":31,"cat":"amber"},{"name":"The Merry Boys","lat":52.58389,"lon":-2.08736,"postcode":"WV1 2JA","la":"Wolverhampton","era":"other","nn":209,"risk":28,"cat":"green"},{"name":"The Merry Hill","lat":52.57141,"lon":-2.17067,"postcode":"WV3 7LB","la":"Wolverhampton","era":"other","nn":895,"risk":35,"cat":"amber"},{"name":"The Moon Under Water","lat":52.5869,"lon":-2.12478,"postcode":"WV1 1EQ","la":"Wolverhampton","era":"other","nn":0,"risk":24,"cat":"green"},{"name":"The Moseley Park","lat":52.63681,"lon":-2.12396,"postcode":"WV10 6TA","la":"Wolverhampton","era":"other","nn":488,"risk":32,"cat":"amber"},{"name":"The New Victoria","lat":52.58805,"lon":-2.09376,"postcode":"WV1 2BA","la":"Wolverhampton","era":"trad","nn":588,"risk":30,"cat":"green"},{"name":"The New Yew Tree","lat":52.57813,"lon":-2.13066,"postcode":"WV2 4HN","la":"Wolverhampton","era":"other","nn":150,"risk":25,"cat":"green"},{"name":"The Newbridge","lat":52.59642,"lon":-2.15798,"postcode":"WV6 0JU","la":"Wolverhampton","era":"other","nn":374,"risk":26,"cat":"green"},{"name":"The Newhampton Inn","lat":52.59445,"lon":-2.14963,"postcode":"WV6 0DW","la":"Wolverhampton","era":"trad","nn":79,"risk":24,"cat":"green"},{"name":"The Old Bush","lat":52.55293,"lon":-2.06694,"postcode":"WV14 8DL","la":"Wolverhampton","era":"other","nn":477,"risk":27,"cat":"green"},{"name":"The Orange Tree","lat":52.56942,"lon":-2.09485,"postcode":"WV2 2NT","la":"Wolverhampton","era":"other","nn":358,"risk":26,"cat":"green"},{"name":"The Parisian","lat":52.58622,"lon":-2.12832,"postcode":"WV1 1TX","la":"Wolverhampton","era":"other","nn":0,"risk":24,"cat":"green"},{"name":"The Pegasus / Gill's Bar & Banqueting","lat":52.59666,"lon":-2.14041,"postcode":"WV6 0QQ","la":"Wolverhampton","era":"mod","nn":255,"risk":26,"cat":"green"},{"name":"The Pheasant","lat":52.61042,"lon":-2.0819,"postcode":"WV11 1YQ","la":"Wolverhampton","era":"other","nn":463,"risk":27,"cat":"green"},{"name":"The Pilot","lat":52.60989,"lon":-2.15382,"postcode":"WV6 9HX","la":"Wolverhampton","era":"other","nn":490,"risk":30,"cat":"green"},{"name":"The Planet Night Club","lat":52.58791,"lon":-2.12424,"postcode":"WV1 1JD","la":"Wolverhampton","era":"other","nn":100,"risk":25,"cat":"green"},{"name":"The Posada","lat":52.58631,"lon":-2.12682,"postcode":"WV1 1DG","la":"Wolverhampton","era":"other","nn":13,"risk":24,"cat":"green"},{"name":"The Prince Albert","lat":52.58698,"lon":-2.12298,"postcode":"WV1 1LG","la":"Wolverhampton","era":"trad","nn":45,"risk":24,"cat":"green"},{"name":"The Rocket Pool Inn","lat":52.55071,"lon":-2.06091,"postcode":"WV14 8BH","la":"Wolverhampton","era":"trad","nn":477,"risk":27,"cat":"green"},{"name":"The Rose & Crown","lat":52.55932,"lon":-2.15764,"postcode":"WV4 5QG","la":"Wolverhampton","era":"trad","nn":563,"risk":30,"cat":"green"},{"name":"The Royal Tiger","lat":52.60022,"lon":-2.08236,"postcode":"WV11 1ST","la":"Wolverhampton","era":"trad","nn":0,"risk":24,"cat":"green"},{"name":"The Spread Eagle","lat":52.60331,"lon":-2.05465,"postcode":"WV11 3SD","la":"Wolverhampton","era":"trad","nn":539,"risk":28,"cat":"green"},{"name":"The Springhill","lat":52.55759,"lon":-2.17218,"postcode":"WV4 4LB","la":"Wolverhampton","era":"other","nn":272,"risk":31,"cat":"amber"},{"name":"The Star","lat":52.60009,"lon":-2.08841,"postcode":"WV11 1PE","la":"Wolverhampton","era":"other","nn":374,"risk":26,"cat":"green"},{"name":"The Starting Gate","lat":52.57183,"lon":-2.14625,"postcode":"WV3 7BG","la":"Wolverhampton","era":"other","nn":444,"risk":27,"cat":"green"},{"name":"The Stile (Polish Restaurant)","lat":52.59328,"lon":-2.13621,"postcode":"WV1 4PB","la":"Wolverhampton","era":"other","nn":0,"risk":24,"cat":"green"},{"name":"The Stile Public House","lat":52.59328,"lon":-2.13621,"postcode":"WV1 4PB","la":"Wolverhampton","era":"other","nn":0,"risk":24,"cat":"green"},{"name":"The Summerhouse","lat":52.57689,"lon":-2.1145,"postcode":"WV2 2AW","la":"Wolverhampton","era":"other","nn":529,"risk":28,"cat":"green"},{"name":"The Swan","lat":52.59921,"lon":-2.16106,"postcode":"WV6 9AA","la":"Wolverhampton","era":"trad","nn":284,"risk":26,"cat":"green"},{"name":"The Swan","lat":52.56394,"lon":-2.08142,"postcode":"WV14 0EZ","la":"Wolverhampton","era":"trad","nn":93,"risk":24,"cat":"green"},{"name":"The Swan","lat":52.58616,"lon":-2.17751,"postcode":"WV6 8AE","la":"Wolverhampton","era":"trad","nn":183,"risk":25,"cat":"green"},{"name":"The Trumpet","lat":52.5639,"lon":-2.08005,"postcode":"WV14 0EP","la":"Wolverhampton","era":"other","nn":0,"risk":24,"cat":"green"},{"name":"The Vine Inn","lat":52.60216,"lon":-2.08007,"postcode":"WV11 1TN","la":"Wolverhampton","era":"trad","nn":265,"risk":26,"cat":"green"},{"name":"The Westacres","lat":52.58579,"lon":-2.17363,"postcode":"WV3 9HP","la":"Wolverhampton","era":"other","nn":195,"risk":28,"cat":"green"},{"name":"The Wheatsheaf","lat":52.58485,"lon":-2.12531,"postcode":"WV1 3AE","la":"Wolverhampton","era":"trad","nn":138,"risk":25,"cat":"green"},{"name":"The White Hart","lat":52.5823,"lon":-2.1311,"postcode":"WV2 4LQ","la":"Wolverhampton","era":"trad","nn":36,"risk":24,"cat":"green"},{"name":"The White Hart","lat":52.55796,"lon":-2.06906,"postcode":"WV14 0TQ","la":"Wolverhampton","era":"trad","nn":118,"risk":25,"cat":"green"},{"name":"The Winning Post","lat":52.60034,"lon":-2.13532,"postcode":"WV6 0SN","la":"Wolverhampton","era":"trad","nn":371,"risk":26,"cat":"green"},{"name":"The Yew Tree","lat":52.583,"lon":-2.14254,"postcode":"WV3 0DB","la":"Wolverhampton","era":"other","nn":306,"risk":26,"cat":"green"},{"name":"Three Crowns","lat":52.55163,"lon":-2.113,"postcode":"WV4 6RB","la":"Wolverhampton","era":"trad","nn":192,"risk":25,"cat":"green"},{"name":"Three Cups Public House","lat":52.55992,"lon":-2.10174,"postcode":"WV4 6JT","la":"Wolverhampton","era":"other","nn":318,"risk":29,"cat":"green"},{"name":"Triangle Snooker Club","lat":52.55712,"lon":-2.07014,"postcode":"WV14 8PA","la":"Wolverhampton","era":"other","nn":118,"risk":25,"cat":"green"},{"name":"True Briton","lat":52.61995,"lon":-2.05542,"postcode":"WV11 2NP","la":"Wolverhampton","era":"other","nn":464,"risk":27,"cat":"green"},{"name":"Two Greens","lat":52.59814,"lon":-2.16488,"postcode":"WV6 8QB","la":"Wolverhampton","era":"other","nn":221,"risk":25,"cat":"green"},{"name":"Ukranian Social Club Aug B","lat":52.57945,"lon":-2.13981,"postcode":"WV3 0RJ","la":"Wolverhampton","era":"mod","nn":154,"risk":25,"cat":"green"},{"name":"Vaal & Vaal (Bar)","lat":52.58429,"lon":-2.13599,"postcode":"WV3 0ST","la":"Wolverhampton","era":"other","nn":148,"risk":25,"cat":"green"},{"name":"Wednesfield & Wood End Royal British Legion Limited","lat":52.60385,"lon":-2.0918,"postcode":"WV11 1SF","la":"Wolverhampton","era":"trad","nn":228,"risk":25,"cat":"green"},{"name":"Wednesfield Conservative Club","lat":52.59817,"lon":-2.07864,"postcode":"WV11 3PR","la":"Wolverhampton","era":"other","nn":302,"risk":26,"cat":"green"},{"name":"Wednesfield Football Club","lat":52.60597,"lon":-2.08671,"postcode":"WV11 1ND","la":"Wolverhampton","era":"other","nn":295,"risk":26,"cat":"green"},{"name":"West End Working Mens Club","lat":52.57911,"lon":-2.14202,"postcode":"WV3 0RW","la":"Wolverhampton","era":"trad","nn":154,"risk":25,"cat":"green"},{"name":"Whitmore Reans W.M. Club","lat":52.5947,"lon":-2.14238,"postcode":"WV6 0QN","la":"Wolverhampton","era":"other","nn":255,"risk":26,"cat":"green"},{"name":"Wolverhampton Bridge Club","lat":52.60562,"lon":-2.12594,"postcode":"WV10 9LE","la":"Wolverhampton","era":"other","nn":454,"risk":27,"cat":"green"},{"name":"Wolverhampton United F.C.","lat":52.60571,"lon":-2.09322,"postcode":"WV11 1HN","la":"Wolverhampton","era":"other","nn":228,"risk":25,"cat":"green"},{"name":"Woodfield Social & Sports Club","lat":52.56629,"lon":-2.14664,"postcode":"WV4 4AD","la":"Wolverhampton","era":"mod","nn":168,"risk":28,"cat":"green"},{"name":"W'Ton Electricity SPT & Social Club","lat":52.58416,"lon":-2.13843,"postcode":"WV3 0QH","la":"Wolverhampton","era":"mod","nn":114,"risk":25,"cat":"green"}]