[{"name":"Bar 35","lat":50.83071,"lon":-4.54448,"postcode":"EX23 8BS","la":"Cornwall","era":"mod","nn":102,"risk":17,"cat":"green"},{"name":"Bencoolen Inn","lat":50.8263,"lon":-4.54275,"postcode":"EX23 8PJ","la":"Cornwall","era":"trad","nn":246,"risk":18,"cat":"green"},{"name":"Bude Social Club","lat":50.8296,"lon":-4.54538,"postcode":"EX23 8JZ","la":"Cornwall","era":"mod","nn":87,"risk":17,"cat":"green"},{"name":"Granville Lodge Of Masons","lat":50.82753,"lon":-4.54565,"postcode":"EX23 8LE","la":"Cornwall","era":"trad","nn":154,"risk":17,"cat":"green"},{"name":"Kerenza Hotel Cornwall","lat":50.83498,"lon":-4.54332,"postcode":"EX23 8RE","la":"Cornwall","era":"other","nn":481,"risk":20,"cat":"green"},{"name":"Kings Arms","lat":50.82981,"lon":-4.51462,"postcode":"EX23 9BX","la":"Cornwall","era":"trad","nn":71,"risk":37,"cat":"amber"},{"name":"North Coast Wine Lounge","lat":50.82981,"lon":-4.54419,"postcode":"EX23 8BH","la":"Cornwall","era":"mod","nn":87,"risk":17,"cat":"green"},{"name":"Seasons Holidays Plc","lat":50.42225,"lon":-5.03999,"postcode":"EX23 8SF","la":"Cornwall","era":"other","nn":247,"risk":38,"cat":"amber"},{"name":"The Brendon Arms","lat":50.82689,"lon":-4.54799,"postcode":"EX23 8SD","la":"Cornwall","era":"trad","nn":179,"risk":18,"cat":"green"},{"name":"The Carriers Inn","lat":50.82861,"lon":-4.54428,"postcode":"EX23 8QU","la":"Cornwall","era":"trad","nn":134,"risk":17,"cat":"green"},{"name":"The Coombe Barton Inn","lat":50.74108,"lon":-4.63125,"postcode":"EX23 0JG","la":"Cornwall","era":"trad","nn":3944,"risk":66,"cat":"red"},{"name":"The New Inn","lat":50.87657,"lon":-4.48341,"postcode":"EX23 9QN","la":"Cornwall","era":"trad","nn":4867,"risk":73,"cat":"red"},{"name":"The Old Orchard Inn","lat":50.74652,"lon":-4.50051,"postcode":"EX22 6UN","la":"Cornwall","era":"trad","nn":5739,"risk":74,"cat":"red"},{"name":"The Old Wainhouse Inn","lat":50.73023,"lon":-4.5779,"postcode":"EX23 0BA","la":"Cornwall","era":"other","nn":3944,"risk":66,"cat":"red"},{"name":"The Preston Gate Inn","lat":50.84036,"lon":-4.52236,"postcode":"EX23 9ET","la":"Cornwall","era":"trad","nn":1272,"risk":48,"cat":"amber"},{"name":"The Tree Inn","lat":50.83025,"lon":-4.51389,"postcode":"EX23 9DA","la":"Cornwall","era":"trad","nn":71,"risk":37,"cat":"amber"},{"name":"5 Bells Community Pub","lat":50.80425,"lon":-3.38139,"postcode":"EX15 2NT","la":"East Devon","era":"other","nn":2848,"risk":68,"cat":"red"},{"name":"Anchor Inn","lat":50.67961,"lon":-3.2379,"postcode":"EX10 8LP","la":"East Devon","era":"trad","nn":156,"risk":27,"cat":"green"},{"name":"Axe Yacht Club","lat":50.70456,"lon":-3.06066,"postcode":"EX12 4AA","la":"East Devon","era":"other","nn":445,"risk":31,"cat":"amber"},{"name":"Axminster Conservative Club","lat":50.78103,"lon":-2.99846,"postcode":"EX13 5AH","la":"East Devon","era":"other","nn":0,"risk":26,"cat":"green"},{"name":"Axminster Town Football Club","lat":50.79075,"lon":-2.98732,"postcode":"EX13 5HN","la":"East Devon","era":"other","nn":1147,"risk":56,"cat":"amber"},{"name":"Barrel Of Beer","lat":50.69776,"lon":-3.09239,"postcode":"EX12 3EQ","la":"East Devon","era":"other","nn":72,"risk":44,"cat":"amber"},{"name":"Beer Sailing Club","lat":50.69409,"lon":-3.09671,"postcode":"EX12 3AQ","la":"East Devon","era":"other","nn":484,"risk":47,"cat":"amber"},{"name":"Bicton Inn","lat":50.61859,"lon":-3.40955,"postcode":"EX8 2RU","la":"East Devon","era":"trad","nn":139,"risk":27,"cat":"green"},{"name":"Blacksmith Arms","lat":50.81755,"lon":-3.34675,"postcode":"EX15 2JU","la":"East Devon","era":"trad","nn":2848,"risk":68,"cat":"red"},{"name":"Blue Ball Inn","lat":50.70198,"lon":-3.21967,"postcode":"EX10 9QL","la":"East Devon","era":"trad","nn":1446,"risk":58,"cat":"amber"},{"name":"Broadclyst Social Club","lat":50.76561,"lon":-3.4436,"postcode":"EX5 3EE","la":"East Devon","era":"mod","nn":80,"risk":46,"cat":"amber"},{"name":"Budleigh Salterton Club","lat":50.62902,"lon":-3.32208,"postcode":"EX9 6NJ","la":"East Devon","era":"other","nn":232,"risk":30,"cat":"green"},{"name":"Budleigh Salterton Croquet Club Ltd","lat":50.63269,"lon":-3.32633,"postcode":"EX9 6ST","la":"East Devon","era":"other","nn":338,"risk":31,"cat":"amber"},{"name":"Budleigh Salterton Football Club","lat":50.6363,"lon":-3.32985,"postcode":"EX9 6SG","la":"East Devon","era":"other","nn":471,"risk":29,"cat":"green"},{"name":"Cranberry Farm","lat":50.75046,"lon":-3.39967,"postcode":"EX5 7FN","la":"East Devon","era":"other","nn":458,"risk":49,"cat":"amber"},{"name":"Cranford Sports Club","lat":50.6209,"lon":-3.39781,"postcode":"EX8 2EQ","la":"East Devon","era":"other","nn":867,"risk":32,"cat":"amber"},{"name":"Crossways Tavern","lat":50.81065,"lon":-3.42412,"postcode":"EX5 4PW","la":"East Devon","era":"trad","nn":1773,"risk":61,"cat":"red"},{"name":"Diggers rest ltd","lat":50.69363,"lon":-3.40081,"postcode":"EX5 1PQ","la":"East Devon","era":"other","nn":1789,"risk":61,"cat":"red"},{"name":"Duke Of York Inn","lat":50.73384,"lon":-3.43561,"postcode":"EX5 2NH","la":"East Devon","era":"trad","nn":82,"risk":46,"cat":"amber"},{"name":"East Devon Golf Club","lat":50.62724,"lon":-3.3377,"postcode":"EX9 6DG","la":"East Devon","era":"other","nn":735,"risk":48,"cat":"amber"},{"name":"Exeter Inn","lat":50.73335,"lon":-3.43648,"postcode":"EX5 2NJ","la":"East Devon","era":"trad","nn":82,"risk":46,"cat":"amber"},{"name":"Exmouth Arms","lat":50.62104,"lon":-3.41191,"postcode":"EX8 1PN","la":"East Devon","era":"trad","nn":84,"risk":26,"cat":"green"},{"name":"Exmouth Conservative Club","lat":50.62082,"lon":-3.41311,"postcode":"EX8 1RH","la":"East Devon","era":"other","nn":52,"risk":26,"cat":"green"},{"name":"Exmouth Cricket Club","lat":50.61309,"lon":-3.40846,"postcode":"EX8 2AY","la":"East Devon","era":"other","nn":409,"risk":29,"cat":"green"},{"name":"Exmouth Masonic Club","lat":50.61868,"lon":-3.41546,"postcode":"EX8 1AP","la":"East Devon","era":"trad","nn":39,"risk":26,"cat":"green"},{"name":"Exmouth Rugby Football Club","lat":50.62033,"lon":-3.41771,"postcode":"EX8 1DG","la":"East Devon","era":"other","nn":151,"risk":27,"cat":"green"},{"name":"Exmouth Town Football Club","lat":50.62659,"lon":-3.41292,"postcode":"EX8 3EE","la":"East Devon","era":"other","nn":298,"risk":28,"cat":"green"},{"name":"Famous Old Barrel","lat":50.61978,"lon":-3.41081,"postcode":"EX8 1JA","la":"East Devon","era":"other","nn":75,"risk":26,"cat":"green"},{"name":"Farmhouse Inn","lat":50.63748,"lon":-3.39222,"postcode":"EX8 4JJ","la":"East Devon","era":"other","nn":901,"risk":52,"cat":"amber"},{"name":"Feniton Bowling Club","lat":50.78668,"lon":-3.26719,"postcode":"EX14 3BB","la":"East Devon","era":"other","nn":1001,"risk":55,"cat":"amber"},{"name":"Feniton Sports And Social Club","lat":50.78738,"lon":-3.28187,"postcode":"EX14 3DF","la":"East Devon","era":"mod","nn":266,"risk":48,"cat":"amber"},{"name":"First and Last Inn","lat":50.61918,"lon":-3.41129,"postcode":"EX8 1PE","la":"East Devon","era":"trad","nn":0,"risk":26,"cat":"green"},{"name":"Fountain Head Inn","lat":50.69391,"lon":-3.15119,"postcode":"EX12 3BG","la":"East Devon","era":"trad","nn":1543,"risk":59,"cat":"amber"},{"name":"Golden Lion","lat":50.71838,"lon":-3.28857,"postcode":"EX10 0AA","la":"East Devon","era":"trad","nn":2134,"risk":63,"cat":"red"},{"name":"Hare And Hounds","lat":50.76067,"lon":-3.21898,"postcode":"EX10 0QQ","la":"East Devon","era":"trad","nn":3468,"risk":73,"cat":"red"},{"name":"Holly Tree","lat":50.62899,"lon":-3.40074,"postcode":"EX8 3AN","la":"East Devon","era":"trad","nn":234,"risk":27,"cat":"green"},{"name":"Honiton Bowling Club","lat":50.79632,"lon":-3.19253,"postcode":"EX14 2DP","la":"East Devon","era":"other","nn":236,"risk":27,"cat":"green"},{"name":"Honiton Conservative Club","lat":50.79843,"lon":-3.19285,"postcode":"EX14 1JX","la":"East Devon","era":"other","nn":58,"risk":26,"cat":"green"},{"name":"Honiton Working Mens Club","lat":50.80076,"lon":-3.18899,"postcode":"EX14 1QN","la":"East Devon","era":"trad","nn":130,"risk":27,"cat":"green"},{"name":"Hunters Lodge Inn","lat":50.76174,"lon":-2.96325,"postcode":"EX13 5SZ","la":"East Devon","era":"trad","nn":2918,"risk":69,"cat":"red"},{"name":"Kings Arms","lat":50.70878,"lon":-3.06986,"postcode":"EX12 2AN","la":"East Devon","era":"trad","nn":248,"risk":30,"cat":"green"},{"name":"Kings Arms Inn","lat":50.8364,"lon":-3.07493,"postcode":"EX14 9BS","la":"East Devon","era":"trad","nn":4177,"risk":78,"cat":"red"},{"name":"LED","lat":50.62796,"lon":-3.40362,"postcode":"EX8 3AE","la":"East Devon","era":"other","nn":234,"risk":27,"cat":"green"},{"name":"Liverton Copse Community Centre","lat":50.63146,"lon":-3.38368,"postcode":"EX8 4SW","la":"East Devon","era":"other","nn":901,"risk":52,"cat":"amber"},{"name":"Maltsters Arms","lat":50.67475,"lon":-3.40311,"postcode":"EX5 1LN","la":"East Devon","era":"trad","nn":76,"risk":46,"cat":"amber"},{"name":"Manor Pavilion Theatre And Arts Centre","lat":50.67993,"lon":-3.24282,"postcode":"EX10 8RP","la":"East Devon","era":"trad","nn":118,"risk":27,"cat":"green"},{"name":"Mark Loftin T/A The Dog And Donkey","lat":50.63599,"lon":-3.34341,"postcode":"EX9 6AL","la":"East Devon","era":"other","nn":957,"risk":52,"cat":"amber"},{"name":"Masons Arms","lat":50.69371,"lon":-3.12928,"postcode":"EX12 3DJ","la":"East Devon","era":"trad","nn":1543,"risk":59,"cat":"amber"},{"name":"New Fountain Inn Whimple Ltd","lat":50.76545,"lon":-3.35709,"postcode":"EX5 2TA","la":"East Devon","era":"trad","nn":760,"risk":51,"cat":"amber"},{"name":"Nog Inn","lat":50.78664,"lon":-3.28547,"postcode":"EX14 3BT","la":"East Devon","era":"trad","nn":266,"risk":48,"cat":"amber"},{"name":"Otter Inn","lat":50.79528,"lon":-3.21838,"postcode":"EX14 3NZ","la":"East Devon","era":"trad","nn":1113,"risk":56,"cat":"amber"},{"name":"Ottery St Mary Bowling Club","lat":50.74616,"lon":-3.28916,"postcode":"EX11 1RG","la":"East Devon","era":"other","nn":160,"risk":44,"cat":"amber"},{"name":"Ottery St Mary Cricket Club","lat":50.74473,"lon":-3.28937,"postcode":"EX11 1RG","la":"East Devon","era":"other","nn":160,"risk":44,"cat":"amber"},{"name":"Ottery St Mary Football Club","lat":50.75602,"lon":-3.2739,"postcode":"EX11 1EL","la":"East Devon","era":"other","nn":688,"risk":51,"cat":"amber"},{"name":"Palm","lat":50.61951,"lon":-3.41362,"postcode":"EX8 1HE","la":"East Devon","era":"other","nn":46,"risk":26,"cat":"green"},{"name":"Pebbles Bar And Restaurant","lat":50.65973,"lon":-3.27961,"postcode":"EX9 7BX","la":"East Devon","era":"mod","nn":1396,"risk":58,"cat":"amber"},{"name":"Pitchside","lat":50.71081,"lon":-3.06842,"postcode":"EX12 2DF","la":"East Devon","era":"other","nn":248,"risk":30,"cat":"green"},{"name":"Puffing Billy Inn","lat":50.66812,"lon":-3.44236,"postcode":"EX3 0TR","la":"East Devon","era":"trad","nn":1121,"risk":56,"cat":"amber"},{"name":"Radway Inn","lat":50.68263,"lon":-3.23831,"postcode":"EX10 8PY","la":"East Devon","era":"trad","nn":290,"risk":28,"cat":"green"},{"name":"Red Lion","lat":50.76632,"lon":-3.44372,"postcode":"EX5 3EL","la":"East Devon","era":"trad","nn":80,"risk":46,"cat":"amber"},{"name":"Ridgeway","lat":50.80353,"lon":-2.99183,"postcode":"EX13 7JJ","la":"East Devon","era":"other","nn":1456,"risk":58,"cat":"amber"},{"name":"Royal British Legion Club (West Hill) Limited","lat":50.73859,"lon":-3.31919,"postcode":"EX11 1TX","la":"East Devon","era":"trad","nn":2207,"risk":64,"cat":"red"},{"name":"Saddlers Arms","lat":50.64754,"lon":-3.41652,"postcode":"EX8 5LS","la":"East Devon","era":"trad","nn":1067,"risk":56,"cat":"amber"},{"name":"Salterton Arms","lat":50.62975,"lon":-3.32517,"postcode":"EX9 6LX","la":"East Devon","era":"trad","nn":196,"risk":27,"cat":"green"},{"name":"Sidmouth Bowling Club","lat":50.68021,"lon":-3.24062,"postcode":"EX10 8NH","la":"East Devon","era":"other","nn":44,"risk":26,"cat":"green"},{"name":"Sidmouth Rugby Club","lat":50.68027,"lon":-3.24123,"postcode":"EX10 8NJ","la":"East Devon","era":"other","nn":44,"risk":26,"cat":"green"},{"name":"Sidmouth Town AFC","lat":50.69506,"lon":-3.23705,"postcode":"EX10 9JZ","la":"East Devon","era":"other","nn":336,"risk":46,"cat":"amber"},{"name":"Sidmouth Watersports Club","lat":50.67919,"lon":-3.23507,"postcode":"EX10 8BG","la":"East Devon","era":"other","nn":155,"risk":27,"cat":"green"},{"name":"Sir Walter Raleigh","lat":50.65566,"lon":-3.32227,"postcode":"EX9 7ED","la":"East Devon","era":"other","nn":1688,"risk":60,"cat":"amber"},{"name":"Six Bells Inn","lat":50.80818,"lon":-3.29507,"postcode":"EX14 3HR","la":"East Devon","era":"trad","nn":2488,"risk":66,"cat":"red"},{"name":"Spoken","lat":50.61916,"lon":-3.41399,"postcode":"EX8 1AL","la":"East Devon","era":"other","nn":46,"risk":26,"cat":"green"},{"name":"Swan Inn","lat":50.68043,"lon":-3.2361,"postcode":"EX10 8BY","la":"East Devon","era":"trad","nn":155,"risk":27,"cat":"green"},{"name":"Talaton Inn","lat":50.78858,"lon":-3.32339,"postcode":"EX5 2RQ","la":"East Devon","era":"trad","nn":2674,"risk":67,"cat":"red"},{"name":"The Agricultural Inn","lat":50.77388,"lon":-3.5237,"postcode":"EX5 5DP","la":"East Devon","era":"trad","nn":1204,"risk":57,"cat":"amber"},{"name":"The Ale Way","lat":50.77922,"lon":-3.00453,"postcode":"EX13 5PF","la":"East Devon","era":"other","nn":472,"risk":29,"cat":"green"},{"name":"The Anchor Inn","lat":50.6972,"lon":-3.09188,"postcode":"EX12 3ET","la":"East Devon","era":"trad","nn":72,"risk":44,"cat":"amber"},{"name":"The Axminster Inn","lat":50.78103,"lon":-2.99846,"postcode":"EX13 5AH","la":"East Devon","era":"trad","nn":0,"risk":26,"cat":"green"},{"name":"The Balfour Arms","lat":50.69415,"lon":-3.2416,"postcode":"EX10 9UZ","la":"East Devon","era":"trad","nn":336,"risk":46,"cat":"amber"},{"name":"The Bath House","lat":50.61554,"lon":-3.41278,"postcode":"EX8 2AZ","la":"East Devon","era":"other","nn":344,"risk":28,"cat":"green"},{"name":"The Beach","lat":50.61701,"lon":-3.42273,"postcode":"EX8 1DR","la":"East Devon","era":"other","nn":172,"risk":27,"cat":"green"},{"name":"The Blue Ball","lat":50.71036,"lon":-3.46216,"postcode":"EX2 7JL","la":"East Devon","era":"other","nn":427,"risk":46,"cat":"amber"},{"name":"The Cannon Inn","lat":50.70005,"lon":-3.29756,"postcode":"EX10 0DW","la":"East Devon","era":"trad","nn":2134,"risk":63,"cat":"red"},{"name":"The Castle Inn","lat":50.783,"lon":-2.99809,"postcode":"EX13 5NN","la":"East Devon","era":"trad","nn":139,"risk":27,"cat":"green"},{"name":"The Clinton Arms","lat":50.62164,"lon":-3.3749,"postcode":"EX8 2RL","la":"East Devon","era":"trad","nn":1255,"risk":57,"cat":"amber"},{"name":"The Drewe Arms","lat":50.83506,"lon":-3.27734,"postcode":"EX14 3NF","la":"East Devon","era":"trad","nn":3239,"risk":71,"cat":"red"},{"name":"The Feathers","lat":50.62956,"lon":-3.32794,"postcode":"EX9 6LE","la":"East Devon","era":"other","nn":196,"risk":27,"cat":"green"},{"name":"The Flintlock Inn","lat":50.88996,"lon":-3.05999,"postcode":"EX14 9AJ","la":"East Devon","era":"trad","nn":2186,"risk":64,"cat":"red"},{"name":"The Greyhound Inn","lat":50.77784,"lon":-3.26456,"postcode":"EX14 3BJ","la":"East Devon","era":"trad","nn":1001,"risk":55,"cat":"amber"},{"name":"The Grove","lat":50.61677,"lon":-3.42032,"postcode":"EX8 1BJ","la":"East Devon","era":"other","nn":172,"risk":27,"cat":"green"},{"name":"The Half Moon Inn","lat":50.70999,"lon":-3.45612,"postcode":"EX5 1BR","la":"East Devon","era":"trad","nn":427,"risk":46,"cat":"amber"},{"name":"The Harbour Inn","lat":50.71448,"lon":-3.05483,"postcode":"EX12 4AF","la":"East Devon","era":"trad","nn":117,"risk":47,"cat":"amber"},{"name":"The Heathfield Inn","lat":50.79048,"lon":-3.20449,"postcode":"EX14 2UG","la":"East Devon","era":"trad","nn":1063,"risk":56,"cat":"amber"},{"name":"The Heavitree - Project X","lat":50.61865,"lon":-3.41298,"postcode":"EX8 1NP","la":"East Devon","era":"other","nn":76,"risk":26,"cat":"green"},{"name":"The Hind","lat":50.74672,"lon":-3.03155,"postcode":"EX13 8AU","la":"East Devon","era":"other","nn":2675,"risk":67,"cat":"red"},{"name":"The Jack in the Green","lat":50.75076,"lon":-3.39319,"postcode":"EX5 2EE","la":"East Devon","era":"other","nn":458,"risk":49,"cat":"amber"},{"name":"The Kingfisher","lat":50.74098,"lon":-3.06885,"postcode":"EX24 6NA","la":"East Devon","era":"trad","nn":515,"risk":49,"cat":"amber"},{"name":"The Kings Arms","lat":50.66016,"lon":-3.2994,"postcode":"EX9 7HB","la":"East Devon","era":"trad","nn":1396,"risk":58,"cat":"amber"},{"name":"The Kitchen Stoke Canon Inn","lat":50.77154,"lon":-3.50699,"postcode":"EX5 4AR","la":"East Devon","era":"other","nn":1204,"risk":57,"cat":"amber"},{"name":"The Lamb Inn","lat":50.7806,"lon":-2.99211,"postcode":"EX13 5BE","la":"East Devon","era":"trad","nn":365,"risk":28,"cat":"green"},{"name":"The Loft","lat":50.61918,"lon":-3.41129,"postcode":"EX8 1PE","la":"East Devon","era":"other","nn":0,"risk":26,"cat":"green"},{"name":"The Marine","lat":50.67815,"lon":-3.23915,"postcode":"EX10 8BB","la":"East Devon","era":"other","nn":185,"risk":27,"cat":"green"},{"name":"The New Inn","lat":50.77894,"lon":-3.04044,"postcode":"EX13 7SF","la":"East Devon","era":"trad","nn":584,"risk":50,"cat":"amber"},{"name":"The Nightjar Inn","lat":50.71814,"lon":-3.36301,"postcode":"EX5 2BX","la":"East Devon","era":"trad","nn":2021,"risk":62,"cat":"red"},{"name":"The Old Inn","lat":50.79883,"lon":-2.93267,"postcode":"EX13 5XD","la":"East Devon","era":"trad","nn":3945,"risk":76,"cat":"red"},{"name":"The Old Inn","lat":50.77895,"lon":-3.03213,"postcode":"EX13 7RB","la":"East Devon","era":"trad","nn":584,"risk":50,"cat":"amber"},{"name":"The Old Picture House","lat":50.70407,"lon":-3.06694,"postcode":"EX12 2LZ","la":"East Devon","era":"other","nn":245,"risk":30,"cat":"green"},{"name":"The Otter Inn","lat":50.67739,"lon":-3.30855,"postcode":"EX10 0LE","la":"East Devon","era":"trad","nn":2022,"risk":62,"cat":"red"},{"name":"The Park Hotel","lat":50.6244,"lon":-3.41047,"postcode":"EX8 1QH","la":"East Devon","era":"other","nn":298,"risk":28,"cat":"green"},{"name":"The Pavilion","lat":50.73669,"lon":-3.0661,"postcode":"EX24 6PU","la":"East Devon","era":"trad","nn":515,"risk":49,"cat":"amber"},{"name":"The Phoenix","lat":50.62178,"lon":-3.41171,"postcode":"EX8 1PT","la":"East Devon","era":"other","nn":84,"risk":26,"cat":"green"},{"name":"The Pilot Inn","lat":50.61853,"lon":-3.41404,"postcode":"EX8 1NY","la":"East Devon","era":"trad","nn":70,"risk":26,"cat":"green"},{"name":"The Powder Monkey","lat":50.62031,"lon":-3.41361,"postcode":"EX8 1RJ","la":"East Devon","era":"trad","nn":56,"risk":26,"cat":"green"},{"name":"The Queen Vic","lat":50.61891,"lon":-3.41506,"postcode":"EX8 1AQ","la":"East Devon","era":"trad","nn":39,"risk":26,"cat":"green"},{"name":"The Red Lion","lat":50.78209,"lon":-2.99674,"postcode":"EX13 5AU","la":"East Devon","era":"trad","nn":139,"risk":27,"cat":"green"},{"name":"The Ship Inn","lat":50.7144,"lon":-3.05318,"postcode":"EX12 4AF","la":"East Devon","era":"trad","nn":117,"risk":47,"cat":"amber"},{"name":"The Sidmouth Arms","lat":50.86296,"lon":-3.13575,"postcode":"EX14 9PN","la":"East Devon","era":"trad","nn":5026,"risk":83,"cat":"red"},{"name":"The Sidmouth Club","lat":50.67885,"lon":-3.2421,"postcode":"EX10 8NT","la":"East Devon","era":"other","nn":131,"risk":27,"cat":"green"},{"name":"The Stables","lat":50.75464,"lon":-3.55333,"postcode":"EX5 5ER","la":"East Devon","era":"other","nn":1554,"risk":59,"cat":"amber"},{"name":"The Star Inn","lat":50.79824,"lon":-3.18812,"postcode":"EX14 1BS","la":"East Devon","era":"trad","nn":218,"risk":27,"cat":"green"},{"name":"The Strand","lat":50.62079,"lon":-3.41384,"postcode":"EX8 1RS","la":"East Devon","era":"other","nn":52,"risk":26,"cat":"green"},{"name":"The Swan Inn","lat":50.64783,"lon":-3.43165,"postcode":"EX8 5ET","la":"East Devon","era":"trad","nn":1067,"risk":56,"cat":"amber"},{"name":"The Tuckers Arms","lat":50.7991,"lon":-3.06777,"postcode":"EX13 7EG","la":"East Devon","era":"trad","nn":2953,"risk":69,"cat":"red"},{"name":"The Vault Bar","lat":50.70376,"lon":-3.07038,"postcode":"EX12 2LN","la":"East Devon","era":"other","nn":245,"risk":30,"cat":"green"},{"name":"The Vine Inn And Tea Room","lat":50.8,"lon":-3.19039,"postcode":"EX14 1NN","la":"East Devon","era":"trad","nn":57,"risk":26,"cat":"green"},{"name":"The Volunteer","lat":50.79882,"lon":-3.1934,"postcode":"EX14 1LQ","la":"East Devon","era":"other","nn":58,"risk":26,"cat":"green"},{"name":"The Volunteer Inn","lat":50.68752,"lon":-3.2374,"postcode":"EX10 9BQ","la":"East Devon","era":"trad","nn":548,"risk":30,"cat":"green"},{"name":"The Wheelwright Inn","lat":50.72725,"lon":-3.06228,"postcode":"EX24 6QQ","la":"East Devon","era":"trad","nn":278,"risk":48,"cat":"amber"},{"name":"The White Hart","lat":50.67539,"lon":-3.40346,"postcode":"EX5 1HN","la":"East Devon","era":"trad","nn":76,"risk":46,"cat":"amber"},{"name":"Three Tuns","lat":50.79949,"lon":-3.19052,"postcode":"EX14 1HR","la":"East Devon","era":"other","nn":57,"risk":26,"cat":"green"},{"name":"Toby Carvery Lympstone","lat":50.66232,"lon":-3.42934,"postcode":"EX8 5AJ","la":"East Devon","era":"other","nn":1121,"risk":56,"cat":"amber"},{"name":"Tytherleigh Arms Hotel","lat":50.82621,"lon":-2.96864,"postcode":"EX13 7BE","la":"East Devon","era":"trad","nn":2346,"risk":65,"cat":"red"},{"name":"Upton Pyne Club","lat":50.76799,"lon":-3.54685,"postcode":"EX5 5JA","la":"East Devon","era":"other","nn":1554,"risk":59,"cat":"amber"},{"name":"Volunteer Inn","lat":50.75083,"lon":-3.27924,"postcode":"EX11 1BZ","la":"East Devon","era":"trad","nn":688,"risk":36,"cat":"amber"},{"name":"Webb Enterprises Cat And Fiddle","lat":50.71,"lon":-3.42308,"postcode":"EX5 1DP","la":"East Devon","era":"other","nn":2327,"risk":65,"cat":"red"},{"name":"Whimple Cricket Club","lat":50.77149,"lon":-3.36217,"postcode":"EX5 2NT","la":"East Devon","era":"other","nn":760,"risk":51,"cat":"amber"},{"name":"White Hart Inn","lat":50.72861,"lon":-3.05896,"postcode":"EX24 6QF","la":"East Devon","era":"trad","nn":278,"risk":48,"cat":"amber"},{"name":"White Horse Inn","lat":50.70533,"lon":-3.38336,"postcode":"EX5 1EP","la":"East Devon","era":"trad","nn":1789,"risk":61,"cat":"red"},{"name":"Wings Bar","lat":50.62031,"lon":-3.41558,"postcode":"EX8 1DB","la":"East Devon","era":"other","nn":73,"risk":26,"cat":"green"},{"name":"Withycombe Rugby Club","lat":50.62963,"lon":-3.4065,"postcode":"EX8 3HS","la":"East Devon","era":"other","nn":275,"risk":28,"cat":"green"},{"name":"York Inn","lat":50.62049,"lon":-3.41458,"postcode":"EX8 1BY","la":"East Devon","era":"trad","nn":62,"risk":26,"cat":"green"},{"name":"12 Bar Music and Social","lat":50.72489,"lon":-3.52615,"postcode":"EX1 1GA","la":"Exeter","era":"mod","nn":170,"risk":26,"cat":"green"},{"name":"All Stars Sports Bar","lat":50.72638,"lon":-3.52565,"postcode":"EX4 6NN","la":"Exeter","era":"other","nn":50,"risk":25,"cat":"green"},{"name":"Alphington Royal British Legion Club","lat":50.70452,"lon":-3.53461,"postcode":"EX2 8TF","la":"Exeter","era":"trad","nn":164,"risk":26,"cat":"green"},{"name":"Alphington Sports Club","lat":50.70306,"lon":-3.53425,"postcode":"EX2 8SW","la":"Exeter","era":"other","nn":164,"risk":26,"cat":"green"},{"name":"Badavi`s Lounge","lat":50.72772,"lon":-3.52701,"postcode":"EX4 6AW","la":"Exeter","era":"mod","nn":107,"risk":26,"cat":"green"},{"name":"Bishops Blaize","lat":50.71884,"lon":-3.53241,"postcode":"EX2 4AB","la":"Exeter","era":"trad","nn":68,"risk":26,"cat":"green"},{"name":"Black Horse Inn","lat":50.72678,"lon":-3.52733,"postcode":"EX4 6AB","la":"Exeter","era":"trad","nn":78,"risk":26,"cat":"green"},{"name":"Boom Battle Bar Exeter","lat":50.72388,"lon":-3.5327,"postcode":"EX4 3HL","la":"Exeter","era":"mod","nn":69,"risk":26,"cat":"green"},{"name":"Bootlegger Bars Ltd","lat":50.72152,"lon":-3.53436,"postcode":"EX4 3AT","la":"Exeter","era":"other","nn":0,"risk":25,"cat":"green"},{"name":"Bridge Inn","lat":50.6846,"lon":-3.45964,"postcode":"EX3 0QQ","la":"Exeter","era":"trad","nn":342,"risk":28,"cat":"green"},{"name":"British Railway Club","lat":50.71788,"lon":-3.53857,"postcode":"EX4 1AA","la":"Exeter","era":"trad","nn":0,"risk":25,"cat":"green"},{"name":"Castle Street Sports & Entertainment","lat":50.72548,"lon":-3.52885,"postcode":"EX4 3PX","la":"Exeter","era":"other","nn":0,"risk":25,"cat":"green"},{"name":"City Gate","lat":50.7238,"lon":-3.53507,"postcode":"EX4 3RB","la":"Exeter","era":"other","nn":124,"risk":26,"cat":"green"},{"name":"Conservative Club","lat":50.721,"lon":-3.50562,"postcode":"EX2 5EH","la":"Exeter","era":"other","nn":35,"risk":25,"cat":"green"},{"name":"Coolings on Gandy Street","lat":50.72482,"lon":-3.53126,"postcode":"EX4 3LS","la":"Exeter","era":"other","nn":0,"risk":25,"cat":"green"},{"name":"Cowick Barton","lat":50.70876,"lon":-3.54623,"postcode":"EX2 9HF","la":"Exeter","era":"other","nn":547,"risk":29,"cat":"green"},{"name":"Crocketts","lat":50.72493,"lon":-3.53188,"postcode":"EX4 3NB","la":"Exeter","era":"other","nn":16,"risk":25,"cat":"green"},{"name":"Cross Keys Bar & Cafe","lat":50.72333,"lon":-3.51664,"postcode":"EX1 2LT","la":"Exeter","era":"other","nn":365,"risk":28,"cat":"green"},{"name":"David Lloyd Leisure","lat":50.70963,"lon":-3.46832,"postcode":"EX2 7NN","la":"Exeter","era":"other","nn":442,"risk":46,"cat":"amber"},{"name":"Devon & Exeter Institution","lat":50.72307,"lon":-3.5291,"postcode":"EX1 1EZ","la":"Exeter","era":"other","nn":115,"risk":26,"cat":"green"},{"name":"Devon And Exeter Squash Club","lat":50.73369,"lon":-3.52793,"postcode":"EX4 4PR","la":"Exeter","era":"other","nn":202,"risk":27,"cat":"green"},{"name":"Dolphin Inn","lat":50.70907,"lon":-3.50673,"postcode":"EX2 6BG","la":"Exeter","era":"trad","nn":190,"risk":29,"cat":"green"},{"name":"Double Locks Hotel","lat":50.7,"lon":-3.51274,"postcode":"EX2 6LT","la":"Exeter","era":"other","nn":823,"risk":48,"cat":"amber"},{"name":"Duke of York Inn Exeter","lat":50.72792,"lon":-3.52318,"postcode":"EX4 6PH","la":"Exeter","era":"trad","nn":204,"risk":27,"cat":"green"},{"name":"EX4 BAR","lat":50.72156,"lon":-3.53432,"postcode":"EX4 3AT","la":"Exeter","era":"other","nn":5,"risk":25,"cat":"green"},{"name":"Exe Water Sports Club","lat":50.71659,"lon":-3.53019,"postcode":"EX2 8DP","la":"Exeter","era":"other","nn":137,"risk":26,"cat":"green"},{"name":"Exeter City Football Club","lat":50.7301,"lon":-3.52076,"postcode":"EX4 6PX","la":"Exeter","era":"other","nn":162,"risk":26,"cat":"green"},{"name":"Exeter Community Centre Kitchen","lat":50.72495,"lon":-3.53736,"postcode":"EX4 3RG","la":"Exeter","era":"mod","nn":206,"risk":27,"cat":"green"},{"name":"Exeter Freemasons Hall","lat":50.72463,"lon":-3.53114,"postcode":"EX4 3LS","la":"Exeter","era":"trad","nn":23,"risk":25,"cat":"green"},{"name":"Exeter Golf and Country Club","lat":50.6992,"lon":-3.48795,"postcode":"EX2 7AE","la":"Exeter","era":"other","nn":1013,"risk":55,"cat":"amber"},{"name":"Exeter Phoenix Cafe Bar","lat":50.72482,"lon":-3.53126,"postcode":"EX4 3LS","la":"Exeter","era":"other","nn":0,"risk":25,"cat":"green"},{"name":"Exeter Saracens Rugby Football Club","lat":50.73712,"lon":-3.49001,"postcode":"EX4 8NT","la":"Exeter","era":"other","nn":476,"risk":28,"cat":"green"},{"name":"Exeter White Ensign Club","lat":50.72074,"lon":-3.53008,"postcode":"EX1 1ED","la":"Exeter","era":"other","nn":245,"risk":27,"cat":"green"},{"name":"Exonia Bowling Club","lat":50.73462,"lon":-3.52003,"postcode":"EX4 6HU","la":"Exeter","era":"other","nn":255,"risk":27,"cat":"green"},{"name":"Fever & Boutique","lat":50.72234,"lon":-3.53467,"postcode":"EX4 3AZ","la":"Exeter","era":"other","nn":65,"risk":26,"cat":"green"},{"name":"Great Western Hotel","lat":50.73056,"lon":-3.54221,"postcode":"EX4 4NU","la":"Exeter","era":"other","nn":174,"risk":26,"cat":"green"},{"name":"Green Gables Inn","lat":50.71676,"lon":-3.54772,"postcode":"EX4 1JH","la":"Exeter","era":"trad","nn":284,"risk":27,"cat":"green"},{"name":"Heavitree And Wonford United Services Club","lat":50.7158,"lon":-3.5,"postcode":"EX2 5DE","la":"Exeter","era":"other","nn":0,"risk":25,"cat":"green"},{"name":"Heavitree Social Club Ltd","lat":50.72107,"lon":-3.49755,"postcode":"EX1 3BS","la":"Exeter","era":"mod","nn":445,"risk":28,"cat":"green"},{"name":"Henrys Bar","lat":50.73106,"lon":-3.51411,"postcode":"EX4 7AB","la":"Exeter","era":"other","nn":217,"risk":27,"cat":"green"},{"name":"Isca Community Enterprises","lat":50.73907,"lon":-3.49603,"postcode":"EX4 8LZ","la":"Exeter","era":"other","nn":163,"risk":26,"cat":"green"},{"name":"Labour Clifton Hill Club","lat":50.72737,"lon":-3.5155,"postcode":"EX1 2DJ","la":"Exeter","era":"other","nn":311,"risk":27,"cat":"green"},{"name":"Little Drop Of Poison","lat":50.72152,"lon":-3.53436,"postcode":"EX4 3AT","la":"Exeter","era":"other","nn":0,"risk":25,"cat":"green"},{"name":"Lunchbox","lat":50.69948,"lon":-3.53498,"postcode":"EX2 8UP","la":"Exeter","era":"other","nn":81,"risk":26,"cat":"green"},{"name":"Mecca Bingo Clubs","lat":50.72284,"lon":-3.53416,"postcode":"EX4 3QS","la":"Exeter","era":"other","nn":65,"risk":26,"cat":"green"},{"name":"Mill On The Exe","lat":50.72181,"lon":-3.5393,"postcode":"EX4 3AB","la":"Exeter","era":"trad","nn":308,"risk":27,"cat":"green"},{"name":"Millbrook Village","lat":50.70739,"lon":-3.5071,"postcode":"EX2 6FD","la":"Exeter","era":"trad","nn":190,"risk":31,"cat":"amber"},{"name":"Mount Radford","lat":50.72112,"lon":-3.52096,"postcode":"EX2 4TA","la":"Exeter","era":"other","nn":391,"risk":28,"cat":"green"},{"name":"No.3 Gin Bar","lat":50.68302,"lon":-3.46589,"postcode":"EX3 0HF","la":"Exeter","era":"other","nn":79,"risk":26,"cat":"green"},{"name":"On the Waterfront","lat":50.71755,"lon":-3.52894,"postcode":"EX2 4AP","la":"Exeter","era":"other","nn":137,"risk":26,"cat":"green"},{"name":"Pig & Pickle","lat":50.72133,"lon":-3.50613,"postcode":"EX1 2QL","la":"Exeter","era":"other","nn":47,"risk":25,"cat":"green"},{"name":"Pinhoe Jubilee Club","lat":50.73887,"lon":-3.47119,"postcode":"EX4 8HS","la":"Exeter","era":"other","nn":705,"risk":50,"cat":"amber"},{"name":"Polsloe Priory Con. Club","lat":50.73032,"lon":-3.51696,"postcode":"EX4 6LN","la":"Exeter","era":"other","nn":64,"risk":26,"cat":"green"},{"name":"Port Royal Inn","lat":50.71559,"lon":-3.52601,"postcode":"EX2 4DR","la":"Exeter","era":"trad","nn":300,"risk":27,"cat":"green"},{"name":"Prospect Inn","lat":50.73246,"lon":-3.79749,"postcode":"EX2 4AN","la":"Exeter","era":"trad","nn":0,"risk":43,"cat":"amber"},{"name":"Pullo","lat":50.72051,"lon":-3.53543,"postcode":"EX4 3AN","la":"Exeter","era":"other","nn":29,"risk":25,"cat":"green"},{"name":"Queens Head Hotel","lat":50.73175,"lon":-3.50187,"postcode":"EX4 7JQ","la":"Exeter","era":"trad","nn":604,"risk":29,"cat":"green"},{"name":"Ram Bar","lat":50.73522,"lon":-3.53437,"postcode":"EX4 4PZ","la":"Exeter","era":"trad","nn":228,"risk":27,"cat":"green"},{"name":"Revolution","lat":50.72482,"lon":-3.53201,"postcode":"EX4 3RP","la":"Exeter","era":"other","nn":16,"risk":25,"cat":"green"},{"name":"Royal Oak","lat":50.72139,"lon":-3.50385,"postcode":"EX1 2RN","la":"Exeter","era":"trad","nn":13,"risk":25,"cat":"green"},{"name":"Royal Oak Inn","lat":50.71899,"lon":-3.54064,"postcode":"EX4 1DY","la":"Exeter","era":"trad","nn":156,"risk":26,"cat":"green"},{"name":"Samuel Jones Ale & Smoke House","lat":50.71831,"lon":-3.53196,"postcode":"EX2 4AE","la":"Exeter","era":"other","nn":68,"risk":26,"cat":"green"},{"name":"Sawyers Arms","lat":50.71532,"lon":-3.54438,"postcode":"EX4 1JD","la":"Exeter","era":"trad","nn":192,"risk":26,"cat":"green"},{"name":"Seven Stars","lat":50.70933,"lon":-3.53852,"postcode":"EX2 8JB","la":"Exeter","era":"other","nn":547,"risk":29,"cat":"green"},{"name":"Ship & Pelican","lat":50.72118,"lon":-3.5043,"postcode":"EX1 2RR","la":"Exeter","era":"trad","nn":30,"risk":25,"cat":"green"},{"name":"Ship Inn","lat":50.72357,"lon":-3.53053,"postcode":"EX1 1EY","la":"Exeter","era":"trad","nn":112,"risk":26,"cat":"green"},{"name":"St Anne's well","lat":50.72975,"lon":-3.52298,"postcode":"EX4 6QL","la":"Exeter","era":"other","nn":162,"risk":26,"cat":"green"},{"name":"St Thomas Bowling Club","lat":50.71382,"lon":-3.54572,"postcode":"EX2 9DD","la":"Exeter","era":"other","nn":192,"risk":26,"cat":"green"},{"name":"St Thomas Cricket Club","lat":50.70526,"lon":-3.53173,"postcode":"EX2 8PU","la":"Exeter","era":"other","nn":219,"risk":27,"cat":"green"},{"name":"Star Inn","lat":50.73262,"lon":-3.4934,"postcode":"EX4 8AW","la":"Exeter","era":"trad","nn":0,"risk":25,"cat":"green"},{"name":"The Bowling Green","lat":50.72986,"lon":-3.51751,"postcode":"EX4 6ST","la":"Exeter","era":"other","nn":64,"risk":26,"cat":"green"},{"name":"The Cavern Club","lat":50.72454,"lon":-3.53158,"postcode":"EX4 3RP","la":"Exeter","era":"other","nn":32,"risk":25,"cat":"green"},{"name":"The Chevalier Inn","lat":50.72221,"lon":-3.53268,"postcode":"EX4 3HR","la":"Exeter","era":"trad","nn":126,"risk":26,"cat":"green"},{"name":"The Clifton Bakery Pub & Restaurant","lat":50.72566,"lon":-3.52029,"postcode":"EX1 2BR","la":"Exeter","era":"other","nn":323,"risk":27,"cat":"green"},{"name":"The Cocktail Club Exeter","lat":50.72482,"lon":-3.53126,"postcode":"EX4 3LS","la":"Exeter","era":"other","nn":0,"risk":25,"cat":"green"},{"name":"The Devon Yeoman","lat":50.73887,"lon":-3.49833,"postcode":"EX4 8LX","la":"Exeter","era":"other","nn":163,"risk":26,"cat":"green"},{"name":"The Fat Pig","lat":50.72086,"lon":-3.53402,"postcode":"EX1 1BL","la":"Exeter","era":"other","nn":77,"risk":26,"cat":"green"},{"name":"The Globe Hotel","lat":50.68208,"lon":-3.46509,"postcode":"EX3 0HR","la":"Exeter","era":"other","nn":52,"risk":25,"cat":"green"},{"name":"The Golf Lounge Exeter","lat":50.70275,"lon":-3.53073,"postcode":"EX2 8RG","la":"Exeter","era":"mod","nn":250,"risk":27,"cat":"green"},{"name":"The Heavy Tree","lat":50.7214,"lon":-3.50404,"postcode":"EX1 2RN","la":"Exeter","era":"other","nn":13,"risk":25,"cat":"green"},{"name":"The Horse and Groom","lat":50.72129,"lon":-3.50547,"postcode":"EX1 2QL","la":"Exeter","era":"trad","nn":35,"risk":25,"cat":"green"},{"name":"The Imperial","lat":50.73031,"lon":-3.53977,"postcode":"EX4 4AH","la":"Exeter","era":"other","nn":174,"risk":26,"cat":"green"},{"name":"The Kings","lat":50.71788,"lon":-3.53857,"postcode":"EX4 1AA","la":"Exeter","era":"trad","nn":0,"risk":25,"cat":"green"},{"name":"The Lucombe Oak","lat":50.71759,"lon":-3.54066,"postcode":"EX4 1DG","la":"Exeter","era":"trad","nn":150,"risk":26,"cat":"green"},{"name":"The Malthouse","lat":50.71634,"lon":-3.53491,"postcode":"EX2 8BP","la":"Exeter","era":"other","nn":301,"risk":27,"cat":"green"},{"name":"The Monkey Suit","lat":50.72624,"lon":-3.52498,"postcode":"EX4 6RH","la":"Exeter","era":"trad","nn":50,"risk":25,"cat":"green"},{"name":"The New Inn","lat":50.69985,"lon":-3.53399,"postcode":"EX2 8TA","la":"Exeter","era":"trad","nn":81,"risk":26,"cat":"green"},{"name":"The Old Firehouse","lat":50.72675,"lon":-3.52844,"postcode":"EX4 4EP","la":"Exeter","era":"other","nn":78,"risk":26,"cat":"green"},{"name":"The Old Firestation","lat":50.68439,"lon":-3.46604,"postcode":"EX3 0HF","la":"Exeter","era":"other","nn":4,"risk":25,"cat":"green"},{"name":"The Passage House Inn","lat":50.68386,"lon":-3.46763,"postcode":"EX3 0JN","la":"Exeter","era":"other","nn":90,"risk":26,"cat":"green"},{"name":"The Pinhoe Hoard","lat":50.73515,"lon":-3.47929,"postcode":"EX4 8GA","la":"Exeter","era":"other","nn":705,"risk":48,"cat":"amber"},{"name":"The Sly Fox","lat":50.72047,"lon":-3.53502,"postcode":"EX4 3JQ","la":"Exeter","era":"trad","nn":29,"risk":25,"cat":"green"},{"name":"The Stoke Arms","lat":50.73462,"lon":-3.51258,"postcode":"EX4 7BZ","la":"Exeter","era":"trad","nn":411,"risk":28,"cat":"green"},{"name":"The Tally Ho","lat":50.70215,"lon":-3.50155,"postcode":"EX2 6LG","la":"Exeter","era":"other","nn":701,"risk":35,"cat":"amber"},{"name":"The Thatched House","lat":50.72637,"lon":-3.54885,"postcode":"EX4 2BQ","la":"Exeter","era":"other","nn":661,"risk":32,"cat":"amber"},{"name":"The Turks Head","lat":50.72339,"lon":-3.53209,"postcode":"EX4 3EB","la":"Exeter","era":"trad","nn":69,"risk":26,"cat":"green"},{"name":"The Twisted Oak","lat":50.70652,"lon":-3.5568,"postcode":"EX2 9RG","la":"Exeter","era":"trad","nn":306,"risk":32,"cat":"amber"},{"name":"Timepiece","lat":50.72548,"lon":-3.52885,"postcode":"EX4 3PX","la":"Exeter","era":"other","nn":0,"risk":25,"cat":"green"},{"name":"Topsham Bowling Club","lat":50.68443,"lon":-3.46605,"postcode":"EX3 0HF","la":"Exeter","era":"other","nn":4,"risk":25,"cat":"green"},{"name":"Topsham Conservative Club","lat":50.68255,"lon":-3.46505,"postcode":"EX3 0HD","la":"Exeter","era":"other","nn":52,"risk":25,"cat":"green"},{"name":"Topsham Masonic Club","lat":50.68337,"lon":-3.46409,"postcode":"EX3 0EU","la":"Exeter","era":"trad","nn":114,"risk":26,"cat":"green"},{"name":"Topsham Rugby Club","lat":50.69029,"lon":-3.4725,"postcode":"EX3 0LY","la":"Exeter","era":"other","nn":231,"risk":27,"cat":"green"},{"name":"Topsham Sailing Club","lat":50.68305,"lon":-3.46749,"postcode":"EX3 0JN","la":"Exeter","era":"other","nn":90,"risk":26,"cat":"green"},{"name":"Topsham Town A F C","lat":50.68877,"lon":-3.47026,"postcode":"EX3 0LT","la":"Exeter","era":"other","nn":231,"risk":27,"cat":"green"},{"name":"University of Exeter","lat":50.73546,"lon":-3.53759,"postcode":"EX4 4PD","la":"Exeter","era":"other","nn":228,"risk":27,"cat":"green"},{"name":"University of Exeter Lemon Grove","lat":50.73515,"lon":-3.52963,"postcode":"EX4 6TG","la":"Exeter","era":"other","nn":202,"risk":27,"cat":"green"},{"name":"Vaults","lat":50.72482,"lon":-3.53126,"postcode":"EX4 3LS","la":"Exeter","era":"other","nn":0,"risk":25,"cat":"green"},{"name":"Victoria Inn","lat":50.73362,"lon":-3.52329,"postcode":"EX4 6JQ","la":"Exeter","era":"trad","nn":255,"risk":27,"cat":"green"},{"name":"Whipton And Pinhoe Labour Club","lat":50.72896,"lon":-3.49165,"postcode":"EX1 3JT","la":"Exeter","era":"other","nn":425,"risk":28,"cat":"green"},{"name":"Whipton Institute","lat":50.73262,"lon":-3.4934,"postcode":"EX4 8AW","la":"Exeter","era":"other","nn":0,"risk":25,"cat":"green"},{"name":"Wonford Social Club","lat":50.7158,"lon":-3.5,"postcode":"EX2 5DE","la":"Exeter","era":"mod","nn":0,"risk":25,"cat":"green"},{"name":"Barley Mow","lat":50.90587,"lon":-3.48537,"postcode":"EX16 6QS","la":"Mid Devon","era":"other","nn":93,"risk":28,"cat":"green"},{"name":"Bell Inn","lat":50.85325,"lon":-3.39485,"postcode":"EX15 1ED","la":"Mid Devon","era":"trad","nn":158,"risk":31,"cat":"amber"},{"name":"Crediton Rugby Football Club","lat":50.79201,"lon":-3.64643,"postcode":"EX17 1EP","la":"Mid Devon","era":"other","nn":590,"risk":32,"cat":"amber"},{"name":"Cullompton Rangers AFC","lat":50.85122,"lon":-3.38665,"postcode":"EX15 1DW","la":"Mid Devon","era":"other","nn":609,"risk":35,"cat":"amber"},{"name":"Duke Of York","lat":50.79103,"lon":-3.66449,"postcode":"EX17 3JX","la":"Mid Devon","era":"trad","nn":243,"risk":30,"cat":"green"},{"name":"Elmore AFC","lat":50.90667,"lon":-3.47417,"postcode":"EX16 4DB","la":"Mid Devon","era":"trad","nn":790,"risk":33,"cat":"amber"},{"name":"Half Moon Inn","lat":50.90291,"lon":-3.48676,"postcode":"EX16 6LD","la":"Mid Devon","era":"trad","nn":70,"risk":28,"cat":"green"},{"name":"Halfway House","lat":50.89442,"lon":-3.37655,"postcode":"EX15 2RF","la":"Mid Devon","era":"other","nn":3520,"risk":75,"cat":"red"},{"name":"Higher Eggbeer Farm","lat":50.72012,"lon":-3.74682,"postcode":"EX6 6JQ","la":"Mid Devon","era":"other","nn":3821,"risk":77,"cat":"red"},{"name":"Kirton Cow","lat":50.79061,"lon":-3.6611,"postcode":"EX17 3JP","la":"Mid Devon","era":"other","nn":77,"risk":28,"cat":"green"},{"name":"Market House Inn","lat":50.85835,"lon":-3.3922,"postcode":"EX15 1AB","la":"Mid Devon","era":"other","nn":182,"risk":32,"cat":"amber"},{"name":"Plymouth Inn","lat":50.78812,"lon":-3.65214,"postcode":"EX17 3EW","la":"Mid Devon","era":"trad","nn":470,"risk":31,"cat":"amber"},{"name":"Remedies Bar","lat":50.90301,"lon":-3.48576,"postcode":"EX16 6QB","la":"Mid Devon","era":"other","nn":70,"risk":28,"cat":"green"},{"name":"St Peters Institute","lat":50.90593,"lon":-3.4867,"postcode":"EX16 6RE","la":"Mid Devon","era":"other","nn":53,"risk":28,"cat":"green"},{"name":"The Castle Inn","lat":50.82691,"lon":-3.42137,"postcode":"EX5 4NN","la":"Mid Devon","era":"trad","nn":173,"risk":49,"cat":"amber"},{"name":"The Culm Valley Inn","lat":50.91689,"lon":-3.27974,"postcode":"EX15 3JJ","la":"Mid Devon","era":"trad","nn":3713,"risk":76,"cat":"red"},{"name":"The Mitre","lat":50.79029,"lon":-3.65788,"postcode":"EX17 3AE","la":"Mid Devon","era":"other","nn":145,"risk":29,"cat":"green"},{"name":"The Pony & Trap","lat":50.85446,"lon":-3.39365,"postcode":"EX15 1DJ","la":"Mid Devon","era":"other","nn":158,"risk":31,"cat":"amber"},{"name":"The Queens Head","lat":50.9056,"lon":-3.48724,"postcode":"EX16 6RG","la":"Mid Devon","era":"trad","nn":53,"risk":28,"cat":"green"},{"name":"The Racehorse Inn","lat":50.90348,"lon":-3.49446,"postcode":"EX16 5JW","la":"Mid Devon","era":"trad","nn":109,"risk":29,"cat":"green"},{"name":"The Red Deer","lat":50.78325,"lon":-3.64505,"postcode":"EX17 3FD","la":"Mid Devon","era":"other","nn":737,"risk":50,"cat":"amber"},{"name":"The Red Lion Inn and Shop","lat":50.80054,"lon":-3.60924,"postcode":"EX17 1AT","la":"Mid Devon","era":"trad","nn":2780,"risk":70,"cat":"red"},{"name":"The Silverton Inn","lat":50.81641,"lon":-3.48396,"postcode":"EX5 4HP","la":"Mid Devon","era":"trad","nn":4253,"risk":80,"cat":"red"},{"name":"The Swan","lat":50.99005,"lon":-3.48856,"postcode":"EX16 9NG","la":"Mid Devon","era":"trad","nn":6902,"risk":85,"cat":"red"},{"name":"The Three Little Pigs","lat":50.79158,"lon":-3.6575,"postcode":"EX17 2BP","la":"Mid Devon","era":"other","nn":145,"risk":29,"cat":"green"},{"name":"The White Hart","lat":50.85673,"lon":-3.39249,"postcode":"EX15 1JS","la":"Mid Devon","era":"trad","nn":182,"risk":32,"cat":"amber"},{"name":"The White Lion","lat":50.82659,"lon":-3.42379,"postcode":"EX5 4QL","la":"Mid Devon","era":"trad","nn":173,"risk":49,"cat":"amber"},{"name":"Tiverton Bowling Club","lat":50.90952,"lon":-3.4865,"postcode":"EX16 6AU","la":"Mid Devon","era":"other","nn":399,"risk":31,"cat":"amber"},{"name":"Tiverton Constitutional Club","lat":50.90429,"lon":-3.48566,"postcode":"EX16 6AH","la":"Mid Devon","era":"other","nn":143,"risk":29,"cat":"green"},{"name":"Tiverton Golf Club","lat":50.9092,"lon":-3.43873,"postcode":"EX16 4NE","la":"Mid Devon","era":"other","nn":2501,"risk":68,"cat":"red"},{"name":"Tiverton Liberal Club","lat":50.90281,"lon":-3.48899,"postcode":"EX16 6PD","la":"Mid Devon","era":"other","nn":157,"risk":29,"cat":"green"},{"name":"Uffculme Mens Club","lat":50.90519,"lon":-3.32934,"postcode":"EX15 3EB","la":"Mid Devon","era":"other","nn":3520,"risk":75,"cat":"red"},{"name":"Valleyside Escapes","lat":50.85713,"lon":-3.50876,"postcode":"EX16 8RG","la":"Mid Devon","era":"other","nn":4852,"risk":84,"cat":"red"},{"name":"Westexe Sports & Social Club","lat":50.90363,"lon":-3.49293,"postcode":"EX16 5JW","la":"Mid Devon","era":"mod","nn":109,"risk":29,"cat":"green"},{"name":"White Swan Inn","lat":50.79073,"lon":-3.66003,"postcode":"EX17 3JP","la":"Mid Devon","era":"trad","nn":77,"risk":28,"cat":"green"},{"name":"Agricultural Inn","lat":51.10979,"lon":-4.16042,"postcode":"EX33 2EA","la":"North Devon","era":"trad","nn":135,"risk":26,"cat":"green"},{"name":"Bar Electric","lat":51.17266,"lon":-4.20578,"postcode":"EX34 7BP","la":"North Devon","era":"mod","nn":16,"risk":31,"cat":"amber"},{"name":"Bar Lush","lat":51.08029,"lon":-4.05835,"postcode":"EX31 1SX","la":"North Devon","era":"mod","nn":44,"risk":26,"cat":"green"},{"name":"Barnstaple And North Devon Liberal Club","lat":51.0799,"lon":-4.06104,"postcode":"EX31 1BA","la":"North Devon","era":"other","nn":100,"risk":26,"cat":"green"},{"name":"Barnstaple Conservative Club","lat":51.08265,"lon":-4.05942,"postcode":"EX31 1RW","la":"North Devon","era":"other","nn":149,"risk":27,"cat":"green"},{"name":"Barnstaple Rugby Club","lat":51.08291,"lon":-4.0667,"postcode":"EX31 1JH","la":"North Devon","era":"other","nn":0,"risk":26,"cat":"green"},{"name":"Barnstaple Social Club Ltd","lat":51.08556,"lon":-4.05231,"postcode":"EX32 7AU","la":"North Devon","era":"mod","nn":288,"risk":28,"cat":"green"},{"name":"Beer Matters Limited","lat":51.08115,"lon":-4.06188,"postcode":"EX31 1DH","la":"North Devon","era":"other","nn":90,"risk":26,"cat":"green"},{"name":"Billy Budds","lat":51.13023,"lon":-4.22465,"postcode":"EX33 1LZ","la":"North Devon","era":"other","nn":52,"risk":43,"cat":"amber"},{"name":"Blackcock Inn","lat":51.02307,"lon":-3.73291,"postcode":"EX36 3NW","la":"North Devon","era":"trad","nn":3016,"risk":69,"cat":"red"},{"name":"Braunton Bowling Club","lat":51.11098,"lon":-4.16084,"postcode":"EX33 2ES","la":"North Devon","era":"other","nn":135,"risk":26,"cat":"green"},{"name":"Castle Inn","lat":51.06207,"lon":-4.00144,"postcode":"EX32 0NF","la":"North Devon","era":"trad","nn":2469,"risk":65,"cat":"red"},{"name":"Castle Inn","lat":51.19949,"lon":-4.0246,"postcode":"EX34 0HS","la":"North Devon","era":"trad","nn":174,"risk":44,"cat":"amber"},{"name":"Chichester Arms","lat":51.18464,"lon":-4.20909,"postcode":"EX34 7DU","la":"North Devon","era":"trad","nn":142,"risk":47,"cat":"amber"},{"name":"Cork And Bottle","lat":51.08195,"lon":-4.0617,"postcode":"EX31 1JB","la":"North Devon","era":"other","nn":90,"risk":26,"cat":"green"},{"name":"Ebberley Arms","lat":51.0811,"lon":-4.05591,"postcode":"EX32 7BZ","la":"North Devon","era":"trad","nn":28,"risk":26,"cat":"green"},{"name":"Eighteen Ninety Three","lat":51.20726,"lon":-4.12527,"postcode":"EX34 9QB","la":"North Devon","era":"other","nn":64,"risk":26,"cat":"green"},{"name":"Fever and Boutique","lat":51.07894,"lon":-4.05571,"postcode":"EX32 8JN","la":"North Devon","era":"other","nn":137,"risk":26,"cat":"green"},{"name":"George and Dragon","lat":51.20969,"lon":-4.1169,"postcode":"EX34 9ED","la":"North Devon","era":"trad","nn":51,"risk":26,"cat":"green"},{"name":"Golden Lion Tap","lat":51.07801,"lon":-4.05794,"postcode":"EX32 8LS","la":"North Devon","era":"other","nn":75,"risk":26,"cat":"green"},{"name":"Green Man","lat":51.08716,"lon":-4.0622,"postcode":"EX31 1PJ","la":"North Devon","era":"other","nn":173,"risk":27,"cat":"green"},{"name":"Grove Inn","lat":50.95902,"lon":-3.87479,"postcode":"EX37 9ST","la":"North Devon","era":"trad","nn":3719,"risk":74,"cat":"red"},{"name":"Ilfracombe Bowling Club","lat":51.20716,"lon":-4.11893,"postcode":"EX34 9LH","la":"North Devon","era":"other","nn":279,"risk":27,"cat":"green"},{"name":"Ilfracombe Liberal Club","lat":51.209,"lon":-4.12165,"postcode":"EX34 9DF","la":"North Devon","era":"other","nn":0,"risk":26,"cat":"green"},{"name":"Ilfracombe Rugby Club","lat":51.20621,"lon":-4.10396,"postcode":"EX34 9QQ","la":"North Devon","era":"other","nn":383,"risk":28,"cat":"green"},{"name":"Ilfracombe Yacht Club","lat":51.21067,"lon":-4.11466,"postcode":"EX34 9EQ","la":"North Devon","era":"other","nn":81,"risk":26,"cat":"green"},{"name":"Kings Arms","lat":51.13653,"lon":-4.19641,"postcode":"EX33 1JJ","la":"North Devon","era":"trad","nn":286,"risk":48,"cat":"amber"},{"name":"Kings Arms Hotel","lat":51.01785,"lon":-3.83572,"postcode":"EX36 3BL","la":"North Devon","era":"trad","nn":40,"risk":31,"cat":"amber"},{"name":"Latitude 48","lat":51.07948,"lon":-4.05978,"postcode":"EX31 1HR","la":"North Devon","era":"other","nn":64,"risk":26,"cat":"green"},{"name":"London Inn","lat":51.04238,"lon":-3.70261,"postcode":"EX36 3NG","la":"North Devon","era":"trad","nn":3016,"risk":69,"cat":"red"},{"name":"Lush Bar And Restaurant","lat":51.07929,"lon":-4.0581,"postcode":"EX31 1SH","la":"North Devon","era":"mod","nn":79,"risk":26,"cat":"green"},{"name":"Manor House Inn","lat":51.13107,"lon":-4.22033,"postcode":"EX33 1PG","la":"North Devon","era":"other","nn":316,"risk":45,"cat":"amber"},{"name":"Mariners Arms","lat":51.10704,"lon":-4.16164,"postcode":"EX33 2AA","la":"North Devon","era":"trad","nn":98,"risk":26,"cat":"green"},{"name":"Masonic Club","lat":51.0175,"lon":-3.83187,"postcode":"EX36 4BH","la":"North Devon","era":"trad","nn":211,"risk":32,"cat":"amber"},{"name":"Mitre Inn","lat":50.91764,"lon":-3.70247,"postcode":"EX16 8AE","la":"North Devon","era":"trad","nn":5983,"risk":83,"cat":"red"},{"name":"Napps Holidays","lat":51.20878,"lon":-4.05452,"postcode":"EX34 9SW","la":"North Devon","era":"other","nn":945,"risk":52,"cat":"amber"},{"name":"New Inn","lat":51.08954,"lon":-4.0007,"postcode":"EX32 7LX","la":"North Devon","era":"trad","nn":3055,"risk":69,"cat":"red"},{"name":"New Inn","lat":51.07153,"lon":-4.12247,"postcode":"EX31 2NT","la":"North Devon","era":"trad","nn":0,"risk":46,"cat":"amber"},{"name":"Old Barn Inn","lat":51.07206,"lon":-4.09806,"postcode":"EX31 2JU","la":"North Devon","era":"trad","nn":398,"risk":48,"cat":"amber"},{"name":"Olive Or Twist","lat":51.10864,"lon":-4.16245,"postcode":"EX33 1AA","la":"North Devon","era":"other","nn":0,"risk":26,"cat":"green"},{"name":"Pack o' Cards","lat":51.20158,"lon":-4.02838,"postcode":"EX34 0ET","la":"North Devon","era":"other","nn":351,"risk":33,"cat":"amber"},{"name":"Poltimore Inn","lat":51.05401,"lon":-3.80214,"postcode":"EX36 3HR","la":"North Devon","era":"trad","nn":3798,"risk":75,"cat":"red"},{"name":"Pyne Arms","lat":51.15481,"lon":-4.00307,"postcode":"EX31 4LX","la":"North Devon","era":"trad","nn":4335,"risk":78,"cat":"red"},{"name":"Rackenford Club","lat":50.95649,"lon":-3.63655,"postcode":"EX16 8EE","la":"North Devon","era":"other","nn":500,"risk":49,"cat":"amber"},{"name":"Royal British Legion Ltd","lat":51.09972,"lon":-4.15449,"postcode":"EX33 2DN","la":"North Devon","era":"trad","nn":251,"risk":32,"cat":"amber"},{"name":"Royal Exchange","lat":51.08132,"lon":-4.05907,"postcode":"EX31 1BS","la":"North Devon","era":"trad","nn":49,"risk":26,"cat":"green"},{"name":"Sandpiper Inn","lat":51.21073,"lon":-4.11583,"postcode":"EX34 9BN","la":"North Devon","era":"trad","nn":81,"risk":26,"cat":"green"},{"name":"Sergeants Mess","lat":51.09304,"lon":-4.14137,"postcode":"EX31 4AZ","la":"North Devon","era":"other","nn":1094,"risk":56,"cat":"amber"},{"name":"Snooker Club","lat":51.20542,"lon":-4.03557,"postcode":"EX34 0AL","la":"North Devon","era":"other","nn":658,"risk":50,"cat":"amber"},{"name":"Snug & Hyde","lat":51.20819,"lon":-4.12391,"postcode":"EX34 9DA","la":"North Devon","era":"other","nn":141,"risk":27,"cat":"green"},{"name":"South Molton Conservative Club","lat":51.01797,"lon":-3.83479,"postcode":"EX36 3AQ","la":"North Devon","era":"other","nn":66,"risk":28,"cat":"green"},{"name":"South Molton Rugby Club","lat":51.02696,"lon":-3.83529,"postcode":"EX36 3LH","la":"North Devon","era":"other","nn":1000,"risk":53,"cat":"amber"},{"name":"Staghunters Inn","lat":51.22009,"lon":-3.76462,"postcode":"EX35 6PS","la":"North Devon","era":"trad","nn":4718,"risk":81,"cat":"red"},{"name":"The Admiral Collingwood","lat":51.20987,"lon":-4.12215,"postcode":"EX34 9AR","la":"North Devon","era":"other","nn":103,"risk":26,"cat":"green"},{"name":"The Black Horse","lat":51.11215,"lon":-4.15924,"postcode":"EX33 2EL","la":"North Devon","era":"trad","nn":172,"risk":27,"cat":"green"},{"name":"The Black Venus Inn","lat":51.15358,"lon":-3.86748,"postcode":"EX31 4TT","la":"North Devon","era":"trad","nn":7119,"risk":83,"cat":"red"},{"name":"The Braunton Venue","lat":51.10444,"lon":-4.15688,"postcode":"EX33 2BT","la":"North Devon","era":"other","nn":441,"risk":29,"cat":"green"},{"name":"The Coaching Inn","lat":51.01774,"lon":-3.83627,"postcode":"EX36 3BJ","la":"North Devon","era":"trad","nn":40,"risk":31,"cat":"amber"},{"name":"The Corner House","lat":51.08105,"lon":-4.05852,"postcode":"EX31 1SY","la":"North Devon","era":"other","nn":49,"risk":26,"cat":"green"},{"name":"The Cottage Inn","lat":51.22186,"lon":-3.83513,"postcode":"EX35 6NR","la":"North Devon","era":"trad","nn":836,"risk":49,"cat":"amber"},{"name":"The Crown Inn","lat":51.15874,"lon":-4.12462,"postcode":"EX34 8NF","la":"North Devon","era":"trad","nn":4405,"risk":79,"cat":"red"},{"name":"The Ebrington Arms","lat":51.12401,"lon":-4.15501,"postcode":"EX33 2LW","la":"North Devon","era":"trad","nn":1351,"risk":57,"cat":"amber"},{"name":"The Exeter Inn","lat":50.97139,"lon":-3.92413,"postcode":"EX37 9NS","la":"North Devon","era":"trad","nn":3719,"risk":74,"cat":"red"},{"name":"The Fox","lat":51.07153,"lon":-4.12247,"postcode":"EX31 2NT","la":"North Devon","era":"trad","nn":0,"risk":46,"cat":"amber"},{"name":"The George Inn","lat":51.10787,"lon":-4.16114,"postcode":"EX33 2JJ","la":"North Devon","era":"trad","nn":98,"risk":26,"cat":"green"},{"name":"The Grampus Inn","lat":51.19727,"lon":-4.17338,"postcode":"EX34 8LR","la":"North Devon","era":"trad","nn":2733,"risk":67,"cat":"red"},{"name":"The Hele Bay","lat":51.20973,"lon":-4.09826,"postcode":"EX34 9QZ","la":"North Devon","era":"other","nn":558,"risk":47,"cat":"amber"},{"name":"The Horse and Groom","lat":51.08003,"lon":-4.05788,"postcode":"EX31 1SE","la":"North Devon","era":"trad","nn":44,"risk":26,"cat":"green"},{"name":"The Hunters Inn","lat":51.02244,"lon":-4.10038,"postcode":"EX31 3PL","la":"North Devon","era":"trad","nn":5520,"risk":83,"cat":"red"},{"name":"The Jack Russell Inn","lat":51.05209,"lon":-3.96988,"postcode":"EX32 0PN","la":"North Devon","era":"trad","nn":2469,"risk":65,"cat":"red"},{"name":"The Jube","lat":51.17157,"lon":-4.20437,"postcode":"EX34 7BB","la":"North Devon","era":"other","nn":149,"risk":32,"cat":"amber"},{"name":"The London Inn","lat":51.10864,"lon":-4.16245,"postcode":"EX33 1AA","la":"North Devon","era":"trad","nn":0,"risk":26,"cat":"green"},{"name":"The Masons Arms","lat":50.99488,"lon":-3.67319,"postcode":"EX36 4RY","la":"North Devon","era":"trad","nn":4980,"risk":83,"cat":"red"},{"name":"The Mill Inn","lat":51.01344,"lon":-3.79522,"postcode":"EX36 3QF","la":"North Devon","era":"trad","nn":2603,"risk":66,"cat":"red"},{"name":"The Muddiford Inn","lat":51.12873,"lon":-4.04926,"postcode":"EX31 4EY","la":"North Devon","era":"trad","nn":4335,"risk":78,"cat":"red"},{"name":"The North Devon Yacht Club","lat":51.05141,"lon":-4.18164,"postcode":"EX39 4HW","la":"North Devon","era":"other","nn":110,"risk":26,"cat":"green"},{"name":"The Old Court House","lat":50.91394,"lon":-3.86951,"postcode":"EX18 7BW","la":"North Devon","era":"other","nn":237,"risk":47,"cat":"amber"},{"name":"The Old Sawmill Inn","lat":51.20066,"lon":-4.05853,"postcode":"EX34 9SX","la":"North Devon","era":"trad","nn":945,"risk":52,"cat":"amber"},{"name":"The Panniers","lat":51.08067,"lon":-4.05804,"postcode":"EX31 1RX","la":"North Devon","era":"other","nn":47,"risk":26,"cat":"green"},{"name":"The Plough Inn","lat":51.07239,"lon":-4.09239,"postcode":"EX31 2JG","la":"North Devon","era":"trad","nn":398,"risk":48,"cat":"amber"},{"name":"The Poltimore Arms","lat":51.09488,"lon":-3.82677,"postcode":"EX36 3HA","la":"North Devon","era":"trad","nn":4859,"risk":82,"cat":"red"},{"name":"The Quay Inn","lat":51.05091,"lon":-4.18029,"postcode":"EX39 4HY","la":"North Devon","era":"trad","nn":110,"risk":26,"cat":"green"},{"name":"The Queens","lat":51.22937,"lon":-3.8346,"postcode":"EX35 6AA","la":"North Devon","era":"trad","nn":313,"risk":45,"cat":"amber"},{"name":"The Red Barn","lat":51.17267,"lon":-4.20703,"postcode":"EX34 7DF","la":"North Devon","era":"other","nn":87,"risk":31,"cat":"amber"},{"name":"The Red Lion Hotel","lat":50.91294,"lon":-3.86652,"postcode":"EX18 7DD","la":"North Devon","era":"trad","nn":237,"risk":47,"cat":"amber"},{"name":"The Reform Inn","lat":51.0856,"lon":-4.0622,"postcode":"EX31 1PD","la":"North Devon","era":"trad","nn":173,"risk":27,"cat":"green"},{"name":"The Rising Sun","lat":51.07157,"lon":-4.04711,"postcode":"EX32 9BQ","la":"North Devon","era":"other","nn":1017,"risk":55,"cat":"amber"},{"name":"The Rising Sun","lat":50.99887,"lon":-3.98602,"postcode":"EX37 9DU","la":"North Devon","era":"other","nn":3525,"risk":73,"cat":"red"},{"name":"The Rock Inn","lat":51.13787,"lon":-4.19292,"postcode":"EX33 1JW","la":"North Devon","era":"trad","nn":286,"risk":48,"cat":"amber"},{"name":"The Rolle Quay Inn","lat":51.08255,"lon":-4.06338,"postcode":"EX31 1JE","la":"North Devon","era":"trad","nn":135,"risk":26,"cat":"green"},{"name":"The Ship & Pilot Inn","lat":51.2099,"lon":-4.11625,"postcode":"EX34 9EE","la":"North Devon","era":"trad","nn":51,"risk":26,"cat":"green"},{"name":"The Smugglers Rest","lat":51.18571,"lon":-4.20798,"postcode":"EX34 7DR","la":"North Devon","era":"other","nn":142,"risk":47,"cat":"amber"},{"name":"The St George","lat":51.209,"lon":-4.12165,"postcode":"EX34 9DF","la":"North Devon","era":"trad","nn":0,"risk":26,"cat":"green"},{"name":"The Stag Inn","lat":50.952,"lon":-3.63676,"postcode":"EX16 8DT","la":"North Devon","era":"trad","nn":500,"risk":49,"cat":"amber"},{"name":"The Stags Head","lat":51.08131,"lon":-4.05567,"postcode":"EX32 7BX","la":"North Devon","era":"trad","nn":28,"risk":26,"cat":"green"},{"name":"The Stags Head Inn","lat":51.03407,"lon":-3.88928,"postcode":"EX32 0RN","la":"North Devon","era":"trad","nn":3858,"risk":75,"cat":"red"},{"name":"The Tavern","lat":51.07865,"lon":-4.05761,"postcode":"EX32 8NA","la":"North Devon","era":"other","nn":75,"risk":26,"cat":"green"},{"name":"The Thatch","lat":51.1298,"lon":-4.22497,"postcode":"EX33 1LZ","la":"North Devon","era":"other","nn":52,"risk":43,"cat":"amber"},{"name":"The Thatched Inn","lat":51.20691,"lon":-4.10935,"postcode":"EX34 9PG","la":"North Devon","era":"trad","nn":383,"risk":28,"cat":"green"},{"name":"The Tides Inn","lat":51.17268,"lon":-4.20556,"postcode":"EX34 7BP","la":"North Devon","era":"trad","nn":16,"risk":31,"cat":"amber"},{"name":"The Union Inn","lat":51.08411,"lon":-4.05571,"postcode":"EX32 7EU","la":"North Devon","era":"trad","nn":288,"risk":28,"cat":"green"},{"name":"The Watergate","lat":51.07896,"lon":-4.06015,"postcode":"EX31 1EU","la":"North Devon","era":"other","nn":64,"risk":26,"cat":"green"},{"name":"The Wellington Arms","lat":51.20673,"lon":-4.12562,"postcode":"EX34 9QE","la":"North Devon","era":"trad","nn":64,"risk":26,"cat":"green"},{"name":"The White Lion","lat":51.10976,"lon":-4.16464,"postcode":"EX33 1AJ","la":"North Devon","era":"trad","nn":197,"risk":27,"cat":"green"},{"name":"United Services Bowling Club","lat":51.08291,"lon":-4.0667,"postcode":"EX31 1JH","la":"North Devon","era":"other","nn":0,"risk":26,"cat":"green"},{"name":"Village Inn Lynmouth","lat":51.23034,"lon":-3.83037,"postcode":"EX35 6EH","la":"North Devon","era":"trad","nn":313,"risk":45,"cat":"amber"},{"name":"Watermouth Yacht Club","lat":51.2128,"lon":-4.06754,"postcode":"EX34 9SJ","la":"North Devon","era":"other","nn":1012,"risk":55,"cat":"amber"},{"name":"Westleigh Inn","lat":51.03685,"lon":-4.18269,"postcode":"EX39 4NL","la":"North Devon","era":"trad","nn":1573,"risk":59,"cat":"amber"},{"name":"Williams Arms","lat":51.10068,"lon":-4.15123,"postcode":"EX33 2DE","la":"North Devon","era":"trad","nn":251,"risk":45,"cat":"amber"},{"name":"Windsor Arms","lat":51.08919,"lon":-4.06975,"postcode":"EX31 4AD","la":"North Devon","era":"trad","nn":573,"risk":30,"cat":"green"},{"name":"Wrey Arms Inn","lat":51.07246,"lon":-4.07495,"postcode":"EX31 2BX","la":"North Devon","era":"trad","nn":1218,"risk":57,"cat":"amber"},{"name":"Ye Olde George And Dragon","lat":51.19832,"lon":-4.02296,"postcode":"EX34 0HX","la":"North Devon","era":"trad","nn":174,"risk":44,"cat":"amber"},{"name":"Ambrosial","lat":50.66639,"lon":-3.53543,"postcode":"EX6 7TR","la":"Teignbridge","era":"other","nn":0,"risk":42,"cat":"amber"},{"name":"Anchor Inn","lat":50.61692,"lon":-3.4493,"postcode":"EX6 8RA","la":"Teignbridge","era":"trad","nn":62,"risk":45,"cat":"amber"},{"name":"Artichoke Inn","lat":50.65238,"lon":-3.65167,"postcode":"EX6 7NF","la":"Teignbridge","era":"trad","nn":1304,"risk":57,"cat":"amber"},{"name":"Atmospheric Railway","lat":50.62878,"lon":-3.44861,"postcode":"EX6 8PA","la":"Teignbridge","era":"trad","nn":260,"risk":44,"cat":"amber"},{"name":"Castle Inn","lat":50.56575,"lon":-3.4802,"postcode":"EX7 0LF","la":"Teignbridge","era":"trad","nn":528,"risk":49,"cat":"amber"},{"name":"Golden Sands Holiday Park - Catering","lat":50.59598,"lon":-3.46008,"postcode":"EX7 0PJ","la":"Teignbridge","era":"other","nn":770,"risk":35,"cat":"amber"},{"name":"Hazelwood Clubhouse","lat":50.59984,"lon":-3.44808,"postcode":"EX7 0PF","la":"Teignbridge","era":"other","nn":193,"risk":26,"cat":"green"},{"name":"Huntsman Inn","lat":50.70406,"lon":-3.55877,"postcode":"EX2 9RN","la":"Teignbridge","era":"trad","nn":194,"risk":44,"cat":"amber"},{"name":"Kings Arms Inn","lat":50.73479,"lon":-3.68135,"postcode":"EX6 6EG","la":"Teignbridge","era":"trad","nn":4889,"risk":82,"cat":"red"},{"name":"Lee's Bar","lat":50.59562,"lon":-3.44919,"postcode":"EX7 0NA","la":"Teignbridge","era":"other","nn":118,"risk":26,"cat":"green"},{"name":"Manor Inn","lat":50.64582,"lon":-3.63633,"postcode":"EX6 7QL","la":"Teignbridge","era":"trad","nn":1304,"risk":57,"cat":"amber"},{"name":"Marina Bowling Club","lat":50.58666,"lon":-3.46129,"postcode":"EX7 0AF","la":"Teignbridge","era":"other","nn":61,"risk":25,"cat":"green"},{"name":"Marine Hotel And Tavern","lat":50.57932,"lon":-3.46645,"postcode":"EX7 9DJ","la":"Teignbridge","era":"other","nn":51,"risk":25,"cat":"green"},{"name":"Mount Pleasant Inn","lat":50.59568,"lon":-3.44752,"postcode":"EX7 0NA","la":"Teignbridge","era":"trad","nn":118,"risk":26,"cat":"green"},{"name":"Nobody Inn","lat":50.66752,"lon":-3.62088,"postcode":"EX6 7PS","la":"Teignbridge","era":"trad","nn":1779,"risk":60,"cat":"amber"},{"name":"Poachers Inn","lat":50.70239,"lon":-3.55953,"postcode":"EX2 9RW","la":"Teignbridge","era":"trad","nn":194,"risk":44,"cat":"amber"},{"name":"Railway Inn","lat":50.58092,"lon":-3.46594,"postcode":"EX7 9PN","la":"Teignbridge","era":"trad","nn":69,"risk":25,"cat":"green"},{"name":"Royal Oak","lat":50.68995,"lon":-3.68244,"postcode":"EX6 7DA","la":"Teignbridge","era":"trad","nn":2881,"risk":68,"cat":"red"},{"name":"Shooters","lat":50.58692,"lon":-3.46053,"postcode":"EX7 0AF","la":"Teignbridge","era":"other","nn":61,"risk":25,"cat":"green"},{"name":"South Devon Inn","lat":50.58154,"lon":-3.46661,"postcode":"EX7 9HR","la":"Teignbridge","era":"trad","nn":36,"risk":25,"cat":"green"},{"name":"Teign House Inn","lat":50.66799,"lon":-3.64612,"postcode":"EX6 7PL","la":"Teignbridge","era":"other","nn":1779,"risk":60,"cat":"amber"},{"name":"Teignmouth Inn","lat":50.57978,"lon":-3.4664,"postcode":"EX7 9PG","la":"Teignbridge","era":"trad","nn":51,"risk":25,"cat":"green"},{"name":"The Boathouse","lat":50.59778,"lon":-3.44373,"postcode":"EX7 0NF","la":"Teignbridge","era":"other","nn":192,"risk":29,"cat":"green"},{"name":"The Bridford Inn","lat":50.66421,"lon":-3.67782,"postcode":"EX6 7HT","la":"Teignbridge","era":"trad","nn":2265,"risk":63,"cat":"red"},{"name":"The Brunswick Arms","lat":50.58032,"lon":-3.46942,"postcode":"EX7 9PB","la":"Teignbridge","era":"trad","nn":179,"risk":26,"cat":"green"},{"name":"The Galleon Inn","lat":50.62658,"lon":-3.44741,"postcode":"EX6 8PR","la":"Teignbridge","era":"trad","nn":151,"risk":43,"cat":"amber"},{"name":"The Gresham House Inn","lat":50.58153,"lon":-3.4661,"postcode":"EX7 9HU","la":"Teignbridge","era":"other","nn":36,"risk":25,"cat":"green"},{"name":"The Lansdowne","lat":50.58193,"lon":-3.47221,"postcode":"EX7 9LQ","la":"Teignbridge","era":"other","nn":87,"risk":26,"cat":"green"},{"name":"The Ley Arms","lat":50.65999,"lon":-3.52556,"postcode":"EX6 7UW","la":"Teignbridge","era":"trad","nn":995,"risk":49,"cat":"amber"},{"name":"The Royal British Legion","lat":50.58179,"lon":-3.47424,"postcode":"EX7 9LL","la":"Teignbridge","era":"trad","nn":144,"risk":26,"cat":"green"},{"name":"The Royal British Legion","lat":50.62599,"lon":-3.44934,"postcode":"EX6 8QE","la":"Teignbridge","era":"trad","nn":151,"risk":43,"cat":"amber"},{"name":"The Seven Stars Kennford","lat":50.66639,"lon":-3.53543,"postcode":"EX6 7TR","la":"Teignbridge","era":"other","nn":0,"risk":42,"cat":"amber"},{"name":"The Ship Inn","lat":50.61664,"lon":-3.45007,"postcode":"EX6 8NU","la":"Teignbridge","era":"trad","nn":62,"risk":45,"cat":"amber"},{"name":"The Silly Goose Pub Company","lat":50.59891,"lon":-3.44578,"postcode":"EX7 0PQ","la":"Teignbridge","era":"other","nn":192,"risk":29,"cat":"green"},{"name":"The Smugglers Inn","lat":50.56878,"lon":-3.47443,"postcode":"EX7 0LA","la":"Teignbridge","era":"trad","nn":528,"risk":49,"cat":"amber"},{"name":"The Swan Inn","lat":50.58194,"lon":-3.47849,"postcode":"EX7 9AT","la":"Teignbridge","era":"trad","nn":300,"risk":27,"cat":"green"},{"name":"The Travellers Rest","lat":50.72308,"lon":-3.61428,"postcode":"EX4 2HQ","la":"Teignbridge","era":"other","nn":4444,"risk":79,"cat":"red"},{"name":"The White Hart","lat":50.58034,"lon":-3.46688,"postcode":"EX7 9PD","la":"Teignbridge","era":"trad","nn":71,"risk":25,"cat":"green"},{"name":"White Hart Dawlish","lat":50.58117,"lon":-3.4719,"postcode":"EX7 9JY","la":"Teignbridge","era":"trad","nn":87,"risk":26,"cat":"green"},{"name":"Anchor","lat":51.01651,"lon":-4.20826,"postcode":"EX39 2DJ","la":"Torridge","era":"trad","nn":92,"risk":27,"cat":"green"},{"name":"Anglers Paradise","lat":50.78872,"lon":-4.20074,"postcode":"EX21 5XT","la":"Torridge","era":"other","nn":1208,"risk":57,"cat":"amber"},{"name":"Appledore Football Club","lat":51.05035,"lon":-4.20059,"postcode":"EX39 1PA","la":"Torridge","era":"other","nn":601,"risk":30,"cat":"green"},{"name":"Appledore Hall","lat":51.05082,"lon":-4.19203,"postcode":"EX39 1LU","la":"Torridge","era":"other","nn":251,"risk":28,"cat":"green"},{"name":"Beaver Inn Appledore Ltd","lat":51.05688,"lon":-4.19501,"postcode":"EX39 1RY","la":"Torridge","era":"trad","nn":60,"risk":27,"cat":"green"},{"name":"Bell Inn","lat":50.96767,"lon":-4.29677,"postcode":"EX39 5PL","la":"Torridge","era":"trad","nn":1965,"risk":63,"cat":"red"},{"name":"Bickford Arms","lat":50.81322,"lon":-4.25751,"postcode":"EX22 7XY","la":"Torridge","era":"trad","nn":3130,"risk":71,"cat":"red"},{"name":"Bideford Amateur Athletic Club","lat":51.02074,"lon":-4.20615,"postcode":"EX39 2PF","la":"Torridge","era":"other","nn":95,"risk":27,"cat":"green"},{"name":"Bideford Amateur Rowing Club","lat":51.02042,"lon":-4.20428,"postcode":"EX39 2EY","la":"Torridge","era":"other","nn":103,"risk":27,"cat":"green"},{"name":"Bideford Bowling Club","lat":51.02079,"lon":-4.20781,"postcode":"EX39 2NG","la":"Torridge","era":"other","nn":63,"risk":27,"cat":"green"},{"name":"Bideford Conservative Club","lat":51.01964,"lon":-4.20593,"postcode":"EX39 2QA","la":"Torridge","era":"other","nn":44,"risk":27,"cat":"green"},{"name":"Blacksmiths Arms","lat":51.01538,"lon":-4.20172,"postcode":"EX39 4DP","la":"Torridge","era":"trad","nn":395,"risk":29,"cat":"green"},{"name":"Bradworthy Inn","lat":50.90083,"lon":-4.38457,"postcode":"EX22 7TD","la":"Torridge","era":"trad","nn":7039,"risk":84,"cat":"red"},{"name":"Bridge Inn","lat":50.79948,"lon":-4.45092,"postcode":"EX22 7EJ","la":"Torridge","era":"trad","nn":646,"risk":51,"cat":"amber"},{"name":"Coach & Horses","lat":50.98494,"lon":-4.30269,"postcode":"EX39 5DH","la":"Torridge","era":"trad","nn":1965,"risk":63,"cat":"red"},{"name":"Coach And Horses Inn","lat":50.96358,"lon":-4.25047,"postcode":"EX39 5LU","la":"Torridge","era":"trad","nn":3011,"risk":70,"cat":"red"},{"name":"Crabby Dicks","lat":51.0187,"lon":-4.20551,"postcode":"EX39 2DA","la":"Torridge","era":"other","nn":0,"risk":26,"cat":"green"},{"name":"Crealock Arms","lat":50.98742,"lon":-4.23006,"postcode":"EX39 5HN","la":"Torridge","era":"trad","nn":3011,"risk":70,"cat":"red"},{"name":"Crown And Sceptre Holsworthy","lat":50.81012,"lon":-4.35291,"postcode":"EX22 6EB","la":"Torridge","era":"trad","nn":0,"risk":26,"cat":"green"},{"name":"Cyder Presse","lat":50.97747,"lon":-4.17415,"postcode":"EX39 4QR","la":"Torridge","era":"other","nn":2408,"risk":66,"cat":"red"},{"name":"Dexters Bar","lat":51.01969,"lon":-4.20718,"postcode":"EX39 2JJ","la":"Torridge","era":"other","nn":52,"risk":27,"cat":"green"},{"name":"Dickys","lat":51.0187,"lon":-4.20551,"postcode":"EX39 2DA","la":"Torridge","era":"other","nn":0,"risk":26,"cat":"green"},{"name":"Fairway Buoy","lat":51.04186,"lon":-4.23674,"postcode":"EX39 1LJ","la":"Torridge","era":"other","nn":57,"risk":32,"cat":"amber"},{"name":"First In Last Out","lat":51.01434,"lon":-4.21373,"postcode":"EX39 3BY","la":"Torridge","era":"other","nn":452,"risk":29,"cat":"green"},{"name":"Glebe House Cottages Ltd","lat":50.79854,"lon":-4.44185,"postcode":"EX22 7EW","la":"Torridge","era":"mod","nn":646,"risk":51,"cat":"amber"},{"name":"Golden Fleece","lat":50.80906,"lon":-4.35361,"postcode":"EX22 6BB","la":"Torridge","era":"trad","nn":92,"risk":27,"cat":"green"},{"name":"Golden Lion","lat":51.03985,"lon":-4.21227,"postcode":"EX39 1BS","la":"Torridge","era":"trad","nn":90,"risk":44,"cat":"amber"},{"name":"Heavitree Arms","lat":51.01902,"lon":-4.20614,"postcode":"EX39 2JR","la":"Torridge","era":"trad","nn":57,"risk":27,"cat":"green"},{"name":"High Street Social Club","lat":51.01794,"lon":-4.20642,"postcode":"EX39 2AA","la":"Torridge","era":"mod","nn":53,"risk":27,"cat":"green"},{"name":"JJ The Bell Inn Monkleigh","lat":50.96527,"lon":-4.20255,"postcode":"EX39 5JS","la":"Torridge","era":"trad","nn":2408,"risk":66,"cat":"red"},{"name":"Joiners Arms","lat":51.01691,"lon":-4.20711,"postcode":"EX39 2DR","la":"Torridge","era":"trad","nn":84,"risk":27,"cat":"green"},{"name":"Kings Arms","lat":50.81012,"lon":-4.35291,"postcode":"EX22 6EB","la":"Torridge","era":"trad","nn":0,"risk":26,"cat":"green"},{"name":"Kings Arms","lat":50.85611,"lon":-3.94503,"postcode":"EX19 8HQ","la":"Torridge","era":"trad","nn":76,"risk":47,"cat":"amber"},{"name":"Kings Arms","lat":50.99273,"lon":-4.48256,"postcode":"EX39 6BL","la":"Torridge","era":"trad","nn":30,"risk":31,"cat":"amber"},{"name":"Kingslakes Holidays Ltd","lat":50.8073,"lon":-4.21396,"postcode":"EX21 5JS","la":"Torridge","era":"trad","nn":2266,"risk":65,"cat":"red"},{"name":"Magpie Royal British Legion","lat":50.81379,"lon":-4.35139,"postcode":"EX22 6HF","la":"Torridge","era":"trad","nn":422,"risk":29,"cat":"green"},{"name":"Malt Scoop Inn","lat":50.89071,"lon":-4.09341,"postcode":"EX20 3EA","la":"Torridge","era":"trad","nn":3740,"risk":75,"cat":"red"},{"name":"Marisco Tavern","lat":50.73246,"lon":-3.79749,"postcode":"EX39 2LY","la":"Torridge","era":"other","nn":0,"risk":44,"cat":"amber"},{"name":"Molesworth Arms","lat":50.80114,"lon":-4.39633,"postcode":"EX22 6SU","la":"Torridge","era":"trad","nn":2576,"risk":67,"cat":"red"},{"name":"Old George Inn","lat":50.96659,"lon":-3.99496,"postcode":"EX37 9AY","la":"Torridge","era":"trad","nn":117,"risk":47,"cat":"amber"},{"name":"Palladium Club","lat":51.01851,"lon":-4.20727,"postcode":"EX39 2DE","la":"Torridge","era":"other","nn":88,"risk":27,"cat":"green"},{"name":"Pollyfield Community Association","lat":51.01387,"lon":-4.19577,"postcode":"EX39 4BL","la":"Torridge","era":"other","nn":448,"risk":29,"cat":"green"},{"name":"Reforge Retreat","lat":50.82382,"lon":-4.17744,"postcode":"EX21 5QH","la":"Torridge","era":"trad","nn":605,"risk":50,"cat":"amber"},{"name":"Robins Nest","lat":51.02118,"lon":-4.20847,"postcode":"EX39 2NG","la":"Torridge","era":"other","nn":63,"risk":27,"cat":"green"},{"name":"Rose Salterne","lat":51.01997,"lon":-4.20556,"postcode":"EX39 2PZ","la":"Torridge","era":"trad","nn":44,"risk":27,"cat":"green"},{"name":"Royal British Legion Club","lat":50.99292,"lon":-4.48368,"postcode":"EX39 6BQ","la":"Torridge","era":"trad","nn":81,"risk":32,"cat":"amber"},{"name":"Royal Exchange","lat":50.95265,"lon":-4.14794,"postcode":"EX38 8BT","la":"Torridge","era":"trad","nn":183,"risk":28,"cat":"green"},{"name":"Royal North Devon Golf Club","lat":51.04339,"lon":-4.22556,"postcode":"EX39 1HD","la":"Torridge","era":"trad","nn":791,"risk":34,"cat":"amber"},{"name":"Royal Oak Inn","lat":50.89051,"lon":-4.03493,"postcode":"EX19 8QF","la":"Torridge","era":"trad","nn":152,"risk":47,"cat":"amber"},{"name":"Rydon Inn","lat":50.81277,"lon":-4.36461,"postcode":"EX22 7HU","la":"Torridge","era":"trad","nn":873,"risk":32,"cat":"amber"},{"name":"Seven Stars","lat":50.85672,"lon":-3.94453,"postcode":"EX19 8HX","la":"Torridge","era":"other","nn":76,"risk":47,"cat":"amber"},{"name":"Smytham Manor","lat":50.9252,"lon":-4.15761,"postcode":"EX38 8PU","la":"Torridge","era":"other","nn":2712,"risk":68,"cat":"red"},{"name":"St Giles In The Wood Sports Club","lat":50.9516,"lon":-4.09055,"postcode":"EX38 7JG","la":"Torridge","era":"other","nn":3562,"risk":74,"cat":"red"},{"name":"Thatched Inn","lat":51.01743,"lon":-4.24673,"postcode":"EX39 5BA","la":"Torridge","era":"trad","nn":2334,"risk":65,"cat":"red"},{"name":"The Anchor Inn","lat":50.99198,"lon":-4.47965,"postcode":"EX39 6BD","la":"Torridge","era":"trad","nn":220,"risk":33,"cat":"amber"},{"name":"The Appledore Inn","lat":51.02009,"lon":-4.20759,"postcode":"EX39 2NF","la":"Torridge","era":"trad","nn":52,"risk":27,"cat":"green"},{"name":"The Black River Inn","lat":50.82897,"lon":-4.18022,"postcode":"EX21 5PT","la":"Torridge","era":"trad","nn":605,"risk":50,"cat":"amber"},{"name":"The Cavalier","lat":50.95254,"lon":-4.14138,"postcode":"EX38 8EP","la":"Torridge","era":"other","nn":293,"risk":28,"cat":"green"},{"name":"The Champ","lat":51.05394,"lon":-4.19252,"postcode":"EX39 1RJ","la":"Torridge","era":"other","nn":95,"risk":27,"cat":"green"},{"name":"The Devil Stone Inn","lat":50.86185,"lon":-4.21901,"postcode":"EX21 5RU","la":"Torridge","era":"trad","nn":4559,"risk":81,"cat":"red"},{"name":"The Farmers Arms","lat":50.96396,"lon":-4.37718,"postcode":"EX39 5QS","la":"Torridge","era":"trad","nn":5646,"risk":84,"cat":"red"},{"name":"The Globe Inn","lat":50.91675,"lon":-4.05965,"postcode":"EX19 8LR","la":"Torridge","era":"trad","nn":3394,"risk":73,"cat":"red"},{"name":"The Golden Lion","lat":50.96763,"lon":-3.99467,"postcode":"EX37 9BB","la":"Torridge","era":"trad","nn":117,"risk":47,"cat":"amber"},{"name":"The Green Dragon Inn","lat":50.91973,"lon":-4.20446,"postcode":"EX38 8NG","la":"Torridge","era":"trad","nn":2340,"risk":65,"cat":"red"},{"name":"The Guillemot","lat":51.04404,"lon":-4.20784,"postcode":"EX39 1GW","la":"Torridge","era":"other","nn":559,"risk":35,"cat":"amber"},{"name":"The Half Moon Inn","lat":50.83664,"lon":-4.15039,"postcode":"EX21 5NE","la":"Torridge","era":"trad","nn":2262,"risk":65,"cat":"red"},{"name":"The Hart Inn LLP","lat":50.99298,"lon":-4.48241,"postcode":"EX39 6BL","la":"Torridge","era":"trad","nn":30,"risk":31,"cat":"amber"},{"name":"The Junction Inn","lat":50.77878,"lon":-4.20769,"postcode":"EX21 5XR","la":"Torridge","era":"trad","nn":1208,"risk":57,"cat":"amber"},{"name":"The Kingsley Inn","lat":51.03935,"lon":-4.21327,"postcode":"EX39 1AW","la":"Torridge","era":"trad","nn":90,"risk":32,"cat":"amber"},{"name":"The Old Foundry Venue","lat":51.01747,"lon":-4.20629,"postcode":"EX39 2BU","la":"Torridge","era":"mod","nn":53,"risk":27,"cat":"green"},{"name":"The Old Smithy Inn","lat":50.93363,"lon":-4.51905,"postcode":"EX39 6HG","la":"Torridge","era":"trad","nn":4171,"risk":78,"cat":"red"},{"name":"The Olde Market Inn","lat":50.80891,"lon":-4.35232,"postcode":"EX22 6AY","la":"Torridge","era":"trad","nn":92,"risk":27,"cat":"green"},{"name":"The Rams Head Inn","lat":50.89062,"lon":-4.03277,"postcode":"EX19 8QS","la":"Torridge","era":"trad","nn":152,"risk":47,"cat":"amber"},{"name":"The Royal George","lat":51.05647,"lon":-4.19445,"postcode":"EX39 1RY","la":"Torridge","era":"trad","nn":60,"risk":27,"cat":"green"},{"name":"The Royal Hotel","lat":51.05306,"lon":-4.19159,"postcode":"EX39 1PS","la":"Torridge","era":"trad","nn":118,"risk":27,"cat":"green"},{"name":"The Seagate Hotel","lat":51.05431,"lon":-4.1913,"postcode":"EX39 1QS","la":"Torridge","era":"other","nn":95,"risk":27,"cat":"green"},{"name":"The Silk Lounge","lat":51.0187,"lon":-4.20551,"postcode":"EX39 2DA","la":"Torridge","era":"mod","nn":0,"risk":26,"cat":"green"},{"name":"The Village Inn Pub","lat":51.0394,"lon":-4.23725,"postcode":"EX39 1HU","la":"Torridge","era":"trad","nn":228,"risk":33,"cat":"amber"},{"name":"Thornbury Holiday Park","lat":50.8465,"lon":-4.29635,"postcode":"EX22 7BT","la":"Torridge","era":"other","nn":4597,"risk":81,"cat":"red"},{"name":"Torridge Inn","lat":50.94942,"lon":-4.15297,"postcode":"EX38 8AW","la":"Torridge","era":"trad","nn":413,"risk":29,"cat":"green"},{"name":"Torridge Vale Social Club","lat":50.95133,"lon":-4.14527,"postcode":"EX38 8AB","la":"Torridge","era":"mod","nn":11,"risk":26,"cat":"green"},{"name":"Torrington Arms","lat":50.9528,"lon":-4.15053,"postcode":"EX38 8BX","la":"Torridge","era":"trad","nn":183,"risk":28,"cat":"green"},{"name":"Torrington Conservative Club","lat":50.95136,"lon":-4.14511,"postcode":"EX38 8AB","la":"Torridge","era":"other","nn":11,"risk":26,"cat":"green"},{"name":"Torrington Football Club","lat":50.95424,"lon":-4.14466,"postcode":"EX38 7AJ","la":"Torridge","era":"other","nn":289,"risk":28,"cat":"green"},{"name":"Union Inn","lat":50.91238,"lon":-4.23573,"postcode":"EX38 8LH","la":"Torridge","era":"trad","nn":2340,"risk":65,"cat":"red"},{"name":"Victoria Park Bowling Club","lat":51.0233,"lon":-4.20619,"postcode":"EX39 2QL","la":"Torridge","era":"trad","nn":285,"risk":28,"cat":"green"},{"name":"Village Inn","lat":50.73398,"lon":-4.28831,"postcode":"EX21 5EY","la":"Torridge","era":"trad","nn":5637,"risk":84,"cat":"red"},{"name":"Waterfront Inn","lat":51.04139,"lon":-4.23642,"postcode":"EX39 1LH","la":"Torridge","era":"trad","nn":57,"risk":32,"cat":"amber"},{"name":"West Country Inn","lat":50.94756,"lon":-4.46378,"postcode":"EX39 6HB","la":"Torridge","era":"trad","nn":4171,"risk":78,"cat":"red"},{"name":"White Hart Hotel","lat":50.81012,"lon":-4.35291,"postcode":"EX22 6EB","la":"Torridge","era":"trad","nn":0,"risk":26,"cat":"green"},{"name":"White Hart Inn","lat":51.0191,"lon":-4.2048,"postcode":"EX39 2JG","la":"Torridge","era":"trad","nn":67,"risk":27,"cat":"green"},{"name":"Betty Cottles Inn","lat":50.7228,"lon":-4.03458,"postcode":"EX20 4LR","la":"West Devon","era":"trad","nn":2743,"risk":74,"cat":"red"},{"name":"Okehampton Conservative Club","lat":50.73732,"lon":-4.00089,"postcode":"EX20 1DS","la":"West Devon","era":"other","nn":232,"risk":34,"cat":"amber"},{"name":"Pretoria Vaults","lat":50.74052,"lon":-4.00159,"postcode":"EX20 1AR","la":"West Devon","era":"other","nn":151,"risk":33,"cat":"amber"},{"name":"Taw River Inn","lat":50.73082,"lon":-3.92549,"postcode":"EX20 2NW","la":"West Devon","era":"trad","nn":1069,"risk":62,"cat":"red"},{"name":"The Fountain Inn","lat":50.73926,"lon":-4.00241,"postcode":"EX20 1AP","la":"West Devon","era":"trad","nn":43,"risk":33,"cat":"amber"},{"name":"The George","lat":50.82153,"lon":-4.07256,"postcode":"EX20 3JN","la":"West Devon","era":"trad","nn":5718,"risk":90,"cat":"red"},{"name":"The London Inn","lat":50.7387,"lon":-4.00478,"postcode":"EX20 1HH","la":"West Devon","era":"trad","nn":135,"risk":33,"cat":"amber"},{"name":"The New Inn Bar & Restaurant","lat":50.79566,"lon":-3.9423,"postcode":"EX20 2TB","la":"West Devon","era":"other","nn":2972,"risk":76,"cat":"red"},{"name":"The Oxenham Arms","lat":50.72574,"lon":-3.91258,"postcode":"EX20 2JT","la":"West Devon","era":"trad","nn":1069,"risk":62,"cat":"red"},{"name":"The Plume of Feathers","lat":50.73899,"lon":-4.00287,"postcode":"EX20 1HB","la":"West Devon","era":"other","nn":14,"risk":33,"cat":"amber"},{"name":"The White Hart","lat":50.80016,"lon":-3.90062,"postcode":"EX20 2DT","la":"West Devon","era":"trad","nn":2972,"risk":76,"cat":"red"},{"name":"White Hart Hotel","lat":50.73911,"lon":-4.00297,"postcode":"EX20 1HD","la":"West Devon","era":"trad","nn":14,"risk":33,"cat":"amber"},{"name":"White Hart Inn","lat":50.68535,"lon":-4.10478,"postcode":"EX20 4EL","la":"West Devon","era":"trad","nn":6464,"risk":90,"cat":"red"}]