[{"name":"Border Rose Inn","lat":53.68874,"lon":-2.10122,"postcode":"OL14 7UA","la":"Calderdale","era":"trad","nn":238,"risk":46,"cat":"amber"},{"name":"Bridge End WMC","lat":53.70697,"lon":-2.1042,"postcode":"OL14 7NU","la":"Calderdale","era":"other","nn":697,"risk":29,"cat":"green"},{"name":"Bridgeholme Cricket Club","lat":53.72349,"lon":-2.05642,"postcode":"OL14 6DQ","la":"Calderdale","era":"other","nn":2720,"risk":66,"cat":"red"},{"name":"Duke Of York Inn","lat":53.71359,"lon":-2.09648,"postcode":"OL14 5QG","la":"Calderdale","era":"trad","nn":116,"risk":25,"cat":"green"},{"name":"Nan Moors","lat":53.71238,"lon":-2.09887,"postcode":"OL14 7LD","la":"Calderdale","era":"other","nn":83,"risk":25,"cat":"green"},{"name":"Staff Of Life Inn","lat":53.72796,"lon":-2.12911,"postcode":"OL14 8JF","la":"Calderdale","era":"trad","nn":2001,"risk":61,"cat":"red"},{"name":"The Alehouse","lat":53.71667,"lon":-2.09783,"postcode":"OL14 5EY","la":"Calderdale","era":"other","nn":177,"risk":25,"cat":"green"},{"name":"The Honest John Bar","lat":53.7131,"lon":-2.09848,"postcode":"OL14 5AA","la":"Calderdale","era":"other","nn":83,"risk":25,"cat":"green"},{"name":"The House That Jack Built","lat":53.71915,"lon":-2.1026,"postcode":"OL14 5JT","la":"Calderdale","era":"mod","nn":132,"risk":25,"cat":"green"},{"name":"The Polished Knob","lat":53.71448,"lon":-2.0974,"postcode":"OL14 7BU","la":"Calderdale","era":"other","nn":116,"risk":25,"cat":"green"},{"name":"Todmorden Cricket Club - Clubhouse","lat":53.71669,"lon":-2.10053,"postcode":"OL14 7BS","la":"Calderdale","era":"other","nn":0,"risk":24,"cat":"green"},{"name":"Todmorden Cricket Club Tearoom","lat":53.71669,"lon":-2.10053,"postcode":"OL14 7BS","la":"Calderdale","era":"other","nn":0,"risk":24,"cat":"green"},{"name":"Todmorden Working Mens Social Club","lat":53.71348,"lon":-2.09413,"postcode":"OL14 5QG","la":"Calderdale","era":"other","nn":155,"risk":25,"cat":"green"},{"name":"Walsden Cricket \\\\& Bowling Club","lat":53.69083,"lon":-2.102,"postcode":"OL14 7SX","la":"Calderdale","era":"other","nn":238,"risk":46,"cat":"amber"},{"name":"Weavers Arms","lat":53.71858,"lon":-2.10084,"postcode":"OL14 5HZ","la":"Calderdale","era":"trad","nn":132,"risk":25,"cat":"green"},{"name":"Albion Tap","lat":53.54829,"lon":-2.00541,"postcode":"OL3 6AW","la":"Oldham","era":"mod","nn":0,"risk":22,"cat":"green"},{"name":"Angel Inn","lat":53.53839,"lon":-2.07405,"postcode":"OL4 3BW","la":"Oldham","era":"trad","nn":124,"risk":23,"cat":"green"},{"name":"Arumba","lat":53.56624,"lon":-2.12258,"postcode":"OL2 5QD","la":"Oldham","era":"other","nn":29,"risk":23,"cat":"green"},{"name":"Ashton Arms","lat":53.54097,"lon":-2.11167,"postcode":"OL1 1PL","la":"Oldham","era":"trad","nn":67,"risk":23,"cat":"green"},{"name":"Austerlands Cricket Club","lat":53.54778,"lon":-2.06039,"postcode":"OL4 3QW","la":"Oldham","era":"other","nn":174,"risk":24,"cat":"green"},{"name":"Austerlands Institute","lat":53.54649,"lon":-2.06188,"postcode":"OL4 3QA","la":"Oldham","era":"other","nn":174,"risk":24,"cat":"green"},{"name":"Avro Football Club","lat":53.51839,"lon":-2.12291,"postcode":"OL8 3JH","la":"Oldham","era":"other","nn":205,"risk":24,"cat":"green"},{"name":"Banktop Tavern","lat":53.54041,"lon":-2.11723,"postcode":"OL8 1ES","la":"Oldham","era":"other","nn":93,"risk":23,"cat":"green"},{"name":"Bear On The Hill","lat":53.54697,"lon":-2.09068,"postcode":"OL1 3PA","la":"Oldham","era":"other","nn":74,"risk":23,"cat":"green"},{"name":"Beefeater Whitegate Inn","lat":53.52409,"lon":-2.16332,"postcode":"OL9 8DW","la":"Oldham","era":"trad","nn":392,"risk":28,"cat":"green"},{"name":"Black Horse","lat":53.57972,"lon":-2.10407,"postcode":"OL2 7JD","la":"Oldham","era":"trad","nn":436,"risk":25,"cat":"green"},{"name":"Blue Bell Hotel","lat":53.57693,"lon":-2.09358,"postcode":"OL2 8NR","la":"Oldham","era":"other","nn":0,"risk":22,"cat":"green"},{"name":"Boarshurst Band Club","lat":53.53532,"lon":-2.00935,"postcode":"OL3 7EW","la":"Oldham","era":"other","nn":0,"risk":22,"cat":"green"},{"name":"Boat and Horses","lat":53.52969,"lon":-2.15913,"postcode":"OL9 8AU","la":"Oldham","era":"trad","nn":682,"risk":30,"cat":"green"},{"name":"Bridge Inn","lat":53.54101,"lon":-2.0941,"postcode":"OL4 1JE","la":"Oldham","era":"trad","nn":700,"risk":27,"cat":"green"},{"name":"British Legion","lat":53.53758,"lon":-2.07278,"postcode":"OL4 5AG","la":"Oldham","era":"other","nn":49,"risk":23,"cat":"green"},{"name":"Buck & Union","lat":53.5399,"lon":-2.11357,"postcode":"OL1 1BE","la":"Oldham","era":"other","nn":173,"risk":24,"cat":"green"},{"name":"Bulls Head","lat":53.54913,"lon":-2.07444,"postcode":"OL4 2HB","la":"Oldham","era":"trad","nn":83,"risk":23,"cat":"green"},{"name":"Bulls Head","lat":53.56752,"lon":-2.02335,"postcode":"OL3 5DQ","la":"Oldham","era":"trad","nn":28,"risk":25,"cat":"green"},{"name":"Carrion Crow","lat":53.5489,"lon":-2.08279,"postcode":"OL4 2RJ","la":"Oldham","era":"other","nn":336,"risk":25,"cat":"green"},{"name":"Carters Arms","lat":53.56193,"lon":-2.11977,"postcode":"OL2 6BU","la":"Oldham","era":"trad","nn":349,"risk":25,"cat":"green"},{"name":"Chadderton Football Club","lat":53.5468,"lon":-2.14465,"postcode":"OL9 0JT","la":"Oldham","era":"other","nn":189,"risk":24,"cat":"green"},{"name":"Chadderton Reform Club","lat":53.54545,"lon":-2.14206,"postcode":"OL9 0LG","la":"Oldham","era":"other","nn":47,"risk":23,"cat":"green"},{"name":"Church Inn","lat":53.55077,"lon":-2.07535,"postcode":"OL4 2JE","la":"Oldham","era":"trad","nn":131,"risk":23,"cat":"green"},{"name":"Church Inn","lat":53.55677,"lon":-2.15594,"postcode":"OL1 2RR","la":"Oldham","era":"trad","nn":757,"risk":33,"cat":"amber"},{"name":"Church Inn","lat":53.55414,"lon":-1.98819,"postcode":"OL3 6LW","la":"Oldham","era":"trad","nn":0,"risk":42,"cat":"amber"},{"name":"Coach & Horses","lat":53.54964,"lon":-2.07721,"postcode":"OL4 2HT","la":"Oldham","era":"trad","nn":155,"risk":24,"cat":"green"},{"name":"Coach & Horses","lat":53.57693,"lon":-2.09358,"postcode":"OL2 8NR","la":"Oldham","era":"trad","nn":0,"risk":22,"cat":"green"},{"name":"Colliers Arms","lat":53.53097,"lon":-2.14044,"postcode":"OL9 7JQ","la":"Oldham","era":"trad","nn":209,"risk":24,"cat":"green"},{"name":"Commercial Inn","lat":53.58454,"lon":-2.09174,"postcode":"OL2 7UQ","la":"Oldham","era":"trad","nn":494,"risk":26,"cat":"green"},{"name":"Crompton & Royton Golf Club","lat":53.56746,"lon":-2.1158,"postcode":"OL2 6RW","la":"Oldham","era":"other","nn":329,"risk":25,"cat":"green"},{"name":"Crompton Central Working Mens Club","lat":53.57832,"lon":-2.09355,"postcode":"OL2 8AE","la":"Oldham","era":"trad","nn":26,"risk":23,"cat":"green"},{"name":"Crompton Cricket Club","lat":53.58164,"lon":-2.09741,"postcode":"OL2 7SF","la":"Oldham","era":"other","nn":356,"risk":25,"cat":"green"},{"name":"Cross Keys Inn","lat":53.55414,"lon":-1.98819,"postcode":"OL3 6LW","la":"Oldham","era":"trad","nn":0,"risk":42,"cat":"amber"},{"name":"Daisyfield","lat":53.51383,"lon":-2.10338,"postcode":"OL8 2TE","la":"Oldham","era":"other","nn":389,"risk":43,"cat":"amber"},{"name":"Delph & Dobcross Cricket & Bowling Club","lat":53.56624,"lon":-2.01708,"postcode":"OL3 5EN","la":"Oldham","era":"trad","nn":428,"risk":28,"cat":"green"},{"name":"Delph Brass Band Club","lat":53.56788,"lon":-2.02294,"postcode":"OL3 5DT","la":"Oldham","era":"other","nn":48,"risk":25,"cat":"green"},{"name":"Diggle Band Club","lat":53.5668,"lon":-1.99851,"postcode":"OL3 5PJ","la":"Oldham","era":"other","nn":189,"risk":41,"cat":"amber"},{"name":"Diggle Hotel","lat":53.5686,"lon":-1.99049,"postcode":"OL3 5JZ","la":"Oldham","era":"other","nn":566,"risk":44,"cat":"amber"},{"name":"District Bar Ltd","lat":53.53778,"lon":-2.0708,"postcode":"OL4 4LY","la":"Oldham","era":"mod","nn":12,"risk":23,"cat":"green"},{"name":"Dobcross Band & Social Club","lat":53.55685,"lon":-2.01495,"postcode":"OL3 5AD","la":"Oldham","era":"other","nn":129,"risk":28,"cat":"green"},{"name":"Dog Inn","lat":53.53831,"lon":-2.13768,"postcode":"OL9 8QT","la":"Oldham","era":"trad","nn":172,"risk":24,"cat":"green"},{"name":"Druid Arms","lat":53.52845,"lon":-2.11213,"postcode":"OL8 1QN","la":"Oldham","era":"trad","nn":498,"risk":26,"cat":"green"},{"name":"Duke of Edinburgh","lat":53.5662,"lon":-2.12344,"postcode":"OL2 5QD","la":"Oldham","era":"trad","nn":5,"risk":22,"cat":"green"},{"name":"Duke of York","lat":53.56567,"lon":-2.10089,"postcode":"OL2 6NB","la":"Oldham","era":"trad","nn":116,"risk":26,"cat":"green"},{"name":"Elite Fitness","lat":53.57891,"lon":-2.08468,"postcode":"OL2 8JB","la":"Oldham","era":"other","nn":0,"risk":22,"cat":"green"},{"name":"Falconers Arms","lat":53.52574,"lon":-2.1186,"postcode":"OL8 4HF","la":"Oldham","era":"trad","nn":139,"risk":23,"cat":"green"},{"name":"Famous King George","lat":53.52486,"lon":-2.12009,"postcode":"OL8 3AA","la":"Oldham","era":"trad","nn":139,"risk":23,"cat":"green"},{"name":"Fox and Pine","lat":53.54097,"lon":-2.11066,"postcode":"OL1 1AD","la":"Oldham","era":"trad","nn":67,"risk":23,"cat":"green"},{"name":"Friarmere Cricket Club","lat":53.57659,"lon":-2.04087,"postcode":"OL3 5TR","la":"Oldham","era":"other","nn":1452,"risk":55,"cat":"amber"},{"name":"Friendship Inn","lat":53.53798,"lon":-2.08173,"postcode":"OL4 3AF","la":"Oldham","era":"trad","nn":456,"risk":26,"cat":"green"},{"name":"Friezland Bowling Club","lat":53.53532,"lon":-2.00935,"postcode":"OL3 7EW","la":"Oldham","era":"other","nn":0,"risk":22,"cat":"green"},{"name":"Front House","lat":53.53786,"lon":-2.06671,"postcode":"OL4 4PH","la":"Oldham","era":"other","nn":65,"risk":23,"cat":"green"},{"name":"Gin And Juice Bar Ltd","lat":53.56501,"lon":-2.12257,"postcode":"OL2 5PA","la":"Oldham","era":"mod","nn":0,"risk":22,"cat":"green"},{"name":"Gin Gin Bar","lat":53.57808,"lon":-2.09329,"postcode":"OL2 8AP","la":"Oldham","era":"other","nn":26,"risk":23,"cat":"green"},{"name":"Glorious Food at The Rifle Range","lat":53.5538,"lon":-2.13829,"postcode":"OL1 2QP","la":"Oldham","era":"other","nn":258,"risk":24,"cat":"green"},{"name":"Granby Arms","lat":53.54674,"lon":-2.00704,"postcode":"OL3 6HR","la":"Oldham","era":"trad","nn":0,"risk":22,"cat":"green"},{"name":"Greenacres Hotel","lat":53.54593,"lon":-2.08182,"postcode":"OL4 2DP","la":"Oldham","era":"other","nn":336,"risk":25,"cat":"green"},{"name":"Halfway House","lat":53.57645,"lon":-2.13171,"postcode":"OL2 5RY","la":"Oldham","era":"other","nn":545,"risk":26,"cat":"green"},{"name":"Hare & Hounds","lat":53.5483,"lon":-2.00541,"postcode":"OL3 6AW","la":"Oldham","era":"trad","nn":0,"risk":22,"cat":"green"},{"name":"Heyside Cricket Club","lat":53.56643,"lon":-2.09969,"postcode":"OL2 6ND","la":"Oldham","era":"other","nn":116,"risk":26,"cat":"green"},{"name":"High Crompton Con. Club","lat":53.58356,"lon":-2.11302,"postcode":"OL2 7NJ","la":"Oldham","era":"other","nn":228,"risk":27,"cat":"green"},{"name":"Highfield Inn","lat":53.55971,"lon":-2.07838,"postcode":"OL4 2LN","la":"Oldham","era":"trad","nn":469,"risk":26,"cat":"green"},{"name":"Hillbillies","lat":53.547,"lon":-2.089,"postcode":"OL4 2RD","la":"Oldham","era":"other","nn":0,"risk":22,"cat":"green"},{"name":"Hollinwood Cricket Club","lat":53.51552,"lon":-2.13585,"postcode":"OL8 3TB","la":"Oldham","era":"other","nn":373,"risk":25,"cat":"green"},{"name":"Honeywell Arms","lat":53.52408,"lon":-2.11043,"postcode":"OL8 2NB","la":"Oldham","era":"trad","nn":498,"risk":26,"cat":"green"},{"name":"Hope and Anchor","lat":53.56635,"lon":-2.12552,"postcode":"OL2 5QP","la":"Oldham","era":"trad","nn":0,"risk":22,"cat":"green"},{"name":"Horton Arms","lat":53.55997,"lon":-2.14582,"postcode":"OL1 2SZ","la":"Oldham","era":"trad","nn":596,"risk":27,"cat":"green"},{"name":"Hunt Lane Tavern","lat":53.54734,"lon":-2.15081,"postcode":"OL9 0LD","la":"Oldham","era":"other","nn":411,"risk":25,"cat":"green"},{"name":"Jaymar Dance Centre","lat":53.5432,"lon":-2.10837,"postcode":"OL1 3UH","la":"Oldham","era":"other","nn":54,"risk":23,"cat":"green"},{"name":"Junction Inn","lat":53.57,"lon":-2.12594,"postcode":"OL2 5RA","la":"Oldham","era":"trad","nn":361,"risk":25,"cat":"green"},{"name":"Junction Inn","lat":53.59313,"lon":-2.04118,"postcode":"OL3 5SE","la":"Oldham","era":"trad","nn":205,"risk":29,"cat":"green"},{"name":"Khau Galli","lat":53.55619,"lon":-2.12028,"postcode":"OL2 6AB","la":"Oldham","era":"other","nn":211,"risk":24,"cat":"green"},{"name":"King William IV Hotel","lat":53.53379,"lon":-2.00251,"postcode":"OL3 7DD","la":"Oldham","era":"trad","nn":12,"risk":23,"cat":"green"},{"name":"Kingfisher","lat":53.53781,"lon":-2.00974,"postcode":"OL3 7AE","la":"Oldham","era":"trad","nn":76,"risk":23,"cat":"green"},{"name":"Liquid & Envy","lat":53.54183,"lon":-2.10901,"postcode":"OL1 1SQ","la":"Oldham","era":"other","nn":37,"risk":23,"cat":"green"},{"name":"Lodge of Candour","lat":53.55128,"lon":-2.00532,"postcode":"OL3 6BT","la":"Oldham","era":"other","nn":249,"risk":24,"cat":"green"},{"name":"Lowerhouse Inn","lat":53.54824,"lon":-2.09329,"postcode":"OL1 3PG","la":"Oldham","era":"other","nn":223,"risk":24,"cat":"green"},{"name":"Manor Inn","lat":53.5297,"lon":-2.08756,"postcode":"OL8 2DH","la":"Oldham","era":"trad","nn":455,"risk":43,"cat":"amber"},{"name":"Masonic Hall","lat":53.57845,"lon":-2.09782,"postcode":"OL2 7AJ","la":"Oldham","era":"trad","nn":275,"risk":24,"cat":"green"},{"name":"Miljul Chai House","lat":53.54234,"lon":-2.10629,"postcode":"OL1 1ST","la":"Oldham","era":"other","nn":69,"risk":23,"cat":"green"},{"name":"Minders Arms","lat":53.547,"lon":-2.089,"postcode":"OL4 2RD","la":"Oldham","era":"trad","nn":0,"risk":22,"cat":"green"},{"name":"Moorside Cricket/Bowling Club","lat":53.56347,"lon":-2.06982,"postcode":"OL4 2ND","la":"Oldham","era":"other","nn":321,"risk":27,"cat":"green"},{"name":"Navigation Inn","lat":53.55702,"lon":-2.00612,"postcode":"OL3 5NS","la":"Oldham","era":"trad","nn":485,"risk":26,"cat":"green"},{"name":"Nimble Nook Working Mens Club","lat":53.53622,"lon":-2.15636,"postcode":"OL9 9QR","la":"Oldham","era":"trad","nn":410,"risk":30,"cat":"green"},{"name":"North Chadderton Con Club","lat":53.54503,"lon":-2.13817,"postcode":"OL9 0HH","la":"Oldham","era":"other","nn":146,"risk":23,"cat":"green"},{"name":"North Chadderton Social & Bowling Club","lat":53.55247,"lon":-2.1415,"postcode":"OL9 0EL","la":"Oldham","era":"mod","nn":258,"risk":24,"cat":"green"},{"name":"North Star Inn","lat":53.58498,"lon":-2.10997,"postcode":"OL2 7PR","la":"Oldham","era":"trad","nn":256,"risk":24,"cat":"green"},{"name":"Northgate","lat":53.5657,"lon":-2.08039,"postcode":"OL1 4NY","la":"Oldham","era":"other","nn":463,"risk":31,"cat":"amber"},{"name":"Old Bank","lat":53.54202,"lon":-2.10856,"postcode":"OL1 1SN","la":"Oldham","era":"other","nn":37,"risk":23,"cat":"green"},{"name":"Old Bulls Head","lat":53.58545,"lon":-2.11433,"postcode":"OL2 7PD","la":"Oldham","era":"trad","nn":228,"risk":27,"cat":"green"},{"name":"Old Original","lat":53.55399,"lon":-2.04189,"postcode":"OL4 3RX","la":"Oldham","era":"other","nn":1125,"risk":53,"cat":"amber"},{"name":"Oldham Deaf Social Club","lat":53.53622,"lon":-2.10847,"postcode":"OL4 1SH","la":"Oldham","era":"mod","nn":530,"risk":26,"cat":"green"},{"name":"Oldham Rugby Club","lat":53.5127,"lon":-2.10894,"postcode":"OL8 2TJ","la":"Oldham","era":"other","nn":389,"risk":43,"cat":"amber"},{"name":"Oldham Sports and Community Club","lat":53.55465,"lon":-2.08686,"postcode":"OL1 4HY","la":"Oldham","era":"other","nn":273,"risk":24,"cat":"green"},{"name":"Party 1 at the Cotton Rooms","lat":53.54362,"lon":-2.10643,"postcode":"OL1 3UJ","la":"Oldham","era":"mod","nn":121,"risk":23,"cat":"green"},{"name":"Peels Arms","lat":53.54308,"lon":-2.06034,"postcode":"OL4 4RE","la":"Oldham","era":"trad","nn":392,"risk":25,"cat":"green"},{"name":"Pinchitos","lat":53.56648,"lon":-2.12238,"postcode":"OL2 6QJ","la":"Oldham","era":"other","nn":29,"risk":23,"cat":"green"},{"name":"Pineapple Inn","lat":53.5781,"lon":-2.09369,"postcode":"OL2 8AD","la":"Oldham","era":"trad","nn":26,"risk":23,"cat":"green"},{"name":"Playhouse 2","lat":53.57634,"lon":-2.09338,"postcode":"OL2 8NX","la":"Oldham","era":"mod","nn":67,"risk":23,"cat":"green"},{"name":"Pleasant Inn","lat":53.58097,"lon":-2.13493,"postcode":"OL2 6XQ","la":"Oldham","era":"trad","nn":195,"risk":26,"cat":"green"},{"name":"Polish Club","lat":53.52607,"lon":-2.13335,"postcode":"OL8 4NZ","la":"Oldham","era":"other","nn":567,"risk":26,"cat":"green"},{"name":"Printers Arms","lat":53.58961,"lon":-2.04264,"postcode":"OL3 5SN","la":"Oldham","era":"trad","nn":318,"risk":42,"cat":"amber"},{"name":"Puckersley Inn","lat":53.58169,"lon":-2.124,"postcode":"OL2 6YD","la":"Oldham","era":"trad","nn":549,"risk":26,"cat":"green"},{"name":"Red Lion","lat":53.53776,"lon":-2.07097,"postcode":"OL4 4LY","la":"Oldham","era":"trad","nn":12,"risk":23,"cat":"green"},{"name":"Roebuck Inn","lat":53.55789,"lon":-2.06108,"postcode":"OL4 3RB","la":"Oldham","era":"trad","nn":848,"risk":48,"cat":"amber"},{"name":"Rose of Lancaster","lat":53.55192,"lon":-2.16682,"postcode":"OL1 2TQ","la":"Oldham","era":"trad","nn":505,"risk":31,"cat":"amber"},{"name":"Royal Oak","lat":53.53116,"lon":-2.13395,"postcode":"OL9 7BN","la":"Oldham","era":"trad","nn":429,"risk":25,"cat":"green"},{"name":"Royal Oak Inn","lat":53.57256,"lon":-2.10209,"postcode":"OL2 7DA","la":"Oldham","era":"trad","nn":144,"risk":23,"cat":"green"},{"name":"Royton Brass Band & Musical","lat":53.56635,"lon":-2.12552,"postcode":"OL2 5QP","la":"Oldham","era":"other","nn":0,"risk":22,"cat":"green"},{"name":"Royton Cricket and Bowling Club","lat":53.56775,"lon":-2.12988,"postcode":"OL2 5TX","la":"Oldham","era":"other","nn":327,"risk":25,"cat":"green"},{"name":"Rumours","lat":53.56615,"lon":-2.12341,"postcode":"OL2 5QD","la":"Oldham","era":"other","nn":5,"risk":22,"cat":"green"},{"name":"Saddleworth Cricket, Bowling & Tennis Club","lat":53.5315,"lon":-2.02377,"postcode":"OL3 7HY","la":"Oldham","era":"other","nn":274,"risk":24,"cat":"green"},{"name":"Saddleworth Golf Club","lat":53.54698,"lon":-2.01053,"postcode":"OL3 6LT","la":"Oldham","era":"other","nn":232,"risk":24,"cat":"green"},{"name":"Saddleworth Wine Vault","lat":53.54829,"lon":-2.00541,"postcode":"OL3 6AW","la":"Oldham","era":"other","nn":0,"risk":22,"cat":"green"},{"name":"Scooby's Bar","lat":53.56489,"lon":-2.12156,"postcode":"OL2 5PE","la":"Oldham","era":"other","nn":51,"risk":23,"cat":"green"},{"name":"SDC Trading Ltd","lat":53.53709,"lon":-2.075,"postcode":"OL4 5AJ","la":"Oldham","era":"other","nn":156,"risk":24,"cat":"green"},{"name":"Shaw Comrades Social Club","lat":53.57275,"lon":-2.09993,"postcode":"OL2 8SB","la":"Oldham","era":"mod","nn":144,"risk":23,"cat":"green"},{"name":"Shepherds Boy","lat":53.54939,"lon":-2.07327,"postcode":"OL4 2HD","la":"Oldham","era":"other","nn":83,"risk":23,"cat":"green"},{"name":"Spring Bank Bowling Club","lat":53.54207,"lon":-2.147,"postcode":"OL9 9HT","la":"Oldham","era":"other","nn":498,"risk":26,"cat":"green"},{"name":"Spring Vale Inn","lat":53.54586,"lon":-2.14226,"postcode":"OL9 0JH","la":"Oldham","era":"trad","nn":47,"risk":23,"cat":"green"},{"name":"Springhead A.F.C.","lat":53.53855,"lon":-2.02957,"postcode":"OL4 4HY","la":"Oldham","era":"trad","nn":622,"risk":44,"cat":"amber"},{"name":"Springhead Liberal Club","lat":53.53739,"lon":-2.06039,"postcode":"OL4 5SN","la":"Oldham","era":"trad","nn":421,"risk":25,"cat":"green"},{"name":"St Annes Rugby League Club","lat":53.55366,"lon":-2.10621,"postcode":"OL1 3JY","la":"Oldham","era":"other","nn":971,"risk":49,"cat":"amber"},{"name":"Streetbridge Inn","lat":53.51463,"lon":-2.14129,"postcode":"OL8 3QH","la":"Oldham","era":"trad","nn":373,"risk":25,"cat":"green"},{"name":"Summit Inn","lat":53.58264,"lon":-2.13584,"postcode":"OL2 6XF","la":"Oldham","era":"trad","nn":195,"risk":24,"cat":"green"},{"name":"Sun Mill Inn","lat":53.54463,"lon":-2.14026,"postcode":"OL9 9SH","la":"Oldham","era":"trad","nn":146,"risk":23,"cat":"green"},{"name":"Swan Inn","lat":53.56737,"lon":-2.0237,"postcode":"OL3 5DL","la":"Oldham","era":"trad","nn":28,"risk":25,"cat":"green"},{"name":"Tame Valley Tennis & Squash Club","lat":53.53621,"lon":-2.00936,"postcode":"OL3 7JR","la":"Oldham","era":"other","nn":98,"risk":23,"cat":"green"},{"name":"The Ace","lat":53.52012,"lon":-2.10077,"postcode":"OL8 2QD","la":"Oldham","era":"other","nn":720,"risk":32,"cat":"amber"},{"name":"The Angel Inn","lat":53.56669,"lon":-2.111,"postcode":"OL2 6DY","la":"Oldham","era":"trad","nn":329,"risk":25,"cat":"green"},{"name":"The Bees Knees","lat":53.54273,"lon":-2.10859,"postcode":"OL1 3SW","la":"Oldham","era":"other","nn":54,"risk":23,"cat":"green"},{"name":"The Black Horse","lat":53.55225,"lon":-2.08607,"postcode":"OL1 4HR","la":"Oldham","era":"trad","nn":273,"risk":24,"cat":"green"},{"name":"The Britannia Tavern","lat":53.52291,"lon":-2.12571,"postcode":"OL8 4LB","la":"Oldham","era":"trad","nn":91,"risk":23,"cat":"green"},{"name":"The Clarence Pub Saddleworth Ltd","lat":53.53389,"lon":-2.00257,"postcode":"OL3 7DD","la":"Oldham","era":"other","nn":12,"risk":23,"cat":"green"},{"name":"The Club at the Hall Ltd","lat":53.59167,"lon":-2.03929,"postcode":"OL3 5SD","la":"Oldham","era":"other","nn":205,"risk":29,"cat":"green"},{"name":"The Commie","lat":53.54908,"lon":-2.00461,"postcode":"OL3 6AX","la":"Oldham","era":"other","nn":102,"risk":23,"cat":"green"},{"name":"The Crown","lat":53.53959,"lon":-2.13916,"postcode":"OL9 9LR","la":"Oldham","era":"trad","nn":172,"risk":24,"cat":"green"},{"name":"The Farrars Arms","lat":53.53787,"lon":-2.02023,"postcode":"OL4 4HL","la":"Oldham","era":"trad","nn":436,"risk":25,"cat":"green"},{"name":"The Gate Inn","lat":53.56529,"lon":-1.99983,"postcode":"OL3 5PQ","la":"Oldham","era":"trad","nn":189,"risk":41,"cat":"amber"},{"name":"The George Tavern","lat":53.54091,"lon":-2.1161,"postcode":"OL1 1LB","la":"Oldham","era":"trad","nn":93,"risk":23,"cat":"green"},{"name":"The Grapes","lat":53.54163,"lon":-2.06823,"postcode":"OL4 3DR","la":"Oldham","era":"other","nn":432,"risk":25,"cat":"green"},{"name":"The Greyhound Inn","lat":53.55947,"lon":-2.13101,"postcode":"OL2 5ES","la":"Oldham","era":"trad","nn":352,"risk":25,"cat":"green"},{"name":"The Haggate","lat":53.5622,"lon":-2.13372,"postcode":"OL2 5DU","la":"Oldham","era":"other","nn":352,"risk":25,"cat":"green"},{"name":"The Hawthorn Inn","lat":53.53374,"lon":-2.08641,"postcode":"OL4 5LN","la":"Oldham","era":"trad","nn":455,"risk":26,"cat":"green"},{"name":"The Interclubbers Bar Oldham","lat":53.5427,"lon":-2.10543,"postcode":"OL1 3TF","la":"Oldham","era":"mod","nn":69,"risk":23,"cat":"green"},{"name":"The Junction Inn","lat":53.54735,"lon":-2.08976,"postcode":"OL1 4EN","la":"Oldham","era":"trad","nn":63,"risk":23,"cat":"green"},{"name":"The Moorside Hotel","lat":53.5633,"lon":-2.07466,"postcode":"OL1 4SA","la":"Oldham","era":"other","nn":321,"risk":30,"cat":"green"},{"name":"The Morning Star Inn","lat":53.57792,"lon":-2.08499,"postcode":"OL2 8HZ","la":"Oldham","era":"trad","nn":112,"risk":23,"cat":"green"},{"name":"The Park Inn","lat":53.58718,"lon":-2.08298,"postcode":"OL2 8DW","la":"Oldham","era":"trad","nn":648,"risk":32,"cat":"amber"},{"name":"The Railway","lat":53.52012,"lon":-2.14634,"postcode":"OL9 7LG","la":"Oldham","era":"trad","nn":209,"risk":24,"cat":"green"},{"name":"The Railway Hotel","lat":53.53857,"lon":-2.01374,"postcode":"OL3 7JZ","la":"Oldham","era":"trad","nn":208,"risk":24,"cat":"green"},{"name":"The Railway Hotel","lat":53.56533,"lon":-2.12134,"postcode":"OL2 6DN","la":"Oldham","era":"trad","nn":51,"risk":23,"cat":"green"},{"name":"The Rams Head","lat":53.59935,"lon":-2.03656,"postcode":"OL3 5UN","la":"Oldham","era":"trad","nn":756,"risk":45,"cat":"amber"},{"name":"The Royal George","lat":53.52936,"lon":-2.02583,"postcode":"OL3 7HX","la":"Oldham","era":"trad","nn":274,"risk":24,"cat":"green"},{"name":"The Secret Sip","lat":53.56501,"lon":-2.12257,"postcode":"OL2 5PA","la":"Oldham","era":"other","nn":0,"risk":22,"cat":"green"},{"name":"The Shawside","lat":53.57891,"lon":-2.08468,"postcode":"OL2 8JB","la":"Oldham","era":"other","nn":0,"risk":22,"cat":"green"},{"name":"The Shay Wake","lat":53.57842,"lon":-2.09313,"postcode":"OL2 8AP","la":"Oldham","era":"other","nn":30,"risk":23,"cat":"green"},{"name":"The Spinners Arms","lat":53.54477,"lon":-2.05323,"postcode":"OL4 4BS","la":"Oldham","era":"trad","nn":309,"risk":25,"cat":"green"},{"name":"The Sportsman","lat":53.53473,"lon":-2.15069,"postcode":"OL9 9EA","la":"Oldham","era":"other","nn":410,"risk":25,"cat":"green"},{"name":"The Stock Pot","lat":53.53779,"lon":-2.01089,"postcode":"OL3 7AF","la":"Oldham","era":"other","nn":0,"risk":22,"cat":"green"},{"name":"The Swan Inn","lat":53.5562,"lon":-2.01334,"postcode":"OL3 5AA","la":"Oldham","era":"trad","nn":129,"risk":23,"cat":"green"},{"name":"The Tommyfield","lat":53.54383,"lon":-2.11544,"postcode":"OL1 1NJ","la":"Oldham","era":"other","nn":234,"risk":24,"cat":"green"},{"name":"The Top House","lat":53.53728,"lon":-2.06689,"postcode":"OL4 5TB","la":"Oldham","era":"other","nn":65,"risk":23,"cat":"green"},{"name":"The Venue","lat":53.53786,"lon":-2.07222,"postcode":"OL4 5AA","la":"Oldham","era":"other","nn":49,"risk":23,"cat":"green"},{"name":"The Waggon Inn","lat":53.54674,"lon":-2.00704,"postcode":"OL3 6HR","la":"Oldham","era":"trad","nn":0,"risk":22,"cat":"green"},{"name":"The Wellington","lat":53.53779,"lon":-2.01089,"postcode":"OL3 7AF","la":"Oldham","era":"trad","nn":0,"risk":22,"cat":"green"},{"name":"Three Crowns Inn","lat":53.54738,"lon":-2.05481,"postcode":"OL4 4AT","la":"Oldham","era":"trad","nn":309,"risk":27,"cat":"green"},{"name":"Toby Carvery","lat":53.55537,"lon":-2.1412,"postcode":"OL1 2QS","la":"Oldham","era":"other","nn":260,"risk":24,"cat":"green"},{"name":"Town Hall Tavern","lat":53.54192,"lon":-2.11028,"postcode":"OL1 1QX","la":"Oldham","era":"other","nn":84,"risk":23,"cat":"green"},{"name":"Turks Head","lat":53.58359,"lon":-2.13168,"postcode":"OL2 6UP","la":"Oldham","era":"trad","nn":294,"risk":24,"cat":"green"},{"name":"Up Steps Inn","lat":53.54222,"lon":-2.11316,"postcode":"OL1 3AJ","la":"Oldham","era":"trad","nn":170,"risk":24,"cat":"green"},{"name":"Uppermill Conservative Club","lat":53.54842,"lon":-2.00576,"postcode":"OL3 6AP","la":"Oldham","era":"trad","nn":27,"risk":23,"cat":"green"},{"name":"Uppermill Sports Club","lat":53.54651,"lon":-2.00315,"postcode":"OL3 6HG","la":"Oldham","era":"trad","nn":249,"risk":24,"cat":"green"},{"name":"Waggon & Horses","lat":53.51833,"lon":-2.14535,"postcode":"OL8 3RB","la":"Oldham","era":"trad","nn":193,"risk":24,"cat":"green"},{"name":"Washbrook Tavern","lat":53.53032,"lon":-2.14341,"postcode":"OL9 8JL","la":"Oldham","era":"other","nn":209,"risk":24,"cat":"green"},{"name":"Waterhead Sports & Social Club","lat":53.55103,"lon":-2.07728,"postcode":"OL4 2HX","la":"Oldham","era":"other","nn":131,"risk":23,"cat":"green"},{"name":"Weavers Arms","lat":53.547,"lon":-2.089,"postcode":"OL4 2RD","la":"Oldham","era":"trad","nn":0,"risk":22,"cat":"green"},{"name":"Welcome Inn","lat":53.52063,"lon":-2.13448,"postcode":"OL8 3SY","la":"Oldham","era":"trad","nn":543,"risk":26,"cat":"green"},{"name":"Werneth Golf Club","lat":53.51953,"lon":-2.12048,"postcode":"OL8 3AZ","la":"Oldham","era":"other","nn":205,"risk":24,"cat":"green"},{"name":"West Indian Sports & Social Club","lat":53.53519,"lon":-2.1163,"postcode":"OL8 1HQ","la":"Oldham","era":"mod","nn":530,"risk":26,"cat":"green"},{"name":"Westend Bowling Club","lat":53.52989,"lon":-2.12694,"postcode":"OL8 4DQ","la":"Oldham","era":"other","nn":485,"risk":26,"cat":"green"},{"name":"White Hart","lat":53.55808,"lon":-2.12034,"postcode":"OL2 6BB","la":"Oldham","era":"trad","nn":211,"risk":24,"cat":"green"},{"name":"White Hart Inn","lat":53.52246,"lon":-2.12687,"postcode":"OL8 3TP","la":"Oldham","era":"trad","nn":91,"risk":23,"cat":"green"},{"name":"White Lion","lat":53.5704,"lon":-2.02106,"postcode":"OL3 5HX","la":"Oldham","era":"trad","nn":307,"risk":27,"cat":"green"},{"name":"Whittles @ Tokyo","lat":53.54106,"lon":-2.10574,"postcode":"OL1 1EA","la":"Oldham","era":"other","nn":147,"risk":23,"cat":"green"},{"name":"Bamford Bowling Club","lat":53.61256,"lon":-2.20938,"postcode":"OL11 5PN","la":"Rochdale","era":"other","nn":0,"risk":23,"cat":"green"},{"name":"Bamford Fieldhouse Cricket Club","lat":53.61288,"lon":-2.2097,"postcode":"OL11 5PW","la":"Rochdale","era":"mod","nn":41,"risk":24,"cat":"green"},{"name":"Bar X","lat":53.59403,"lon":-2.226,"postcode":"OL10 1JF","la":"Rochdale","era":"mod","nn":15,"risk":23,"cat":"green"},{"name":"Bay Horse","lat":53.58535,"lon":-2.20789,"postcode":"OL10 2EZ","la":"Rochdale","era":"trad","nn":202,"risk":27,"cat":"green"},{"name":"Beaconsfield Conservative Club","lat":53.59334,"lon":-2.23407,"postcode":"OL10 4QT","la":"Rochdale","era":"other","nn":0,"risk":23,"cat":"green"},{"name":"Black dog","lat":53.6329,"lon":-2.18877,"postcode":"OL12 7JG","la":"Rochdale","era":"other","nn":1045,"risk":53,"cat":"amber"},{"name":"Blue Pits Inn","lat":53.59078,"lon":-2.17761,"postcode":"OL11 2SP","la":"Rochdale","era":"trad","nn":0,"risk":23,"cat":"green"},{"name":"British Legion Castleton Comrades Club","lat":53.59334,"lon":-2.17913,"postcode":"OL11 3EB","la":"Rochdale","era":"other","nn":301,"risk":25,"cat":"green"},{"name":"Brown Cow","lat":53.62714,"lon":-2.2115,"postcode":"OL12 7RB","la":"Rochdale","era":"other","nn":28,"risk":24,"cat":"green"},{"name":"Brownhill Hotel","lat":53.62201,"lon":-2.16117,"postcode":"OL12 0PX","la":"Rochdale","era":"other","nn":280,"risk":25,"cat":"green"},{"name":"Bulls Head","lat":53.60529,"lon":-2.06937,"postcode":"OL16 3TD","la":"Rochdale","era":"trad","nn":1367,"risk":55,"cat":"amber"},{"name":"Cap and Whippet","lat":53.62681,"lon":-2.20944,"postcode":"OL12 7RB","la":"Rochdale","era":"other","nn":1,"risk":23,"cat":"green"},{"name":"Cask & Feather","lat":53.61464,"lon":-2.15301,"postcode":"OL16 1UA","la":"Rochdale","era":"other","nn":130,"risk":24,"cat":"green"},{"name":"Castle Hawk Golf Club","lat":53.58995,"lon":-2.19154,"postcode":"OL11 3BY","la":"Rochdale","era":"other","nn":0,"risk":23,"cat":"green"},{"name":"Cemetery Hotel","lat":53.61358,"lon":-2.18014,"postcode":"OL11 5EU","la":"Rochdale","era":"other","nn":617,"risk":45,"cat":"amber"},{"name":"Commercial Castleton","lat":53.59078,"lon":-2.17761,"postcode":"OL11 2SP","la":"Rochdale","era":"other","nn":0,"risk":23,"cat":"green"},{"name":"Corporation Inn","lat":53.61036,"lon":-2.15682,"postcode":"OL11 1EB","la":"Rochdale","era":"trad","nn":211,"risk":25,"cat":"green"},{"name":"Cronkeyshaw Social Club","lat":53.6254,"lon":-2.16082,"postcode":"OL12 0QR","la":"Rochdale","era":"mod","nn":153,"risk":24,"cat":"green"},{"name":"Crown & Shuttle","lat":53.61512,"lon":-2.12213,"postcode":"OL16 3BU","la":"Rochdale","era":"trad","nn":771,"risk":34,"cat":"amber"},{"name":"Crown Oil Arena - Rochdale AFC (Bars Only for Food Hygiene)","lat":53.61913,"lon":-2.18003,"postcode":"OL11 5DR","la":"Rochdale","era":"trad","nn":0,"risk":28,"cat":"green"},{"name":"D'Ale House","lat":53.61646,"lon":-2.15619,"postcode":"OL16 1NT","la":"Rochdale","era":"other","nn":49,"risk":24,"cat":"green"},{"name":"Duke of Wellington","lat":53.59112,"lon":-2.21345,"postcode":"OL10 1DL","la":"Rochdale","era":"trad","nn":123,"risk":24,"cat":"green"},{"name":"Dyers Arms","lat":53.64567,"lon":-2.10299,"postcode":"OL15 8DU","la":"Rochdale","era":"trad","nn":219,"risk":25,"cat":"green"},{"name":"Edwin Waugh","lat":53.59384,"lon":-2.22253,"postcode":"OL10 4LY","la":"Rochdale","era":"other","nn":100,"risk":24,"cat":"green"},{"name":"Flower of the Valley","lat":53.62776,"lon":-2.14175,"postcode":"OL16 2NJ","la":"Rochdale","era":"other","nn":546,"risk":27,"cat":"green"},{"name":"Flying Horse","lat":53.61582,"lon":-2.1574,"postcode":"OL16 1NJ","la":"Rochdale","era":"trad","nn":0,"risk":23,"cat":"green"},{"name":"Free Trade Tavern","lat":53.60337,"lon":-2.10384,"postcode":"OL16 4JF","la":"Rochdale","era":"other","nn":0,"risk":23,"cat":"green"},{"name":"Greengate Inn","lat":53.63559,"lon":-2.1286,"postcode":"OL12 9PU","la":"Rochdale","era":"trad","nn":311,"risk":31,"cat":"amber"},{"name":"Greenwoods @ Rochdale Golf Club","lat":53.62212,"lon":-2.19498,"postcode":"OL11 5YR","la":"Rochdale","era":"other","nn":245,"risk":45,"cat":"amber"},{"name":"Hare & Hounds","lat":53.60731,"lon":-2.20794,"postcode":"OL11 4AA","la":"Rochdale","era":"trad","nn":66,"risk":24,"cat":"green"},{"name":"Hare & Hounds","lat":53.64661,"lon":-2.13271,"postcode":"OL12 9LQ","la":"Rochdale","era":"trad","nn":104,"risk":42,"cat":"amber"},{"name":"Hare on the Hill","lat":53.64732,"lon":-2.10116,"postcode":"OL15 9HG","la":"Rochdale","era":"other","nn":219,"risk":25,"cat":"green"},{"name":"Harvester Pub and Grill","lat":53.60789,"lon":-2.20812,"postcode":"OL11 5HW","la":"Rochdale","era":"trad","nn":66,"risk":24,"cat":"green"},{"name":"Haydens Kitchen at The Gallows","lat":53.6136,"lon":-2.10876,"postcode":"OL16 3JN","la":"Rochdale","era":"mod","nn":354,"risk":26,"cat":"green"},{"name":"Heywood Bowling Club Catering","lat":53.59947,"lon":-2.21722,"postcode":"OL10 4UY","la":"Rochdale","era":"other","nn":223,"risk":25,"cat":"green"},{"name":"Heywood Cricket Club","lat":53.59835,"lon":-2.21294,"postcode":"OL10 4HW","la":"Rochdale","era":"other","nn":309,"risk":26,"cat":"green"},{"name":"Heywood Reform Club","lat":53.59242,"lon":-2.22648,"postcode":"OL10 3AA","la":"Rochdale","era":"other","nn":182,"risk":25,"cat":"green"},{"name":"Heywood St James Football Club","lat":53.59416,"lon":-2.22609,"postcode":"OL10 1JW","la":"Rochdale","era":"other","nn":15,"risk":23,"cat":"green"},{"name":"Hogarths","lat":53.61748,"lon":-2.15733,"postcode":"OL16 1EX","la":"Rochdale","era":"other","nn":13,"risk":23,"cat":"green"},{"name":"Hoochi Koochi","lat":53.61665,"lon":-2.15702,"postcode":"OL16 1LR","la":"Rochdale","era":"other","nn":59,"risk":24,"cat":"green"},{"name":"Hop and Vine","lat":53.62682,"lon":-2.20956,"postcode":"OL12 7RB","la":"Rochdale","era":"other","nn":8,"risk":23,"cat":"green"},{"name":"Hopwood Unionist Club","lat":53.58599,"lon":-2.21076,"postcode":"OL10 2AP","la":"Rochdale","era":"other","nn":202,"risk":25,"cat":"green"},{"name":"Horse & Farrier","lat":53.62682,"lon":-2.20944,"postcode":"OL12 7RB","la":"Rochdale","era":"trad","nn":1,"risk":23,"cat":"green"},{"name":"Horse & Jockey","lat":53.60499,"lon":-2.14867,"postcode":"OL11 1AU","la":"Rochdale","era":"trad","nn":232,"risk":25,"cat":"green"},{"name":"King William IV","lat":53.65113,"lon":-2.11744,"postcode":"OL15 9LW","la":"Rochdale","era":"trad","nn":1085,"risk":53,"cat":"amber"},{"name":"Ko Ko Kabana Lounge","lat":53.61582,"lon":-2.1574,"postcode":"OL16 1NJ","la":"Rochdale","era":"mod","nn":0,"risk":23,"cat":"green"},{"name":"La Strada Club Ltd","lat":53.61614,"lon":-2.15566,"postcode":"OL16 1NU","la":"Rochdale","era":"other","nn":49,"risk":24,"cat":"green"},{"name":"Littleborough Coach House","lat":53.6442,"lon":-2.09529,"postcode":"OL15 9AE","la":"Rochdale","era":"trad","nn":36,"risk":24,"cat":"green"},{"name":"Littleborough Conservative Club","lat":53.64278,"lon":-2.09795,"postcode":"OL15 8AQ","la":"Rochdale","era":"other","nn":90,"risk":24,"cat":"green"},{"name":"Littleborough Cricket Club","lat":53.64921,"lon":-2.09931,"postcode":"OL15 9LD","la":"Rochdale","era":"other","nn":243,"risk":25,"cat":"green"},{"name":"Littleborough Sports Club","lat":53.62434,"lon":-2.08514,"postcode":"OL15 0AP","la":"Rochdale","era":"other","nn":1114,"risk":54,"cat":"amber"},{"name":"Malibu","lat":53.61735,"lon":-2.15768,"postcode":"OL16 1ES","la":"Rochdale","era":"other","nn":1,"risk":23,"cat":"green"},{"name":"Mark Twain","lat":53.626,"lon":-2.15641,"postcode":"OL12 0RE","la":"Rochdale","era":"other","nn":285,"risk":25,"cat":"green"},{"name":"Mayfield Sports centre","lat":53.58995,"lon":-2.19154,"postcode":"OL11 3BY","la":"Rochdale","era":"other","nn":0,"risk":23,"cat":"green"},{"name":"Milnrow Cricket Club","lat":53.60552,"lon":-2.11044,"postcode":"OL16 4EL","la":"Rochdale","era":"other","nn":337,"risk":26,"cat":"green"},{"name":"Milnrow Working Mens Club","lat":53.61127,"lon":-2.11241,"postcode":"OL16 3LH","la":"Rochdale","era":"trad","nn":5,"risk":23,"cat":"green"},{"name":"Miss Q's Sports Bar & Academy","lat":53.61338,"lon":-2.15657,"postcode":"OL16 1QG","la":"Rochdale","era":"mod","nn":126,"risk":24,"cat":"green"},{"name":"Mojitos","lat":53.61256,"lon":-2.20938,"postcode":"OL11 5PN","la":"Rochdale","era":"other","nn":0,"risk":23,"cat":"green"},{"name":"Moon Spinners","lat":53.60674,"lon":-2.10577,"postcode":"OL16 3NP","la":"Rochdale","era":"trad","nn":108,"risk":24,"cat":"green"},{"name":"Moorcock Inn","lat":53.65136,"lon":-2.07338,"postcode":"OL15 0LD","la":"Rochdale","era":"trad","nn":1329,"risk":55,"cat":"amber"},{"name":"Nelson Hotel","lat":53.61226,"lon":-2.15681,"postcode":"OL16 1QB","la":"Rochdale","era":"trad","nn":126,"risk":24,"cat":"green"},{"name":"Newmarket Hotel","lat":53.59164,"lon":-2.21948,"postcode":"OL10 1AQ","la":"Rochdale","era":"other","nn":194,"risk":25,"cat":"green"},{"name":"Newtown National Club Ltd","lat":53.59682,"lon":-2.18217,"postcode":"OL11 3JN","la":"Rochdale","era":"other","nn":333,"risk":26,"cat":"green"},{"name":"Norden Cricket Club","lat":53.62823,"lon":-2.20945,"postcode":"OL12 7SD","la":"Rochdale","era":"other","nn":157,"risk":24,"cat":"green"},{"name":"Our Gracies","lat":53.61735,"lon":-2.15766,"postcode":"OL16 1ES","la":"Rochdale","era":"other","nn":1,"risk":23,"cat":"green"},{"name":"Owd Betts","lat":53.64065,"lon":-2.25901,"postcode":"OL12 7TY","la":"Rochdale","era":"other","nn":2690,"risk":65,"cat":"red"},{"name":"Ox and Plough","lat":53.63914,"lon":-2.11679,"postcode":"OL15 8NL","la":"Rochdale","era":"trad","nn":583,"risk":32,"cat":"amber"},{"name":"Pig & Whistle","lat":53.58765,"lon":-2.2303,"postcode":"OL10 3DY","la":"Rochdale","era":"other","nn":588,"risk":27,"cat":"green"},{"name":"Quirky Catering @ The Flying Horse Hotel","lat":53.61582,"lon":-2.1574,"postcode":"OL16 1NJ","la":"Rochdale","era":"trad","nn":0,"risk":23,"cat":"green"},{"name":"Ratcliffe Bars & Function Suite","lat":53.61913,"lon":-2.18003,"postcode":"OL11 5DR","la":"Rochdale","era":"other","nn":0,"risk":28,"cat":"green"},{"name":"Reed Karoke Bar","lat":53.61874,"lon":-2.15726,"postcode":"OL16 1DF","la":"Rochdale","era":"other","nn":127,"risk":24,"cat":"green"},{"name":"Regent Snooker Club","lat":53.62293,"lon":-2.15153,"postcode":"OL12 0HQ","la":"Rochdale","era":"other","nn":207,"risk":25,"cat":"green"},{"name":"Richmond Hall","lat":53.62375,"lon":-2.15435,"postcode":"OL12 0JR","la":"Rochdale","era":"other","nn":207,"risk":25,"cat":"green"},{"name":"Riflemans Arms","lat":53.6266,"lon":-2.16199,"postcode":"OL12 6HW","la":"Rochdale","era":"trad","nn":153,"risk":24,"cat":"green"},{"name":"Rochdale Masonic Buildings","lat":53.6117,"lon":-2.15347,"postcode":"OL11 1DU","la":"Rochdale","era":"trad","nn":229,"risk":25,"cat":"green"},{"name":"Royal Exchange","lat":53.64206,"lon":-2.10572,"postcode":"OL15 8DW","la":"Rochdale","era":"trad","nn":440,"risk":26,"cat":"green"},{"name":"Royds Arms","lat":53.62474,"lon":-2.17692,"postcode":"OL12 7DQ","la":"Rochdale","era":"trad","nn":657,"risk":30,"cat":"green"},{"name":"Slip Inn","lat":53.60557,"lon":-2.1041,"postcode":"OL16 3PS","la":"Rochdale","era":"trad","nn":171,"risk":25,"cat":"green"},{"name":"Springfield Park Golf Club","lat":53.60472,"lon":-2.19482,"postcode":"OL11 4RE","la":"Rochdale","era":"other","nn":537,"risk":30,"cat":"green"},{"name":"Starkey Arms","lat":53.58821,"lon":-2.21082,"postcode":"OL10 2AH","la":"Rochdale","era":"trad","nn":248,"risk":25,"cat":"green"},{"name":"Success to the Plough","lat":53.60247,"lon":-2.18762,"postcode":"OL11 3LW","la":"Rochdale","era":"trad","nn":0,"risk":23,"cat":"green"},{"name":"Sudden Social Club","lat":53.60316,"lon":-2.17583,"postcode":"OL11 4PE","la":"Rochdale","era":"mod","nn":572,"risk":30,"cat":"green"},{"name":"Summit Hotel","lat":53.59367,"lon":-2.24164,"postcode":"OL10 4RG","la":"Rochdale","era":"other","nn":501,"risk":32,"cat":"amber"},{"name":"Suzi Q's","lat":53.60054,"lon":-2.09761,"postcode":"OL16 3RU","la":"Rochdale","era":"other","nn":518,"risk":27,"cat":"green"},{"name":"The Albion Inn","lat":53.63515,"lon":-2.16605,"postcode":"OL12 0SW","la":"Rochdale","era":"trad","nn":265,"risk":28,"cat":"green"},{"name":"The Baum","lat":53.61955,"lon":-2.16029,"postcode":"OL12 0NU","la":"Rochdale","era":"other","nn":219,"risk":25,"cat":"green"},{"name":"The Bay Horse","lat":53.60285,"lon":-2.14644,"postcode":"OL11 2ER","la":"Rochdale","era":"trad","nn":46,"risk":24,"cat":"green"},{"name":"The Beach","lat":53.63153,"lon":-2.10278,"postcode":"OL15 0DQ","la":"Rochdale","era":"other","nn":808,"risk":49,"cat":"amber"},{"name":"The Bridge Inn","lat":53.62791,"lon":-2.21655,"postcode":"OL11 5TT","la":"Rochdale","era":"trad","nn":318,"risk":26,"cat":"green"},{"name":"The Bridge Inn","lat":53.60317,"lon":-2.14697,"postcode":"OL11 2JR","la":"Rochdale","era":"trad","nn":49,"risk":24,"cat":"green"},{"name":"The Brown Cow","lat":53.60003,"lon":-2.22047,"postcode":"OL10 4AA","la":"Rochdale","era":"other","nn":223,"risk":25,"cat":"green"},{"name":"The Bulls Head","lat":53.63423,"lon":-2.13273,"postcode":"OL12 9AB","la":"Rochdale","era":"trad","nn":311,"risk":43,"cat":"amber"},{"name":"The Donkey","lat":53.6299,"lon":-2.1492,"postcode":"OL12 9TB","la":"Rochdale","era":"other","nn":546,"risk":27,"cat":"green"},{"name":"The Dressers Arms","lat":53.59412,"lon":-2.22396,"postcode":"OL10 4PE","la":"Rochdale","era":"trad","nn":100,"risk":24,"cat":"green"},{"name":"The Eagle","lat":53.61375,"lon":-2.15172,"postcode":"OL16 5QJ","la":"Rochdale","era":"trad","nn":130,"risk":24,"cat":"green"},{"name":"The Empire","lat":53.61582,"lon":-2.1574,"postcode":"OL16 1NJ","la":"Rochdale","era":"other","nn":0,"risk":23,"cat":"green"},{"name":"The Falcon Inn","lat":53.64395,"lon":-2.09564,"postcode":"OL15 9AA","la":"Rochdale","era":"trad","nn":36,"risk":24,"cat":"green"},{"name":"The Gardeners Arms","lat":53.57221,"lon":-2.22113,"postcode":"OL10 2QD","la":"Rochdale","era":"trad","nn":1417,"risk":56,"cat":"amber"},{"name":"The Globe Inn","lat":53.6503,"lon":-2.13384,"postcode":"OL12 9NU","la":"Rochdale","era":"trad","nn":323,"risk":43,"cat":"amber"},{"name":"The Grapes","lat":53.61256,"lon":-2.20938,"postcode":"OL11 5PN","la":"Rochdale","era":"other","nn":0,"risk":23,"cat":"green"},{"name":"The Grapes Inn","lat":53.59669,"lon":-2.22922,"postcode":"OL10 4PR","la":"Rochdale","era":"trad","nn":349,"risk":26,"cat":"green"},{"name":"The Harrows","lat":53.60247,"lon":-2.18762,"postcode":"OL11 3LW","la":"Rochdale","era":"other","nn":0,"risk":23,"cat":"green"},{"name":"The Healey Hotel","lat":53.63116,"lon":-2.17318,"postcode":"OL12 6LW","la":"Rochdale","era":"other","nn":470,"risk":27,"cat":"green"},{"name":"The Higher Bird i'th Hand","lat":53.60336,"lon":-2.08983,"postcode":"OL16 3QG","la":"Rochdale","era":"other","nn":601,"risk":30,"cat":"green"},{"name":"The Hornet","lat":53.60715,"lon":-2.13514,"postcode":"OL16 4PS","la":"Rochdale","era":"other","nn":696,"risk":28,"cat":"green"},{"name":"The Horse & Jockey","lat":53.59334,"lon":-2.23407,"postcode":"OL10 4QT","la":"Rochdale","era":"trad","nn":0,"risk":23,"cat":"green"},{"name":"The John Milne","lat":53.60337,"lon":-2.10384,"postcode":"OL16 4JF","la":"Rochdale","era":"other","nn":0,"risk":23,"cat":"green"},{"name":"The Kings","lat":53.59336,"lon":-2.21991,"postcode":"OL10 1LA","la":"Rochdale","era":"trad","nn":40,"risk":24,"cat":"green"},{"name":"The Norden Inn","lat":53.62713,"lon":-2.21192,"postcode":"OL12 7SL","la":"Rochdale","era":"trad","nn":28,"risk":24,"cat":"green"},{"name":"The Old Post Office Ale House","lat":53.57916,"lon":-2.17495,"postcode":"OL11 2SP","la":"Rochdale","era":"other","nn":288,"risk":30,"cat":"green"},{"name":"The Olde Queen Anne","lat":53.59372,"lon":-2.22,"postcode":"OL10 4NL","la":"Rochdale","era":"trad","nn":40,"risk":24,"cat":"green"},{"name":"The Oxford Inn","lat":53.63679,"lon":-2.16897,"postcode":"OL12 0TB","la":"Rochdale","era":"trad","nn":265,"risk":28,"cat":"green"},{"name":"The Pint Pot","lat":53.61753,"lon":-2.15765,"postcode":"OL16 1JG","la":"Rochdale","era":"other","nn":1,"risk":23,"cat":"green"},{"name":"The Plough Inn","lat":53.60259,"lon":-2.14589,"postcode":"OL16 4TD","la":"Rochdale","era":"trad","nn":46,"risk":24,"cat":"green"},{"name":"The Queens Hotel","lat":53.64348,"lon":-2.09725,"postcode":"OL15 8AB","la":"Rochdale","era":"trad","nn":0,"risk":23,"cat":"green"},{"name":"The Red Lion","lat":53.64459,"lon":-2.09,"postcode":"OL15 0HB","la":"Rochdale","era":"trad","nn":352,"risk":26,"cat":"green"},{"name":"The Spring Inn","lat":53.5979,"lon":-2.13636,"postcode":"OL16 4PR","la":"Rochdale","era":"trad","nn":818,"risk":32,"cat":"amber"},{"name":"The Summit Inn","lat":53.66456,"lon":-2.08265,"postcode":"OL15 9QX","la":"Rochdale","era":"trad","nn":1590,"risk":57,"cat":"amber"},{"name":"The Talbot Head","lat":53.62826,"lon":-2.16798,"postcode":"OL12 6LG","la":"Rochdale","era":"trad","nn":436,"risk":26,"cat":"green"},{"name":"The Wheatsheaf","lat":53.64348,"lon":-2.09725,"postcode":"OL15 8AB","la":"Rochdale","era":"trad","nn":0,"risk":23,"cat":"green"},{"name":"Tim Bobbin","lat":53.61123,"lon":-2.11237,"postcode":"OL16 3LH","la":"Rochdale","era":"other","nn":5,"risk":23,"cat":"green"},{"name":"Tophams Tavern","lat":53.63412,"lon":-2.11423,"postcode":"OL15 8QF","la":"Rochdale","era":"other","nn":583,"risk":32,"cat":"amber"},{"name":"Treehouse Bar","lat":53.61759,"lon":-2.1574,"postcode":"OL16 1JG","la":"Rochdale","era":"mod","nn":13,"risk":23,"cat":"green"},{"name":"Tunshill Golf Club","lat":53.61432,"lon":-2.08509,"postcode":"OL16 3TS","la":"Rochdale","era":"other","nn":1114,"risk":54,"cat":"amber"},{"name":"Turf Tavern","lat":53.62268,"lon":-2.19856,"postcode":"OL12 7QJ","la":"Rochdale","era":"other","nn":245,"risk":25,"cat":"green"},{"name":"Vicolo Del Vino","lat":53.61752,"lon":-2.15766,"postcode":"OL16 1JG","la":"Rochdale","era":"other","nn":1,"risk":23,"cat":"green"},{"name":"Victoria Snooker Club","lat":53.64561,"lon":-2.09758,"postcode":"OL15 9BB","la":"Rochdale","era":"trad","nn":218,"risk":25,"cat":"green"},{"name":"Waggon Inn","lat":53.60714,"lon":-2.10427,"postcode":"OL16 3PE","la":"Rochdale","era":"trad","nn":108,"risk":24,"cat":"green"},{"name":"Wardle Conservative Club","lat":53.6474,"lon":-2.13354,"postcode":"OL12 9JU","la":"Rochdale","era":"other","nn":104,"risk":42,"cat":"amber"},{"name":"Waterside Bar & Restaurant","lat":53.6418,"lon":-2.09548,"postcode":"OL15 0AY","la":"Rochdale","era":"mod","nn":196,"risk":25,"cat":"green"},{"name":"Wellfield Working Mens Club","lat":53.60619,"lon":-2.14556,"postcode":"OL16 5LL","la":"Rochdale","era":"trad","nn":245,"risk":25,"cat":"green"},{"name":"White Lion","lat":53.62929,"lon":-2.223,"postcode":"OL12 7SS","la":"Rochdale","era":"trad","nn":452,"risk":27,"cat":"green"},{"name":"White Lion","lat":53.59363,"lon":-2.21769,"postcode":"OL10 4NN","la":"Rochdale","era":"trad","nn":149,"risk":24,"cat":"green"},{"name":"White Lion Hotel","lat":53.61909,"lon":-2.15543,"postcode":"OL16 1JY","la":"Rochdale","era":"trad","nn":127,"risk":24,"cat":"green"},{"name":"Whittaker Golf Club","lat":53.63652,"lon":-2.08065,"postcode":"OL15 0LH","la":"Rochdale","era":"other","nn":1088,"risk":53,"cat":"amber"},{"name":"Woolpack Hotel","lat":53.59078,"lon":-2.21521,"postcode":"OL10 1DF","la":"Rochdale","era":"trad","nn":123,"risk":24,"cat":"green"},{"name":"Woolworths Sports Social Club","lat":53.59812,"lon":-2.17763,"postcode":"OL11 3HA","la":"Rochdale","era":"mod","nn":333,"risk":26,"cat":"green"},{"name":"Yew Tree Inn","lat":53.58977,"lon":-2.14049,"postcode":"OL11 2AZ","la":"Rochdale","era":"trad","nn":850,"risk":34,"cat":"amber"},{"name":"Bacup Borough Football Club","lat":53.70833,"lon":-2.19816,"postcode":"OL13 8EE","la":"Rossendale","era":"other","nn":540,"risk":31,"cat":"amber"},{"name":"Bacup Golf Club","lat":53.70184,"lon":-2.20465,"postcode":"OL13 8HN","la":"Rossendale","era":"other","nn":238,"risk":29,"cat":"green"},{"name":"Beaconsfield Conservative Club","lat":53.69152,"lon":-2.2278,"postcode":"OL13 0LD","la":"Rossendale","era":"other","nn":349,"risk":32,"cat":"amber"},{"name":"Crown Inn","lat":53.70689,"lon":-2.18949,"postcode":"OL13 9HQ","la":"Rossendale","era":"trad","nn":593,"risk":31,"cat":"amber"},{"name":"Farholme Tavern","lat":53.69282,"lon":-2.21593,"postcode":"OL13 0TS","la":"Rossendale","era":"other","nn":277,"risk":46,"cat":"amber"},{"name":"George And Dragon","lat":53.69975,"lon":-2.19828,"postcode":"OL13 9NR","la":"Rossendale","era":"trad","nn":232,"risk":29,"cat":"green"},{"name":"Halfway House","lat":53.66925,"lon":-2.17077,"postcode":"OL12 8LS","la":"Rossendale","era":"other","nn":888,"risk":53,"cat":"amber"},{"name":"Hare & Hounds","lat":53.69205,"lon":-2.23302,"postcode":"OL13 0NB","la":"Rossendale","era":"trad","nn":349,"risk":35,"cat":"amber"},{"name":"Healey Conservative Club","lat":53.64124,"lon":-2.17864,"postcode":"OL12 8RW","la":"Rossendale","era":"other","nn":432,"risk":48,"cat":"amber"},{"name":"Kimberley Workings Mens Club","lat":53.68911,"lon":-2.23585,"postcode":"OL13 0PF","la":"Rossendale","era":"trad","nn":376,"risk":32,"cat":"amber"},{"name":"Lobden Golf Club","lat":53.65322,"lon":-2.1674,"postcode":"OL12 8XJ","la":"Rossendale","era":"other","nn":638,"risk":49,"cat":"amber"},{"name":"New Inn","lat":53.70176,"lon":-2.19922,"postcode":"OL13 9NW","la":"Rossendale","era":"trad","nn":96,"risk":28,"cat":"green"},{"name":"Queens Hotel","lat":53.70361,"lon":-2.2001,"postcode":"OL13 9AE","la":"Rossendale","era":"trad","nn":121,"risk":28,"cat":"green"},{"name":"Rosemount Working Mens Club","lat":53.69383,"lon":-2.21978,"postcode":"OL13 8LD","la":"Rossendale","era":"trad","nn":277,"risk":34,"cat":"amber"},{"name":"Rossendale Club Limited","lat":53.70302,"lon":-2.20164,"postcode":"OL13 8HQ","la":"Rossendale","era":"other","nn":108,"risk":28,"cat":"green"},{"name":"The British Queen","lat":53.70244,"lon":-2.20032,"postcode":"OL13 0AA","la":"Rossendale","era":"trad","nn":104,"risk":28,"cat":"green"},{"name":"The Cornerstone","lat":53.70244,"lon":-2.1983,"postcode":"OL13 9JA","la":"Rossendale","era":"other","nn":96,"risk":28,"cat":"green"},{"name":"Whitworth Birches Ltd","lat":53.64486,"lon":-2.18101,"postcode":"OL12 8RU","la":"Rossendale","era":"other","nn":432,"risk":50,"cat":"amber"},{"name":"Whitworth Football And Cricket Club","lat":53.66175,"lon":-2.17538,"postcode":"OL12 8BA","la":"Rossendale","era":"other","nn":167,"risk":33,"cat":"amber"},{"name":"Whitworth Vale Brass Band Club","lat":53.66037,"lon":-2.17441,"postcode":"OL12 8QW","la":"Rossendale","era":"other","nn":167,"risk":33,"cat":"amber"},{"name":"Whitworth Working Mens Club","lat":53.65473,"lon":-2.17674,"postcode":"OL12 8PW","la":"Rossendale","era":"trad","nn":638,"risk":37,"cat":"amber"},{"name":"Ash Tree Farm","lat":53.48667,"lon":-2.11245,"postcode":"OL7 0LY","la":"Tameside","era":"other","nn":407,"risk":25,"cat":"green"},{"name":"Ashton United Football Club Ltd","lat":53.50101,"lon":-2.07917,"postcode":"OL6 8DY","la":"Tameside","era":"other","nn":46,"risk":23,"cat":"green"},{"name":"Ashton-Under-Lyne Golf Club","lat":53.50651,"lon":-2.07144,"postcode":"OL6 9HT","la":"Tameside","era":"other","nn":528,"risk":26,"cat":"green"},{"name":"Ashton-Under-Lyne Masonic Club","lat":53.48508,"lon":-2.10691,"postcode":"OL7 0BB","la":"Tameside","era":"trad","nn":407,"risk":25,"cat":"green"},{"name":"Ashton-Under-Lyne Rugby Union Football Club","lat":53.50613,"lon":-2.09134,"postcode":"OL6 8TU","la":"Tameside","era":"other","nn":837,"risk":46,"cat":"amber"},{"name":"Aurora Caffe Bar","lat":53.51535,"lon":-2.04095,"postcode":"OL5 9AJ","la":"Tameside","era":"other","nn":0,"risk":22,"cat":"green"},{"name":"Bar 15","lat":53.48845,"lon":-2.09191,"postcode":"OL6 6AQ","la":"Tameside","era":"mod","nn":30,"risk":22,"cat":"green"},{"name":"Beaconsfield Conservative Club","lat":53.4872,"lon":-2.0798,"postcode":"OL6 6QQ","la":"Tameside","era":"other","nn":269,"risk":24,"cat":"green"},{"name":"Best 'O' Brass Inn","lat":53.51355,"lon":-2.04059,"postcode":"OL5 9AB","la":"Tameside","era":"trad","nn":113,"risk":23,"cat":"green"},{"name":"Bowling Green Hotel","lat":53.48971,"lon":-2.09142,"postcode":"OL6 6EP","la":"Tameside","era":"other","nn":28,"risk":22,"cat":"green"},{"name":"Britannia Inn","lat":53.51535,"lon":-2.04095,"postcode":"OL5 9AJ","la":"Tameside","era":"trad","nn":0,"risk":22,"cat":"green"},{"name":"Browtons Bar And Bottle Shop","lat":53.48946,"lon":-2.09134,"postcode":"OL6 6BY","la":"Tameside","era":"mod","nn":28,"risk":22,"cat":"green"},{"name":"Church Inn","lat":53.5237,"lon":-2.03868,"postcode":"OL5 0RD","la":"Tameside","era":"trad","nn":197,"risk":24,"cat":"green"},{"name":"Corporation Arms","lat":53.47577,"lon":-2.11444,"postcode":"OL7 0NS","la":"Tameside","era":"trad","nn":130,"risk":23,"cat":"green"},{"name":"Curzon Ashton Football Club","lat":53.49409,"lon":-2.11103,"postcode":"OL7 9HG","la":"Tameside","era":"other","nn":53,"risk":25,"cat":"green"},{"name":"Dog And Partridge","lat":53.4993,"lon":-2.10402,"postcode":"OL7 9PT","la":"Tameside","era":"other","nn":83,"risk":23,"cat":"green"},{"name":"Dysarts Arms","lat":53.52611,"lon":-2.02508,"postcode":"OL5 9BT","la":"Tameside","era":"trad","nn":365,"risk":25,"cat":"green"},{"name":"East Cheshire Harriers And Tameside Athletic Club","lat":53.49416,"lon":-2.11183,"postcode":"OL7 9HG","la":"Tameside","era":"other","nn":53,"risk":25,"cat":"green"},{"name":"Fat Lennys Western Saloon","lat":53.48813,"lon":-2.0982,"postcode":"OL6 7AP","la":"Tameside","era":"other","nn":34,"risk":22,"cat":"green"},{"name":"Foresters Call","lat":53.48712,"lon":-2.09717,"postcode":"OL6 7SA","la":"Tameside","era":"other","nn":50,"risk":23,"cat":"green"},{"name":"Guide Bridge Conservative Club","lat":53.47665,"lon":-2.11231,"postcode":"OL7 0NT","la":"Tameside","era":"other","nn":131,"risk":23,"cat":"green"},{"name":"Halfway House","lat":53.49327,"lon":-2.08271,"postcode":"OL6 9PS","la":"Tameside","era":"other","nn":318,"risk":24,"cat":"green"},{"name":"Hare And Hounds","lat":53.50045,"lon":-2.07947,"postcode":"OL6 8HD","la":"Tameside","era":"trad","nn":65,"risk":23,"cat":"green"},{"name":"Hare And Hounds","lat":53.50655,"lon":-2.05017,"postcode":"OL6 9AL","la":"Tameside","era":"trad","nn":633,"risk":47,"cat":"amber"},{"name":"Heavenlys Bar","lat":53.48868,"lon":-2.0901,"postcode":"OL6 6LB","la":"Tameside","era":"other","nn":92,"risk":23,"cat":"green"},{"name":"Heroes Of Waterloo","lat":53.49789,"lon":-2.06614,"postcode":"OL6 9DQ","la":"Tameside","era":"other","nn":816,"risk":28,"cat":"green"},{"name":"Junction Inn","lat":53.49274,"lon":-2.09522,"postcode":"OL6 8LP","la":"Tameside","era":"trad","nn":325,"risk":24,"cat":"green"},{"name":"Junction Inn","lat":53.50356,"lon":-2.05832,"postcode":"OL6 9BX","la":"Tameside","era":"trad","nn":633,"risk":32,"cat":"amber"},{"name":"Micklehurst Cricket Club","lat":53.51249,"lon":-2.02594,"postcode":"OL5 9DQ","la":"Tameside","era":"other","nn":409,"risk":30,"cat":"green"},{"name":"Micklehurst Liberal Club Ltd","lat":53.51447,"lon":-2.03368,"postcode":"OL5 9NL","la":"Tameside","era":"other","nn":468,"risk":25,"cat":"green"},{"name":"Mossley Association Football Club (inc Bar And Pie Hut)","lat":53.51647,"lon":-2.04548,"postcode":"OL5 0ES","la":"Tameside","era":"mod","nn":125,"risk":23,"cat":"green"},{"name":"Mossley Band Social Club","lat":53.51809,"lon":-2.04566,"postcode":"OL5 0HF","la":"Tameside","era":"mod","nn":107,"risk":23,"cat":"green"},{"name":"Mossley Central Conservative Club","lat":53.51743,"lon":-2.0445,"postcode":"OL5 0EY","la":"Tameside","era":"other","nn":107,"risk":23,"cat":"green"},{"name":"Mossley Masonic Club","lat":53.52234,"lon":-2.0421,"postcode":"OL5 0RB","la":"Tameside","era":"trad","nn":121,"risk":23,"cat":"green"},{"name":"New Inn","lat":53.49326,"lon":-2.0779,"postcode":"OL6 6ND","la":"Tameside","era":"trad","nn":318,"risk":24,"cat":"green"},{"name":"Old Ball Inn","lat":53.49861,"lon":-2.09198,"postcode":"OL6 8QW","la":"Tameside","era":"trad","nn":687,"risk":27,"cat":"green"},{"name":"Olivers Bar","lat":53.48871,"lon":-2.09366,"postcode":"OL6 6BU","la":"Tameside","era":"other","nn":119,"risk":23,"cat":"green"},{"name":"Rising Sun Inn","lat":53.52498,"lon":-2.03663,"postcode":"OL5 0RQ","la":"Tameside","era":"trad","nn":197,"risk":24,"cat":"green"},{"name":"Tapsters","lat":53.48849,"lon":-2.09146,"postcode":"OL6 6LA","la":"Tameside","era":"other","nn":30,"risk":22,"cat":"green"},{"name":"The Billy Goat","lat":53.51715,"lon":-2.04982,"postcode":"OL5 0JS","la":"Tameside","era":"other","nn":179,"risk":23,"cat":"green"},{"name":"The Blazing Rag","lat":53.51927,"lon":-2.04516,"postcode":"OL5 0HW","la":"Tameside","era":"other","nn":63,"risk":23,"cat":"green"},{"name":"The Butchers Arms","lat":53.51961,"lon":-2.04592,"postcode":"OL5 0QX","la":"Tameside","era":"trad","nn":63,"risk":23,"cat":"green"},{"name":"The Commercial Hotel","lat":53.5145,"lon":-2.04116,"postcode":"OL5 0AA","la":"Tameside","era":"other","nn":95,"risk":23,"cat":"green"},{"name":"The Feathers","lat":53.48804,"lon":-2.09126,"postcode":"OL6 6AD","la":"Tameside","era":"other","nn":15,"risk":22,"cat":"green"},{"name":"The Fleece Inn","lat":53.51785,"lon":-2.04738,"postcode":"OL5 0HR","la":"Tameside","era":"trad","nn":117,"risk":23,"cat":"green"},{"name":"The Lord Nelson","lat":53.50274,"lon":-2.07628,"postcode":"OL6 9HJ","la":"Tameside","era":"trad","nn":243,"risk":24,"cat":"green"},{"name":"The Old Fire Station","lat":53.4902,"lon":-2.0928,"postcode":"OL6 6DQ","la":"Tameside","era":"other","nn":107,"risk":23,"cat":"green"},{"name":"The Roaches Lock","lat":53.52501,"lon":-2.03194,"postcode":"OL5 9BB","la":"Tameside","era":"other","nn":172,"risk":23,"cat":"green"},{"name":"The Royal Oak","lat":53.50098,"lon":-2.07848,"postcode":"OL6 9HN","la":"Tameside","era":"trad","nn":46,"risk":23,"cat":"green"},{"name":"The Star Inn","lat":53.48756,"lon":-2.09696,"postcode":"OL6 7SD","la":"Tameside","era":"trad","nn":50,"risk":23,"cat":"green"},{"name":"The Station","lat":53.48675,"lon":-2.0923,"postcode":"OL6 6XB","la":"Tameside","era":"other","nn":154,"risk":23,"cat":"green"},{"name":"The Sycamore","lat":53.48646,"lon":-2.07411,"postcode":"OL6 6QX","la":"Tameside","era":"other","nn":126,"risk":23,"cat":"green"},{"name":"The Ukrainian Centre","lat":53.47746,"lon":-2.11089,"postcode":"OL7 0NP","la":"Tameside","era":"other","nn":131,"risk":23,"cat":"green"},{"name":"The Warrington Arms","lat":53.48633,"lon":-2.076,"postcode":"OL6 6QR","la":"Tameside","era":"trad","nn":126,"risk":23,"cat":"green"},{"name":"The Witchwood","lat":53.48635,"lon":-2.09968,"postcode":"OL6 7SF","la":"Tameside","era":"other","nn":187,"risk":23,"cat":"green"},{"name":"Theatre Tavern","lat":53.48798,"lon":-2.09776,"postcode":"OL6 7AP","la":"Tameside","era":"other","nn":34,"risk":22,"cat":"green"},{"name":"Tollemache Arms","lat":53.52639,"lon":-2.03076,"postcode":"OL5 9BG","la":"Tameside","era":"trad","nn":172,"risk":23,"cat":"green"},{"name":"Top End Bar","lat":53.48794,"lon":-2.09111,"postcode":"OL6 6AD","la":"Tameside","era":"other","nn":15,"risk":22,"cat":"green"},{"name":"Trafalgar Inn","lat":53.48147,"lon":-2.10512,"postcode":"OL7 0RX","la":"Tameside","era":"trad","nn":418,"risk":25,"cat":"green"},{"name":"Union Club","lat":53.48766,"lon":-2.09558,"postcode":"OL6 7RL","la":"Tameside","era":"other","nn":91,"risk":23,"cat":"green"},{"name":"Waterloo & Taunton Conservative Club","lat":53.49902,"lon":-2.10286,"postcode":"OL7 9PS","la":"Tameside","era":"other","nn":83,"risk":23,"cat":"green"},{"name":"Yorkshire Ward Conservative Club","lat":53.52125,"lon":-2.04224,"postcode":"OL5 0BL","la":"Tameside","era":"other","nn":121,"risk":23,"cat":"green"}]