[{"name":"Bedford Arms","lat":51.67337,"lon":-0.5272,"postcode":"WD3 6EQ","la":"Buckinghamshire","era":"trad","nn":266,"risk":39,"cat":"amber"},{"name":"The Red Lion","lat":51.67183,"lon":-0.52425,"postcode":"WD3 6ED","la":"Buckinghamshire","era":"trad","nn":266,"risk":39,"cat":"amber"},{"name":"Blackwell's Chipperfield","lat":51.70337,"lon":-0.49257,"postcode":"WD4 9BS","la":"Dacorum","era":"other","nn":0,"risk":31,"cat":"amber"},{"name":"Chipperfield Clarendon Cricket Club","lat":51.70337,"lon":-0.49257,"postcode":"WD4 9BS","la":"Dacorum","era":"other","nn":0,"risk":31,"cat":"amber"},{"name":"Kings Langley Community Centre","lat":51.71425,"lon":-0.4484,"postcode":"WD4 8ET","la":"Dacorum","era":"trad","nn":180,"risk":27,"cat":"green"},{"name":"Kings Langley Cricket Club","lat":51.71393,"lon":-0.45386,"postcode":"WD4 9HS","la":"Dacorum","era":"trad","nn":212,"risk":27,"cat":"green"},{"name":"Kings Langley Services Club","lat":51.71458,"lon":-0.45096,"postcode":"WD4 8BJ","la":"Dacorum","era":"trad","nn":180,"risk":27,"cat":"green"},{"name":"Old Palace","lat":51.71233,"lon":-0.45631,"postcode":"WD4 9HQ","la":"Dacorum","era":"other","nn":245,"risk":27,"cat":"green"},{"name":"Rose & Crown","lat":51.71195,"lon":-0.44979,"postcode":"WD4 9HT","la":"Dacorum","era":"trad","nn":32,"risk":26,"cat":"green"},{"name":"The Saracens Head","lat":51.71202,"lon":-0.44934,"postcode":"WD4 9HU","la":"Dacorum","era":"trad","nn":32,"risk":26,"cat":"green"},{"name":"The Two Brewers","lat":51.70337,"lon":-0.49257,"postcode":"WD4 9BS","la":"Dacorum","era":"other","nn":0,"risk":31,"cat":"amber"},{"name":"The Windmill","lat":51.70159,"lon":-0.49592,"postcode":"WD4 9BU","la":"Dacorum","era":"trad","nn":303,"risk":30,"cat":"green"},{"name":"Aldenham Golf & Country Club","lat":51.67207,"lon":-0.35581,"postcode":"WD25 8NN","la":"Hertsmere","era":"other","nn":271,"risk":37,"cat":"amber"},{"name":"Aldenham Social Club","lat":51.67405,"lon":-0.35351,"postcode":"WD25 8AY","la":"Hertsmere","era":"mod","nn":271,"risk":37,"cat":"amber"},{"name":"Battleaxes Public House","lat":51.66054,"lon":-0.31353,"postcode":"WD6 3AD","la":"Hertsmere","era":"other","nn":688,"risk":55,"cat":"amber"},{"name":"Borehamwood Mens Club (1935) Limited","lat":51.65556,"lon":-0.28105,"postcode":"WD6 4RN","la":"Hertsmere","era":"other","nn":0,"risk":30,"cat":"green"},{"name":"Borehamwood Social Club","lat":51.65556,"lon":-0.28105,"postcode":"WD6 4RN","la":"Hertsmere","era":"mod","nn":0,"risk":30,"cat":"green"},{"name":"Bushey Bowling Club","lat":51.64381,"lon":-0.35541,"postcode":"WD23 4NT","la":"Hertsmere","era":"other","nn":366,"risk":33,"cat":"amber"},{"name":"Bushey Conservative Club","lat":51.645,"lon":-0.36815,"postcode":"WD23 1BD","la":"Hertsmere","era":"other","nn":131,"risk":31,"cat":"amber"},{"name":"Elstree Cricket Club","lat":51.64683,"lon":-0.30482,"postcode":"WD6 3BD","la":"Hertsmere","era":"other","nn":1559,"risk":64,"cat":"red"},{"name":"Green Dragon","lat":51.66785,"lon":-0.28262,"postcode":"WD6 4EB","la":"Hertsmere","era":"trad","nn":574,"risk":52,"cat":"amber"},{"name":"Horse And Chains","lat":51.64124,"lon":-0.35874,"postcode":"WD23 1BL","la":"Hertsmere","era":"trad","nn":366,"risk":33,"cat":"amber"},{"name":"Little Alpine At The Three Compasses","lat":51.66611,"lon":-0.35148,"postcode":"WD25 8DR","la":"Hertsmere","era":"other","nn":727,"risk":40,"cat":"amber"},{"name":"London Colney Cricket Club","lat":51.67932,"lon":-0.27745,"postcode":"WD7 9BD","la":"Hertsmere","era":"other","nn":979,"risk":57,"cat":"amber"},{"name":"Mops & Brooms","lat":51.66664,"lon":-0.25465,"postcode":"WD6 5PD","la":"Hertsmere","era":"mod","nn":1237,"risk":62,"cat":"red"},{"name":"No 58","lat":51.68581,"lon":-0.31866,"postcode":"WD7 7NN","la":"Hertsmere","era":"other","nn":1146,"risk":61,"cat":"red"},{"name":"Old Haberdashers Rugby Club","lat":51.66049,"lon":-0.28325,"postcode":"WD6 4PY","la":"Hertsmere","era":"other","nn":569,"risk":34,"cat":"amber"},{"name":"Powerleague Fives Ltd","lat":51.6585,"lon":-0.36905,"postcode":"WD23 2TY","la":"Hertsmere","era":"other","nn":815,"risk":56,"cat":"amber"},{"name":"Radlett Cricket Club","lat":51.67623,"lon":-0.31257,"postcode":"WD7 7JN","la":"Hertsmere","era":"other","nn":0,"risk":50,"cat":"amber"},{"name":"Red Lion","lat":51.645,"lon":-0.36626,"postcode":"WD23 3HN","la":"Hertsmere","era":"trad","nn":131,"risk":31,"cat":"amber"},{"name":"Royal British Legion","lat":51.65999,"lon":-0.26902,"postcode":"WD6 1TG","la":"Hertsmere","era":"trad","nn":372,"risk":33,"cat":"amber"},{"name":"Royal British Legion","lat":51.6655,"lon":-0.37253,"postcode":"WD23 2AS","la":"Hertsmere","era":"trad","nn":815,"risk":56,"cat":"amber"},{"name":"Tabard Rugby Football Club","lat":51.67623,"lon":-0.31257,"postcode":"WD7 7JN","la":"Hertsmere","era":"other","nn":0,"risk":50,"cat":"amber"},{"name":"The King Stag Public House","lat":51.64567,"lon":-0.36289,"postcode":"WD23 3EH","la":"Hertsmere","era":"trad","nn":103,"risk":31,"cat":"amber"},{"name":"The Oak","lat":51.66927,"lon":-0.29062,"postcode":"WD6 4LA","la":"Hertsmere","era":"trad","nn":574,"risk":54,"cat":"amber"},{"name":"The Pick & Shovel","lat":51.65725,"lon":-0.27214,"postcode":"WD6 1EQ","la":"Hertsmere","era":"other","nn":175,"risk":32,"cat":"amber"},{"name":"The Roundbush Public House","lat":51.67292,"lon":-0.34561,"postcode":"WD25 8BG","la":"Hertsmere","era":"other","nn":559,"risk":37,"cat":"amber"},{"name":"The Swan Public House","lat":51.64549,"lon":-0.36435,"postcode":"WD23 3EE","la":"Hertsmere","era":"trad","nn":103,"risk":31,"cat":"amber"},{"name":"The Wellington Pub  Bull And Bird","lat":51.65492,"lon":-0.28019,"postcode":"WD6 4SE","la":"Hertsmere","era":"trad","nn":93,"risk":31,"cat":"amber"},{"name":"The White Horse","lat":51.68812,"lon":-0.27796,"postcode":"WD7 9ER","la":"Hertsmere","era":"trad","nn":979,"risk":57,"cat":"amber"},{"name":"The Wishing Well","lat":51.65669,"lon":-0.27451,"postcode":"WD6 1AH","la":"Hertsmere","era":"other","nn":175,"risk":32,"cat":"amber"},{"name":"Three Crowns","lat":51.63658,"lon":-0.34627,"postcode":"WD23 1EA","la":"Hertsmere","era":"trad","nn":1004,"risk":60,"cat":"amber"},{"name":"Three Horseshoes Public House","lat":51.6671,"lon":-0.33649,"postcode":"WD25 8ER","la":"Hertsmere","era":"trad","nn":902,"risk":57,"cat":"amber"},{"name":"Waggon And Horses","lat":51.66083,"lon":-0.30357,"postcode":"WD6 3AA","la":"Hertsmere","era":"trad","nn":688,"risk":55,"cat":"amber"},{"name":"Harperbury Bowls Club","lat":51.70479,"lon":-0.30512,"postcode":"WD7 9FE","la":"St Albans","era":"other","nn":1087,"risk":55,"cat":"amber"},{"name":"Radlett Golf Centre","lat":51.70026,"lon":-0.31909,"postcode":"WD7 7HJ","la":"St Albans","era":"other","nn":1087,"risk":55,"cat":"amber"},{"name":"Abbots Langley Bowls Club","lat":51.70566,"lon":-0.41697,"postcode":"WD5 0AB","la":"Three Rivers","era":"other","nn":181,"risk":30,"cat":"green"},{"name":"Abbots Langley Cricket Club","lat":51.70265,"lon":-0.42477,"postcode":"WD5 0BX","la":"Three Rivers","era":"other","nn":0,"risk":29,"cat":"green"},{"name":"Abbots Langley Social Club","lat":51.70247,"lon":-0.41611,"postcode":"WD5 0LN","la":"Three Rivers","era":"mod","nn":246,"risk":31,"cat":"amber"},{"name":"Anchor Tap & Bottle","lat":51.64679,"lon":-0.44332,"postcode":"WD3 3BZ","la":"Three Rivers","era":"other","nn":60,"risk":29,"cat":"green"},{"name":"Bedmond Sports & Social Club","lat":51.72043,"lon":-0.41188,"postcode":"WD5 0RB","la":"Three Rivers","era":"mod","nn":156,"risk":50,"cat":"amber"},{"name":"Bushey Cricket Club","lat":51.64021,"lon":-0.40585,"postcode":"WD19 4NR","la":"Three Rivers","era":"other","nn":1160,"risk":60,"cat":"amber"},{"name":"Chiltern Sports & Social Club","lat":51.62352,"lon":-0.50681,"postcode":"WD3 9SN","la":"Three Rivers","era":"mod","nn":1111,"risk":59,"cat":"amber"},{"name":"Chorleywood Working Mens Club","lat":51.64294,"lon":-0.50126,"postcode":"WD3 5FH","la":"Three Rivers","era":"trad","nn":1166,"risk":60,"cat":"amber"},{"name":"Langleybury Cricket Club","lat":51.69013,"lon":-0.44273,"postcode":"WD4 8RW","la":"Three Rivers","era":"other","nn":593,"risk":53,"cat":"amber"},{"name":"Manor House Sports & Social Centre","lat":51.70265,"lon":-0.42477,"postcode":"WD5 0BX","la":"Three Rivers","era":"mod","nn":0,"risk":29,"cat":"green"},{"name":"Moor Park Artisan Golf Club","lat":51.62844,"lon":-0.449,"postcode":"WD3 1QN","la":"Three Rivers","era":"other","nn":981,"risk":56,"cat":"amber"},{"name":"Rickmansworth Conservative Club Ltd","lat":51.63748,"lon":-0.46933,"postcode":"WD3 1DN","la":"Three Rivers","era":"other","nn":47,"risk":29,"cat":"green"},{"name":"Rickmansworth Sports Club","lat":51.64304,"lon":-0.46518,"postcode":"WD3 1HU","la":"Three Rivers","era":"other","nn":586,"risk":33,"cat":"amber"},{"name":"Rose & Crown","lat":51.65589,"lon":-0.51717,"postcode":"WD3 5LW","la":"Three Rivers","era":"trad","nn":875,"risk":55,"cat":"amber"},{"name":"Royal British Legion","lat":51.6497,"lon":-0.43694,"postcode":"WD3 3ED","la":"Three Rivers","era":"trad","nn":378,"risk":34,"cat":"amber"},{"name":"S & J Inns Ltd At The Fox \\\\& Hounds","lat":51.63904,"lon":-0.47266,"postcode":"WD3 1AY","la":"Three Rivers","era":"trad","nn":37,"risk":29,"cat":"green"},{"name":"The Bell","lat":51.71939,"lon":-0.41035,"postcode":"WD5 0QR","la":"Three Rivers","era":"other","nn":156,"risk":50,"cat":"amber"},{"name":"The Bell","lat":51.71554,"lon":-0.44178,"postcode":"WD4 8HX","la":"Three Rivers","era":"other","nn":478,"risk":32,"cat":"amber"},{"name":"The Black Horse","lat":51.65313,"lon":-0.50529,"postcode":"WD3 5EG","la":"Three Rivers","era":"trad","nn":555,"risk":38,"cat":"amber"},{"name":"The Boys Home","lat":51.70725,"lon":-0.41636,"postcode":"WD5 0AA","la":"Three Rivers","era":"other","nn":181,"risk":30,"cat":"green"},{"name":"The Cock Inn","lat":51.67767,"lon":-0.49564,"postcode":"WD3 6HH","la":"Three Rivers","era":"trad","nn":863,"risk":55,"cat":"amber"},{"name":"The Dick Whittington","lat":51.62128,"lon":-0.38656,"postcode":"WD19 6LH","la":"Three Rivers","era":"other","nn":1643,"risk":63,"cat":"red"},{"name":"The Feathers Public House","lat":51.63742,"lon":-0.46865,"postcode":"WD3 1DJ","la":"Three Rivers","era":"other","nn":47,"risk":29,"cat":"green"},{"name":"The Fox & Hounds","lat":51.64776,"lon":-0.44473,"postcode":"WD3 3HH","la":"Three Rivers","era":"trad","nn":94,"risk":30,"cat":"green"},{"name":"The Gate Public House","lat":51.65845,"lon":-0.50199,"postcode":"WD3 5SQ","la":"Three Rivers","era":"other","nn":213,"risk":48,"cat":"amber"},{"name":"The Halfway House","lat":51.6373,"lon":-0.47909,"postcode":"WD3 7DQ","la":"Three Rivers","era":"other","nn":379,"risk":32,"cat":"amber"},{"name":"The Harvester","lat":51.65114,"lon":-0.43198,"postcode":"WD3 3RX","la":"Three Rivers","era":"trad","nn":378,"risk":32,"cat":"amber"},{"name":"The Kings Head & Coach House","lat":51.69326,"lon":-0.43577,"postcode":"WD4 8RE","la":"Three Rivers","era":"trad","nn":593,"risk":51,"cat":"amber"},{"name":"The Oaks","lat":51.6138,"lon":-0.51055,"postcode":"WD3 9XP","la":"Three Rivers","era":"trad","nn":1016,"risk":59,"cat":"amber"},{"name":"The Pennsylvanian","lat":51.63873,"lon":-0.47007,"postcode":"WD3 1AN","la":"Three Rivers","era":"other","nn":148,"risk":30,"cat":"green"},{"name":"The Plough Public House","lat":51.69733,"lon":-0.50463,"postcode":"WD3 4NP","la":"Three Rivers","era":"trad","nn":765,"risk":54,"cat":"amber"},{"name":"The Prince Of Wales","lat":51.61991,"lon":-0.44539,"postcode":"WD3 1QB","la":"Three Rivers","era":"trad","nn":727,"risk":37,"cat":"amber"},{"name":"The Red House","lat":51.647,"lon":-0.44413,"postcode":"WD3 3DX","la":"Three Rivers","era":"other","nn":60,"risk":29,"cat":"green"},{"name":"The Royal British Legion Club","lat":51.63821,"lon":-0.47365,"postcode":"WD3 1BN","la":"Three Rivers","era":"trad","nn":78,"risk":30,"cat":"green"},{"name":"The Royal Oak","lat":51.70407,"lon":-0.41857,"postcode":"WD5 0ET","la":"Three Rivers","era":"trad","nn":209,"risk":30,"cat":"green"},{"name":"The Sportsman Public House","lat":51.64616,"lon":-0.45616,"postcode":"WD3 3AD","la":"Three Rivers","era":"other","nn":713,"risk":37,"cat":"amber"},{"name":"The Swan","lat":51.7026,"lon":-0.41014,"postcode":"WD5 0NR","la":"Three Rivers","era":"trad","nn":412,"risk":32,"cat":"amber"},{"name":"The Western","lat":51.63883,"lon":-0.47418,"postcode":"WD3 1BB","la":"Three Rivers","era":"other","nn":78,"risk":30,"cat":"green"},{"name":"The White Bear","lat":51.63417,"lon":-0.46714,"postcode":"WD3 1JQ","la":"Three Rivers","era":"other","nn":376,"risk":32,"cat":"amber"},{"name":"The White Horse Pub Ltd","lat":51.65694,"lon":-0.50009,"postcode":"WD3 5SD","la":"Three Rivers","era":"trad","nn":213,"risk":48,"cat":"amber"},{"name":"Tipsy Fish Company Ltd @ The Boot","lat":51.68534,"lon":-0.49377,"postcode":"WD3 6BL","la":"Three Rivers","era":"other","nn":863,"risk":55,"cat":"amber"},{"name":"Unicorn Public House","lat":51.70064,"lon":-0.43415,"postcode":"WD4 8LU","la":"Three Rivers","era":"other","nn":683,"risk":39,"cat":"amber"},{"name":"Wishful Drinking","lat":51.63936,"lon":-0.47249,"postcode":"WD3 1AB","la":"Three Rivers","era":"trad","nn":37,"risk":29,"cat":"green"},{"name":"143 Bar","lat":51.65946,"lon":-0.40124,"postcode":"WD17 1NA","la":"Watford","era":"other","nn":61,"risk":28,"cat":"green"},{"name":"Canvas","lat":51.65842,"lon":-0.39998,"postcode":"WD17 1LN","la":"Watford","era":"other","nn":74,"risk":28,"cat":"green"},{"name":"Cother Arms","lat":51.67028,"lon":-0.39688,"postcode":"WD24 4AT","la":"Watford","era":"trad","nn":88,"risk":28,"cat":"green"},{"name":"Diamonds And Strings","lat":51.65504,"lon":-0.39741,"postcode":"WD18 0PA","la":"Watford","era":"other","nn":147,"risk":28,"cat":"green"},{"name":"Dunnings Bar And Restaurant","lat":51.66702,"lon":-0.39868,"postcode":"WD24 5BB","la":"Watford","era":"mod","nn":42,"risk":28,"cat":"green"},{"name":"Essex Arms","lat":51.66787,"lon":-0.41713,"postcode":"WD17 3EG","la":"Watford","era":"trad","nn":312,"risk":47,"cat":"amber"},{"name":"Everett Rovers","lat":51.68293,"lon":-0.40463,"postcode":"WD24 5FS","la":"Watford","era":"other","nn":706,"risk":52,"cat":"amber"},{"name":"Glenn Sports & Social Club","lat":51.67,"lon":-0.39914,"postcode":"WD24 5AZ","la":"Watford","era":"mod","nn":93,"risk":28,"cat":"green"},{"name":"Market Tavern","lat":51.65444,"lon":-0.39963,"postcode":"WD18 0PY","la":"Watford","era":"other","nn":167,"risk":29,"cat":"green"},{"name":"Nascot Arms","lat":51.66521,"lon":-0.40182,"postcode":"WD17 4QS","la":"Watford","era":"trad","nn":219,"risk":29,"cat":"green"},{"name":"North Watford Conservative Club","lat":51.66977,"lon":-0.39784,"postcode":"WD24 5BH","la":"Watford","era":"other","nn":88,"risk":28,"cat":"green"},{"name":"O'Neills","lat":51.66402,"lon":-0.39765,"postcode":"WD17 1ET","la":"Watford","era":"other","nn":198,"risk":29,"cat":"green"},{"name":"Pangea Spirit","lat":51.6569,"lon":-0.41776,"postcode":"WD18 7FR","la":"Watford","era":"other","nn":638,"risk":49,"cat":"amber"},{"name":"Sun Postal Sports & Social Club","lat":51.6666,"lon":-0.42115,"postcode":"WD17 3BN","la":"Watford","era":"mod","nn":0,"risk":45,"cat":"amber"},{"name":"Sun Sports","lat":51.6666,"lon":-0.42115,"postcode":"WD17 3BN","la":"Watford","era":"other","nn":0,"risk":45,"cat":"amber"},{"name":"The Badger","lat":51.68132,"lon":-0.3799,"postcode":"WD25 9AD","la":"Watford","era":"other","nn":928,"risk":54,"cat":"amber"},{"name":"The Dome","lat":51.67902,"lon":-0.39656,"postcode":"WD24 6PR","la":"Watford","era":"other","nn":706,"risk":35,"cat":"amber"},{"name":"The Estcourt Arms","lat":51.66136,"lon":-0.39542,"postcode":"WD17 1PT","la":"Watford","era":"trad","nn":90,"risk":28,"cat":"green"},{"name":"The Florist","lat":51.65633,"lon":-0.39694,"postcode":"WD17 2DJ","la":"Watford","era":"other","nn":77,"risk":28,"cat":"green"},{"name":"The Golden Lion","lat":51.65828,"lon":-0.39577,"postcode":"WD17 2PT","la":"Watford","era":"trad","nn":166,"risk":29,"cat":"green"},{"name":"The Hammer In Hand","lat":51.69648,"lon":-0.40261,"postcode":"WD25 7EX","la":"Watford","era":"other","nn":856,"risk":53,"cat":"amber"},{"name":"The Oddfellows","lat":51.65287,"lon":-0.40144,"postcode":"WD18 0RD","la":"Watford","era":"other","nn":160,"risk":29,"cat":"green"},{"name":"The One Crown","lat":51.6536,"lon":-0.39319,"postcode":"WD17 2EN","la":"Watford","era":"trad","nn":332,"risk":30,"cat":"green"},{"name":"The Palace Theatre","lat":51.65702,"lon":-0.39708,"postcode":"WD17 1JZ","la":"Watford","era":"other","nn":77,"risk":28,"cat":"green"},{"name":"The Prince George","lat":51.66735,"lon":-0.39838,"postcode":"WD24 5BB","la":"Watford","era":"trad","nn":42,"risk":28,"cat":"green"},{"name":"The Railway Arms","lat":51.64574,"lon":-0.38272,"postcode":"WD19 4AB","la":"Watford","era":"trad","nn":91,"risk":33,"cat":"amber"},{"name":"The Red Lion","lat":51.65046,"lon":-0.40274,"postcode":"WD18 0EY","la":"Watford","era":"trad","nn":283,"risk":29,"cat":"green"},{"name":"The Royal Oak","lat":51.6384,"lon":-0.38534,"postcode":"WD19 4EU","la":"Watford","era":"trad","nn":678,"risk":37,"cat":"amber"},{"name":"The Shamrock","lat":51.65174,"lon":-0.42179,"postcode":"WD18 7QJ","la":"Watford","era":"other","nn":638,"risk":49,"cat":"amber"},{"name":"The Soso Bar","lat":51.65994,"lon":-0.40168,"postcode":"WD17 1NJ","la":"Watford","era":"other","nn":61,"risk":28,"cat":"green"},{"name":"The Victoria","lat":51.64628,"lon":-0.38173,"postcode":"WD19 4BU","la":"Watford","era":"trad","nn":91,"risk":31,"cat":"amber"},{"name":"The Villiers Arms","lat":51.64388,"lon":-0.38104,"postcode":"WD19 4AJ","la":"Watford","era":"trad","nn":237,"risk":32,"cat":"amber"},{"name":"The Wellington Arms","lat":51.66214,"lon":-0.39506,"postcode":"WD17 1PA","la":"Watford","era":"trad","nn":90,"risk":28,"cat":"green"},{"name":"Tudor Arms (Watford)","lat":51.67371,"lon":-0.38541,"postcode":"WD24 7TQ","la":"Watford","era":"trad","nn":615,"risk":32,"cat":"amber"},{"name":"Two Trees Micro","lat":51.65219,"lon":-0.3994,"postcode":"WD18 0EH","la":"Watford","era":"other","nn":160,"risk":29,"cat":"green"},{"name":"Walkabout Watford","lat":51.65842,"lon":-0.40105,"postcode":"WD17 1AW","la":"Watford","era":"other","nn":74,"risk":28,"cat":"green"},{"name":"Watford Ex Service & Social Club","lat":51.6611,"lon":-0.4005,"postcode":"WD17 1BN","la":"Watford","era":"mod","nn":152,"risk":29,"cat":"green"},{"name":"Watford Social Club","lat":51.6575,"lon":-0.39301,"postcode":"WD17 2LA","la":"Watford","era":"mod","nn":209,"risk":29,"cat":"green"},{"name":"West Herts Sports Club","lat":51.65552,"lon":-0.40607,"postcode":"WD18 7HP","la":"Watford","era":"other","nn":434,"risk":31,"cat":"amber"},{"name":"White Lion","lat":51.66345,"lon":-0.40038,"postcode":"WD17 1SJ","la":"Watford","era":"trad","nn":198,"risk":29,"cat":"green"},{"name":"Windsors Of Watford","lat":51.67263,"lon":-0.39415,"postcode":"WD24 7DH","la":"Watford","era":"other","nn":322,"risk":30,"cat":"green"}]