[{"name":"Chestnut Tree Farm","lat":52.04349,"lon":1.10254,"postcode":"IP8 3LQ","la":"Babergh","era":"other","nn":857,"risk":56,"cat":"amber"},{"name":"Eight Bells Inn","lat":52.04676,"lon":0.95795,"postcode":"IP7 5DD","la":"Babergh","era":"trad","nn":140,"risk":39,"cat":"amber"},{"name":"Hintlesham & Chattisham Social Club","lat":52.04944,"lon":1.04019,"postcode":"IP8 3PS","la":"Babergh","era":"mod","nn":4151,"risk":84,"cat":"red"},{"name":"Kings Head","lat":52.04444,"lon":0.95362,"postcode":"IP7 5EF","la":"Babergh","era":"trad","nn":114,"risk":38,"cat":"amber"},{"name":"The Beagle","lat":52.05113,"lon":1.10084,"postcode":"IP8 3AR","la":"Babergh","era":"trad","nn":857,"risk":59,"cat":"amber"},{"name":"The Case is Altered","lat":51.99166,"lon":1.0697,"postcode":"IP9 2DW","la":"Babergh","era":"other","nn":1533,"risk":66,"cat":"red"},{"name":"The Cock Inn","lat":52.04557,"lon":0.95859,"postcode":"IP7 5BP","la":"Babergh","era":"trad","nn":140,"risk":39,"cat":"amber"},{"name":"The Gardeners Arms","lat":51.96807,"lon":1.1142,"postcode":"IP9 2TG","la":"Babergh","era":"trad","nn":931,"risk":59,"cat":"amber"},{"name":"The George","lat":52.04353,"lon":0.95438,"postcode":"IP7 5AL","la":"Babergh","era":"trad","nn":114,"risk":38,"cat":"amber"},{"name":"The Horseshoes Inn","lat":52.14215,"lon":0.79006,"postcode":"IP30 0JB","la":"Babergh","era":"trad","nn":4268,"risk":85,"cat":"red"},{"name":"The Kings Head","lat":52.10824,"lon":0.90799,"postcode":"IP7 7ED","la":"Babergh","era":"trad","nn":3200,"risk":77,"cat":"red"},{"name":"The Kings Head","lat":51.97066,"lon":1.12712,"postcode":"IP9 2SW","la":"Babergh","era":"trad","nn":931,"risk":59,"cat":"amber"},{"name":"The Lindsey Rose","lat":52.07519,"lon":0.89168,"postcode":"IP7 6PP","la":"Babergh","era":"other","nn":2419,"risk":72,"cat":"red"},{"name":"The Swan","lat":51.98536,"lon":1.15653,"postcode":"IP9 2PZ","la":"Babergh","era":"trad","nn":2594,"risk":73,"cat":"red"},{"name":"The Swan Inn","lat":52.0919,"lon":0.86901,"postcode":"IP7 7AU","la":"Babergh","era":"trad","nn":2419,"risk":72,"cat":"red"},{"name":"The White Horse Inn","lat":52.00153,"lon":1.11076,"postcode":"IP9 2NU","la":"Babergh","era":"trad","nn":3018,"risk":76,"cat":"red"},{"name":"Wheelhouse","lat":52.1023,"lon":0.95384,"postcode":"IP7 7BS","la":"Babergh","era":"other","nn":3200,"risk":77,"cat":"red"},{"name":"White Horse Inn","lat":52.00241,"lon":1.05569,"postcode":"IP9 2JR","la":"Babergh","era":"trad","nn":1533,"risk":66,"cat":"red"},{"name":"Andrew Byrne (Thetford Conservative Club)","lat":52.41414,"lon":0.75234,"postcode":"IP24 2BN","la":"Breckland","era":"other","nn":98,"risk":34,"cat":"amber"},{"name":"Gold Leaf Catering","lat":52.56194,"lon":0.82955,"postcode":"IP25 6HN","la":"Breckland","era":"other","nn":1124,"risk":64,"cat":"red"},{"name":"Green Dragon","lat":52.41366,"lon":0.75113,"postcode":"IP24 2AJ","la":"Breckland","era":"trad","nn":47,"risk":34,"cat":"amber"},{"name":"Guildhall and Carnegie Complex","lat":52.41299,"lon":0.7501,"postcode":"IP24 2BA","la":"Breckland","era":"other","nn":65,"risk":34,"cat":"amber"},{"name":"ICE","lat":52.41365,"lon":0.7476,"postcode":"IP24 2BB","la":"Breckland","era":"other","nn":185,"risk":35,"cat":"amber"},{"name":"J D Wetherspoon Ltd","lat":52.41324,"lon":0.75115,"postcode":"IP24 2AL","la":"Breckland","era":"other","nn":19,"risk":34,"cat":"amber"},{"name":"Norfolk Terrier","lat":52.42532,"lon":0.75415,"postcode":"IP24 1TA","la":"Breckland","era":"other","nn":933,"risk":60,"cat":"amber"},{"name":"Old Bell Public House","lat":52.58059,"lon":0.8052,"postcode":"IP25 7HD","la":"Breckland","era":"other","nn":1703,"risk":68,"cat":"red"},{"name":"Railway Tavern","lat":52.41883,"lon":0.74543,"postcode":"IP24 1AH","la":"Breckland","era":"trad","nn":594,"risk":38,"cat":"amber"},{"name":"Royal British Legion","lat":52.41308,"lon":0.75104,"postcode":"IP24 2AA","la":"Breckland","era":"trad","nn":19,"risk":34,"cat":"amber"},{"name":"The Albion","lat":52.41315,"lon":0.75556,"postcode":"IP24 2DN","la":"Breckland","era":"other","nn":230,"risk":35,"cat":"amber"},{"name":"The Black Horse","lat":52.41497,"lon":0.75396,"postcode":"IP24 2BP","la":"Breckland","era":"trad","nn":144,"risk":35,"cat":"amber"},{"name":"The Chase","lat":52.41207,"lon":0.7424,"postcode":"IP24 3BN","la":"Breckland","era":"other","nn":347,"risk":36,"cat":"amber"},{"name":"The Chequers Inn","lat":52.53451,"lon":0.83099,"postcode":"IP24 1PX","la":"Breckland","era":"trad","nn":3052,"risk":78,"cat":"red"},{"name":"The Eagle","lat":52.49485,"lon":0.87691,"postcode":"IP24 1NP","la":"Breckland","era":"trad","nn":3182,"risk":78,"cat":"red"},{"name":"The Golden Dog","lat":52.62788,"lon":0.88705,"postcode":"IP25 7PA","la":"Breckland","era":"other","nn":5303,"risk":91,"cat":"red"},{"name":"The King's Arms","lat":52.57179,"lon":0.82584,"postcode":"IP25 6AG","la":"Breckland","era":"trad","nn":1124,"risk":64,"cat":"red"},{"name":"The King's Head","lat":52.41023,"lon":0.99151,"postcode":"IP22 2NE","la":"Breckland","era":"trad","nn":2021,"risk":70,"cat":"red"},{"name":"The Olde Windmill Inn","lat":52.58319,"lon":0.72262,"postcode":"IP25 6NN","la":"Breckland","era":"trad","nn":2093,"risk":71,"cat":"red"},{"name":"The Saxon Public House","lat":52.46832,"lon":0.60957,"postcode":"IP27 0QW","la":"Breckland","era":"other","nn":2396,"risk":73,"cat":"red"},{"name":"The Swan Inn","lat":52.57269,"lon":0.69691,"postcode":"IP26 5BW","la":"Breckland","era":"trad","nn":2093,"risk":71,"cat":"red"},{"name":"The Warrener","lat":52.41228,"lon":0.72532,"postcode":"IP24 3PG","la":"Breckland","era":"other","nn":1158,"risk":64,"cat":"red"},{"name":"The White Hart Free House","lat":52.60288,"lon":0.78239,"postcode":"IP25 7AW","la":"Breckland","era":"trad","nn":2918,"risk":77,"cat":"red"},{"name":"The White Horse","lat":52.39274,"lon":0.99958,"postcode":"IP22 2LH","la":"Breckland","era":"trad","nn":2021,"risk":70,"cat":"red"},{"name":"Thetford & District Ex-Service & Social Club","lat":52.41101,"lon":0.74722,"postcode":"IP24 3BX","la":"Breckland","era":"mod","nn":295,"risk":36,"cat":"amber"},{"name":"Waggon & Horses Public House","lat":52.55672,"lon":0.86882,"postcode":"IP25 6QD","la":"Breckland","era":"trad","nn":2182,"risk":71,"cat":"red"},{"name":"129 Cafe Bar","lat":51.96013,"lon":1.35137,"postcode":"IP11 2AQ","la":"East Suffolk","era":"other","nn":3,"risk":24,"cat":"green"},{"name":"1975","lat":52.09279,"lon":1.31795,"postcode":"IP12 1DD","la":"East Suffolk","era":"other","nn":154,"risk":25,"cat":"green"},{"name":"Aldeburgh Yacht Club Bar","lat":52.14139,"lon":1.5986,"postcode":"IP15 5NA","la":"East Suffolk","era":"other","nn":976,"risk":51,"cat":"amber"},{"name":"Angel Inn","lat":52.09448,"lon":1.31273,"postcode":"IP12 4NE","la":"East Suffolk","era":"trad","nn":50,"risk":24,"cat":"green"},{"name":"Apollo Youth Centre","lat":52.34919,"lon":1.51067,"postcode":"IP19 8PY","la":"East Suffolk","era":"other","nn":350,"risk":29,"cat":"green"},{"name":"Bar 23 Rendlesham","lat":52.12982,"lon":1.41461,"postcode":"IP12 2GG","la":"East Suffolk","era":"mod","nn":901,"risk":50,"cat":"amber"},{"name":"Bell Inn","lat":52.0657,"lon":1.23639,"postcode":"IP5 1AA","la":"East Suffolk","era":"trad","nn":622,"risk":48,"cat":"amber"},{"name":"Cherry Tree Inn","lat":52.08997,"lon":1.31017,"postcode":"IP12 4AG","la":"East Suffolk","era":"trad","nn":485,"risk":27,"cat":"green"},{"name":"Coach And Horses Inn","lat":52.10281,"lon":1.3282,"postcode":"IP12 1PD","la":"East Suffolk","era":"trad","nn":215,"risk":30,"cat":"green"},{"name":"Conservative Club, Felixstowe","lat":51.96801,"lon":1.35083,"postcode":"IP11 9JB","la":"East Suffolk","era":"other","nn":559,"risk":28,"cat":"green"},{"name":"Cross Keys","lat":52.153,"lon":1.60211,"postcode":"IP15 5BN","la":"East Suffolk","era":"trad","nn":337,"risk":46,"cat":"amber"},{"name":"Deben Bar Private Members Club","lat":52.10292,"lon":1.33135,"postcode":"IP12 1PE","la":"East Suffolk","era":"mod","nn":1,"risk":29,"cat":"green"},{"name":"Deben Yacht Club","lat":52.0874,"lon":1.31591,"postcode":"IP12 4BB","la":"East Suffolk","era":"other","nn":0,"risk":24,"cat":"green"},{"name":"Douglas Bader","lat":52.06132,"lon":1.27205,"postcode":"IP5 3SL","la":"East Suffolk","era":"other","nn":1427,"risk":56,"cat":"amber"},{"name":"Easton White Horse","lat":52.17776,"lon":1.34042,"postcode":"IP13 0ED","la":"East Suffolk","era":"trad","nn":2665,"risk":65,"cat":"red"},{"name":"Eels Foot Eastbridge","lat":52.23898,"lon":1.59067,"postcode":"IP16 4SN","la":"East Suffolk","era":"other","nn":1468,"risk":57,"cat":"amber"},{"name":"Felixstowe Bowls Club","lat":51.96288,"lon":1.34865,"postcode":"IP11 7PB","la":"East Suffolk","era":"other","nn":305,"risk":26,"cat":"green"},{"name":"Felixstowe Trades And Labour Club","lat":51.96999,"lon":1.34333,"postcode":"IP11 9BB","la":"East Suffolk","era":"other","nn":297,"risk":26,"cat":"green"},{"name":"Felsto Arms","lat":51.95653,"lon":1.34255,"postcode":"IP11 2BB","la":"East Suffolk","era":"trad","nn":494,"risk":27,"cat":"green"},{"name":"Fox Inn Darsham","lat":52.27265,"lon":1.53664,"postcode":"IP17 3QE","la":"East Suffolk","era":"trad","nn":2637,"risk":65,"cat":"red"},{"name":"Framlingham Town Sports Club","lat":52.2248,"lon":1.35187,"postcode":"IP13 9HS","la":"East Suffolk","era":"trad","nn":439,"risk":32,"cat":"amber"},{"name":"Golden Key Inn","lat":52.16925,"lon":1.50013,"postcode":"IP17 1SG","la":"East Suffolk","era":"trad","nn":666,"risk":48,"cat":"amber"},{"name":"Golf Hotel","lat":52.04877,"lon":1.21227,"postcode":"IP4 5TR","la":"East Suffolk","era":"other","nn":1946,"risk":60,"cat":"amber"},{"name":"Green Man Inn","lat":52.14239,"lon":1.44548,"postcode":"IP12 2JE","la":"East Suffolk","era":"trad","nn":2149,"risk":61,"cat":"red"},{"name":"Halesworth Angel Bowls Club","lat":52.34622,"lon":1.50894,"postcode":"IP19 8JS","la":"East Suffolk","era":"trad","nn":350,"risk":29,"cat":"green"},{"name":"Hambling Catering Ltd","lat":52.22247,"lon":1.34119,"postcode":"IP13 9EH","la":"East Suffolk","era":"other","nn":209,"risk":28,"cat":"green"},{"name":"Hand In Hand","lat":51.99159,"lon":1.30753,"postcode":"IP11 0RL","la":"East Suffolk","era":"other","nn":235,"risk":43,"cat":"amber"},{"name":"Haven Ports Yacht Club","lat":51.99593,"lon":1.27065,"postcode":"IP10 0LN","la":"East Suffolk","era":"other","nn":1458,"risk":56,"cat":"amber"},{"name":"Hopsters","lat":51.95251,"lon":1.33813,"postcode":"IP11 2GN","la":"East Suffolk","era":"other","nn":48,"risk":42,"cat":"amber"},{"name":"Huntingfield Arms","lat":52.31309,"lon":1.4341,"postcode":"IP19 0PU","la":"East Suffolk","era":"trad","nn":4013,"risk":74,"cat":"red"},{"name":"Kelsale Social Club","lat":52.23099,"lon":1.49462,"postcode":"IP17 2PB","la":"East Suffolk","era":"mod","nn":862,"risk":50,"cat":"amber"},{"name":"Kesgrave Social Club","lat":52.06373,"lon":1.22787,"postcode":"IP5 1EE","la":"East Suffolk","era":"mod","nn":622,"risk":48,"cat":"amber"},{"name":"Kirton & Falkenham Bowls Club","lat":52.00494,"lon":1.32256,"postcode":"IP10 0QW","la":"East Suffolk","era":"other","nn":1806,"risk":59,"cat":"amber"},{"name":"La Vida Entertainment Ltd","lat":51.95279,"lon":1.33864,"postcode":"IP11 2DN","la":"East Suffolk","era":"other","nn":48,"risk":42,"cat":"amber"},{"name":"Leiston Ex Servicemens Club","lat":52.20541,"lon":1.57259,"postcode":"IP16 4DQ","la":"East Suffolk","era":"other","nn":0,"risk":24,"cat":"green"},{"name":"Leiston Town Athletics Association","lat":52.20541,"lon":1.57259,"postcode":"IP16 4DQ","la":"East Suffolk","era":"other","nn":0,"risk":24,"cat":"green"},{"name":"Levington Ship","lat":52.00457,"lon":1.25462,"postcode":"IP10 0LQ","la":"East Suffolk","era":"trad","nn":1458,"risk":56,"cat":"amber"},{"name":"Lord Nelson Southwold","lat":52.32567,"lon":1.68109,"postcode":"IP18 6EJ","la":"East Suffolk","era":"trad","nn":112,"risk":27,"cat":"green"},{"name":"Melton Bowls Club","lat":52.10293,"lon":1.33133,"postcode":"IP12 1PE","la":"East Suffolk","era":"other","nn":1,"risk":29,"cat":"green"},{"name":"Miller & Carter Steakhouse","lat":52.02901,"lon":1.22729,"postcode":"IP10 0DF","la":"East Suffolk","era":"trad","nn":1773,"risk":59,"cat":"amber"},{"name":"Moon And Mushroom Ltd","lat":52.1266,"lon":1.19205,"postcode":"IP6 9LR","la":"East Suffolk","era":"other","nn":3214,"risk":69,"cat":"red"},{"name":"Old Mill House","lat":52.23163,"lon":1.30362,"postcode":"IP13 9QE","la":"East Suffolk","era":"trad","nn":2754,"risk":66,"cat":"red"},{"name":"Plough And Sail Inn","lat":52.16375,"lon":1.49626,"postcode":"IP17 1SR","la":"East Suffolk","era":"trad","nn":666,"risk":48,"cat":"amber"},{"name":"Queens Head Inn","lat":52.21418,"lon":1.49176,"postcode":"IP17 1DF","la":"East Suffolk","era":"trad","nn":306,"risk":46,"cat":"amber"},{"name":"Railway Inn","lat":52.08172,"lon":1.16606,"postcode":"IP6 9AA","la":"East Suffolk","era":"trad","nn":882,"risk":50,"cat":"amber"},{"name":"Ramsholt Arms","lat":52.02363,"lon":1.36353,"postcode":"IP12 3AB","la":"East Suffolk","era":"trad","nn":3382,"risk":70,"cat":"red"},{"name":"Red Lion Public House","lat":52.07724,"lon":1.28484,"postcode":"IP12 4RN","la":"East Suffolk","era":"trad","nn":1166,"risk":54,"cat":"amber"},{"name":"Red Lion Southwold","lat":52.32489,"lon":1.68005,"postcode":"IP18 6ET","la":"East Suffolk","era":"trad","nn":112,"risk":27,"cat":"green"},{"name":"Royal British Legion Club","lat":52.15249,"lon":1.36057,"postcode":"IP13 0RP","la":"East Suffolk","era":"trad","nn":3128,"risk":68,"cat":"red"},{"name":"Saxmundham Ex-Service & Social Club","lat":52.21479,"lon":1.48739,"postcode":"IP17 1BL","la":"East Suffolk","era":"mod","nn":306,"risk":46,"cat":"amber"},{"name":"Ship Inn Blaxhall","lat":52.15971,"lon":1.45945,"postcode":"IP12 2DY","la":"East Suffolk","era":"trad","nn":2149,"risk":61,"cat":"red"},{"name":"Sibton White Horse Inn","lat":52.27936,"lon":1.45508,"postcode":"IP17 2JJ","la":"East Suffolk","era":"trad","nn":4013,"risk":74,"cat":"red"},{"name":"Sizewell Sports And Social Club","lat":52.20518,"lon":1.59102,"postcode":"IP16 4JN","la":"East Suffolk","era":"mod","nn":960,"risk":48,"cat":"amber"},{"name":"Slate Barn Arts","lat":52.21649,"lon":1.44233,"postcode":"IP17 2BQ","la":"East Suffolk","era":"other","nn":1373,"risk":56,"cat":"amber"},{"name":"Sole Bay Bowls Club","lat":52.33499,"lon":1.66553,"postcode":"IP18 6NR","la":"East Suffolk","era":"other","nn":931,"risk":50,"cat":"amber"},{"name":"Sole Bay Inn","lat":52.32723,"lon":1.68086,"postcode":"IP18 6JN","la":"East Suffolk","era":"trad","nn":174,"risk":27,"cat":"green"},{"name":"Sorrel Horse","lat":52.05159,"lon":1.38301,"postcode":"IP12 3HD","la":"East Suffolk","era":"trad","nn":2151,"risk":61,"cat":"red"},{"name":"Southwold & Reydon Constitutional Club","lat":52.32632,"lon":1.67764,"postcode":"IP18 6HP","la":"East Suffolk","era":"other","nn":228,"risk":28,"cat":"green"},{"name":"Southwold Golf Club","lat":52.32713,"lon":1.67027,"postcode":"IP18 6TB","la":"East Suffolk","era":"other","nn":509,"risk":27,"cat":"green"},{"name":"Swan Inn","lat":52.08755,"lon":1.17481,"postcode":"IP6 9AJ","la":"East Suffolk","era":"trad","nn":882,"risk":50,"cat":"amber"},{"name":"The Anchor","lat":52.09153,"lon":1.31701,"postcode":"IP12 1BX","la":"East Suffolk","era":"trad","nn":154,"risk":25,"cat":"green"},{"name":"The Bar","lat":52.20712,"lon":1.5773,"postcode":"IP16 4EL","la":"East Suffolk","era":"other","nn":29,"risk":24,"cat":"green"},{"name":"The Bell Inn","lat":52.31424,"lon":1.66572,"postcode":"IP18 6TN","la":"East Suffolk","era":"trad","nn":1467,"risk":57,"cat":"amber"},{"name":"The Black Swan","lat":52.42289,"lon":1.36388,"postcode":"IP20 0EX","la":"East Suffolk","era":"trad","nn":654,"risk":48,"cat":"amber"},{"name":"The Butchers Arms","lat":52.19315,"lon":1.56059,"postcode":"IP17 1UQ","la":"East Suffolk","era":"trad","nn":1590,"risk":57,"cat":"amber"},{"name":"The Castle Inn","lat":52.22323,"lon":1.34596,"postcode":"IP13 9BP","la":"East Suffolk","era":"trad","nn":336,"risk":29,"cat":"green"},{"name":"The Chequers Inn","lat":52.19323,"lon":1.31057,"postcode":"IP13 7JT","la":"East Suffolk","era":"trad","nn":2665,"risk":65,"cat":"red"},{"name":"The Cork","lat":51.96012,"lon":1.35134,"postcode":"IP11 2AQ","la":"East Suffolk","era":"other","nn":3,"risk":24,"cat":"green"},{"name":"The Cretingham Bell","lat":52.19471,"lon":1.25896,"postcode":"IP13 7BJ","la":"East Suffolk","era":"other","nn":2897,"risk":67,"cat":"red"},{"name":"The Crown Inn","lat":52.20377,"lon":1.42325,"postcode":"IP17 2DA","la":"East Suffolk","era":"trad","nn":1921,"risk":60,"cat":"amber"},{"name":"The Dennington Queen","lat":52.2542,"lon":1.34205,"postcode":"IP13 8AB","la":"East Suffolk","era":"trad","nn":2618,"risk":65,"cat":"red"},{"name":"The Dooley Inn","lat":51.95993,"lon":1.31668,"postcode":"IP11 3QX","la":"East Suffolk","era":"trad","nn":961,"risk":51,"cat":"amber"},{"name":"The Elephant And Castle Inn","lat":52.11709,"lon":1.38429,"postcode":"IP12 2QG","la":"East Suffolk","era":"trad","nn":1627,"risk":58,"cat":"amber"},{"name":"The Engineers Arms","lat":52.2081,"lon":1.57572,"postcode":"IP16 4ER","la":"East Suffolk","era":"trad","nn":101,"risk":24,"cat":"green"},{"name":"The Falcon Inn Limited","lat":51.97273,"lon":1.33865,"postcode":"IP11 9DS","la":"East Suffolk","era":"trad","nn":145,"risk":27,"cat":"green"},{"name":"The Farmhouse Public House","lat":52.06249,"lon":1.25127,"postcode":"IP5 2GA","la":"East Suffolk","era":"mod","nn":1078,"risk":54,"cat":"amber"},{"name":"The Ferryboat Felixstowe Ltd","lat":51.98711,"lon":1.38953,"postcode":"IP11 9RZ","la":"East Suffolk","era":"other","nn":2348,"risk":63,"cat":"red"},{"name":"The Fox Inn","lat":52.04016,"lon":1.31381,"postcode":"IP12 4NY","la":"East Suffolk","era":"trad","nn":1655,"risk":58,"cat":"amber"},{"name":"The Froize Restaurant","lat":52.11701,"lon":1.48672,"postcode":"IP12 3PU","la":"East Suffolk","era":"other","nn":2334,"risk":63,"cat":"red"},{"name":"The Grand","lat":51.96025,"lon":1.35106,"postcode":"IP11 7DG","la":"East Suffolk","era":"other","nn":24,"risk":24,"cat":"green"},{"name":"The Grosvenor","lat":51.96259,"lon":1.35309,"postcode":"IP11 7HA","la":"East Suffolk","era":"other","nn":295,"risk":26,"cat":"green"},{"name":"The Grundisburgh Dog","lat":52.2317,"lon":1.08654,"postcode":"IP13 6TA","la":"East Suffolk","era":"other","nn":2154,"risk":61,"cat":"red"},{"name":"The Half Moon","lat":51.97352,"lon":1.33548,"postcode":"IP11 9QL","la":"East Suffolk","era":"other","nn":235,"risk":30,"cat":"green"},{"name":"The Huntsman & Hounds","lat":52.38759,"lon":1.50107,"postcode":"IP19 0RN","la":"East Suffolk","era":"trad","nn":2459,"risk":63,"cat":"red"},{"name":"The Kings Head Inn","lat":52.09496,"lon":1.53412,"postcode":"IP12 2LW","la":"East Suffolk","era":"trad","nn":4061,"risk":75,"cat":"red"},{"name":"The Kings Head Inn","lat":52.09403,"lon":1.31277,"postcode":"IP12 4LP","la":"East Suffolk","era":"trad","nn":50,"risk":24,"cat":"green"},{"name":"The Lion Inn","lat":52.17341,"lon":1.42219,"postcode":"IP13 0BA","la":"East Suffolk","era":"trad","nn":2963,"risk":67,"cat":"red"},{"name":"The Little Wine Bar","lat":51.97183,"lon":1.3402,"postcode":"IP11 9DS","la":"East Suffolk","era":"other","nn":145,"risk":27,"cat":"green"},{"name":"The Mariners","lat":51.9847,"lon":1.31375,"postcode":"IP11 0TN","la":"East Suffolk","era":"other","nn":645,"risk":46,"cat":"amber"},{"name":"The Masonic Hall","lat":52.09427,"lon":1.31648,"postcode":"IP12 1DX","la":"East Suffolk","era":"trad","nn":42,"risk":24,"cat":"green"},{"name":"The Maybush Inn","lat":52.05256,"lon":1.32722,"postcode":"IP12 4QL","la":"East Suffolk","era":"trad","nn":308,"risk":46,"cat":"amber"},{"name":"The Old Chequers","lat":52.18686,"lon":1.52856,"postcode":"IP17 1NP","la":"East Suffolk","era":"other","nn":2293,"risk":62,"cat":"red"},{"name":"The Old Mariner","lat":52.09447,"lon":1.31746,"postcode":"IP12 1DX","la":"East Suffolk","era":"other","nn":71,"risk":24,"cat":"green"},{"name":"The Owl And The Pussycat","lat":51.96541,"lon":1.32752,"postcode":"IP11 2XD","la":"East Suffolk","era":"other","nn":961,"risk":51,"cat":"amber"},{"name":"The Oyster Inn","lat":52.10643,"lon":1.4572,"postcode":"IP12 3NZ","la":"East Suffolk","era":"trad","nn":2334,"risk":63,"cat":"red"},{"name":"The Plough","lat":52.06655,"lon":1.36306,"postcode":"IP12 3DU","la":"East Suffolk","era":"trad","nn":2151,"risk":61,"cat":"red"},{"name":"The Poachers Pocket","lat":52.2292,"lon":1.48231,"postcode":"IP17 2QS","la":"East Suffolk","era":"other","nn":862,"risk":50,"cat":"amber"},{"name":"The Queens Head At Bramfield","lat":52.3107,"lon":1.51901,"postcode":"IP19 9HT","la":"East Suffolk","era":"trad","nn":2956,"risk":67,"cat":"red"},{"name":"The Racehorse Inn","lat":52.38154,"lon":1.53592,"postcode":"IP19 8RQ","la":"East Suffolk","era":"trad","nn":2459,"risk":63,"cat":"red"},{"name":"The Railway Inn","lat":52.2207,"lon":1.34223,"postcode":"IP13 9EA","la":"East Suffolk","era":"trad","nn":209,"risk":28,"cat":"green"},{"name":"The Royal Standard","lat":52.20697,"lon":1.57696,"postcode":"IP16 4EW","la":"East Suffolk","era":"trad","nn":29,"risk":24,"cat":"green"},{"name":"The Rumburgh Buck","lat":52.38057,"lon":1.44451,"postcode":"IP19 0NT","la":"East Suffolk","era":"other","nn":3134,"risk":68,"cat":"red"},{"name":"The Shannon Inn","lat":52.03046,"lon":1.26853,"postcode":"IP10 0DR","la":"East Suffolk","era":"trad","nn":2826,"risk":66,"cat":"red"},{"name":"The Ship Inn","lat":52.27748,"lon":1.63062,"postcode":"IP17 3DT","la":"East Suffolk","era":"trad","nn":3993,"risk":74,"cat":"red"},{"name":"The Star Inn","lat":52.31918,"lon":1.56022,"postcode":"IP19 9HF","la":"East Suffolk","era":"trad","nn":1067,"risk":54,"cat":"amber"},{"name":"The Station Hotel","lat":52.21604,"lon":1.3429,"postcode":"IP13 9EE","la":"East Suffolk","era":"other","nn":520,"risk":32,"cat":"amber"},{"name":"The Suffolk Jungle Room","lat":52.36013,"lon":1.4763,"postcode":"IP19 0JE","la":"East Suffolk","era":"other","nn":2538,"risk":64,"cat":"red"},{"name":"The Tavern","lat":52.12418,"lon":1.40514,"postcode":"IP12 2SZ","la":"East Suffolk","era":"other","nn":901,"risk":50,"cat":"amber"},{"name":"The Victoria","lat":52.22066,"lon":1.26284,"postcode":"IP13 7RL","la":"East Suffolk","era":"trad","nn":2897,"risk":67,"cat":"red"},{"name":"The Warwick","lat":52.10113,"lon":1.31165,"postcode":"IP12 1JX","la":"East Suffolk","era":"other","nn":744,"risk":29,"cat":"green"},{"name":"The Westleton Crown","lat":52.26514,"lon":1.57552,"postcode":"IP17 3AD","la":"East Suffolk","era":"trad","nn":220,"risk":45,"cat":"amber"},{"name":"The White Hart","lat":52.34378,"lon":1.50236,"postcode":"IP19 8AH","la":"East Suffolk","era":"trad","nn":14,"risk":26,"cat":"green"},{"name":"The White Hart","lat":52.32173,"lon":1.59829,"postcode":"IP19 9LQ","la":"East Suffolk","era":"trad","nn":2603,"risk":64,"cat":"red"},{"name":"The White Horse","lat":52.25771,"lon":1.38008,"postcode":"IP13 8JR","la":"East Suffolk","era":"trad","nn":2618,"risk":65,"cat":"red"},{"name":"The White Horse Inn","lat":52.22724,"lon":1.43241,"postcode":"IP17 2BB","la":"East Suffolk","era":"trad","nn":491,"risk":47,"cat":"amber"},{"name":"The White Horse Inn","lat":51.97085,"lon":1.36765,"postcode":"IP11 9NF","la":"East Suffolk","era":"trad","nn":1195,"risk":55,"cat":"amber"},{"name":"The White Swan","lat":52.34187,"lon":1.50216,"postcode":"IP19 8LH","la":"East Suffolk","era":"trad","nn":204,"risk":28,"cat":"green"},{"name":"Theberton Lion","lat":52.23633,"lon":1.56955,"postcode":"IP16 4RU","la":"East Suffolk","era":"trad","nn":1468,"risk":57,"cat":"amber"},{"name":"Thorington Theatre","lat":52.30975,"lon":1.56308,"postcode":"IP17 3RB","la":"East Suffolk","era":"other","nn":1067,"risk":54,"cat":"amber"},{"name":"Thorpeness Country Club","lat":52.17946,"lon":1.61583,"postcode":"IP16 4NU","la":"East Suffolk","era":"other","nn":3076,"risk":68,"cat":"red"},{"name":"Trimley Sports And Social Club","lat":51.98962,"lon":1.30876,"postcode":"IP11 0RJ","la":"East Suffolk","era":"mod","nn":235,"risk":43,"cat":"amber"},{"name":"Volunteer Inn","lat":52.20479,"lon":1.57507,"postcode":"IP16 4DJ","la":"East Suffolk","era":"trad","nn":183,"risk":25,"cat":"green"},{"name":"Vulcan Arms","lat":52.20704,"lon":1.61949,"postcode":"IP16 4UD","la":"East Suffolk","era":"trad","nn":1951,"risk":60,"cat":"amber"},{"name":"Waldringfield Sailing Club","lat":52.05331,"lon":1.33155,"postcode":"IP12 4QZ","la":"East Suffolk","era":"other","nn":308,"risk":46,"cat":"amber"},{"name":"White Hart Inn","lat":52.15003,"lon":1.60114,"postcode":"IP15 5AJ","la":"East Suffolk","era":"trad","nn":337,"risk":44,"cat":"amber"},{"name":"White Hart Inn","lat":52.1593,"lon":1.21585,"postcode":"IP6 9NS","la":"East Suffolk","era":"trad","nn":3982,"risk":74,"cat":"red"},{"name":"White Horse","lat":52.229,"lon":1.43903,"postcode":"IP17 2AF","la":"East Suffolk","era":"trad","nn":491,"risk":47,"cat":"amber"},{"name":"White Horse Hotel","lat":52.20881,"lon":1.57478,"postcode":"IP16 4HD","la":"East Suffolk","era":"trad","nn":101,"risk":24,"cat":"green"},{"name":"White Horse Inn","lat":52.26696,"lon":1.57427,"postcode":"IP17 3AH","la":"East Suffolk","era":"trad","nn":220,"risk":45,"cat":"amber"},{"name":"Wilford Bridge Inn","lat":52.10353,"lon":1.34093,"postcode":"IP12 2PA","la":"East Suffolk","era":"trad","nn":658,"risk":33,"cat":"amber"},{"name":"Woodbridge Cruising Club","lat":52.0874,"lon":1.31591,"postcode":"IP12 4BB","la":"East Suffolk","era":"other","nn":0,"risk":24,"cat":"green"},{"name":"Woodbridge Royal British Legion Club","lat":52.09385,"lon":1.31966,"postcode":"IP12 1AH","la":"East Suffolk","era":"trad","nn":166,"risk":25,"cat":"green"},{"name":"Woodbridge Town FC","lat":52.08637,"lon":1.29325,"postcode":"IP12 4LS","la":"East Suffolk","era":"other","nn":1166,"risk":54,"cat":"amber"},{"name":"Ye Olde Bell And Steelyard","lat":52.0939,"lon":1.31632,"postcode":"IP12 1DZ","la":"East Suffolk","era":"mod","nn":42,"risk":24,"cat":"green"},{"name":"YouDrink","lat":52.34369,"lon":1.50251,"postcode":"IP19 8AH","la":"East Suffolk","era":"other","nn":14,"risk":26,"cat":"green"},{"name":"Belstead Arms Public House","lat":52.03888,"lon":1.11505,"postcode":"IP2 9QU","la":"Ipswich","era":"trad","nn":997,"risk":54,"cat":"amber"},{"name":"Black Horse Inn","lat":52.05779,"lon":1.14913,"postcode":"IP1 2EF","la":"Ipswich","era":"trad","nn":196,"risk":29,"cat":"green"},{"name":"Boom Battle Bar","lat":52.05652,"lon":1.15428,"postcode":"IP1 1DT","la":"Ipswich","era":"other","nn":33,"risk":27,"cat":"green"},{"name":"Brewers Arms Public House","lat":52.06159,"lon":1.14564,"postcode":"IP1 3NS","la":"Ipswich","era":"trad","nn":208,"risk":29,"cat":"green"},{"name":"Burgers Wings & Ribs","lat":52.05568,"lon":1.15274,"postcode":"IP1 1TH","la":"Ipswich","era":"other","nn":64,"risk":28,"cat":"green"},{"name":"California Social Club Ltd","lat":52.05282,"lon":1.18037,"postcode":"IP3 8LB","la":"Ipswich","era":"mod","nn":292,"risk":29,"cat":"green"},{"name":"Cock & Pye Public House","lat":52.05723,"lon":1.15646,"postcode":"IP4 1EG","la":"Ipswich","era":"other","nn":79,"risk":28,"cat":"green"},{"name":"Curve","lat":52.05577,"lon":1.14994,"postcode":"IP1 1RJ","la":"Ipswich","era":"other","nn":191,"risk":29,"cat":"green"},{"name":"Distilled Republik Ipswich Ltd","lat":52.05586,"lon":1.15651,"postcode":"IP4 1AY","la":"Ipswich","era":"other","nn":62,"risk":28,"cat":"green"},{"name":"Duke Of York","lat":52.05942,"lon":1.16931,"postcode":"IP4 2QP","la":"Ipswich","era":"trad","nn":452,"risk":30,"cat":"green"},{"name":"Earl Kitchener Public House","lat":52.05879,"lon":1.12946,"postcode":"IP2 0ER","la":"Ipswich","era":"mod","nn":418,"risk":48,"cat":"amber"},{"name":"Goals","lat":52.05486,"lon":1.16321,"postcode":"IP4 1LN","la":"Ipswich","era":"other","nn":179,"risk":29,"cat":"green"},{"name":"Ipswich Central Conservative Club","lat":52.05669,"lon":1.15571,"postcode":"IP1 1DR","la":"Ipswich","era":"other","nn":79,"risk":28,"cat":"green"},{"name":"Ipswich Masonic Hall Ltd","lat":52.05917,"lon":1.15746,"postcode":"IP4 2BG","la":"Ipswich","era":"trad","nn":104,"risk":28,"cat":"green"},{"name":"Isaacs","lat":52.05278,"lon":1.16016,"postcode":"IP4 1AS","la":"Ipswich","era":"other","nn":123,"risk":28,"cat":"green"},{"name":"Lord Nelson Public House","lat":52.05344,"lon":1.16159,"postcode":"IP4 1JZ","la":"Ipswich","era":"trad","nn":123,"risk":28,"cat":"green"},{"name":"Man on the Moon Public House","lat":52.08294,"lon":1.14527,"postcode":"IP1 6QX","la":"Ipswich","era":"other","nn":1212,"risk":58,"cat":"amber"},{"name":"Mannings","lat":52.05798,"lon":1.15202,"postcode":"IP1 1DD","la":"Ipswich","era":"other","nn":80,"risk":28,"cat":"green"},{"name":"Marlborough Bowling Club","lat":52.05522,"lon":1.17866,"postcode":"IP4 5AZ","la":"Ipswich","era":"other","nn":289,"risk":29,"cat":"green"},{"name":"Mr Martin Sadd","lat":52.05925,"lon":1.15595,"postcode":"IP1 3BY","la":"Ipswich","era":"other","nn":103,"risk":28,"cat":"green"},{"name":"Norbridge Social Club","lat":52.06981,"lon":1.13428,"postcode":"IP1 4HA","la":"Ipswich","era":"mod","nn":222,"risk":46,"cat":"amber"},{"name":"Pauls Sports Club","lat":52.04626,"lon":1.14059,"postcode":"IP2 9BA","la":"Ipswich","era":"other","nn":0,"risk":45,"cat":"amber"},{"name":"Revolution","lat":52.05637,"lon":1.15386,"postcode":"IP1 1AY","la":"Ipswich","era":"other","nn":33,"risk":27,"cat":"green"},{"name":"Rosary Conservative Club","lat":52.06389,"lon":1.1356,"postcode":"IP1 4AB","la":"Ipswich","era":"other","nn":635,"risk":32,"cat":"amber"},{"name":"Roundwood Bowling Club","lat":52.06088,"lon":1.18071,"postcode":"IP4 4HL","la":"Ipswich","era":"other","nn":278,"risk":29,"cat":"green"},{"name":"Royal George","lat":52.0693,"lon":1.18186,"postcode":"IP4 4SR","la":"Ipswich","era":"trad","nn":939,"risk":51,"cat":"amber"},{"name":"Sin","lat":52.05569,"lon":1.15443,"postcode":"IP4 1DX","la":"Ipswich","era":"other","nn":83,"risk":28,"cat":"green"},{"name":"St Judes Tavern","lat":52.05987,"lon":1.14686,"postcode":"IP1 3EW","la":"Ipswich","era":"other","nn":208,"risk":29,"cat":"green"},{"name":"Steamboat Tavern Public House","lat":52.04907,"lon":1.15889,"postcode":"IP2 8HW","la":"Ipswich","era":"other","nn":421,"risk":30,"cat":"green"},{"name":"Stone Lodge Bowls Club","lat":52.04626,"lon":1.14059,"postcode":"IP2 9BA","la":"Ipswich","era":"other","nn":0,"risk":45,"cat":"amber"},{"name":"The Arbor House","lat":52.0617,"lon":1.15128,"postcode":"IP1 3QL","la":"Ipswich","era":"other","nn":320,"risk":30,"cat":"green"},{"name":"The Case Is Altered Public House","lat":52.06177,"lon":1.17549,"postcode":"IP4 4ET","la":"Ipswich","era":"other","nn":370,"risk":30,"cat":"green"},{"name":"The County","lat":52.05708,"lon":1.1614,"postcode":"IP4 1HH","la":"Ipswich","era":"other","nn":168,"risk":28,"cat":"green"},{"name":"The Cricketers","lat":52.05968,"lon":1.15462,"postcode":"IP1 3JA","la":"Ipswich","era":"other","nn":103,"risk":28,"cat":"green"},{"name":"The Dove Street Inn","lat":52.05645,"lon":1.16363,"postcode":"IP4 2LA","la":"Ipswich","era":"trad","nn":86,"risk":28,"cat":"green"},{"name":"The Falcon","lat":52.05626,"lon":1.15279,"postcode":"IP1 1SH","la":"Ipswich","era":"other","nn":64,"risk":28,"cat":"green"},{"name":"The Flying Horse Public House","lat":52.07579,"lon":1.12027,"postcode":"IP1 5NW","la":"Ipswich","era":"trad","nn":434,"risk":48,"cat":"amber"},{"name":"The Gardeners Arms","lat":52.05144,"lon":1.16781,"postcode":"IP3 8AB","la":"Ipswich","era":"trad","nn":480,"risk":31,"cat":"amber"},{"name":"The Golden Hind Public House","lat":52.03624,"lon":1.19014,"postcode":"IP3 9NF","la":"Ipswich","era":"other","nn":979,"risk":52,"cat":"amber"},{"name":"The Harp Free House & Guest House","lat":52.05533,"lon":1.18288,"postcode":"IP4 5AS","la":"Ipswich","era":"mod","nn":289,"risk":29,"cat":"green"},{"name":"The Lattice Barn","lat":52.0605,"lon":1.19116,"postcode":"IP4 4NX","la":"Ipswich","era":"other","nn":560,"risk":36,"cat":"amber"},{"name":"The Meeting Place","lat":52.07917,"lon":1.12346,"postcode":"IP1 5LR","la":"Ipswich","era":"other","nn":434,"risk":50,"cat":"amber"},{"name":"The Mermaid Public House","lat":52.05818,"lon":1.13549,"postcode":"IP1 2EN","la":"Ipswich","era":"other","nn":418,"risk":30,"cat":"green"},{"name":"The Old Times Public House","lat":52.05897,"lon":1.18335,"postcode":"IP4 5NG","la":"Ipswich","era":"other","nn":278,"risk":29,"cat":"green"},{"name":"The Olde Dairy Farm Limited","lat":52.07286,"lon":1.15199,"postcode":"IP1 4NJ","la":"Ipswich","era":"other","nn":1212,"risk":58,"cat":"amber"},{"name":"The Plough Public House","lat":52.05587,"lon":1.15561,"postcode":"IP4 1AD","la":"Ipswich","era":"trad","nn":62,"risk":28,"cat":"green"},{"name":"The Raven","lat":52.02985,"lon":1.2001,"postcode":"IP3 9QJ","la":"Ipswich","era":"other","nn":157,"risk":46,"cat":"amber"},{"name":"The Salutation Public House","lat":52.05747,"lon":1.15892,"postcode":"IP4 1HB","la":"Ipswich","era":"other","nn":170,"risk":28,"cat":"green"},{"name":"The Smock Public House","lat":52.04205,"lon":1.14724,"postcode":"IP2 8PG","la":"Ipswich","era":"other","nn":653,"risk":49,"cat":"amber"},{"name":"The Spread Eagle Pub","lat":52.05537,"lon":1.15961,"postcode":"IP4 1JW","la":"Ipswich","era":"trad","nn":219,"risk":29,"cat":"green"},{"name":"The Suffolk Punch Pub","lat":52.07155,"lon":1.13269,"postcode":"IP1 5DN","la":"Ipswich","era":"other","nn":222,"risk":34,"cat":"amber"},{"name":"The Swan & Hedgehog Public House","lat":52.05726,"lon":1.15187,"postcode":"IP1 1EG","la":"Ipswich","era":"trad","nn":80,"risk":28,"cat":"green"},{"name":"The Thomas Wolsey Freehouse","lat":52.05429,"lon":1.15338,"postcode":"IP1 1XF","la":"Ipswich","era":"other","nn":161,"risk":28,"cat":"green"},{"name":"The Thrasher Public House","lat":52.03094,"lon":1.20156,"postcode":"IP3 9RZ","la":"Ipswich","era":"other","nn":157,"risk":46,"cat":"amber"},{"name":"The Water Lily Public House","lat":52.0564,"lon":1.16488,"postcode":"IP4 2LB","la":"Ipswich","era":"other","nn":86,"risk":28,"cat":"green"},{"name":"The Woolpack Inn Public House","lat":52.06233,"lon":1.16034,"postcode":"IP4 2SH","la":"Ipswich","era":"trad","nn":403,"risk":30,"cat":"green"},{"name":"Three Wise Monkeys","lat":52.05861,"lon":1.15338,"postcode":"IP1 3HD","la":"Ipswich","era":"trad","nn":117,"risk":28,"cat":"green"},{"name":"Chequers","lat":52.48831,"lon":0.52146,"postcode":"IP26 4AB","la":"King's Lynn and West Norfolk","era":"other","nn":231,"risk":45,"cat":"amber"},{"name":"Feltwell Social Club","lat":52.48535,"lon":0.52147,"postcode":"IP26 4BA","la":"King's Lynn and West Norfolk","era":"mod","nn":107,"risk":45,"cat":"amber"},{"name":"Hockwold Village Club","lat":52.46387,"lon":0.54673,"postcode":"IP26 4LN","la":"King's Lynn and West Norfolk","era":"other","nn":436,"risk":49,"cat":"amber"},{"name":"Northwold Sports & Social Club","lat":52.54057,"lon":0.58915,"postcode":"IP26 5NA","la":"King's Lynn and West Norfolk","era":"mod","nn":3062,"risk":70,"cat":"red"},{"name":"The George Public House","lat":52.52305,"lon":0.55422,"postcode":"IP26 4NT","la":"King's Lynn and West Norfolk","era":"trad","nn":2308,"risk":65,"cat":"red"},{"name":"The Green Man","lat":52.52381,"lon":0.52014,"postcode":"IP26 4QP","la":"King's Lynn and West Norfolk","era":"other","nn":2308,"risk":65,"cat":"red"},{"name":"The Red Lion","lat":52.46301,"lon":0.55302,"postcode":"IP26 4NB","la":"King's Lynn and West Norfolk","era":"trad","nn":436,"risk":49,"cat":"amber"},{"name":"The Wellington","lat":52.48626,"lon":0.522,"postcode":"IP26 4AF","la":"King's Lynn and West Norfolk","era":"trad","nn":107,"risk":45,"cat":"amber"},{"name":"Cross Keys Redgrave","lat":52.3618,"lon":1.00151,"postcode":"IP22 1RW","la":"Mid Suffolk","era":"trad","nn":2986,"risk":78,"cat":"red"},{"name":"Crowfield Rose","lat":52.18252,"lon":1.15831,"postcode":"IP6 9TE","la":"Mid Suffolk","era":"other","nn":4697,"risk":90,"cat":"red"},{"name":"Eye Bowls Club","lat":52.27404,"lon":1.21305,"postcode":"IP23 7HW","la":"Mid Suffolk","era":"other","nn":3284,"risk":80,"cat":"red"},{"name":"Fox and Hounds","lat":52.2506,"lon":0.80786,"postcode":"IP31 3QT","la":"Mid Suffolk","era":"trad","nn":1066,"risk":64,"cat":"red"},{"name":"Hot Frog Cafe & Bar","lat":52.33033,"lon":0.94956,"postcode":"IP22 1NR","la":"Mid Suffolk","era":"other","nn":3036,"risk":78,"cat":"red"},{"name":"Masonic Lodge","lat":52.19091,"lon":0.99125,"postcode":"IP14 1NQ","la":"Mid Suffolk","era":"trad","nn":348,"risk":37,"cat":"amber"},{"name":"Needham Market Bowls Club","lat":52.15436,"lon":1.04379,"postcode":"IP6 8BX","la":"Mid Suffolk","era":"other","nn":449,"risk":40,"cat":"amber"},{"name":"Punch Bowl Community Inn cic","lat":52.14996,"lon":0.95723,"postcode":"IP14 2LQ","la":"Mid Suffolk","era":"trad","nn":3536,"risk":82,"cat":"red"},{"name":"Queens Head","lat":52.18845,"lon":0.9959,"postcode":"IP14 1EF","la":"Mid Suffolk","era":"trad","nn":90,"risk":35,"cat":"amber"},{"name":"Railway Tavern","lat":52.32964,"lon":1.08084,"postcode":"IP23 8DU","la":"Mid Suffolk","era":"trad","nn":3901,"risk":84,"cat":"red"},{"name":"Royal William","lat":52.19058,"lon":0.99688,"postcode":"IP14 1HP","la":"Mid Suffolk","era":"trad","nn":101,"risk":35,"cat":"amber"},{"name":"Six Bells Inn","lat":52.30249,"lon":0.93112,"postcode":"IP31 3AH","la":"Mid Suffolk","era":"trad","nn":66,"risk":52,"cat":"amber"},{"name":"Somersham Sports & Social Club","lat":52.09645,"lon":1.04469,"postcode":"IP8 4PB","la":"Mid Suffolk","era":"mod","nn":300,"risk":57,"cat":"amber"},{"name":"Stowmarket Golf Club","lat":52.19046,"lon":0.93871,"postcode":"IP14 3DA","la":"Mid Suffolk","era":"other","nn":1149,"risk":65,"cat":"red"},{"name":"The Beaconsfield Arms","lat":52.2903,"lon":1.16178,"postcode":"IP23 7PN","la":"Mid Suffolk","era":"trad","nn":2101,"risk":72,"cat":"red"},{"name":"The Black Horse Inn","lat":52.2844,"lon":1.13243,"postcode":"IP23 7JR","la":"Mid Suffolk","era":"trad","nn":2101,"risk":72,"cat":"red"},{"name":"The Blue Boar","lat":52.30222,"lon":0.93199,"postcode":"IP31 3AA","la":"Mid Suffolk","era":"other","nn":66,"risk":52,"cat":"amber"},{"name":"The Bramdford Cock","lat":52.07805,"lon":1.09564,"postcode":"IP8 4ED","la":"Mid Suffolk","era":"trad","nn":1702,"risk":69,"cat":"red"},{"name":"The Brewers","lat":52.19308,"lon":0.89254,"postcode":"IP30 0RJ","la":"Mid Suffolk","era":"other","nn":96,"risk":55,"cat":"amber"},{"name":"The Bull Inn","lat":52.26292,"lon":1.00148,"postcode":"IP14 4LJ","la":"Mid Suffolk","era":"trad","nn":2667,"risk":76,"cat":"red"},{"name":"The Chestnut Horse","lat":52.18084,"lon":0.9449,"postcode":"IP14 3AT","la":"Mid Suffolk","era":"trad","nn":1149,"risk":65,"cat":"red"},{"name":"The Cross Keys Pub","lat":52.12767,"lon":1.14501,"postcode":"IP6 0QP","la":"Mid Suffolk","era":"trad","nn":3214,"risk":79,"cat":"red"},{"name":"The De La Pole Arms","lat":52.3447,"lon":1.27187,"postcode":"IP21 5RA","la":"Mid Suffolk","era":"trad","nn":2957,"risk":78,"cat":"red"},{"name":"The Duke of Marlborough","lat":52.09817,"lon":1.04131,"postcode":"IP8 4QA","la":"Mid Suffolk","era":"trad","nn":300,"risk":57,"cat":"amber"},{"name":"The Five Bells","lat":52.19351,"lon":0.89132,"postcode":"IP30 0RA","la":"Mid Suffolk","era":"other","nn":96,"risk":55,"cat":"amber"},{"name":"The Gardeners Arms","lat":52.23628,"lon":0.86276,"postcode":"IP30 9PA","la":"Mid Suffolk","era":"trad","nn":2181,"risk":72,"cat":"red"},{"name":"The Gladstone Arms","lat":52.18,"lon":0.99826,"postcode":"IP14 2AP","la":"Mid Suffolk","era":"trad","nn":50,"risk":40,"cat":"amber"},{"name":"The Highwayman","lat":52.15516,"lon":1.09012,"postcode":"IP6 8PD","la":"Mid Suffolk","era":"other","nn":2379,"risk":74,"cat":"red"},{"name":"The Kings  Arms Haughley","lat":52.22124,"lon":0.96583,"postcode":"IP14 3NT","la":"Mid Suffolk","era":"trad","nn":3791,"risk":83,"cat":"red"},{"name":"The Kings Head","lat":52.25087,"lon":1.08193,"postcode":"IP14 5SA","la":"Mid Suffolk","era":"trad","nn":2154,"risk":72,"cat":"red"},{"name":"The Limburners","lat":52.10313,"lon":1.02596,"postcode":"IP8 4SF","la":"Mid Suffolk","era":"other","nn":1184,"risk":65,"cat":"red"},{"name":"The Limes Bar & Hotel","lat":52.15491,"lon":1.0503,"postcode":"IP6 8DQ","la":"Mid Suffolk","era":"mod","nn":152,"risk":35,"cat":"amber"},{"name":"The Lion Inn","lat":52.14833,"lon":1.05708,"postcode":"IP6 8EH","la":"Mid Suffolk","era":"trad","nn":456,"risk":43,"cat":"amber"},{"name":"The Little Wellington","lat":52.19135,"lon":1.00019,"postcode":"IP14 5AG","la":"Mid Suffolk","era":"trad","nn":167,"risk":36,"cat":"amber"},{"name":"The Low House","lat":52.30245,"lon":1.36747,"postcode":"IP13 8DW","la":"Mid Suffolk","era":"other","nn":85,"risk":55,"cat":"amber"},{"name":"The Magpie Inn","lat":52.17989,"lon":0.99755,"postcode":"IP14 2AP","la":"Mid Suffolk","era":"trad","nn":50,"risk":40,"cat":"amber"},{"name":"The Pickerel Inn","lat":52.19038,"lon":0.99832,"postcode":"IP14 1EQ","la":"Mid Suffolk","era":"trad","nn":101,"risk":35,"cat":"amber"},{"name":"The Queens Head","lat":52.32082,"lon":1.14579,"postcode":"IP23 7AB","la":"Mid Suffolk","era":"trad","nn":3564,"risk":82,"cat":"red"},{"name":"The Rampant Horse Inn","lat":52.152,"lon":1.05411,"postcode":"IP6 8AU","la":"Mid Suffolk","era":"trad","nn":59,"risk":35,"cat":"amber"},{"name":"The Retreat","lat":52.19933,"lon":1.0218,"postcode":"IP14 4AG","la":"Mid Suffolk","era":"other","nn":1720,"risk":69,"cat":"red"},{"name":"The Royal Oak Laxfield","lat":52.30181,"lon":1.36678,"postcode":"IP13 8DH","la":"Mid Suffolk","era":"trad","nn":85,"risk":55,"cat":"amber"},{"name":"The Sir Alfred Munnings","lat":52.39758,"lon":1.33624,"postcode":"IP20 0NH","la":"Mid Suffolk","era":"other","nn":1805,"risk":70,"cat":"red"},{"name":"The Stag Tavern","lat":52.18923,"lon":0.99555,"postcode":"IP14 1HH","la":"Mid Suffolk","era":"trad","nn":90,"risk":35,"cat":"amber"},{"name":"The Swan","lat":52.15185,"lon":1.05329,"postcode":"IP6 8AL","la":"Mid Suffolk","era":"trad","nn":59,"risk":35,"cat":"amber"},{"name":"The Swan Inn","lat":52.35047,"lon":1.1998,"postcode":"IP21 5AS","la":"Mid Suffolk","era":"trad","nn":1884,"risk":70,"cat":"red"},{"name":"The White Hart","lat":52.31812,"lon":1.27356,"postcode":"IP21 5HT","la":"Mid Suffolk","era":"trad","nn":2957,"risk":78,"cat":"red"},{"name":"The White Horse","lat":52.28436,"lon":0.91746,"postcode":"IP31 3DP","la":"Mid Suffolk","era":"trad","nn":2218,"risk":72,"cat":"red"},{"name":"The White Horse","lat":52.28172,"lon":1.02582,"postcode":"IP14 4TL","la":"Mid Suffolk","era":"trad","nn":2667,"risk":76,"cat":"red"},{"name":"The Willow Tree","lat":52.18539,"lon":0.99938,"postcode":"IP14 1BB","la":"Mid Suffolk","era":"trad","nn":414,"risk":37,"cat":"amber"},{"name":"The Woolpack","lat":52.22363,"lon":1.18221,"postcode":"IP14 6QN","la":"Mid Suffolk","era":"trad","nn":182,"risk":56,"cat":"amber"},{"name":"Three Tuns","lat":52.15628,"lon":1.05012,"postcode":"IP6 8AA","la":"Mid Suffolk","era":"other","nn":152,"risk":38,"cat":"amber"},{"name":"Thurston Rugby Club","lat":52.25988,"lon":0.81173,"postcode":"IP31 3QE","la":"Mid Suffolk","era":"other","nn":1066,"risk":64,"cat":"red"},{"name":"Vanilla Bakehouse","lat":52.22519,"lon":1.18142,"postcode":"IP14 6QL","la":"Mid Suffolk","era":"other","nn":182,"risk":56,"cat":"amber"},{"name":"Walsham le Willows Sports Club","lat":52.30524,"lon":0.93192,"postcode":"IP31 3AH","la":"Mid Suffolk","era":"trad","nn":311,"risk":54,"cat":"amber"},{"name":"White Horse Inn","lat":52.23385,"lon":0.83098,"postcode":"IP30 9AB","la":"Mid Suffolk","era":"trad","nn":2181,"risk":72,"cat":"red"},{"name":"White Horse Inn","lat":52.29585,"lon":1.09634,"postcode":"IP23 7ET","la":"Mid Suffolk","era":"trad","nn":2765,"risk":76,"cat":"red"},{"name":"Worlingworth Swan","lat":52.26496,"lon":1.25898,"postcode":"IP13 7HZ","la":"Mid Suffolk","era":"trad","nn":3284,"risk":80,"cat":"red"},{"name":"Cock Oh Van","lat":52.37258,"lon":1.10082,"postcode":"IP22 4BE","la":"South Norfolk","era":"other","nn":0,"risk":30,"cat":"green"},{"name":"Dickleburgh And Rushall Village Centre","lat":52.39454,"lon":1.18826,"postcode":"IP21 4NL","la":"South Norfolk","era":"other","nn":2918,"risk":73,"cat":"red"},{"name":"Diss Town Football Club","lat":52.38034,"lon":1.09676,"postcode":"IP22 4QP","la":"South Norfolk","era":"other","nn":800,"risk":35,"cat":"amber"},{"name":"Greyhound","lat":52.37748,"lon":1.10758,"postcode":"IP22 4LB","la":"South Norfolk","era":"trad","nn":0,"risk":30,"cat":"green"},{"name":"Half Moon Inn","lat":52.39883,"lon":1.23069,"postcode":"IP21 4QD","la":"South Norfolk","era":"trad","nn":2918,"risk":73,"cat":"red"},{"name":"Pulham Market Bowls Club","lat":52.42955,"lon":1.23092,"postcode":"IP21 4SU","la":"South Norfolk","era":"other","nn":0,"risk":47,"cat":"amber"},{"name":"Scole Inn","lat":52.36586,"lon":1.15518,"postcode":"IP21 4DR","la":"South Norfolk","era":"trad","nn":71,"risk":50,"cat":"amber"},{"name":"Shotford Bowls Club","lat":52.39647,"lon":1.29719,"postcode":"IP20 9JL","la":"South Norfolk","era":"other","nn":750,"risk":55,"cat":"amber"},{"name":"The Burston Inn","lat":52.40558,"lon":1.14017,"postcode":"IP22 5TW","la":"South Norfolk","era":"trad","nn":3485,"risk":77,"cat":"red"},{"name":"The Cap","lat":52.40297,"lon":1.30012,"postcode":"IP20 9AS","la":"South Norfolk","era":"other","nn":750,"risk":55,"cat":"amber"},{"name":"The Cock Inn","lat":52.37258,"lon":1.10082,"postcode":"IP22 4BE","la":"South Norfolk","era":"trad","nn":0,"risk":30,"cat":"green"},{"name":"The Crossways Inn","lat":52.36533,"lon":1.15459,"postcode":"IP21 4DP","la":"South Norfolk","era":"trad","nn":71,"risk":50,"cat":"amber"},{"name":"The Crown Inn","lat":52.42843,"lon":1.23093,"postcode":"IP21 4TA","la":"South Norfolk","era":"trad","nn":125,"risk":48,"cat":"amber"},{"name":"The Dove Inn","lat":52.42385,"lon":1.35436,"postcode":"IP20 0EP","la":"South Norfolk","era":"trad","nn":654,"risk":54,"cat":"amber"},{"name":"The Falcon","lat":52.42956,"lon":1.23092,"postcode":"IP21 4SU","la":"South Norfolk","era":"other","nn":0,"risk":47,"cat":"amber"},{"name":"The Horseshoes Cafe Limited","lat":52.36318,"lon":1.18146,"postcode":"IP21 4HL","la":"South Norfolk","era":"trad","nn":1809,"risk":65,"cat":"red"},{"name":"The Old Kings Head","lat":52.37038,"lon":1.25099,"postcode":"IP21 4JY","la":"South Norfolk","era":"trad","nn":1891,"risk":65,"cat":"red"},{"name":"The Quarter Bar","lat":52.37748,"lon":1.10758,"postcode":"IP22 4LB","la":"South Norfolk","era":"mod","nn":0,"risk":30,"cat":"green"},{"name":"The Red Lion","lat":52.38333,"lon":1.26904,"postcode":"IP20 9LG","la":"South Norfolk","era":"trad","nn":1891,"risk":65,"cat":"red"},{"name":"The Saracens Head","lat":52.3789,"lon":1.11033,"postcode":"IP22 4QQ","la":"South Norfolk","era":"trad","nn":244,"risk":31,"cat":"amber"},{"name":"The Thatchers Needle","lat":52.37379,"lon":1.10315,"postcode":"IP22 4AS","la":"South Norfolk","era":"other","nn":208,"risk":31,"cat":"amber"},{"name":"The Waterfront Inn","lat":52.37518,"lon":1.10879,"postcode":"IP22 4AG","la":"South Norfolk","era":"trad","nn":268,"risk":32,"cat":"amber"},{"name":"Wortwell Bell","lat":52.41335,"lon":1.34255,"postcode":"IP20 0HH","la":"South Norfolk","era":"other","nn":1416,"risk":62,"cat":"red"},{"name":"3 kings","lat":52.27356,"lon":0.6893,"postcode":"IP28 6LA","la":"West Suffolk","era":"trad","nn":1618,"risk":60,"cat":"amber"},{"name":"Bennett Arms","lat":52.22143,"lon":0.80505,"postcode":"IP30 9LH","la":"West Suffolk","era":"trad","nn":2242,"risk":65,"cat":"red"},{"name":"Bird in the Hand","lat":52.37206,"lon":0.47799,"postcode":"IP28 8ES","la":"West Suffolk","era":"other","nn":673,"risk":51,"cat":"amber"},{"name":"Bury Bar Services Limited","lat":52.24643,"lon":0.69481,"postcode":"IP33 3RR","la":"West Suffolk","era":"mod","nn":751,"risk":52,"cat":"amber"},{"name":"Castle and crown","lat":52.26626,"lon":0.63076,"postcode":"IP28 6QU","la":"West Suffolk","era":"trad","nn":4038,"risk":77,"cat":"red"},{"name":"Dog and Partridge","lat":52.24177,"lon":0.71685,"postcode":"IP33 1QU","la":"West Suffolk","era":"other","nn":202,"risk":28,"cat":"green"},{"name":"Elveden Inn","lat":52.38594,"lon":0.6655,"postcode":"IP24 3TP","la":"West Suffolk","era":"trad","nn":5005,"risk":84,"cat":"red"},{"name":"Flintknappers","lat":52.44734,"lon":0.62414,"postcode":"IP27 0AA","la":"West Suffolk","era":"other","nn":138,"risk":48,"cat":"amber"},{"name":"Gusto Pronto Ltd","lat":52.30392,"lon":0.72017,"postcode":"IP31 1NG","la":"West Suffolk","era":"other","nn":3728,"risk":75,"cat":"red"},{"name":"Hunter Club","lat":52.24155,"lon":0.71228,"postcode":"IP33 1QF","la":"West Suffolk","era":"other","nn":83,"risk":27,"cat":"green"},{"name":"Judes Ferry","lat":52.34779,"lon":0.46095,"postcode":"IP28 8PT","la":"West Suffolk","era":"other","nn":2119,"risk":64,"cat":"red"},{"name":"Kings Arms","lat":52.24654,"lon":0.71358,"postcode":"IP33 1EB","la":"West Suffolk","era":"trad","nn":62,"risk":27,"cat":"green"},{"name":"Lipstick and Locks Bury St Edmunds Ltd","lat":52.24496,"lon":0.71457,"postcode":"IP33 1UN","la":"West Suffolk","era":"other","nn":122,"risk":27,"cat":"green"},{"name":"Macebearer","lat":52.23246,"lon":0.72093,"postcode":"IP33 2RH","la":"West Suffolk","era":"other","nn":1072,"risk":57,"cat":"amber"},{"name":"Martin Hatton","lat":52.3742,"lon":0.53,"postcode":"IP27 9BH","la":"West Suffolk","era":"other","nn":3015,"risk":70,"cat":"red"},{"name":"Mildenhall Cricket Club","lat":52.34357,"lon":0.50501,"postcode":"IP28 7JU","la":"West Suffolk","era":"other","nn":384,"risk":32,"cat":"amber"},{"name":"Mildenhall Social Club","lat":52.34176,"lon":0.51403,"postcode":"IP28 7HG","la":"West Suffolk","era":"mod","nn":88,"risk":27,"cat":"green"},{"name":"Mildenhall Town Football Club","lat":52.34253,"lon":0.51433,"postcode":"IP28 7HG","la":"West Suffolk","era":"other","nn":88,"risk":27,"cat":"green"},{"name":"Nethergate Brewery","lat":52.24513,"lon":0.71266,"postcode":"IP33 1BJ","la":"West Suffolk","era":"other","nn":107,"risk":27,"cat":"green"},{"name":"Pakenham Social Club","lat":52.27227,"lon":0.81991,"postcode":"IP31 2LE","la":"West Suffolk","era":"mod","nn":398,"risk":49,"cat":"amber"},{"name":"Pot Black Club","lat":52.24731,"lon":0.72333,"postcode":"IP33 1YQ","la":"West Suffolk","era":"other","nn":494,"risk":30,"cat":"green"},{"name":"Queens Bar and Grill","lat":52.24341,"lon":0.71556,"postcode":"IP33 1RG","la":"West Suffolk","era":"other","nn":137,"risk":28,"cat":"green"},{"name":"Six Bells Inn","lat":52.32694,"lon":0.85525,"postcode":"IP31 1AW","la":"West Suffolk","era":"trad","nn":354,"risk":49,"cat":"amber"},{"name":"Sneaky Links","lat":52.24641,"lon":0.71447,"postcode":"IP33 1EB","la":"West Suffolk","era":"other","nn":62,"risk":27,"cat":"green"},{"name":"SO Bar","lat":52.24398,"lon":0.71378,"postcode":"IP33 1NE","la":"West Suffolk","era":"other","nn":49,"risk":27,"cat":"green"},{"name":"Spread Eagle","lat":52.23913,"lon":0.70399,"postcode":"IP33 2DE","la":"West Suffolk","era":"trad","nn":255,"risk":28,"cat":"green"},{"name":"Station Hill Social Club","lat":52.25351,"lon":0.7132,"postcode":"IP32 6AD","la":"West Suffolk","era":"mod","nn":518,"risk":30,"cat":"green"},{"name":"The Barbers Arms Ltd","lat":52.3436,"lon":0.51066,"postcode":"IP28 7EF","la":"West Suffolk","era":"trad","nn":181,"risk":28,"cat":"green"},{"name":"The Beehive Inn","lat":52.21999,"lon":0.67157,"postcode":"IP29 5SN","la":"West Suffolk","era":"trad","nn":2609,"risk":67,"cat":"red"},{"name":"The Bell Inn","lat":52.33538,"lon":0.5215,"postcode":"IP28 6AJ","la":"West Suffolk","era":"trad","nn":289,"risk":34,"cat":"amber"},{"name":"The Bell Public House","lat":52.44846,"lon":0.62327,"postcode":"IP27 0AQ","la":"West Suffolk","era":"other","nn":138,"risk":48,"cat":"amber"},{"name":"The Brewers Tap","lat":52.41601,"lon":0.51909,"postcode":"IP27 9DS","la":"West Suffolk","era":"mod","nn":164,"risk":48,"cat":"amber"},{"name":"The Bull Freehouse","lat":52.31609,"lon":0.78077,"postcode":"IP31 1EW","la":"West Suffolk","era":"trad","nn":4033,"risk":77,"cat":"red"},{"name":"The Bull Inn","lat":52.33588,"lon":0.52567,"postcode":"IP28 6AA","la":"West Suffolk","era":"trad","nn":289,"risk":49,"cat":"amber"},{"name":"The Bunbury Arms","lat":52.27241,"lon":0.78294,"postcode":"IP31 2NX","la":"West Suffolk","era":"trad","nn":2404,"risk":66,"cat":"red"},{"name":"The Bushel","lat":52.24891,"lon":0.71199,"postcode":"IP33 1SN","la":"West Suffolk","era":"other","nn":237,"risk":28,"cat":"green"},{"name":"The Dove","lat":52.24085,"lon":0.70646,"postcode":"IP33 3JU","la":"West Suffolk","era":"other","nn":255,"risk":28,"cat":"green"},{"name":"The Dun Cow","lat":52.32848,"lon":0.8507,"postcode":"IP31 1AA","la":"West Suffolk","era":"other","nn":354,"risk":49,"cat":"amber"},{"name":"The Golden Boar Inn","lat":52.32119,"lon":0.44219,"postcode":"IP28 8HZ","la":"West Suffolk","era":"trad","nn":848,"risk":52,"cat":"amber"},{"name":"The Greengage","lat":52.25911,"lon":0.70291,"postcode":"IP32 6DE","la":"West Suffolk","era":"other","nn":616,"risk":48,"cat":"amber"},{"name":"The Greyhound","lat":52.20135,"lon":0.60842,"postcode":"IP29 5QS","la":"West Suffolk","era":"trad","nn":3372,"risk":73,"cat":"red"},{"name":"The Greyhound","lat":52.29962,"lon":0.83363,"postcode":"IP31 2HJ","la":"West Suffolk","era":"trad","nn":203,"risk":48,"cat":"amber"},{"name":"The Guinness Arms","lat":52.32565,"lon":0.59974,"postcode":"IP28 6PS","la":"West Suffolk","era":"trad","nn":3975,"risk":77,"cat":"red"},{"name":"The Gym","lat":52.24734,"lon":0.70963,"postcode":"IP33 3AA","la":"West Suffolk","era":"other","nn":237,"risk":28,"cat":"green"},{"name":"The Half Moon","lat":52.34472,"lon":0.52016,"postcode":"IP28 7HS","la":"West Suffolk","era":"other","nn":465,"risk":32,"cat":"amber"},{"name":"The Kings Head Public House","lat":52.3689,"lon":0.48644,"postcode":"IP28 8AE","la":"West Suffolk","era":"trad","nn":673,"risk":51,"cat":"amber"},{"name":"The Lodge bar ltd","lat":52.30542,"lon":0.49043,"postcode":"IP28 8TT","la":"West Suffolk","era":"mod","nn":3309,"risk":72,"cat":"red"},{"name":"The Maids Head","lat":52.34451,"lon":0.51288,"postcode":"IP28 7HN","la":"West Suffolk","era":"trad","nn":181,"risk":28,"cat":"green"},{"name":"The Manger","lat":52.17928,"lon":0.76513,"postcode":"IP30 0LW","la":"West Suffolk","era":"other","nn":857,"risk":53,"cat":"amber"},{"name":"The Masons Arms","lat":52.24394,"lon":0.71306,"postcode":"IP33 1NX","la":"West Suffolk","era":"trad","nn":0,"risk":27,"cat":"green"},{"name":"The Mill Inn","lat":52.36046,"lon":0.90388,"postcode":"IP22 2PD","la":"West Suffolk","era":"trad","nn":1228,"risk":58,"cat":"amber"},{"name":"The Moreton Hall Public House","lat":52.24486,"lon":0.74354,"postcode":"IP32 7EW","la":"West Suffolk","era":"other","nn":1403,"risk":59,"cat":"amber"},{"name":"The One Bull","lat":52.24554,"lon":0.71667,"postcode":"IP33 1UZ","la":"West Suffolk","era":"trad","nn":157,"risk":28,"cat":"green"},{"name":"The Pakenham Fox","lat":52.2696,"lon":0.82382,"postcode":"IP31 2JU","la":"West Suffolk","era":"trad","nn":398,"risk":49,"cat":"amber"},{"name":"The Pykkerell","lat":52.29796,"lon":0.83237,"postcode":"IP31 2HH","la":"West Suffolk","era":"other","nn":203,"risk":48,"cat":"amber"},{"name":"The Queens Head","lat":52.1471,"lon":0.62796,"postcode":"IP29 4NN","la":"West Suffolk","era":"trad","nn":5922,"risk":84,"cat":"red"},{"name":"The Red House","lat":52.17586,"lon":0.75388,"postcode":"IP29 4RR","la":"West Suffolk","era":"other","nn":857,"risk":53,"cat":"amber"},{"name":"The Royal George","lat":52.3544,"lon":0.88877,"postcode":"IP31 1DD","la":"West Suffolk","era":"trad","nn":1228,"risk":58,"cat":"amber"},{"name":"The Swan Inn","lat":52.364,"lon":0.87094,"postcode":"IP31 1DN","la":"West Suffolk","era":"trad","nn":1614,"risk":60,"cat":"amber"},{"name":"The Three Horseshoes","lat":52.24406,"lon":0.57984,"postcode":"IP29 5AP","la":"West Suffolk","era":"trad","nn":450,"risk":50,"cat":"amber"},{"name":"The Tollgate","lat":52.26074,"lon":0.71156,"postcode":"IP32 6AX","la":"West Suffolk","era":"other","nn":616,"risk":48,"cat":"amber"},{"name":"The Walnut Tree","lat":52.33492,"lon":0.48394,"postcode":"IP28 8RU","la":"West Suffolk","era":"other","nn":1725,"risk":61,"cat":"red"},{"name":"The Weeping Willow","lat":52.24249,"lon":0.58592,"postcode":"IP29 5AB","la":"West Suffolk","era":"trad","nn":450,"risk":50,"cat":"amber"},{"name":"The West Gate","lat":52.24229,"lon":0.71212,"postcode":"IP33 1QD","la":"West Suffolk","era":"other","nn":46,"risk":27,"cat":"green"},{"name":"The White Hart","lat":52.31626,"lon":0.54331,"postcode":"IP28 6SQ","la":"West Suffolk","era":"trad","nn":2489,"risk":66,"cat":"red"},{"name":"The White Horse","lat":52.36563,"lon":0.95798,"postcode":"IP22 1JN","la":"West Suffolk","era":"trad","nn":2986,"risk":70,"cat":"red"},{"name":"The White Horse.","lat":52.19375,"lon":0.66989,"postcode":"IP29 4SS","la":"West Suffolk","era":"trad","nn":2920,"risk":69,"cat":"red"},{"name":"The Woolpack","lat":52.27071,"lon":0.71261,"postcode":"IP31 1SW","la":"West Suffolk","era":"trad","nn":1112,"risk":57,"cat":"amber"},{"name":"Verve Bar & Restaurant","lat":52.24479,"lon":0.71119,"postcode":"IP33 1LA","la":"West Suffolk","era":"mod","nn":107,"risk":27,"cat":"green"},{"name":"Vespers Bar","lat":52.24225,"lon":0.71145,"postcode":"IP33 3PH","la":"West Suffolk","era":"other","nn":46,"risk":27,"cat":"green"},{"name":"WEST END HOME GUARD CLUB","lat":52.23995,"lon":0.69169,"postcode":"IP33 3UB","la":"West Suffolk","era":"other","nn":751,"risk":49,"cat":"amber"},{"name":"Whitings Bar Ltd","lat":52.24394,"lon":0.71306,"postcode":"IP33 1NX","la":"West Suffolk","era":"mod","nn":0,"risk":27,"cat":"green"},{"name":"Wok N Rock","lat":52.41502,"lon":0.52088,"postcode":"IP27 9DT","la":"West Suffolk","era":"other","nn":164,"risk":48,"cat":"amber"}]