[{"name":"33 The Rum Bar","lat":51.90438,"lon":-2.06813,"postcode":"GL52 2PP","la":"Cheltenham","era":"other","nn":54,"risk":26,"cat":"green"},{"name":"Adam And Eve Cheltenham","lat":51.90635,"lon":-2.08469,"postcode":"GL51 9HD","la":"Cheltenham","era":"other","nn":444,"risk":28,"cat":"green"},{"name":"Albion House Social Club","lat":51.90181,"lon":-2.07457,"postcode":"GL50 4DJ","la":"Cheltenham","era":"mod","nn":91,"risk":26,"cat":"green"},{"name":"All Bar One","lat":51.89576,"lon":-2.08203,"postcode":"GL50 1SD","la":"Cheltenham","era":"mod","nn":0,"risk":25,"cat":"green"},{"name":"Bank House","lat":51.90117,"lon":-2.07562,"postcode":"GL50 3JL","la":"Cheltenham","era":"other","nn":24,"risk":26,"cat":"green"},{"name":"Beefeater Grill","lat":51.91902,"lon":-2.11176,"postcode":"GL51 9SL","la":"Tewkesbury","era":"other","nn":1193,"risk":63,"cat":"red"},{"name":"Bell Inn","lat":51.8959,"lon":-2.07444,"postcode":"GL53 7JT","la":"Cheltenham","era":"trad","nn":0,"risk":25,"cat":"green"},{"name":"Bentleys Bar","lat":51.89874,"lon":-2.0725,"postcode":"GL50 1EG","la":"Cheltenham","era":"other","nn":0,"risk":25,"cat":"green"},{"name":"Charlton Kings Club And Institute","lat":51.88295,"lon":-2.05111,"postcode":"GL53 8AP","la":"Cheltenham","era":"trad","nn":168,"risk":32,"cat":"amber"},{"name":"Cheltenham Bowling Club","lat":51.89277,"lon":-2.08207,"postcode":"GL50 2DX","la":"Cheltenham","era":"other","nn":162,"risk":26,"cat":"green"},{"name":"Cheltenham Bridge Club","lat":51.89127,"lon":-2.08549,"postcode":"GL50 2TG","la":"Cheltenham","era":"other","nn":120,"risk":26,"cat":"green"},{"name":"Cheltenham Cricket Club","lat":51.89843,"lon":-2.0629,"postcode":"GL52 6BE","la":"Cheltenham","era":"other","nn":483,"risk":29,"cat":"green"},{"name":"Cheltenham Motor Club","lat":51.8924,"lon":-2.06181,"postcode":"GL52 6SA","la":"Cheltenham","era":"other","nn":619,"risk":30,"cat":"green"},{"name":"Cheltenham Spa Bowling Club","lat":51.9022,"lon":-2.07924,"postcode":"GL50 3LJ","la":"Cheltenham","era":"other","nn":29,"risk":26,"cat":"green"},{"name":"Cheltenham Whaddon Bowling Club","lat":51.90627,"lon":-2.0602,"postcode":"GL52 5NA","la":"Cheltenham","era":"other","nn":152,"risk":26,"cat":"green"},{"name":"Circus Bar","lat":51.89663,"lon":-2.08101,"postcode":"GL50 1RX","la":"Cheltenham","era":"other","nn":35,"risk":26,"cat":"green"},{"name":"Coco","lat":51.89941,"lon":-2.07535,"postcode":"GL50 1HE","la":"Cheltenham","era":"other","nn":0,"risk":25,"cat":"green"},{"name":"Copa Of Cheltenham","lat":51.90026,"lon":-2.07473,"postcode":"GL50 1HA","la":"Cheltenham","era":"other","nn":97,"risk":26,"cat":"green"},{"name":"Cotswold Inn","lat":51.90191,"lon":-2.07291,"postcode":"GL52 2NZ","la":"Cheltenham","era":"trad","nn":34,"risk":26,"cat":"green"},{"name":"D'Arcy Wine Merchants Ltd","lat":51.90934,"lon":-2.09938,"postcode":"GL51 8LP","la":"Cheltenham","era":"mod","nn":593,"risk":50,"cat":"amber"},{"name":"Dilliwalas At The Swan","lat":51.89762,"lon":-2.07046,"postcode":"GL50 1DY","la":"Cheltenham","era":"trad","nn":10,"risk":25,"cat":"green"},{"name":"East Gloucestershire Club","lat":51.88642,"lon":-2.06867,"postcode":"GL53 7DF","la":"Cheltenham","era":"other","nn":798,"risk":31,"cat":"amber"},{"name":"Exmouth Arms","lat":51.88946,"lon":-2.07934,"postcode":"GL53 7LX","la":"Cheltenham","era":"trad","nn":212,"risk":27,"cat":"green"},{"name":"Flight Club Cheltenham","lat":51.90332,"lon":-2.07643,"postcode":"GL50 4FA","la":"Cheltenham","era":"other","nn":164,"risk":27,"cat":"green"},{"name":"FOUR CATS","lat":51.89961,"lon":-2.07971,"postcode":"GL50 3DN","la":"Cheltenham","era":"other","nn":43,"risk":26,"cat":"green"},{"name":"Fox And Cougar","lat":51.89894,"lon":-2.07649,"postcode":"GL50 1HR","la":"Cheltenham","era":"trad","nn":84,"risk":26,"cat":"green"},{"name":"Frog And Fiddle","lat":51.90339,"lon":-2.07936,"postcode":"GL50 3HW","la":"Cheltenham","era":"other","nn":57,"risk":26,"cat":"green"},{"name":"Harry Cook Freehouse","lat":51.89576,"lon":-2.08203,"postcode":"GL50 1SD","la":"Cheltenham","era":"other","nn":0,"risk":25,"cat":"green"},{"name":"Home And Botanic","lat":51.89905,"lon":-2.0801,"postcode":"GL50 3DT","la":"Cheltenham","era":"other","nn":29,"risk":26,"cat":"green"},{"name":"Imperial Haus","lat":51.89795,"lon":-2.07772,"postcode":"GL50 1PT","la":"Cheltenham","era":"other","nn":114,"risk":26,"cat":"green"},{"name":"Jolly Brewmaster","lat":51.89119,"lon":-2.08252,"postcode":"GL50 2EZ","la":"Cheltenham","era":"other","nn":179,"risk":27,"cat":"green"},{"name":"Kapook Ngein","lat":51.8979,"lon":-2.07078,"postcode":"GL50 1DX","la":"Cheltenham","era":"other","nn":0,"risk":25,"cat":"green"},{"name":"London Inn","lat":51.88893,"lon":-2.05475,"postcode":"GL52 6HU","la":"Cheltenham","era":"trad","nn":619,"risk":32,"cat":"amber"},{"name":"Lounge 72","lat":51.89874,"lon":-2.0725,"postcode":"GL50 1EG","la":"Cheltenham","era":"mod","nn":0,"risk":25,"cat":"green"},{"name":"Moon Under Water","lat":51.89785,"lon":-2.07189,"postcode":"GL53 7HA","la":"Cheltenham","era":"other","nn":52,"risk":26,"cat":"green"},{"name":"National Hunt","lat":51.89493,"lon":-2.11821,"postcode":"GL51 6AF","la":"Cheltenham","era":"other","nn":945,"risk":52,"cat":"amber"},{"name":"New Club","lat":51.89367,"lon":-2.07783,"postcode":"GL50 1UD","la":"Cheltenham","era":"other","nn":158,"risk":26,"cat":"green"},{"name":"Norwood Arms","lat":51.88646,"lon":-2.08058,"postcode":"GL53 0AX","la":"Cheltenham","era":"trad","nn":132,"risk":26,"cat":"green"},{"name":"Parklands Community Centre","lat":51.90631,"lon":-2.05798,"postcode":"GL52 5PR","la":"Cheltenham","era":"other","nn":152,"risk":26,"cat":"green"},{"name":"Patesians Sports And Social Club Ltd.","lat":51.8774,"lon":-2.06913,"postcode":"GL53 9LG","la":"Cheltenham","era":"mod","nn":319,"risk":48,"cat":"amber"},{"name":"Pieminister At The Sudeley Arms","lat":51.90404,"lon":-2.06927,"postcode":"GL52 2PN","la":"Cheltenham","era":"trad","nn":0,"risk":25,"cat":"green"},{"name":"Planet Caravan Ltd","lat":51.89789,"lon":-2.07264,"postcode":"GL50 1YA","la":"Cheltenham","era":"other","nn":52,"risk":26,"cat":"green"},{"name":"Popworld","lat":51.89946,"lon":-2.07529,"postcode":"GL50 1HE","la":"Cheltenham","era":"other","nn":0,"risk":25,"cat":"green"},{"name":"Prezzo","lat":51.89785,"lon":-2.07938,"postcode":"GL50 1NW","la":"Cheltenham","era":"other","nn":0,"risk":25,"cat":"green"},{"name":"Regal Cuisine At The Masonic Hall","lat":51.90215,"lon":-2.07321,"postcode":"GL52 2PB","la":"Cheltenham","era":"trad","nn":26,"risk":26,"cat":"green"},{"name":"Revolution Cheltenham","lat":51.90041,"lon":-2.07733,"postcode":"GL50 3PA","la":"Cheltenham","era":"other","nn":36,"risk":26,"cat":"green"},{"name":"Rouge","lat":51.89946,"lon":-2.07529,"postcode":"GL50 1HE","la":"Cheltenham","era":"other","nn":0,"risk":25,"cat":"green"},{"name":"Roxy Lanes Cheltenham","lat":51.89913,"lon":-2.07196,"postcode":"GL50 1DP","la":"Cheltenham","era":"other","nn":58,"risk":26,"cat":"green"},{"name":"Sandford Park Alehouse","lat":51.89677,"lon":-2.06998,"postcode":"GL50 1DZ","la":"Cheltenham","era":"other","nn":92,"risk":26,"cat":"green"},{"name":"Somerset Arms","lat":51.8852,"lon":-2.0828,"postcode":"GL53 0EH","la":"Cheltenham","era":"trad","nn":207,"risk":27,"cat":"green"},{"name":"St. Georges Vaults","lat":51.9022,"lon":-2.07799,"postcode":"GL50 3LA","la":"Cheltenham","era":"trad","nn":86,"risk":26,"cat":"green"},{"name":"Steeplechase Distillery Ltd","lat":51.89636,"lon":-2.08127,"postcode":"GL50 1SU","la":"Cheltenham","era":"other","nn":35,"risk":26,"cat":"green"},{"name":"Sudeley Arms Cheltenham","lat":51.90404,"lon":-2.06927,"postcode":"GL52 2PN","la":"Cheltenham","era":"trad","nn":0,"risk":25,"cat":"green"},{"name":"Tailors Eating House","lat":51.8988,"lon":-2.07374,"postcode":"GL50 1JS","la":"Cheltenham","era":"other","nn":68,"risk":26,"cat":"green"},{"name":"The Airs And Graces Pub Ltd","lat":51.90418,"lon":-2.06884,"postcode":"GL52 2PN","la":"Cheltenham","era":"other","nn":33,"risk":26,"cat":"green"},{"name":"The Apartment","lat":51.89859,"lon":-2.07281,"postcode":"GL50 1YE","la":"Cheltenham","era":"other","nn":26,"risk":26,"cat":"green"},{"name":"The Bath Tavern","lat":51.8959,"lon":-2.07444,"postcode":"GL53 7JT","la":"Cheltenham","era":"other","nn":0,"risk":25,"cat":"green"},{"name":"The Bayshill","lat":51.89981,"lon":-2.08028,"postcode":"GL50 3PP","la":"Cheltenham","era":"other","nn":0,"risk":25,"cat":"green"},{"name":"The Bayshill Inn","lat":51.89981,"lon":-2.08028,"postcode":"GL50 3PP","la":"Cheltenham","era":"trad","nn":0,"risk":25,"cat":"green"},{"name":"The Beehive Inn Prestbury","lat":51.90998,"lon":-2.04615,"postcode":"GL52 5JB","la":"Cheltenham","era":"trad","nn":583,"risk":34,"cat":"amber"},{"name":"The Bottle Of Sauce Ltd","lat":51.90194,"lon":-2.07918,"postcode":"GL50 3LH","la":"Cheltenham","era":"other","nn":29,"risk":26,"cat":"green"},{"name":"The Brown Jug","lat":51.88762,"lon":-2.08014,"postcode":"GL53 7NB","la":"Cheltenham","era":"other","nn":132,"risk":26,"cat":"green"},{"name":"The Clock Tower","lat":51.8747,"lon":-2.0528,"postcode":"GL53 8DY","la":"Cheltenham","era":"other","nn":811,"risk":49,"cat":"amber"},{"name":"The Feathered Fish","lat":51.9031,"lon":-2.07103,"postcode":"GL52 2NW","la":"Cheltenham","era":"other","nn":159,"risk":26,"cat":"green"},{"name":"The Grape Escape","lat":51.89933,"lon":-2.07545,"postcode":"GL50 1HE","la":"Cheltenham","era":"other","nn":11,"risk":25,"cat":"green"},{"name":"The Greatfield","lat":51.88058,"lon":-2.10789,"postcode":"GL51 3BW","la":"Cheltenham","era":"other","nn":1042,"risk":55,"cat":"amber"},{"name":"The Hatherley","lat":51.88648,"lon":-2.11967,"postcode":"GL51 6HT","la":"Cheltenham","era":"other","nn":945,"risk":52,"cat":"amber"},{"name":"The Hewlett","lat":51.90065,"lon":-2.0522,"postcode":"GL52 6QG","la":"Cheltenham","era":"other","nn":743,"risk":33,"cat":"amber"},{"name":"The Kemble","lat":51.90217,"lon":-2.06645,"postcode":"GL52 2JF","la":"Cheltenham","era":"other","nn":271,"risk":27,"cat":"green"},{"name":"The Kings Arms","lat":51.90136,"lon":-2.09211,"postcode":"GL51 8NB","la":"Cheltenham","era":"trad","nn":601,"risk":30,"cat":"green"},{"name":"The Lansdown","lat":51.89393,"lon":-2.08996,"postcode":"GL50 2LG","la":"Cheltenham","era":"other","nn":309,"risk":28,"cat":"green"},{"name":"The Old Restoration","lat":51.8979,"lon":-2.07079,"postcode":"GL50 1DX","la":"Cheltenham","era":"other","nn":0,"risk":25,"cat":"green"},{"name":"The Plough Inn","lat":51.91519,"lon":-2.0452,"postcode":"GL52 3BG","la":"Cheltenham","era":"trad","nn":270,"risk":45,"cat":"amber"},{"name":"The Railway","lat":51.90257,"lon":-2.08262,"postcode":"GL50 3QL","la":"Cheltenham","era":"trad","nn":186,"risk":27,"cat":"green"},{"name":"The Retreat","lat":51.89286,"lon":-2.07972,"postcode":"GL50 2AB","la":"Cheltenham","era":"other","nn":151,"risk":26,"cat":"green"},{"name":"The Ridge","lat":51.91628,"lon":-2.08685,"postcode":"GL50 4RA","la":"Cheltenham","era":"other","nn":1113,"risk":56,"cat":"amber"},{"name":"The Rotunda Tavern","lat":51.89496,"lon":-2.08287,"postcode":"GL50 1SX","la":"Cheltenham","era":"other","nn":106,"risk":26,"cat":"green"},{"name":"The Royal Hotel","lat":51.88199,"lon":-2.05299,"postcode":"GL53 8JH","la":"Cheltenham","era":"trad","nn":168,"risk":32,"cat":"amber"},{"name":"The Royal Oak","lat":51.91534,"lon":-2.04913,"postcode":"GL52 3DL","la":"Cheltenham","era":"trad","nn":270,"risk":45,"cat":"amber"},{"name":"The Spectre","lat":51.90324,"lon":-2.08014,"postcode":"GL50 3JF","la":"Cheltenham","era":"other","nn":57,"risk":26,"cat":"green"},{"name":"The Steam And Whistle","lat":51.89847,"lon":-2.0995,"postcode":"GL51 8NL","la":"Cheltenham","era":"other","nn":601,"risk":47,"cat":"amber"},{"name":"The Suffolk Arms","lat":51.8915,"lon":-2.07983,"postcode":"GL50 2AQ","la":"Cheltenham","era":"trad","nn":151,"risk":26,"cat":"green"},{"name":"The Swan","lat":51.89757,"lon":-2.07034,"postcode":"GL50 1DY","la":"Cheltenham","era":"trad","nn":10,"risk":25,"cat":"green"},{"name":"The Tavern","lat":51.89923,"lon":-2.0798,"postcode":"GL50 3DN","la":"Cheltenham","era":"other","nn":29,"risk":26,"cat":"green"},{"name":"The Tivoli","lat":51.89213,"lon":-2.08654,"postcode":"GL50 2TJ","la":"Cheltenham","era":"other","nn":120,"risk":26,"cat":"green"},{"name":"The Two Pigs","lat":51.90122,"lon":-2.07597,"postcode":"GL50 3HA","la":"Cheltenham","era":"other","nn":24,"risk":26,"cat":"green"},{"name":"The Umbrella","lat":51.90855,"lon":-2.10794,"postcode":"GL51 7LD","la":"Cheltenham","era":"other","nn":593,"risk":50,"cat":"amber"},{"name":"The Urban Fox","lat":51.89576,"lon":-2.08203,"postcode":"GL50 1SD","la":"Cheltenham","era":"trad","nn":0,"risk":25,"cat":"green"},{"name":"The Victory Club","lat":51.89393,"lon":-2.08381,"postcode":"GL50 2QJ","la":"Cheltenham","era":"other","nn":132,"risk":26,"cat":"green"},{"name":"The Wheatsheaf","lat":51.87584,"lon":-2.07302,"postcode":"GL53 9AJ","la":"Cheltenham","era":"trad","nn":319,"risk":48,"cat":"amber"},{"name":"Under The Prom","lat":51.89785,"lon":-2.07937,"postcode":"GL50 1NW","la":"Cheltenham","era":"other","nn":0,"risk":25,"cat":"green"},{"name":"United Services Club (Nibley House) Ltd","lat":51.9023,"lon":-2.07351,"postcode":"GL50 4DW","la":"Cheltenham","era":"other","nn":26,"risk":26,"cat":"green"},{"name":"Whittle Taps/ Burrito Bandits/ 88th Street Burger/ Sin City","lat":51.89941,"lon":-2.07535,"postcode":"GL50 1HE","la":"Cheltenham","era":"mod","nn":0,"risk":25,"cat":"green"},{"name":"Yates","lat":51.90033,"lon":-2.07784,"postcode":"GL50 3PE","la":"Cheltenham","era":"other","nn":36,"risk":26,"cat":"green"},{"name":"Ask","lat":51.99033,"lon":-1.70291,"postcode":"GL56 0AX","la":"Cotswold","era":"other","nn":0,"risk":27,"cat":"green"},{"name":"Avening Social Club","lat":51.68157,"lon":-2.176,"postcode":"GL8 8NG","la":"Cotswold","era":"mod","nn":188,"risk":46,"cat":"amber"},{"name":"Bathurst Arms","lat":51.77075,"lon":-1.97208,"postcode":"GL7 7BZ","la":"Cotswold","era":"trad","nn":4219,"risk":79,"cat":"red"},{"name":"Bibury Football Club","lat":51.76287,"lon":-1.82618,"postcode":"GL7 5PA","la":"Cotswold","era":"other","nn":1190,"risk":58,"cat":"amber"},{"name":"Bourton Rovers Football And Social Club","lat":51.88305,"lon":-1.7538,"postcode":"GL54 2AY","la":"Cotswold","era":"mod","nn":126,"risk":45,"cat":"amber"},{"name":"Butchers Arms","lat":52.09049,"lon":-1.76912,"postcode":"GL55 6SD","la":"Cotswold","era":"trad","nn":4018,"risk":78,"cat":"red"},{"name":"Cheeky Swine @ The Bees Knees","lat":51.70877,"lon":-1.95794,"postcode":"GL7 1LF","la":"Cotswold","era":"other","nn":778,"risk":38,"cat":"amber"},{"name":"Chipping Campden Bowling Club","lat":52.05336,"lon":-1.7653,"postcode":"GL55 6JT","la":"Cotswold","era":"other","nn":398,"risk":47,"cat":"amber"},{"name":"Chipping Campden Cricket Club","lat":52.05479,"lon":-1.75998,"postcode":"GL55 6LB","la":"Cotswold","era":"other","nn":398,"risk":50,"cat":"amber"},{"name":"Cirencester Bowling Club Limited","lat":51.71484,"lon":-1.96922,"postcode":"GL7 1QX","la":"Cotswold","era":"other","nn":0,"risk":27,"cat":"green"},{"name":"Cirencester Rugby Club","lat":51.76417,"lon":-2.16174,"postcode":"GL7 7BA","la":"Cotswold","era":"other","nn":0,"risk":45,"cat":"amber"},{"name":"Cirencester Town Football Club","lat":51.7169,"lon":-1.94434,"postcode":"GL7 1HS","la":"Cotswold","era":"other","nn":1219,"risk":58,"cat":"amber"},{"name":"Colesbourne Inn","lat":51.81978,"lon":-2.00381,"postcode":"GL53 9NP","la":"Cotswold","era":"trad","nn":2456,"risk":67,"cat":"red"},{"name":"Didmarton Village Hall","lat":51.58517,"lon":-2.26214,"postcode":"GL9 1DT","la":"Cotswold","era":"other","nn":0,"risk":47,"cat":"amber"},{"name":"Down Ampney Football Club","lat":51.67795,"lon":-1.85382,"postcode":"GL7 5QX","la":"Cotswold","era":"other","nn":2647,"risk":68,"cat":"red"},{"name":"Duke Of Wellington","lat":51.88409,"lon":-1.75947,"postcode":"GL54 2BY","la":"Cotswold","era":"trad","nn":281,"risk":47,"cat":"amber"},{"name":"Ebrington Arms","lat":52.05802,"lon":-1.73191,"postcode":"GL55 6NH","la":"Cotswold","era":"trad","nn":1952,"risk":63,"cat":"red"},{"name":"Edgeworth Polo Club","lat":51.75033,"lon":-2.08621,"postcode":"GL6 7JF","la":"Cotswold","era":"other","nn":2645,"risk":68,"cat":"red"},{"name":"Eight Bells","lat":51.70658,"lon":-1.77402,"postcode":"GL7 4AP","la":"Cotswold","era":"other","nn":0,"risk":30,"cat":"green"},{"name":"Fairford Bowling Club","lat":51.70658,"lon":-1.77402,"postcode":"GL7 4AP","la":"Cotswold","era":"other","nn":0,"risk":30,"cat":"green"},{"name":"Fairford Football Club - Spikes Diner","lat":51.70875,"lon":-1.76792,"postcode":"GL7 4AX","la":"Cotswold","era":"other","nn":403,"risk":32,"cat":"amber"},{"name":"Horse And Groom Inn","lat":51.92891,"lon":-1.6785,"postcode":"GL56 0XH","la":"Cotswold","era":"trad","nn":561,"risk":51,"cat":"amber"},{"name":"Jubilee 77 Social Club","lat":51.71484,"lon":-1.96922,"postcode":"GL7 1QX","la":"Cotswold","era":"mod","nn":0,"risk":27,"cat":"green"},{"name":"Keepers Arms","lat":51.73607,"lon":-1.78877,"postcode":"GL7 5BL","la":"Cotswold","era":"trad","nn":3195,"risk":72,"cat":"red"},{"name":"Kings Arms","lat":51.58517,"lon":-2.26214,"postcode":"GL9 1DT","la":"Cotswold","era":"trad","nn":0,"risk":47,"cat":"amber"},{"name":"Mad Hatter Wine Bar","lat":51.71643,"lon":-1.97061,"postcode":"GL7 1QH","la":"Cotswold","era":"other","nn":0,"risk":27,"cat":"green"},{"name":"Moreton In Marsh Bowling Club","lat":51.9859,"lon":-1.70648,"postcode":"GL56 0EF","la":"Cotswold","era":"other","nn":343,"risk":29,"cat":"green"},{"name":"Moreton In Marsh Cricket Club","lat":51.99355,"lon":-1.70216,"postcode":"GL56 0AB","la":"Cotswold","era":"other","nn":261,"risk":29,"cat":"green"},{"name":"Moreton In Marsh Womens Institute","lat":51.99121,"lon":-1.70183,"postcode":"GL56 0AS","la":"Cotswold","era":"other","nn":122,"risk":28,"cat":"green"},{"name":"New Inn Hotel","lat":51.69394,"lon":-1.69099,"postcode":"GL7 3AB","la":"Cotswold","era":"trad","nn":112,"risk":30,"cat":"green"},{"name":"Plough Inn At Ford","lat":51.96276,"lon":-1.87442,"postcode":"GL54 5RU","la":"Cotswold","era":"trad","nn":2806,"risk":69,"cat":"red"},{"name":"Porters Bar","lat":51.71643,"lon":-1.97061,"postcode":"GL7 1QH","la":"Cotswold","era":"other","nn":0,"risk":27,"cat":"green"},{"name":"Poulton Cricket Club","lat":51.70604,"lon":-1.85642,"postcode":"GL7 5HR","la":"Cotswold","era":"other","nn":306,"risk":49,"cat":"amber"},{"name":"Reva","lat":51.71622,"lon":-1.96816,"postcode":"GL7 1JH","la":"Cotswold","era":"other","nn":118,"risk":28,"cat":"green"},{"name":"Seventeen Black","lat":51.71624,"lon":-1.97003,"postcode":"GL7 1QD","la":"Cotswold","era":"other","nn":0,"risk":27,"cat":"green"},{"name":"Somewhere Else","lat":51.71624,"lon":-1.97003,"postcode":"GL7 1QD","la":"Cotswold","era":"other","nn":0,"risk":27,"cat":"green"},{"name":"Stow On The Wold Social Club","lat":51.9309,"lon":-1.7202,"postcode":"GL54 1DE","la":"Cotswold","era":"mod","nn":161,"risk":31,"cat":"amber"},{"name":"Stow Rugby Football Club","lat":51.92995,"lon":-1.6865,"postcode":"GL54 1JJ","la":"Cotswold","era":"other","nn":561,"risk":51,"cat":"amber"},{"name":"Swan Inn","lat":51.98857,"lon":-1.70394,"postcode":"GL56 0LL","la":"Cotswold","era":"trad","nn":209,"risk":29,"cat":"green"},{"name":"Talbot Inn","lat":51.71534,"lon":-1.96185,"postcode":"GL7 1EN","la":"Cotswold","era":"trad","nn":230,"risk":29,"cat":"green"},{"name":"Tavern Inn","lat":51.67599,"lon":-2.02386,"postcode":"GL7 6AX","la":"Cotswold","era":"trad","nn":1624,"risk":61,"cat":"red"},{"name":"TAYCT - The People's Pod","lat":51.63868,"lon":-2.16332,"postcode":"GL8 8DS","la":"Cotswold","era":"other","nn":0,"risk":27,"cat":"green"},{"name":"Tetbury Rugby Club","lat":51.64014,"lon":-2.16262,"postcode":"GL8 8JN","la":"Cotswold","era":"other","nn":119,"risk":28,"cat":"green"},{"name":"Tetbury Town Football Club","lat":51.63868,"lon":-2.16332,"postcode":"GL8 8DS","la":"Cotswold","era":"other","nn":0,"risk":27,"cat":"green"},{"name":"Tetbury United Service Club Limited","lat":51.63732,"lon":-2.15931,"postcode":"GL8 8ES","la":"Cotswold","era":"other","nn":315,"risk":29,"cat":"green"},{"name":"Thames Head","lat":51.69053,"lon":-2.02184,"postcode":"GL7 6NZ","la":"Cotswold","era":"trad","nn":1624,"risk":61,"cat":"red"},{"name":"The Bear Inn","lat":51.7162,"lon":-1.96489,"postcode":"GL7 2PF","la":"Cotswold","era":"trad","nn":179,"risk":28,"cat":"green"},{"name":"The Bell","lat":51.68065,"lon":-2.17371,"postcode":"GL8 8NF","la":"Cotswold","era":"other","nn":188,"risk":46,"cat":"amber"},{"name":"The Bell","lat":51.72731,"lon":-2.07651,"postcode":"GL7 6LE","la":"Cotswold","era":"other","nn":2645,"risk":68,"cat":"red"},{"name":"The Bell At Stow","lat":51.92861,"lon":-1.71821,"postcode":"GL54 1AJ","la":"Cotswold","era":"other","nn":289,"risk":32,"cat":"amber"},{"name":"The Bell Inn","lat":51.99083,"lon":-1.70349,"postcode":"GL56 0AF","la":"Cotswold","era":"trad","nn":68,"risk":28,"cat":"green"},{"name":"The Black Bear Inn","lat":51.99033,"lon":-1.70291,"postcode":"GL56 0AX","la":"Cotswold","era":"trad","nn":0,"risk":27,"cat":"green"},{"name":"The Black Horse","lat":51.71624,"lon":-1.97003,"postcode":"GL7 1QD","la":"Cotswold","era":"trad","nn":0,"risk":27,"cat":"green"},{"name":"The Black Horse Inn","lat":51.91005,"lon":-1.82805,"postcode":"GL54 3AD","la":"Cotswold","era":"trad","nn":3842,"risk":76,"cat":"red"},{"name":"The Carp Society","lat":51.70926,"lon":-1.67962,"postcode":"GL7 3QQ","la":"West Oxfordshire","era":"mod","nn":1811,"risk":63,"cat":"red"},{"name":"The Cat And Custard Pot Inn","lat":51.60459,"lon":-2.16015,"postcode":"GL8 8PN","la":"Cotswold","era":"trad","nn":2694,"risk":68,"cat":"red"},{"name":"The Catherine Wheel","lat":51.7589,"lon":-1.84223,"postcode":"GL7 5ND","la":"Cotswold","era":"other","nn":1190,"risk":58,"cat":"amber"},{"name":"The Crown","lat":51.71721,"lon":-1.9688,"postcode":"GL7 2NH","la":"Cotswold","era":"trad","nn":84,"risk":28,"cat":"green"},{"name":"The Crown Inn","lat":51.72371,"lon":-2.11562,"postcode":"GL6 8JG","la":"Cotswold","era":"trad","nn":1078,"risk":57,"cat":"amber"},{"name":"The Crown Inn","lat":51.69414,"lon":-1.69292,"postcode":"GL7 3AE","la":"Cotswold","era":"trad","nn":109,"risk":33,"cat":"amber"},{"name":"The Drillmans Arms","lat":51.72753,"lon":-1.97781,"postcode":"GL7 2JY","la":"Cotswold","era":"trad","nn":1252,"risk":58,"cat":"amber"},{"name":"The Eight Bells","lat":52.05217,"lon":-1.77779,"postcode":"GL55 6JG","la":"Cotswold","era":"other","nn":547,"risk":48,"cat":"amber"},{"name":"The Fairford Plough - Plough Inn","lat":51.70733,"lon":-1.77991,"postcode":"GL7 4AQ","la":"Cotswold","era":"trad","nn":414,"risk":30,"cat":"green"},{"name":"The Falcon Inn","lat":51.70778,"lon":-1.85986,"postcode":"GL7 5HN","la":"Cotswold","era":"trad","nn":306,"risk":49,"cat":"amber"},{"name":"The Fishermans Rest","lat":51.66881,"lon":-1.93101,"postcode":"GL7 5UH","la":"Cotswold","era":"other","nn":322,"risk":47,"cat":"amber"},{"name":"The Fox Inn","lat":51.94566,"lon":-1.70639,"postcode":"GL56 0UF","la":"Cotswold","era":"trad","nn":1895,"risk":63,"cat":"red"},{"name":"The Frogmill","lat":51.86331,"lon":-1.96202,"postcode":"GL54 4HT","la":"Cotswold","era":"trad","nn":1261,"risk":58,"cat":"amber"},{"name":"The Golden Ball","lat":51.92846,"lon":-1.74529,"postcode":"GL54 1LF","la":"Cotswold","era":"other","nn":1517,"risk":60,"cat":"amber"},{"name":"The Golden Cross Inn","lat":51.71736,"lon":-1.96999,"postcode":"GL7 2AA","la":"Cotswold","era":"trad","nn":84,"risk":28,"cat":"green"},{"name":"The Great Western Arms","lat":52.01415,"lon":-1.75878,"postcode":"GL56 9DT","la":"Cotswold","era":"trad","nn":4269,"risk":79,"cat":"red"},{"name":"The Green Dragon Inn","lat":51.82427,"lon":-2.03879,"postcode":"GL53 9NW","la":"Cotswold","era":"trad","nn":2456,"risk":67,"cat":"red"},{"name":"The Greyhound","lat":51.69525,"lon":-1.95121,"postcode":"GL7 6HR","la":"Cotswold","era":"trad","nn":1574,"risk":61,"cat":"red"},{"name":"The Halfway At Kineton","lat":51.93933,"lon":-1.8592,"postcode":"GL54 5UG","la":"Cotswold","era":"other","nn":2806,"risk":69,"cat":"red"},{"name":"The Highwayman Inn","lat":51.79553,"lon":-2.05075,"postcode":"GL53 9PH","la":"Cotswold","era":"trad","nn":3300,"risk":73,"cat":"red"},{"name":"The Kings Arms","lat":51.93043,"lon":-1.72243,"postcode":"GL54 1AF","la":"Cotswold","era":"trad","nn":0,"risk":30,"cat":"green"},{"name":"The Kingsbridge Inn","lat":51.76417,"lon":-2.16174,"postcode":"GL54 2BS","la":"Cotswold","era":"trad","nn":0,"risk":45,"cat":"amber"},{"name":"The Lamb Inn","lat":51.76417,"lon":-2.16174,"postcode":"GL54 2LP","la":"Cotswold","era":"trad","nn":0,"risk":45,"cat":"amber"},{"name":"The Marlborough Arms","lat":51.70619,"lon":-1.78906,"postcode":"GL7 4BS","la":"Cotswold","era":"trad","nn":643,"risk":52,"cat":"amber"},{"name":"The Masons Arms","lat":51.69709,"lon":-1.82839,"postcode":"GL7 5JT","la":"Cotswold","era":"trad","nn":2173,"risk":65,"cat":"red"},{"name":"The Mill Inn","lat":51.83699,"lon":-1.95509,"postcode":"GL54 4BE","la":"Cotswold","era":"trad","nn":2965,"risk":70,"cat":"red"},{"name":"The Old George Inn","lat":51.67317,"lon":-1.93074,"postcode":"GL7 5UA","la":"Cotswold","era":"trad","nn":374,"risk":47,"cat":"amber"},{"name":"The Old New Inn","lat":51.88329,"lon":-1.7556,"postcode":"GL54 2AF","la":"Cotswold","era":"trad","nn":126,"risk":45,"cat":"amber"},{"name":"The Plough Inn","lat":51.8765,"lon":-1.81468,"postcode":"GL54 3BN","la":"Cotswold","era":"trad","nn":3842,"risk":76,"cat":"red"},{"name":"The Priory Inn","lat":51.6403,"lon":-2.16092,"postcode":"GL8 8JJ","la":"Cotswold","era":"trad","nn":119,"risk":28,"cat":"green"},{"name":"The Queen Matilda Tavern","lat":51.67956,"lon":-2.16777,"postcode":"GL8 8NT","la":"Cotswold","era":"trad","nn":428,"risk":48,"cat":"amber"},{"name":"The Queens Head Inn","lat":51.93027,"lon":-1.72336,"postcode":"GL54 1AB","la":"Cotswold","era":"trad","nn":66,"risk":30,"cat":"green"},{"name":"The Railway Inn","lat":51.70888,"lon":-1.77376,"postcode":"GL7 4AR","la":"Cotswold","era":"trad","nn":256,"risk":31,"cat":"amber"},{"name":"The Riverside","lat":51.69265,"lon":-1.69698,"postcode":"GL7 3AQ","la":"Cotswold","era":"other","nn":325,"risk":34,"cat":"amber"},{"name":"The Royal Oak","lat":51.63983,"lon":-2.15525,"postcode":"GL8 8EY","la":"Cotswold","era":"trad","nn":395,"risk":30,"cat":"green"},{"name":"The Royal Oak","lat":51.87419,"lon":-1.96723,"postcode":"GL54 4HR","la":"Cotswold","era":"trad","nn":1261,"risk":58,"cat":"amber"},{"name":"The Royal Oak","lat":51.61735,"lon":-2.2569,"postcode":"GL8 8UN","la":"Cotswold","era":"trad","nn":3596,"risk":75,"cat":"red"},{"name":"The Royal Oak","lat":51.67074,"lon":-1.93449,"postcode":"GL7 5UP","la":"Cotswold","era":"trad","nn":322,"risk":47,"cat":"amber"},{"name":"The Seagrave Arms","lat":52.06775,"lon":-1.81883,"postcode":"GL55 6QH","la":"Cotswold","era":"trad","nn":2487,"risk":67,"cat":"red"},{"name":"The Sherborne Arms","lat":51.7891,"lon":-1.77436,"postcode":"GL54 3RB","la":"Cotswold","era":"trad","nn":4606,"risk":82,"cat":"red"},{"name":"The Stag At Stow","lat":51.93043,"lon":-1.72243,"postcode":"GL54 1AF","la":"Cotswold","era":"trad","nn":0,"risk":30,"cat":"green"},{"name":"The Stump","lat":51.77594,"lon":-1.91134,"postcode":"GL54 4NN","la":"Cotswold","era":"other","nn":4219,"risk":79,"cat":"red"},{"name":"The Swan Inn","lat":51.69483,"lon":-1.69178,"postcode":"GL7 3AP","la":"Cotswold","era":"trad","nn":109,"risk":30,"cat":"green"},{"name":"The Trouble House","lat":51.65728,"lon":-2.12615,"postcode":"GL8 8SG","la":"Cotswold","era":"other","nn":2792,"risk":69,"cat":"red"},{"name":"The Victoria Inn","lat":51.74559,"lon":-1.71358,"postcode":"GL7 3NQ","la":"Cotswold","era":"trad","nn":3908,"risk":77,"cat":"red"},{"name":"The Wheatsheaf Hotel","lat":51.83113,"lon":-1.83863,"postcode":"GL54 3EZ","la":"Cotswold","era":"trad","nn":5306,"risk":85,"cat":"red"},{"name":"Trout Inn","lat":51.68956,"lon":-1.6802,"postcode":"GL7 3HA","la":"Vale of White Horse","era":"trad","nn":889,"risk":52,"cat":"amber"},{"name":"Twelve Bells","lat":51.71466,"lon":-1.96566,"postcode":"GL7 1EA","la":"Cotswold","era":"other","nn":179,"risk":28,"cat":"green"},{"name":"Volunteer Inn","lat":52.04922,"lon":-1.78418,"postcode":"GL55 6DY","la":"Cotswold","era":"trad","nn":547,"risk":51,"cat":"amber"},{"name":"Aviator Enterprises Ltd","lat":51.93104,"lon":-2.40293,"postcode":"GL18 1AA","la":"Forest of Dean","era":"other","nn":106,"risk":50,"cat":"amber"},{"name":"Bailey Inn","lat":51.761,"lon":-2.52746,"postcode":"GL15 4RP","la":"Forest of Dean","era":"trad","nn":1518,"risk":65,"cat":"red"},{"name":"Berry Hill Rugby Club","lat":51.81007,"lon":-2.61342,"postcode":"GL16 7QT","la":"Forest of Dean","era":"other","nn":379,"risk":54,"cat":"amber"},{"name":"Bream Sports & Social Club","lat":51.74969,"lon":-2.57597,"postcode":"GL15 6JF","la":"Forest of Dean","era":"mod","nn":2776,"risk":74,"cat":"red"},{"name":"Causeway Club - Cinderford Town Football Club","lat":51.82795,"lon":-2.49354,"postcode":"GL14 2BY","la":"Forest of Dean","era":"other","nn":522,"risk":35,"cat":"amber"},{"name":"Cinderford Miners Welfare Association","lat":51.82503,"lon":-2.50101,"postcode":"GL14 2JN","la":"Forest of Dean","era":"other","nn":101,"risk":32,"cat":"amber"},{"name":"Cinderford Rugby Football Club","lat":51.82354,"lon":-2.49624,"postcode":"GL14 2AQ","la":"Forest of Dean","era":"other","nn":242,"risk":33,"cat":"amber"},{"name":"Cliffords Mesne Village Hall","lat":51.90657,"lon":-2.43753,"postcode":"GL18 1JN","la":"Forest of Dean","era":"other","nn":2815,"risk":74,"cat":"red"},{"name":"Cobblers","lat":51.93048,"lon":-2.40419,"postcode":"GL18 1PU","la":"Forest of Dean","era":"other","nn":106,"risk":50,"cat":"amber"},{"name":"Cross Keys Inn","lat":51.72284,"lon":-2.53686,"postcode":"GL15 5EA","la":"Forest of Dean","era":"trad","nn":498,"risk":40,"cat":"amber"},{"name":"Drybrook Rugby Football Club","lat":51.85774,"lon":-2.51134,"postcode":"GL17 9EU","la":"Forest of Dean","era":"other","nn":1347,"risk":64,"cat":"red"},{"name":"Ellwood AFC","lat":51.77199,"lon":-2.59408,"postcode":"GL16 7LY","la":"Forest of Dean","era":"other","nn":968,"risk":58,"cat":"amber"},{"name":"English Bicknor Tuesday Club","lat":51.83716,"lon":-2.61139,"postcode":"GL16 7PD","la":"Forest of Dean","era":"other","nn":1916,"risk":68,"cat":"red"},{"name":"Forge Hammer Inn","lat":51.84866,"lon":-2.58842,"postcode":"GL17 9NP","la":"Forest of Dean","era":"trad","nn":2031,"risk":68,"cat":"red"},{"name":"Gamekeepers Inn","lat":51.80687,"lon":-2.61152,"postcode":"GL16 7QN","la":"Forest of Dean","era":"trad","nn":379,"risk":54,"cat":"amber"},{"name":"Golden Lion","lat":51.82508,"lon":-2.49955,"postcode":"GL14 2SL","la":"Forest of Dean","era":"trad","nn":101,"risk":32,"cat":"amber"},{"name":"Greyhound","lat":51.72716,"lon":-2.52679,"postcode":"GL15 5PA","la":"Forest of Dean","era":"trad","nn":262,"risk":33,"cat":"amber"},{"name":"Junior Rugby Bacon Sandwiches","lat":51.93076,"lon":-2.40891,"postcode":"GL18 1QA","la":"Forest of Dean","era":"other","nn":325,"risk":51,"cat":"amber"},{"name":"Kings Head Inn","lat":51.86768,"lon":-2.38212,"postcode":"GL19 3EF","la":"Forest of Dean","era":"trad","nn":1638,"risk":66,"cat":"red"},{"name":"Lamb Inn","lat":51.77053,"lon":-2.6238,"postcode":"GL16 8JU","la":"Forest of Dean","era":"trad","nn":1212,"risk":63,"cat":"red"},{"name":"Littledean House Hotel","lat":51.82138,"lon":-2.48397,"postcode":"GL14 3JZ","la":"Forest of Dean","era":"mod","nn":256,"risk":36,"cat":"amber"},{"name":"Lydney Rugby Football Club","lat":51.72619,"lon":-2.53026,"postcode":"GL15 5RN","la":"Forest of Dean","era":"other","nn":107,"risk":32,"cat":"amber"},{"name":"Lydney Town A F C","lat":51.72529,"lon":-2.5308,"postcode":"GL15 5RU","la":"Forest of Dean","era":"other","nn":107,"risk":32,"cat":"amber"},{"name":"Lydney Youth And Community Centre","lat":51.72651,"lon":-2.52021,"postcode":"GL15 5AT","la":"Forest of Dean","era":"other","nn":459,"risk":40,"cat":"amber"},{"name":"Mount Pleasant Inn","lat":51.81679,"lon":-2.49612,"postcode":"GL14 3DA","la":"Forest of Dean","era":"trad","nn":434,"risk":35,"cat":"amber"},{"name":"Nags Head Inn","lat":51.75641,"lon":-2.49999,"postcode":"GL15 4NX","la":"Forest of Dean","era":"trad","nn":686,"risk":56,"cat":"amber"},{"name":"Netherend Inn","lat":51.69952,"lon":-2.58748,"postcode":"GL15 6NN","la":"Forest of Dean","era":"trad","nn":3213,"risk":77,"cat":"red"},{"name":"New Inn","lat":51.80212,"lon":-2.50897,"postcode":"GL14 3AR","la":"Forest of Dean","era":"trad","nn":1856,"risk":67,"cat":"red"},{"name":"Oaklands Snooker Club","lat":51.82534,"lon":-2.51,"postcode":"GL14 2PQ","la":"Forest of Dean","era":"trad","nn":618,"risk":36,"cat":"amber"},{"name":"Oxenhall Parish Hall Trust","lat":51.94248,"lon":-2.42699,"postcode":"GL18 1RN","la":"Forest of Dean","era":"other","nn":1799,"risk":67,"cat":"red"},{"name":"Redmarley Cricket Club","lat":51.98185,"lon":-2.3494,"postcode":"GL19 3NB","la":"Forest of Dean","era":"other","nn":904,"risk":58,"cat":"amber"},{"name":"Redmarley Village Hall","lat":51.97918,"lon":-2.36187,"postcode":"GL19 3HS","la":"Forest of Dean","era":"other","nn":904,"risk":58,"cat":"amber"},{"name":"Ruardean Hill Sports Club","lat":51.84847,"lon":-2.52398,"postcode":"GL17 9AS","la":"Forest of Dean","era":"other","nn":1347,"risk":64,"cat":"red"},{"name":"Rudford \\\\& Highleadon Village Hall","lat":51.89425,"lon":-2.33632,"postcode":"GL2 8DY","la":"Forest of Dean","era":"other","nn":3206,"risk":77,"cat":"red"},{"name":"Severn View Inn","lat":51.73423,"lon":-2.53155,"postcode":"GL15 5SG","la":"Forest of Dean","era":"trad","nn":852,"risk":43,"cat":"amber"},{"name":"Soldiers & Sailors Club Ltd","lat":51.82309,"lon":-2.50014,"postcode":"GL14 2RP","la":"Forest of Dean","era":"other","nn":114,"risk":32,"cat":"amber"},{"name":"Taynton And Tibberton Village Hall","lat":51.89691,"lon":-2.38285,"postcode":"GL19 3AN","la":"Forest of Dean","era":"other","nn":2985,"risk":75,"cat":"red"},{"name":"The Belfry Hotel","lat":51.81948,"lon":-2.48189,"postcode":"GL14 3JS","la":"Forest of Dean","era":"other","nn":256,"risk":53,"cat":"amber"},{"name":"The Club","lat":51.80505,"lon":-2.44878,"postcode":"GL14 1BS","la":"Forest of Dean","era":"other","nn":1912,"risk":68,"cat":"red"},{"name":"The Clubhouse, Sling","lat":51.76806,"lon":-2.60663,"postcode":"GL16 8JP","la":"Forest of Dean","era":"other","nn":968,"risk":58,"cat":"amber"},{"name":"The Dog House Cinderford","lat":51.82406,"lon":-2.49965,"postcode":"GL14 2RX","la":"Forest of Dean","era":"mod","nn":113,"risk":32,"cat":"amber"},{"name":"The Dog House Micro Pub","lat":51.79412,"lon":-2.61788,"postcode":"GL16 8AR","la":"Forest of Dean","era":"mod","nn":98,"risk":52,"cat":"amber"},{"name":"The Feathers","lat":51.79352,"lon":-2.61685,"postcode":"GL16 8AA","la":"Forest of Dean","era":"other","nn":98,"risk":52,"cat":"amber"},{"name":"The Forest Brewery","lat":51.71683,"lon":-2.55015,"postcode":"GL15 6BU","la":"Forest of Dean","era":"other","nn":1134,"risk":62,"cat":"red"},{"name":"The Junction Inn","lat":51.84522,"lon":-2.39607,"postcode":"GL14 1PL","la":"Forest of Dean","era":"trad","nn":2596,"risk":72,"cat":"red"},{"name":"The Nags Head Inn","lat":51.81888,"lon":-2.50145,"postcode":"GL14 2ED","la":"Forest of Dean","era":"trad","nn":434,"risk":35,"cat":"amber"},{"name":"The Red Hart Inn","lat":51.84835,"lon":-2.43352,"postcode":"GL17 0AH","la":"Forest of Dean","era":"trad","nn":2596,"risk":72,"cat":"red"},{"name":"The Red Lion Inn Huntley","lat":51.87347,"lon":-2.40406,"postcode":"GL19 3DU","la":"Forest of Dean","era":"trad","nn":1638,"risk":66,"cat":"red"},{"name":"The White Horse","lat":51.86611,"lon":-2.48909,"postcode":"GL17 0AT","la":"Forest of Dean","era":"trad","nn":1789,"risk":67,"cat":"red"},{"name":"Tufthorn Inn","lat":51.78003,"lon":-2.60703,"postcode":"GL16 8PZ","la":"Forest of Dean","era":"trad","nn":1262,"risk":63,"cat":"red"},{"name":"Viney St Swithins Sports And Social Club","lat":51.75363,"lon":-2.50888,"postcode":"GL15 4NF","la":"Forest of Dean","era":"mod","nn":686,"risk":56,"cat":"amber"},{"name":"Westbury Parish Village Hall","lat":51.82162,"lon":-2.40544,"postcode":"GL14 1PF","la":"Forest of Dean","era":"other","nn":2703,"risk":73,"cat":"red"},{"name":"A M Fen & Co","lat":51.84276,"lon":-2.25855,"postcode":"GL2 5AS","la":"Gloucester","era":"other","nn":683,"risk":50,"cat":"amber"},{"name":"Angies Bar","lat":51.86589,"lon":-2.24743,"postcode":"GL1 2HG","la":"Gloucester","era":"other","nn":14,"risk":28,"cat":"green"},{"name":"Baker Street","lat":51.85979,"lon":-2.25107,"postcode":"GL1 2EZ","la":"Gloucester","era":"other","nn":134,"risk":29,"cat":"green"},{"name":"Cross Keys Inn","lat":51.8653,"lon":-2.24713,"postcode":"GL1 2HQ","la":"Gloucester","era":"trad","nn":64,"risk":28,"cat":"green"},{"name":"Deans Walk Inn","lat":51.8701,"lon":-2.2461,"postcode":"GL1 2PX","la":"Gloucester","era":"trad","nn":257,"risk":30,"cat":"green"},{"name":"Fever","lat":51.86368,"lon":-2.24198,"postcode":"GL1 1PN","la":"Gloucester","era":"other","nn":152,"risk":29,"cat":"green"},{"name":"Fountain Inn","lat":51.86588,"lon":-2.24723,"postcode":"GL1 2NW","la":"Gloucester","era":"trad","nn":14,"risk":28,"cat":"green"},{"name":"Freemans Event Partners @ Gloucester Rugby","lat":51.87119,"lon":-2.24281,"postcode":"GL1 3AX","la":"Gloucester","era":"other","nn":105,"risk":28,"cat":"green"},{"name":"Gala Club","lat":51.87914,"lon":-2.23642,"postcode":"GL2 9EB","la":"Gloucester","era":"other","nn":436,"risk":33,"cat":"amber"},{"name":"Gloucester City Bowling Club","lat":51.85963,"lon":-2.24914,"postcode":"GL1 1UY","la":"Gloucester","era":"other","nn":134,"risk":29,"cat":"green"},{"name":"Gloucester Farmers Club Ltd","lat":51.87681,"lon":-2.24154,"postcode":"GL2 9RG","la":"Gloucester","era":"other","nn":436,"risk":31,"cat":"amber"},{"name":"Gordon League Rugby Football Club","lat":51.85574,"lon":-2.2632,"postcode":"GL2 5JN","la":"Gloucester","era":"other","nn":705,"risk":38,"cat":"amber"},{"name":"Jax Bar And Club","lat":51.86327,"lon":-2.24409,"postcode":"GL1 1HG","la":"Gloucester","era":"mod","nn":152,"risk":29,"cat":"green"},{"name":"JJBAKERUK LTD","lat":51.83231,"lon":-2.24442,"postcode":"GL4 0DA","la":"Gloucester","era":"other","nn":1514,"risk":61,"cat":"red"},{"name":"Kingsholm Inn","lat":51.87062,"lon":-2.24159,"postcode":"GL1 3AT","la":"Gloucester","era":"trad","nn":105,"risk":28,"cat":"green"},{"name":"Lord High Constable Of England","lat":51.86304,"lon":-2.25121,"postcode":"GL1 2EH","la":"Gloucester","era":"other","nn":127,"risk":29,"cat":"green"},{"name":"Northend Vaults","lat":51.86667,"lon":-2.24273,"postcode":"GL1 1SL","la":"Gloucester","era":"other","nn":66,"risk":28,"cat":"green"},{"name":"Our House Cocktail And Wine Bar","lat":51.86375,"lon":-2.24976,"postcode":"GL1 2EP","la":"Gloucester","era":"mod","nn":127,"risk":29,"cat":"green"},{"name":"Quedgeley Social Club","lat":51.82534,"lon":-2.27885,"postcode":"GL2 4PJ","la":"Gloucester","era":"mod","nn":858,"risk":54,"cat":"amber"},{"name":"Robert Raikes","lat":51.86447,"lon":-2.24734,"postcode":"GL1 2DR","la":"Gloucester","era":"other","nn":94,"risk":28,"cat":"green"},{"name":"Sacred Salvador","lat":51.84227,"lon":-2.22775,"postcode":"GL4 6NR","la":"Gloucester","era":"other","nn":1514,"risk":61,"cat":"red"},{"name":"Spartans RFC","lat":51.87244,"lon":-2.23912,"postcode":"GL1 3BS","la":"Gloucester","era":"other","nn":264,"risk":30,"cat":"green"},{"name":"Sweet Success At Redwood Educational Centre","lat":51.87567,"lon":-2.23218,"postcode":"GL1 3NB","la":"Gloucester","era":"other","nn":483,"risk":31,"cat":"amber"},{"name":"The Abbey T/A K-Town, Chik Box, Locked   Loaded, Pizza Amore","lat":51.86671,"lon":-2.24424,"postcode":"GL1 2AJ","la":"Gloucester","era":"trad","nn":52,"risk":28,"cat":"green"},{"name":"The Avenue","lat":51.8498,"lon":-2.2579,"postcode":"GL1 5TH","la":"Gloucester","era":"other","nn":610,"risk":37,"cat":"amber"},{"name":"The Barn Owl","lat":51.82083,"lon":-2.26873,"postcode":"GL2 2GS","la":"Gloucester","era":"other","nn":858,"risk":54,"cat":"amber"},{"name":"The Common Room","lat":51.86638,"lon":-2.24372,"postcode":"GL1 1RP","la":"Gloucester","era":"other","nn":32,"risk":28,"cat":"green"},{"name":"The Linden Tree","lat":51.85444,"lon":-2.25316,"postcode":"GL1 5SN","la":"Gloucester","era":"other","nn":610,"risk":32,"cat":"amber"},{"name":"The Plough Inn","lat":51.85704,"lon":-2.23423,"postcode":"GL1 4JT","la":"Gloucester","era":"trad","nn":257,"risk":35,"cat":"amber"},{"name":"The Sword Inn","lat":51.86611,"lon":-2.24755,"postcode":"GL1 2NW","la":"Gloucester","era":"trad","nn":26,"risk":28,"cat":"green"},{"name":"The Treddy","lat":51.85494,"lon":-2.2358,"postcode":"GL1 4SY","la":"Gloucester","era":"other","nn":257,"risk":50,"cat":"amber"},{"name":"The Turks Head Inn","lat":51.86621,"lon":-2.24334,"postcode":"GL1 1RP","la":"Gloucester","era":"trad","nn":32,"risk":28,"cat":"green"},{"name":"Tuffley Rovers AFC","lat":51.83884,"lon":-2.26622,"postcode":"GL2 5DT","la":"Gloucester","era":"other","nn":683,"risk":53,"cat":"amber"},{"name":"Whitesmiths Arms","lat":51.86151,"lon":-2.25001,"postcode":"GL1 1UR","la":"Gloucester","era":"trad","nn":189,"risk":29,"cat":"green"},{"name":"The Butchers Arms","lat":51.97114,"lon":-2.27251,"postcode":"GL19 4NX","la":"Malvern Hills","era":"trad","nn":4153,"risk":81,"cat":"red"},{"name":"The Railway Inn","lat":52.03807,"lon":-2.18586,"postcode":"GL20 6EY","la":"Malvern Hills","era":"trad","nn":2961,"risk":73,"cat":"red"},{"name":"Badminton Memorial Hall","lat":51.54322,"lon":-2.28285,"postcode":"GL9 1DD","la":"South Gloucestershire","era":"other","nn":2029,"risk":63,"cat":"red"},{"name":"Fox And Hounds Inn","lat":51.52525,"lon":-2.2778,"postcode":"GL9 1HW","la":"South Gloucestershire","era":"trad","nn":1416,"risk":59,"cat":"amber"},{"name":"Huntsman Inn","lat":51.63568,"lon":-2.46032,"postcode":"GL12 8DF","la":"South Gloucestershire","era":"trad","nn":3364,"risk":72,"cat":"red"},{"name":"Railway Tavern","lat":51.62917,"lon":-2.39908,"postcode":"GL12 8SR","la":"South Gloucestershire","era":"trad","nn":140,"risk":45,"cat":"amber"},{"name":"The Beaufort Arms","lat":51.58133,"lon":-2.32207,"postcode":"GL9 1AU","la":"South Gloucestershire","era":"trad","nn":4163,"risk":78,"cat":"red"},{"name":"The Pear Tree Inn","lat":51.62744,"lon":-2.40788,"postcode":"GL12 8TP","la":"South Gloucestershire","era":"trad","nn":637,"risk":48,"cat":"amber"},{"name":"The Plough Inn","lat":51.62961,"lon":-2.39717,"postcode":"GL12 8SR","la":"South Gloucestershire","era":"trad","nn":140,"risk":45,"cat":"amber"},{"name":"The Swan","lat":51.59207,"lon":-2.4765,"postcode":"GL12 8QB","la":"South Gloucestershire","era":"trad","nn":668,"risk":51,"cat":"amber"},{"name":"The White Horse Inn","lat":51.61071,"lon":-2.48782,"postcode":"GL12 8DX","la":"South Gloucestershire","era":"trad","nn":1589,"risk":60,"cat":"amber"},{"name":"Tytherington Rocks FC","lat":51.59681,"lon":-2.48244,"postcode":"GL12 8UJ","la":"South Gloucestershire","era":"other","nn":668,"risk":51,"cat":"amber"},{"name":"Wickwar Social Club","lat":51.59498,"lon":-2.39946,"postcode":"GL12 8NP","la":"South Gloucestershire","era":"mod","nn":3655,"risk":74,"cat":"red"},{"name":"Little Compton Bowls Club","lat":51.97046,"lon":-1.61681,"postcode":"GL56 0SG","la":"Stratford-on-Avon","era":"other","nn":624,"risk":50,"cat":"amber"},{"name":"The Plough Inn","lat":52.04441,"lon":-1.68036,"postcode":"GL56 9QX","la":"Stratford-on-Avon","era":"trad","nn":3836,"risk":75,"cat":"red"},{"name":"The Red Lion","lat":51.97043,"lon":-1.62592,"postcode":"GL56 0RT","la":"Stratford-on-Avon","era":"trad","nn":624,"risk":50,"cat":"amber"},{"name":"Anchor Inn","lat":51.79772,"lon":-2.34461,"postcode":"GL2 7LN","la":"Stroud","era":"trad","nn":1468,"risk":62,"cat":"red"},{"name":"Beacon And Railway Hotel","lat":51.78779,"lon":-2.27265,"postcode":"GL10 3DX","la":"Stroud","era":"trad","nn":3290,"risk":75,"cat":"red"},{"name":"Bell Inn","lat":51.73386,"lon":-2.24005,"postcode":"GL5 5JY","la":"Stroud","era":"trad","nn":1073,"risk":59,"cat":"amber"},{"name":"Bell Inn Hotel","lat":51.77055,"lon":-2.36533,"postcode":"GL2 7EP","la":"Stroud","era":"trad","nn":460,"risk":50,"cat":"amber"},{"name":"Berkeley Arms","lat":51.70199,"lon":-2.36498,"postcode":"GL11 5LA","la":"Stroud","era":"trad","nn":420,"risk":52,"cat":"amber"},{"name":"Birchall Memorial Institute Club","lat":51.83244,"lon":-2.19897,"postcode":"GL4 8AG","la":"Stroud","era":"other","nn":514,"risk":53,"cat":"amber"},{"name":"Bisley House Bar And Grill","lat":51.74404,"lon":-2.20998,"postcode":"GL5 1DZ","la":"Stroud","era":"mod","nn":165,"risk":30,"cat":"green"},{"name":"Brimscombe & Thrupp Football Club","lat":51.72193,"lon":-2.1959,"postcode":"GL5 2AZ","la":"Stroud","era":"other","nn":1861,"risk":65,"cat":"red"},{"name":"Butchers Arms","lat":51.79255,"lon":-2.15982,"postcode":"GL6 7RH","la":"Stroud","era":"trad","nn":2377,"risk":68,"cat":"red"},{"name":"Capones Nightclub","lat":51.68179,"lon":-2.3531,"postcode":"GL11 4HL","la":"Stroud","era":"other","nn":0,"risk":29,"cat":"green"},{"name":"Carpenters Arms","lat":51.67925,"lon":-2.34421,"postcode":"GL11 4NN","la":"Stroud","era":"trad","nn":515,"risk":33,"cat":"amber"},{"name":"Carpenters Arms","lat":51.77873,"lon":-2.09117,"postcode":"GL6 7JA","la":"Stroud","era":"trad","nn":3176,"risk":74,"cat":"red"},{"name":"Chalford Sports & Social Club","lat":51.73006,"lon":-2.14315,"postcode":"GL6 8LZ","la":"Stroud","era":"mod","nn":109,"risk":50,"cat":"amber"},{"name":"Clothiers Arms","lat":51.74269,"lon":-2.22654,"postcode":"GL5 3JJ","la":"Stroud","era":"trad","nn":413,"risk":32,"cat":"amber"},{"name":"Cosimini's","lat":51.6817,"lon":-2.35508,"postcode":"GL11 4BP","la":"Stroud","era":"other","nn":137,"risk":30,"cat":"green"},{"name":"Cotswold Playhouse","lat":51.74518,"lon":-2.20843,"postcode":"GL5 1LW","la":"Stroud","era":"other","nn":165,"risk":30,"cat":"green"},{"name":"Cross Hands Inn","lat":51.7458,"lon":-2.20525,"postcode":"GL5 1NX","la":"Stroud","era":"trad","nn":230,"risk":31,"cat":"amber"},{"name":"Crown & Sceptre Inn","lat":51.7416,"lon":-2.20361,"postcode":"GL5 1EG","la":"Stroud","era":"trad","nn":480,"risk":33,"cat":"amber"},{"name":"Dursley Bowls Club","lat":51.68246,"lon":-2.3496,"postcode":"GL11 4JD","la":"Stroud","era":"other","nn":203,"risk":31,"cat":"amber"},{"name":"Dursley RFC","lat":51.6909,"lon":-2.38326,"postcode":"GL11 6AJ","la":"Stroud","era":"other","nn":1544,"risk":63,"cat":"red"},{"name":"Edgemoor Inn","lat":51.78298,"lon":-2.22048,"postcode":"GL6 6ND","la":"Stroud","era":"trad","nn":1918,"risk":65,"cat":"red"},{"name":"Fagins","lat":51.8079,"lon":-2.23756,"postcode":"GL4 0US","la":"Stroud","era":"other","nn":2581,"risk":70,"cat":"red"},{"name":"Foston's Ash Inn","lat":51.80368,"lon":-2.12594,"postcode":"GL6 7ES","la":"Stroud","era":"trad","nn":2220,"risk":67,"cat":"red"},{"name":"Frampton-on-Severn Sailing Club","lat":51.76351,"lon":-2.36565,"postcode":"GL2 7DZ","la":"Stroud","era":"trad","nn":416,"risk":50,"cat":"amber"},{"name":"Fromebridge Mill","lat":51.76264,"lon":-2.3388,"postcode":"GL2 7PD","la":"Stroud","era":"trad","nn":1243,"risk":61,"cat":"red"},{"name":"Halfway Cafe","lat":51.70099,"lon":-2.20785,"postcode":"GL6 9AE","la":"Stroud","era":"other","nn":840,"risk":55,"cat":"amber"},{"name":"Hamfields Leisure","lat":51.69313,"lon":-2.49335,"postcode":"GL13 9PA","la":"Stroud","era":"other","nn":2349,"risk":68,"cat":"red"},{"name":"Kings Head","lat":51.73033,"lon":-2.14163,"postcode":"GL6 8LT","la":"Stroud","era":"trad","nn":109,"risk":50,"cat":"amber"},{"name":"Kings Head","lat":51.72838,"lon":-2.22724,"postcode":"GL5 5DR","la":"Stroud","era":"trad","nn":282,"risk":51,"cat":"amber"},{"name":"Kings Head Inn","lat":51.82993,"lon":-2.20526,"postcode":"GL4 8AA","la":"Stroud","era":"trad","nn":514,"risk":53,"cat":"amber"},{"name":"Kings Stanley Sports Club","lat":51.73038,"lon":-2.27445,"postcode":"GL10 3JB","la":"Stroud","era":"trad","nn":85,"risk":47,"cat":"amber"},{"name":"Magpies Sports & Social Club","lat":51.75205,"lon":-2.28999,"postcode":"GL10 2DG","la":"Stroud","era":"mod","nn":730,"risk":54,"cat":"amber"},{"name":"Nailsworth Mills Bowling Club","lat":51.69428,"lon":-2.21347,"postcode":"GL6 0BS","la":"Stroud","era":"trad","nn":334,"risk":34,"cat":"amber"},{"name":"Nailsworth Social Club","lat":51.69287,"lon":-2.22014,"postcode":"GL6 0JQ","la":"Stroud","era":"mod","nn":182,"risk":48,"cat":"amber"},{"name":"Old Crown","lat":51.74941,"lon":-2.23955,"postcode":"GL5 4AZ","la":"Stroud","era":"trad","nn":1167,"risk":60,"cat":"amber"},{"name":"Old Fleece Inn","lat":51.72635,"lon":-2.2297,"postcode":"GL5 5NB","la":"Stroud","era":"trad","nn":282,"risk":51,"cat":"amber"},{"name":"Old Spot Inn","lat":51.68098,"lon":-2.35765,"postcode":"GL11 4JQ","la":"Stroud","era":"trad","nn":195,"risk":31,"cat":"amber"},{"name":"Painswick Bowling Club","lat":51.78653,"lon":-2.19298,"postcode":"GL6 6QQ","la":"Stroud","era":"other","nn":61,"risk":50,"cat":"amber"},{"name":"Prince Albert Inn","lat":51.73909,"lon":-2.22506,"postcode":"GL5 3SS","la":"Stroud","era":"trad","nn":413,"risk":37,"cat":"amber"},{"name":"Queen Victoria Inn","lat":51.74663,"lon":-2.21698,"postcode":"GL5 1QG","la":"Stroud","era":"trad","nn":129,"risk":30,"cat":"green"},{"name":"Railway Inn","lat":51.70012,"lon":-2.35968,"postcode":"GL11 5NS","la":"Stroud","era":"trad","nn":420,"risk":52,"cat":"amber"},{"name":"Salmon Inn","lat":51.71019,"lon":-2.4611,"postcode":"GL13 9SE","la":"Stroud","era":"trad","nn":1049,"risk":59,"cat":"amber"},{"name":"Slimbridge Football Club","lat":51.72261,"lon":-2.36847,"postcode":"GL2 7AF","la":"Stroud","era":"other","nn":572,"risk":53,"cat":"amber"},{"name":"Stinchcombe Hill Golf Club","lat":51.68128,"lon":-2.36712,"postcode":"GL11 6AQ","la":"Stroud","era":"other","nn":654,"risk":36,"cat":"amber"},{"name":"The Amberley Inn","lat":51.70915,"lon":-2.22063,"postcode":"GL5 5AF","la":"Stroud","era":"trad","nn":486,"risk":50,"cat":"amber"},{"name":"The Black Horse","lat":51.71342,"lon":-2.21917,"postcode":"GL5 5AL","la":"Stroud","era":"trad","nn":486,"risk":50,"cat":"amber"},{"name":"The Black Horse Inn","lat":51.66127,"lon":-2.37474,"postcode":"GL11 6DT","la":"Stroud","era":"trad","nn":2244,"risk":68,"cat":"red"},{"name":"The Black Horse Inn","lat":51.81541,"lon":-2.15208,"postcode":"GL4 8HP","la":"Stroud","era":"trad","nn":2220,"risk":67,"cat":"red"},{"name":"The Butchers Arms","lat":51.73221,"lon":-2.12317,"postcode":"GL6 7NZ","la":"Stroud","era":"trad","nn":1078,"risk":59,"cat":"amber"},{"name":"The Chantry Centre","lat":51.68177,"lon":-2.35232,"postcode":"GL11 4JB","la":"Stroud","era":"other","nn":54,"risk":30,"cat":"green"},{"name":"The Crown","lat":51.70536,"lon":-2.1865,"postcode":"GL6 9BN","la":"Stroud","era":"trad","nn":1550,"risk":63,"cat":"red"},{"name":"The Falcon Inn","lat":51.63809,"lon":-2.35023,"postcode":"GL12 7HB","la":"Stroud","era":"trad","nn":58,"risk":35,"cat":"amber"},{"name":"The Fresh Standard Brew Co","lat":51.71099,"lon":-2.22975,"postcode":"GL5 5EX","la":"Stroud","era":"other","nn":661,"risk":51,"cat":"amber"},{"name":"The Frocester","lat":51.72646,"lon":-2.31479,"postcode":"GL10 3TQ","la":"Stroud","era":"other","nn":1919,"risk":65,"cat":"red"},{"name":"The George Inn","lat":51.73264,"lon":-2.36434,"postcode":"GL2 7AL","la":"Stroud","era":"trad","nn":1125,"risk":60,"cat":"amber"},{"name":"The Globe Inn","lat":51.74713,"lon":-2.283,"postcode":"GL10 2NG","la":"Stroud","era":"trad","nn":730,"risk":54,"cat":"amber"},{"name":"The Hog","lat":51.68108,"lon":-2.23465,"postcode":"GL6 0PR","la":"Stroud","era":"other","nn":1649,"risk":63,"cat":"red"},{"name":"The Kings Head Pub","lat":51.72962,"lon":-2.2745,"postcode":"GL10 3JD","la":"Stroud","era":"trad","nn":85,"risk":47,"cat":"amber"},{"name":"The Lord John","lat":51.74477,"lon":-2.21822,"postcode":"GL5 3AB","la":"Stroud","era":"other","nn":157,"risk":30,"cat":"green"},{"name":"The Malt House","lat":51.69311,"lon":-2.45926,"postcode":"GL13 9BA","la":"Stroud","era":"other","nn":1904,"risk":65,"cat":"red"},{"name":"The New Inn","lat":51.67364,"lon":-2.34903,"postcode":"GL11 4AJ","la":"Stroud","era":"trad","nn":707,"risk":34,"cat":"amber"},{"name":"The Oak, Painswick","lat":51.78598,"lon":-2.19302,"postcode":"GL6 6QG","la":"Stroud","era":"trad","nn":61,"risk":50,"cat":"amber"},{"name":"The Old Badger Inn","lat":51.74678,"lon":-2.32254,"postcode":"GL10 3AT","la":"Stroud","era":"trad","nn":2089,"risk":66,"cat":"red"},{"name":"The Old Crown Inn","lat":51.68591,"lon":-2.30221,"postcode":"GL11 5SN","la":"Stroud","era":"trad","nn":2989,"risk":73,"cat":"red"},{"name":"The Old Forge","lat":51.77016,"lon":-2.32544,"postcode":"GL2 7NY","la":"Stroud","era":"trad","nn":1243,"risk":61,"cat":"red"},{"name":"The Pier View Hotel","lat":51.71651,"lon":-2.47241,"postcode":"GL13 9NA","la":"Stroud","era":"other","nn":1049,"risk":59,"cat":"amber"},{"name":"The Pilot Inn","lat":51.81732,"lon":-2.2932,"postcode":"GL2 4QD","la":"Stroud","era":"trad","nn":1330,"risk":61,"cat":"red"},{"name":"The Ram Inn","lat":51.73078,"lon":-2.16894,"postcode":"GL6 8BB","la":"Stroud","era":"trad","nn":1778,"risk":64,"cat":"red"},{"name":"The Red Lion Inn","lat":51.79652,"lon":-2.42464,"postcode":"GL2 7JN","la":"Stroud","era":"trad","nn":1912,"risk":65,"cat":"red"},{"name":"The Retreat","lat":51.74624,"lon":-2.2151,"postcode":"GL5 1JL","la":"Stroud","era":"other","nn":114,"risk":30,"cat":"green"},{"name":"The Royal British Legion Social Club","lat":51.72529,"lon":-2.37556,"postcode":"GL2 7DB","la":"Stroud","era":"other","nn":572,"risk":53,"cat":"amber"},{"name":"The Ship Inn","lat":51.79042,"lon":-2.36239,"postcode":"GL2 7LH","la":"Stroud","era":"trad","nn":1468,"risk":62,"cat":"red"},{"name":"The Star Inn","lat":51.63703,"lon":-2.35408,"postcode":"GL12 7AE","la":"Stroud","era":"trad","nn":239,"risk":36,"cat":"amber"},{"name":"The Three Horseshoes","lat":51.76686,"lon":-2.36836,"postcode":"GL2 7DY","la":"Stroud","era":"trad","nn":416,"risk":50,"cat":"amber"},{"name":"The Village Inn","lat":51.62475,"lon":-2.36769,"postcode":"GL12 8RT","la":"Stroud","era":"trad","nn":1658,"risk":63,"cat":"red"},{"name":"The Village Inn","lat":51.69405,"lon":-2.2183,"postcode":"GL6 0HH","la":"Stroud","era":"trad","nn":182,"risk":48,"cat":"amber"},{"name":"The Weighbridge Inn","lat":51.69333,"lon":-2.19957,"postcode":"GL6 9AL","la":"Stroud","era":"trad","nn":963,"risk":56,"cat":"amber"},{"name":"The Wine Shack At No7","lat":51.63769,"lon":-2.35079,"postcode":"GL12 7ES","la":"Stroud","era":"other","nn":58,"risk":35,"cat":"amber"},{"name":"Town Owl Taphouse","lat":51.74555,"lon":-2.21633,"postcode":"GL5 1AS","la":"Stroud","era":"mod","nn":114,"risk":30,"cat":"green"},{"name":"Tudor Arms","lat":51.73633,"lon":-2.39462,"postcode":"GL2 7BP","la":"Stroud","era":"trad","nn":1797,"risk":64,"cat":"red"},{"name":"White Hart Inn","lat":51.729,"lon":-2.28722,"postcode":"GL10 3NR","la":"Stroud","era":"trad","nn":879,"risk":53,"cat":"amber"},{"name":"Wotton Bowls Club","lat":51.63858,"lon":-2.35857,"postcode":"GL12 7AS","la":"Stroud","era":"other","nn":355,"risk":37,"cat":"amber"},{"name":"Ye Olde Dursley Hotel","lat":51.68179,"lon":-2.3531,"postcode":"GL11 4HL","la":"Stroud","era":"other","nn":0,"risk":29,"cat":"green"},{"name":"Albion Inn","lat":51.99559,"lon":-2.15467,"postcode":"GL20 5LR","la":"Tewkesbury","era":"trad","nn":122,"risk":33,"cat":"amber"},{"name":"Apperley Cricket Club","lat":51.94776,"lon":-2.2038,"postcode":"GL19 4ED","la":"Tewkesbury","era":"other","nn":858,"risk":58,"cat":"amber"},{"name":"Brickhampton Court Golf Complex","lat":51.89376,"lon":-2.17961,"postcode":"GL2 9QF","la":"Tewkesbury","era":"other","nn":909,"risk":58,"cat":"amber"},{"name":"Brockworth Rugby Football Club","lat":51.84949,"lon":-2.154,"postcode":"GL3 4QH","la":"Tewkesbury","era":"other","nn":1051,"risk":62,"cat":"red"},{"name":"Bugatti Owners' Club Ltd","lat":51.96186,"lon":-2.02539,"postcode":"GL52 9RD","la":"Tewkesbury","era":"other","nn":2060,"risk":69,"cat":"red"},{"name":"Cheltenham North R.F.C.","lat":51.9461,"lon":-2.08327,"postcode":"GL52 7DG","la":"Tewkesbury","era":"other","nn":1350,"risk":64,"cat":"red"},{"name":"Chosen Hill Former Pupils Rugby Club","lat":51.87975,"lon":-2.15929,"postcode":"GL3 2PJ","la":"Tewkesbury","era":"other","nn":728,"risk":55,"cat":"amber"},{"name":"Churchdown Club Ltd","lat":51.87683,"lon":-2.16878,"postcode":"GL3 2ER","la":"Tewkesbury","era":"other","nn":0,"risk":50,"cat":"amber"},{"name":"Double D's Snooker And Pool Club","lat":51.99401,"lon":-2.15595,"postcode":"GL20 5NA","la":"Tewkesbury","era":"other","nn":87,"risk":33,"cat":"amber"},{"name":"Elmbury Lodge Brewers Fayre","lat":51.99944,"lon":-2.12598,"postcode":"GL20 8ND","la":"Tewkesbury","era":"trad","nn":1045,"risk":62,"cat":"red"},{"name":"Hare And Hounds","lat":51.88712,"lon":-2.18734,"postcode":"GL3 1AA","la":"Tewkesbury","era":"trad","nn":909,"risk":58,"cat":"amber"},{"name":"House In The Tree","lat":51.91549,"lon":-2.13173,"postcode":"GL51 0SW","la":"Tewkesbury","era":"mod","nn":1425,"risk":65,"cat":"red"},{"name":"Inferno Brewery, Firepit Bar And Venue","lat":51.99798,"lon":-2.15378,"postcode":"GL20 5BU","la":"Tewkesbury","era":"mod","nn":242,"risk":34,"cat":"amber"},{"name":"Kingsholm Cricket Club","lat":51.9075,"lon":-2.25084,"postcode":"GL2 9NP","la":"Tewkesbury","era":"trad","nn":3027,"risk":76,"cat":"red"},{"name":"Lower Lode Inn","lat":51.98459,"lon":-2.17793,"postcode":"GL19 4RE","la":"Tewkesbury","era":"trad","nn":1487,"risk":65,"cat":"red"},{"name":"New Dawn Inn","lat":51.91613,"lon":-2.20899,"postcode":"GL2 9LR","la":"Tewkesbury","era":"trad","nn":1829,"risk":67,"cat":"red"},{"name":"Newlands Park Sports And Social Club","lat":51.93098,"lon":-2.06009,"postcode":"GL52 3PE","la":"Tewkesbury","era":"mod","nn":1490,"risk":65,"cat":"red"},{"name":"Northway Public House (Spirit Group Ltd)","lat":52.00653,"lon":-2.11191,"postcode":"GL20 8HQ","la":"Tewkesbury","era":"mod","nn":1245,"risk":63,"cat":"red"},{"name":"Pineholt Bowls Club","lat":51.85148,"lon":-2.17913,"postcode":"GL3 3SN","la":"Tewkesbury","era":"other","nn":709,"risk":57,"cat":"amber"},{"name":"Plaisterers Arms","lat":51.9527,"lon":-1.96529,"postcode":"GL54 5LL","la":"Tewkesbury","era":"trad","nn":0,"risk":37,"cat":"amber"},{"name":"Shutters Inn Ltd","lat":51.96457,"lon":-2.06066,"postcode":"GL52 9EZ","la":"Tewkesbury","era":"trad","nn":1946,"risk":68,"cat":"red"},{"name":"Tewkesbury Bowling Club","lat":51.99063,"lon":-2.15824,"postcode":"GL20 5PG","la":"Tewkesbury","era":"other","nn":0,"risk":32,"cat":"amber"},{"name":"Tewkesbury Cricket Club","lat":51.9918,"lon":-2.15661,"postcode":"GL20 5PQ","la":"Tewkesbury","era":"other","nn":71,"risk":33,"cat":"amber"},{"name":"Tewkesbury RFC","lat":51.99063,"lon":-2.15824,"postcode":"GL20 5PG","la":"Tewkesbury","era":"other","nn":0,"risk":32,"cat":"amber"},{"name":"Tewkesbury YMCA","lat":51.99218,"lon":-2.15832,"postcode":"GL20 5RS","la":"Tewkesbury","era":"other","nn":53,"risk":32,"cat":"amber"},{"name":"The Anchor 1774","lat":51.99553,"lon":-2.15649,"postcode":"GL20 5BH","la":"Tewkesbury","era":"trad","nn":92,"risk":33,"cat":"amber"},{"name":"The Apple Tree","lat":51.94436,"lon":-2.03525,"postcode":"GL52 9QG","la":"Tewkesbury","era":"other","nn":1699,"risk":67,"cat":"red"},{"name":"The Berkeley Arms","lat":51.9922,"lon":-2.15754,"postcode":"GL20 5PA","la":"Tewkesbury","era":"trad","nn":53,"risk":32,"cat":"amber"},{"name":"The Britannia Inn","lat":51.99442,"lon":-2.15702,"postcode":"GL20 5AT","la":"Tewkesbury","era":"trad","nn":87,"risk":33,"cat":"amber"},{"name":"The Caterbury Inn","lat":51.99584,"lon":-2.14007,"postcode":"GL20 8BT","la":"Tewkesbury","era":"trad","nn":968,"risk":56,"cat":"amber"},{"name":"The Cheese Rollers","lat":51.86511,"lon":-2.11561,"postcode":"GL51 4XJ","la":"Tewkesbury","era":"other","nn":1799,"risk":67,"cat":"red"},{"name":"The Coalhouse Inn","lat":51.95347,"lon":-2.21221,"postcode":"GL19 4DN","la":"Tewkesbury","era":"other","nn":858,"risk":58,"cat":"amber"},{"name":"The Corner Cupboard","lat":51.95174,"lon":-1.97182,"postcode":"GL54 5LX","la":"Tewkesbury","era":"other","nn":460,"risk":40,"cat":"amber"},{"name":"The Dog, Toby Carvery","lat":51.87426,"lon":-2.27373,"postcode":"GL2 8DE","la":"Tewkesbury","era":"other","nn":1952,"risk":68,"cat":"red"},{"name":"The Gardeners Arms","lat":51.99851,"lon":-2.00186,"postcode":"GL20 8NL","la":"Tewkesbury","era":"trad","nn":2914,"risk":75,"cat":"red"},{"name":"The Gupshill Manor","lat":51.98215,"lon":-2.15659,"postcode":"GL20 5SG","la":"Tewkesbury","era":"other","nn":869,"risk":43,"cat":"amber"},{"name":"The Haw Bridge Inn Ltd","lat":51.94543,"lon":-2.22855,"postcode":"GL19 4HJ","la":"Tewkesbury","era":"trad","nn":1434,"risk":65,"cat":"red"},{"name":"The Kings Head","lat":51.94566,"lon":-2.06359,"postcode":"GL52 8LU","la":"Tewkesbury","era":"trad","nn":189,"risk":51,"cat":"amber"},{"name":"The New Plough","lat":51.99244,"lon":-2.15658,"postcode":"GL20 5PY","la":"Tewkesbury","era":"trad","nn":71,"risk":33,"cat":"amber"},{"name":"The Odessa Inn","lat":51.96673,"lon":-2.15727,"postcode":"GL20 7DA","la":"Tewkesbury","era":"trad","nn":1715,"risk":67,"cat":"red"},{"name":"The Old Elm Inn","lat":51.87683,"lon":-2.16878,"postcode":"GL3 2ER","la":"Tewkesbury","era":"trad","nn":0,"risk":50,"cat":"amber"},{"name":"The Red Lion","lat":51.9302,"lon":-2.22282,"postcode":"GL2 9LW","la":"Tewkesbury","era":"trad","nn":1739,"risk":67,"cat":"red"},{"name":"The Royal Oak","lat":51.94709,"lon":-2.05964,"postcode":"GL52 8LR","la":"Tewkesbury","era":"trad","nn":313,"risk":52,"cat":"amber"},{"name":"The Royal Oak","lat":51.97176,"lon":-1.98442,"postcode":"GL54 5EP","la":"Tewkesbury","era":"trad","nn":2388,"risk":71,"cat":"red"},{"name":"The Swallow Inn","lat":51.94434,"lon":-2.06185,"postcode":"GL52 8DR","la":"Tewkesbury","era":"trad","nn":189,"risk":51,"cat":"amber"},{"name":"The Swan","lat":51.94175,"lon":-2.1641,"postcode":"GL19 4BA","la":"Tewkesbury","era":"trad","nn":2802,"risk":74,"cat":"red"},{"name":"The Teddington Hands Inn","lat":52.00344,"lon":-2.05588,"postcode":"GL20 8NE","la":"Tewkesbury","era":"trad","nn":2406,"risk":71,"cat":"red"},{"name":"The Victoria","lat":51.84955,"lon":-2.1693,"postcode":"GL3 3TZ","la":"Tewkesbury","era":"trad","nn":709,"risk":57,"cat":"amber"},{"name":"The Village Inn","lat":52.02823,"lon":-2.14459,"postcode":"GL20 6DF","la":"Tewkesbury","era":"trad","nn":1566,"risk":66,"cat":"red"},{"name":"The Watson Hall","lat":51.99257,"lon":-2.15546,"postcode":"GL20 5PX","la":"Tewkesbury","era":"other","nn":78,"risk":33,"cat":"amber"},{"name":"The Wheatpieces Hungry Horse","lat":51.98466,"lon":-2.14457,"postcode":"GL20 7RW","la":"Tewkesbury","era":"trad","nn":869,"risk":58,"cat":"amber"},{"name":"The Yew Tree Inn","lat":51.97067,"lon":-2.20625,"postcode":"GL19 4EQ","la":"Tewkesbury","era":"trad","nn":1955,"risk":68,"cat":"red"},{"name":"Winchcombe Conservative Working Men's Club","lat":51.9527,"lon":-1.96529,"postcode":"GL54 5LL","la":"Tewkesbury","era":"trad","nn":0,"risk":37,"cat":"amber"},{"name":"Winchcombe Cricket Club","lat":51.94629,"lon":-1.97411,"postcode":"GL54 5NL","la":"Tewkesbury","era":"other","nn":626,"risk":41,"cat":"amber"},{"name":"Witcombe & District Cricket Club","lat":51.83784,"lon":-2.136,"postcode":"GL3 4SP","la":"Tewkesbury","era":"other","nn":1790,"risk":67,"cat":"red"},{"name":"Woodpeckers Sports And Social Club","lat":51.93078,"lon":-2.27478,"postcode":"GL19 4JJ","la":"Tewkesbury","era":"mod","nn":3065,"risk":76,"cat":"red"},{"name":"Ye Olde Black Bear","lat":51.9963,"lon":-2.15603,"postcode":"GL20 5BJ","la":"Tewkesbury","era":"other","nn":92,"risk":33,"cat":"amber"},{"name":"The Bell Inn","lat":51.72241,"lon":-1.64198,"postcode":"GL7 3LF","la":"West Oxfordshire","era":"trad","nn":1847,"risk":64,"cat":"red"},{"name":"The Five Alls","lat":51.735,"lon":-1.65946,"postcode":"GL7 3JQ","la":"West Oxfordshire","era":"other","nn":1847,"risk":64,"cat":"red"},{"name":"The Plough Inn","lat":51.69046,"lon":-1.64099,"postcode":"GL7 3HG","la":"West Oxfordshire","era":"trad","nn":2705,"risk":70,"cat":"red"},{"name":"Kemble Motorcycle Club Ltd","lat":51.66983,"lon":-2.0574,"postcode":"GL7 6BA","la":"Wiltshire","era":"other","nn":2413,"risk":55,"cat":"amber"},{"name":"Fox And Hounds","lat":52.03092,"lon":-2.11468,"postcode":"GL20 7LA","la":"Wychavon","era":"trad","nn":170,"risk":47,"cat":"amber"},{"name":"Overbury Bowling Club","lat":52.03414,"lon":-2.06315,"postcode":"GL20 7NT","la":"Wychavon","era":"other","nn":658,"risk":51,"cat":"amber"},{"name":"Severn Sailing Club","lat":52.051,"lon":-2.10906,"postcode":"GL20 7HD","la":"Wychavon","era":"other","nn":2123,"risk":64,"cat":"red"},{"name":"The Beckford Inn Hotel","lat":52.01813,"lon":-2.03007,"postcode":"GL20 7AN","la":"Wychavon","era":"trad","nn":2292,"risk":65,"cat":"red"},{"name":"The Cross Keys","lat":52.01798,"lon":-2.1289,"postcode":"GL20 7EE","la":"Wychavon","era":"trad","nn":1566,"risk":60,"cat":"amber"},{"name":"The Crown","lat":52.03316,"lon":-2.08091,"postcode":"GL20 7HP","la":"Wychavon","era":"trad","nn":1220,"risk":57,"cat":"amber"},{"name":"The Royal Oak","lat":52.03053,"lon":-2.11227,"postcode":"GL20 7LW","la":"Wychavon","era":"trad","nn":170,"risk":47,"cat":"amber"},{"name":"Yew Tree Conderton","lat":52.03266,"lon":-2.05384,"postcode":"GL20 7PP","la":"Wychavon","era":"other","nn":658,"risk":51,"cat":"amber"}]