[{"name":"SQUIRREL INN","lat":50.83863,"lon":-2.87102,"postcode":"TA20 4NT","la":"Dorset","era":"trad","nn":2073,"risk":55,"cat":"amber"},{"name":"1610 Trinity Sports & Leisure","lat":51.13937,"lon":-3.00576,"postcode":"TA6 3JA","la":"Somerset","era":"other","nn":344,"risk":20,"cat":"green"},{"name":"Active Learning & Skills - Community Interest Company","lat":50.88277,"lon":-2.79454,"postcode":"TA18 8DA","la":"Somerset","era":"other","nn":123,"risk":16,"cat":"green"},{"name":"AD Pub Managment Ltd","lat":51.00212,"lon":-2.92428,"postcode":"TA3 6PQ","la":"Somerset","era":"other","nn":2830,"risk":58,"cat":"amber"},{"name":"Admirals Landing","lat":51.13241,"lon":-3.00522,"postcode":"TA6 3EX","la":"Somerset","era":"other","nn":281,"risk":17,"cat":"green"},{"name":"Admiral's Table","lat":51.16259,"lon":-2.988,"postcode":"TA6 4TN","la":"Somerset","era":"other","nn":942,"risk":42,"cat":"amber"},{"name":"Ale House","lat":51.02193,"lon":-3.10318,"postcode":"TA1 1PD","la":"Somerset","era":"other","nn":50,"risk":16,"cat":"green"},{"name":"Alex's Tapas & Artichoke Gastro Pub @ The Great Escape","lat":51.12819,"lon":-3.00663,"postcode":"TA6 3EN","la":"Somerset","era":"mod","nn":60,"risk":16,"cat":"green"},{"name":"Alistair Hughes T/A The Dolphin","lat":50.92733,"lon":-2.91277,"postcode":"TA19 0DR","la":"Somerset","era":"other","nn":487,"risk":39,"cat":"amber"},{"name":"Allstars (Taunton) Limited","lat":51.01482,"lon":-3.09973,"postcode":"TA1 3LP","la":"Somerset","era":"other","nn":0,"risk":15,"cat":"green"},{"name":"Allstars Sports Bowl Bridgwater","lat":51.12998,"lon":-3.00631,"postcode":"TA6 3FQ","la":"Somerset","era":"other","nn":115,"risk":16,"cat":"green"},{"name":"Anchor Inn","lat":51.17457,"lon":-3.06017,"postcode":"TA5 2RA","la":"Somerset","era":"trad","nn":1955,"risk":52,"cat":"amber"},{"name":"Ancient Mariner","lat":51.15234,"lon":-3.15773,"postcode":"TA5 1NG","la":"Somerset","era":"other","nn":2113,"risk":53,"cat":"amber"},{"name":"Baillies","lat":51.12786,"lon":-3.00582,"postcode":"TA6 3BG","la":"Somerset","era":"other","nn":53,"risk":16,"cat":"green"},{"name":"Bakers Arms","lat":50.9764,"lon":-2.76698,"postcode":"TA12 6ER","la":"Somerset","era":"trad","nn":381,"risk":38,"cat":"amber"},{"name":"Bar 21","lat":51.20678,"lon":-3.47413,"postcode":"TA24 5AY","la":"Somerset","era":"mod","nn":0,"risk":15,"cat":"green"},{"name":"Bar Brunel","lat":51.12738,"lon":-3.00775,"postcode":"TA6 3PF","la":"Somerset","era":"mod","nn":0,"risk":15,"cat":"green"},{"name":"Bar Rosso","lat":51.20599,"lon":-3.46172,"postcode":"TA24 5SH","la":"Somerset","era":"mod","nn":0,"risk":15,"cat":"green"},{"name":"Barrington Boar","lat":50.95941,"lon":-2.86986,"postcode":"TA19 0JB","la":"Somerset","era":"other","nn":1558,"risk":49,"cat":"amber"},{"name":"Basonbridge Inn","lat":51.20882,"lon":-2.93679,"postcode":"TA9 4RL","la":"Somerset","era":"trad","nn":1187,"risk":46,"cat":"amber"},{"name":"Bathpool Inn","lat":51.02762,"lon":-3.06578,"postcode":"TA2 8BE","la":"Somerset","era":"trad","nn":745,"risk":41,"cat":"amber"},{"name":"Berrow & Brean Recreation Club","lat":51.25943,"lon":-3.00558,"postcode":"TA8 2JH","la":"Somerset","era":"other","nn":968,"risk":42,"cat":"amber"},{"name":"Bird in Hand","lat":51.13388,"lon":-2.99403,"postcode":"TA6 4BW","la":"Somerset","era":"other","nn":150,"risk":17,"cat":"green"},{"name":"Bishops Lydeard Football Club","lat":51.06662,"lon":-3.1854,"postcode":"TA4 3BA","la":"Somerset","era":"trad","nn":1241,"risk":47,"cat":"amber"},{"name":"Bowling Club","lat":51.20513,"lon":-3.47346,"postcode":"TA24 5DW","la":"Somerset","era":"other","nn":139,"risk":16,"cat":"green"},{"name":"Breakers Bar & Restaurant","lat":51.28286,"lon":-3.0125,"postcode":"TA8 2QY","la":"Somerset","era":"mod","nn":4,"risk":15,"cat":"green"},{"name":"Brean Country Club","lat":51.28288,"lon":-3.01246,"postcode":"TA8 2QY","la":"Somerset","era":"other","nn":4,"risk":15,"cat":"green"},{"name":"Brean Down Inn","lat":51.30899,"lon":-3.01018,"postcode":"TA8 2RR","la":"Somerset","era":"trad","nn":551,"risk":39,"cat":"amber"},{"name":"Bridgwater & Albion Rugby Club","lat":51.13367,"lon":-2.98937,"postcode":"TA6 4TZ","la":"Somerset","era":"other","nn":124,"risk":16,"cat":"green"},{"name":"Bridgwater Arts Centre","lat":51.12935,"lon":-3.0024,"postcode":"TA6 3DD","la":"Somerset","era":"other","nn":31,"risk":16,"cat":"green"},{"name":"Bridgwater Bowling Club","lat":51.12468,"lon":-3.0151,"postcode":"TA6 7HR","la":"Somerset","era":"other","nn":0,"risk":15,"cat":"green"},{"name":"Bridgwater Cricket Club","lat":51.12468,"lon":-3.0151,"postcode":"TA6 7HR","la":"Somerset","era":"other","nn":0,"risk":15,"cat":"green"},{"name":"Bridgwater Masonic Hall","lat":51.12991,"lon":-3.00424,"postcode":"TA6 3DH","la":"Somerset","era":"trad","nn":46,"risk":16,"cat":"green"},{"name":"Bristol & Exeter Inn","lat":51.12761,"lon":-2.99235,"postcode":"TA6 5JA","la":"Somerset","era":"trad","nn":69,"risk":16,"cat":"green"},{"name":"Bristol Bridge Inn","lat":51.22507,"lon":-2.96849,"postcode":"TA9 4EX","la":"Somerset","era":"trad","nn":599,"risk":22,"cat":"green"},{"name":"British Flag","lat":51.13631,"lon":-3.00496,"postcode":"TA6 3HX","la":"Somerset","era":"other","nn":344,"risk":18,"cat":"green"},{"name":"Broadway and Horton Cricket Club","lat":50.93139,"lon":-2.97478,"postcode":"TA19 9QZ","la":"Somerset","era":"other","nn":540,"risk":37,"cat":"amber"},{"name":"Bunch of Grapes","lat":51.12859,"lon":-2.99593,"postcode":"TA6 5HS","la":"Somerset","era":"other","nn":127,"risk":16,"cat":"green"},{"name":"Burnham & Berrow Golf Club Ltd (Club House)","lat":51.25108,"lon":-3.00168,"postcode":"TA8 2PE","la":"Somerset","era":"other","nn":968,"risk":42,"cat":"amber"},{"name":"Burnham Masonic Club","lat":51.23469,"lon":-2.99736,"postcode":"TA8 1NX","la":"Somerset","era":"trad","nn":0,"risk":15,"cat":"green"},{"name":"Burnham on Sea Bowling Club Ltd","lat":51.23961,"lon":-2.99462,"postcode":"TA8 2AU","la":"Somerset","era":"other","nn":131,"risk":16,"cat":"green"},{"name":"Burnham on Sea Motorboat & Sailing Club","lat":51.23413,"lon":-2.99942,"postcode":"TA8 1DL","la":"Somerset","era":"other","nn":104,"risk":16,"cat":"green"},{"name":"Burnham On Sea Rugby Club","lat":51.24554,"lon":-2.98544,"postcode":"TA8 2DE","la":"Somerset","era":"other","nn":905,"risk":27,"cat":"green"},{"name":"Carnival Inn","lat":51.12729,"lon":-3.00371,"postcode":"TA6 3LX","la":"Somerset","era":"trad","nn":90,"risk":16,"cat":"green"},{"name":"Centre Bar","lat":51.13077,"lon":-2.98305,"postcode":"TA6 4QZ","la":"Somerset","era":"other","nn":547,"risk":19,"cat":"green"},{"name":"Chard Conservative Club","lat":50.8725,"lon":-2.96669,"postcode":"TA20 1QF","la":"Somerset","era":"other","nn":112,"risk":16,"cat":"green"},{"name":"Chard Cricket Club","lat":50.87304,"lon":-2.96151,"postcode":"TA20 1QA","la":"Somerset","era":"other","nn":0,"risk":15,"cat":"green"},{"name":"Chard Town Football Club Ltd","lat":50.87602,"lon":-2.9655,"postcode":"TA20 1JL","la":"Somerset","era":"other","nn":344,"risk":18,"cat":"green"},{"name":"Combe St Nicholas Football Club","lat":50.90105,"lon":-2.99175,"postcode":"TA20 3HQ","la":"Somerset","era":"other","nn":523,"risk":39,"cat":"amber"},{"name":"Compton Dundon Cricket Club","lat":51.08526,"lon":-2.74472,"postcode":"TA11 6PB","la":"Somerset","era":"other","nn":3494,"risk":62,"cat":"red"},{"name":"Coopers Arms","lat":51.21899,"lon":-2.97416,"postcode":"TA9 3BT","la":"Somerset","era":"trad","nn":160,"risk":19,"cat":"green"},{"name":"Cosy Club Taunton","lat":51.01458,"lon":-3.10386,"postcode":"TA1 4AJ","la":"Somerset","era":"other","nn":0,"risk":15,"cat":"green"},{"name":"County Club","lat":51.12966,"lon":-3.00475,"postcode":"TA6 3DJ","la":"Somerset","era":"other","nn":46,"risk":16,"cat":"green"},{"name":"Crewkerne Conservative Club","lat":50.88391,"lon":-2.79533,"postcode":"TA18 7JS","la":"Somerset","era":"other","nn":38,"risk":16,"cat":"green"},{"name":"Cricket St Thomas Golf Club","lat":50.88017,"lon":-2.89515,"postcode":"TA20 4DG","la":"Somerset","era":"other","nn":1284,"risk":47,"cat":"amber"},{"name":"Cross Keys Inn","lat":51.07672,"lon":-2.61211,"postcode":"TA11 7HA","la":"Somerset","era":"trad","nn":2414,"risk":55,"cat":"amber"},{"name":"Cross Rifles Ltd","lat":51.1326,"lon":-2.99331,"postcode":"TA6 4PH","la":"Somerset","era":"trad","nn":0,"risk":15,"cat":"green"},{"name":"Crown & Sceptre","lat":51.02045,"lon":-3.10363,"postcode":"TA1 1NX","la":"Somerset","era":"trad","nn":120,"risk":16,"cat":"green"},{"name":"Dinnington Docks","lat":50.9143,"lon":-2.84969,"postcode":"TA17 8SX","la":"Somerset","era":"trad","nn":1792,"risk":51,"cat":"amber"},{"name":"Duke of York","lat":50.95155,"lon":-2.85145,"postcode":"TA19 0LW","la":"Somerset","era":"trad","nn":1558,"risk":49,"cat":"amber"},{"name":"Dulverton Club & Reading Room","lat":51.04085,"lon":-3.55066,"postcode":"TA22 9BX","la":"Somerset","era":"other","nn":196,"risk":34,"cat":"amber"},{"name":"Dulverton Sports And Social Club","lat":51.0387,"lon":-3.54985,"postcode":"TA22 9HQ","la":"Somerset","era":"mod","nn":208,"risk":34,"cat":"amber"},{"name":"Dunes","lat":51.27663,"lon":-3.01246,"postcode":"TA8 2QX","la":"Somerset","era":"other","nn":406,"risk":23,"cat":"green"},{"name":"Dunstan House Inn","lat":51.23872,"lon":-2.9934,"postcode":"TA8 1EU","la":"Somerset","era":"other","nn":131,"risk":16,"cat":"green"},{"name":"Eastover Park Bowling Club","lat":51.12595,"lon":-2.99785,"postcode":"TA6 5JT","la":"Somerset","era":"other","nn":73,"risk":16,"cat":"green"},{"name":"Eli's Rose & Crown Ltd","lat":51.036,"lon":-2.81413,"postcode":"TA10 9QT","la":"Somerset","era":"trad","nn":739,"risk":38,"cat":"amber"},{"name":"Esplanade Club","lat":51.18204,"lon":-3.32946,"postcode":"TA23 0AJ","la":"Somerset","era":"other","nn":87,"risk":16,"cat":"green"},{"name":"Five Dials Inn","lat":50.92974,"lon":-2.96754,"postcode":"TA19 9QQ","la":"Somerset","era":"trad","nn":540,"risk":37,"cat":"amber"},{"name":"Fleur De Lys","lat":50.95312,"lon":-2.75082,"postcode":"TA14 6PU","la":"Somerset","era":"other","nn":198,"risk":34,"cat":"amber"},{"name":"Foresters Arms","lat":51.18079,"lon":-3.44777,"postcode":"TA24 6SN","la":"Somerset","era":"trad","nn":178,"risk":37,"cat":"amber"},{"name":"Fountain Inn","lat":51.1293,"lon":-3.00195,"postcode":"TA6 3HL","la":"Somerset","era":"trad","nn":31,"risk":16,"cat":"green"},{"name":"Fox and Hounds (New ING Limited)","lat":51.05713,"lon":-2.6588,"postcode":"TA11 7AU","la":"Somerset","era":"trad","nn":2298,"risk":54,"cat":"amber"},{"name":"Friendly Spirit","lat":51.15013,"lon":-3.06109,"postcode":"TA5 2HP","la":"Somerset","era":"other","nn":139,"risk":21,"cat":"green"},{"name":"Galmington Social Club","lat":51.00973,"lon":-3.12665,"postcode":"TA1 5NN","la":"Somerset","era":"mod","nn":214,"risk":22,"cat":"green"},{"name":"George Inn","lat":51.09172,"lon":-2.89177,"postcode":"TA7 0NN","la":"Somerset","era":"trad","nn":2750,"risk":57,"cat":"amber"},{"name":"Globe Inn","lat":51.14994,"lon":-3.06306,"postcode":"TA5 2HA","la":"Somerset","era":"trad","nn":139,"risk":21,"cat":"green"},{"name":"Globe Inn","lat":51.09129,"lon":-3.01928,"postcode":"TA6 6NQ","la":"Somerset","era":"trad","nn":498,"risk":24,"cat":"green"},{"name":"Golden Ball","lat":51.1282,"lon":-3.00469,"postcode":"TA6 3BE","la":"Somerset","era":"other","nn":58,"risk":16,"cat":"green"},{"name":"Great Western Railway Staff Association","lat":51.1286,"lon":-2.99158,"postcode":"TA6 5HA","la":"Somerset","era":"trad","nn":123,"risk":16,"cat":"green"},{"name":"Hankridge Arms","lat":51.02099,"lon":-3.06432,"postcode":"TA1 2LR","la":"Somerset","era":"trad","nn":745,"risk":38,"cat":"amber"},{"name":"Happy Return Inn","lat":50.87419,"lon":-2.95785,"postcode":"TA20 1EP","la":"Somerset","era":"trad","nn":286,"risk":17,"cat":"green"},{"name":"Harvest Moon","lat":51.0737,"lon":-3.00139,"postcode":"TA7 0BG","la":"Somerset","era":"trad","nn":1403,"risk":48,"cat":"amber"},{"name":"Hideout","lat":51.01509,"lon":-3.10405,"postcode":"TA1 4AE","la":"Somerset","era":"other","nn":58,"risk":16,"cat":"green"},{"name":"Highbridge Social Club","lat":51.22187,"lon":-2.97539,"postcode":"TA9 3HR","la":"Somerset","era":"mod","nn":171,"risk":19,"cat":"green"},{"name":"Holman Clavel Inn","lat":50.93826,"lon":-3.10835,"postcode":"TA3 7EA","la":"Somerset","era":"trad","nn":2334,"risk":54,"cat":"amber"},{"name":"Home Farm Holiday Park","lat":51.23865,"lon":-2.96553,"postcode":"TA9 4HD","la":"Somerset","era":"other","nn":1433,"risk":48,"cat":"amber"},{"name":"Ilminster Sports Club Limited","lat":50.95129,"lon":-2.92889,"postcode":"TA19 9FR","la":"Somerset","era":"other","nn":136,"risk":34,"cat":"amber"},{"name":"Ilton Cricket Club","lat":50.95463,"lon":-2.92693,"postcode":"TA19 9HG","la":"Somerset","era":"other","nn":361,"risk":35,"cat":"amber"},{"name":"Inn on the Green","lat":51.20599,"lon":-3.46172,"postcode":"TA24 5SH","la":"Somerset","era":"trad","nn":0,"risk":15,"cat":"green"},{"name":"Invictus Gym","lat":51.13918,"lon":-2.99615,"postcode":"TA6 4BH","la":"Somerset","era":"other","nn":608,"risk":20,"cat":"green"},{"name":"Ivy House Social Club","lat":51.01157,"lon":-3.04527,"postcode":"TA3 5HR","la":"Somerset","era":"mod","nn":1023,"risk":45,"cat":"amber"},{"name":"King William Inn","lat":51.14838,"lon":-2.86613,"postcode":"TA7 9HU","la":"Somerset","era":"trad","nn":858,"risk":41,"cat":"amber"},{"name":"King William Inn","lat":50.88223,"lon":-2.7998,"postcode":"TA18 8BP","la":"Somerset","era":"trad","nn":331,"risk":18,"cat":"green"},{"name":"Kings Arms (t/a K-Town, Chik Box, L&L, 88th St, Value M, Sin City B)","lat":51.01994,"lon":-3.10721,"postcode":"TA1 1DQ","la":"Somerset","era":"trad","nn":182,"risk":17,"cat":"green"},{"name":"Kings Head","lat":50.8694,"lon":-2.96263,"postcode":"TA20 2DW","la":"Somerset","era":"trad","nn":384,"risk":18,"cat":"green"},{"name":"Kings Head Inn","lat":51.15119,"lon":-3.06523,"postcode":"TA5 2HE","la":"Somerset","era":"trad","nn":183,"risk":22,"cat":"green"},{"name":"Kingsdown Sports Pavilion","lat":51.14299,"lon":-2.98142,"postcode":"TA6 4FU","la":"Somerset","era":"trad","nn":1111,"risk":46,"cat":"amber"},{"name":"Krackers Karaoke Bar","lat":51.28734,"lon":-3.01256,"postcode":"TA8 2RD","la":"Somerset","era":"other","nn":0,"risk":15,"cat":"green"},{"name":"Lamb & Flag Inn","lat":50.95654,"lon":-3.12472,"postcode":"TA3 7SL","la":"Somerset","era":"trad","nn":1498,"risk":48,"cat":"amber"},{"name":"Lamb & Lion Inn","lat":50.99107,"lon":-2.86347,"postcode":"TA10 0AT","la":"Somerset","era":"trad","nn":3244,"risk":61,"cat":"red"},{"name":"Lamb Inn","lat":51.09301,"lon":-3.0127,"postcode":"TA6 6PY","la":"Somerset","era":"trad","nn":302,"risk":35,"cat":"amber"},{"name":"Langport & Huish Episcopi Sports Club","lat":51.03896,"lon":-2.8236,"postcode":"TA10 9RZ","la":"Somerset","era":"other","nn":256,"risk":35,"cat":"amber"},{"name":"Lions Club","lat":51.13051,"lon":-3.00211,"postcode":"TA6 3HW","la":"Somerset","era":"trad","nn":130,"risk":16,"cat":"green"},{"name":"London Inn","lat":51.18261,"lon":-3.33122,"postcode":"TA23 0AN","la":"Somerset","era":"trad","nn":0,"risk":15,"cat":"green"},{"name":"Long Sutton Cricket Club","lat":51.02676,"lon":-2.75809,"postcode":"TA10 9NT","la":"Somerset","era":"other","nn":351,"risk":38,"cat":"amber"},{"name":"Mackenzie's","lat":51.0153,"lon":-3.1052,"postcode":"TA1 4AD","la":"Somerset","era":"other","nn":54,"risk":16,"cat":"green"},{"name":"Malt Shovel","lat":51.12817,"lon":-3.01287,"postcode":"TA6 7DN","la":"Somerset","era":"other","nn":282,"risk":17,"cat":"green"},{"name":"Mark Moor Bowling Club","lat":51.22855,"lon":-2.89547,"postcode":"TA9 4PD","la":"Somerset","era":"other","nn":234,"risk":37,"cat":"amber"},{"name":"Martock Snooker Centre","lat":50.97981,"lon":-2.7664,"postcode":"TA12 6HH","la":"Somerset","era":"other","nn":381,"risk":38,"cat":"amber"},{"name":"Mecca Bingo Ltd","lat":51.01483,"lon":-3.1054,"postcode":"TA1 4AH","la":"Somerset","era":"other","nn":0,"risk":15,"cat":"green"},{"name":"Merriott Social Club","lat":50.90947,"lon":-2.78943,"postcode":"TA16 5NP","la":"Somerset","era":"mod","nn":360,"risk":38,"cat":"amber"},{"name":"Middlezoy Rovers Football Club","lat":51.10812,"lon":-2.92125,"postcode":"TA7 0ES","la":"Somerset","era":"other","nn":490,"risk":39,"cat":"amber"},{"name":"Mill Farm Bar","lat":51.15996,"lon":-3.11681,"postcode":"TA5 1JQ","la":"Somerset","era":"trad","nn":1705,"risk":50,"cat":"amber"},{"name":"Minehead And District Social Club","lat":51.20791,"lon":-3.47284,"postcode":"TA24 5QW","la":"Somerset","era":"other","nn":155,"risk":17,"cat":"green"},{"name":"Minehead Cricket Club","lat":51.19981,"lon":-3.46056,"postcode":"TA24 6FB","la":"Somerset","era":"trad","nn":654,"risk":20,"cat":"green"},{"name":"Moat House","lat":51.01483,"lon":-3.1054,"postcode":"TA1 4AH","la":"Somerset","era":"other","nn":0,"risk":15,"cat":"green"},{"name":"Molly Malones","lat":51.01593,"lon":-3.09705,"postcode":"TA1 1SP","la":"Somerset","era":"other","nn":128,"risk":16,"cat":"green"},{"name":"Morganians RFC","lat":51.13773,"lon":-2.96251,"postcode":"TA7 8QR","la":"Somerset","era":"other","nn":1443,"risk":48,"cat":"amber"},{"name":"New Inn","lat":51.04519,"lon":-3.22744,"postcode":"TA4 3AF","la":"Somerset","era":"trad","nn":2146,"risk":53,"cat":"amber"},{"name":"New Market Hotel","lat":51.13412,"lon":-2.99099,"postcode":"TA6 4PN","la":"Somerset","era":"other","nn":124,"risk":16,"cat":"green"},{"name":"North Perrott Cricket Club","lat":50.8827,"lon":-2.74943,"postcode":"TA18 7SJ","la":"Somerset","era":"other","nn":112,"risk":36,"cat":"amber"},{"name":"North Petherton Bowling Club","lat":51.09459,"lon":-3.00918,"postcode":"TA6 6RF","la":"Somerset","era":"other","nn":302,"risk":23,"cat":"green"},{"name":"North Petherton Rugby Club","lat":51.08291,"lon":-3.01511,"postcode":"TA6 6NW","la":"Somerset","era":"other","nn":975,"risk":42,"cat":"amber"},{"name":"Ocean Bar Holiday Park (Pub)","lat":51.28734,"lon":-3.01256,"postcode":"TA8 2RD","la":"Somerset","era":"mod","nn":0,"risk":15,"cat":"green"},{"name":"Old Market","lat":51.1279,"lon":-3.00774,"postcode":"TA6 3PG","la":"Somerset","era":"other","nn":29,"risk":16,"cat":"green"},{"name":"Oscars Wine Bar","lat":50.88507,"lon":-2.7961,"postcode":"TA18 7LE","la":"Somerset","era":"other","nn":40,"risk":16,"cat":"green"},{"name":"Packhorse Inn","lat":51.22735,"lon":-2.89272,"postcode":"TA9 4NF","la":"Somerset","era":"trad","nn":234,"risk":37,"cat":"amber"},{"name":"Palace Nightclub","lat":51.12738,"lon":-3.00775,"postcode":"TA6 3PF","la":"Somerset","era":"other","nn":0,"risk":15,"cat":"green"},{"name":"Parrett & Axe Masonic Club","lat":50.88363,"lon":-2.79564,"postcode":"TA18 7JU","la":"Somerset","era":"trad","nn":38,"risk":16,"cat":"green"},{"name":"Pawlett Pavilion","lat":51.18074,"lon":-3.00846,"postcode":"TA6 4SB","la":"Somerset","era":"trad","nn":277,"risk":37,"cat":"amber"},{"name":"Pegasus 68 Club Ltd","lat":51.02754,"lon":-3.10106,"postcode":"TA2 7DW","la":"Somerset","era":"other","nn":642,"risk":20,"cat":"green"},{"name":"Perkin Warbeck","lat":51.01482,"lon":-3.09973,"postcode":"TA1 3LP","la":"Somerset","era":"other","nn":0,"risk":15,"cat":"green"},{"name":"Perry Street Club and Institution","lat":50.84732,"lon":-2.9451,"postcode":"TA20 2SU","la":"Somerset","era":"other","nn":970,"risk":42,"cat":"amber"},{"name":"Pitcher & Piano","lat":51.01458,"lon":-3.10386,"postcode":"TA1 4AJ","la":"Somerset","era":"other","nn":0,"risk":15,"cat":"green"},{"name":"Pure Gym Ltd","lat":51.13137,"lon":-2.99988,"postcode":"TA6 5AZ","la":"Somerset","era":"other","nn":183,"risk":17,"cat":"green"},{"name":"Puriton Inn","lat":51.16653,"lon":-2.97604,"postcode":"TA7 8AF","la":"Somerset","era":"trad","nn":942,"risk":42,"cat":"amber"},{"name":"Quantock Gateway","lat":51.12747,"lon":-3.01676,"postcode":"TA6 7DP","la":"Somerset","era":"other","nn":282,"risk":17,"cat":"green"},{"name":"Racehorse Inn","lat":51.01479,"lon":-3.09679,"postcode":"TA1 3HT","la":"Somerset","era":"trad","nn":128,"risk":16,"cat":"green"},{"name":"Railway Hotel","lat":51.23682,"lon":-2.99689,"postcode":"TA8 1AS","la":"Somerset","era":"trad","nn":95,"risk":16,"cat":"green"},{"name":"Ring OBells","lat":51.13024,"lon":-2.80716,"postcode":"TA7 9PZ","la":"Somerset","era":"other","nn":251,"risk":37,"cat":"amber"},{"name":"Ring Of Bells","lat":51.01797,"lon":-3.10054,"postcode":"TA1 1JS","la":"Somerset","era":"other","nn":147,"risk":16,"cat":"green"},{"name":"Ring Of Bells","lat":51.16166,"lon":-3.04114,"postcode":"TA2 6QU","la":"Somerset","era":"other","nn":0,"risk":33,"cat":"amber"},{"name":"Ritz Cinema","lat":51.23844,"lon":-2.99806,"postcode":"TA8 1AN","la":"Somerset","era":"other","nn":0,"risk":15,"cat":"green"},{"name":"Ritz Social Club","lat":51.23844,"lon":-2.99806,"postcode":"TA8 1AN","la":"Somerset","era":"mod","nn":0,"risk":15,"cat":"green"},{"name":"RJ's","lat":51.28028,"lon":-3.01266,"postcode":"TA8 2RB","la":"Somerset","era":"other","nn":287,"risk":17,"cat":"green"},{"name":"Rock Inn","lat":51.02046,"lon":-3.35475,"postcode":"TA4 2AX","la":"Somerset","era":"trad","nn":3835,"risk":65,"cat":"red"},{"name":"Rose & Crown","lat":51.15058,"lon":-3.06766,"postcode":"TA5 2HF","la":"Somerset","era":"trad","nn":183,"risk":22,"cat":"green"},{"name":"Rose Inn","lat":51.01822,"lon":-3.08216,"postcode":"TA1 2EL","la":"Somerset","era":"trad","nn":501,"risk":24,"cat":"green"},{"name":"Royal British Legion","lat":51.18087,"lon":-3.00448,"postcode":"TA6 4RY","la":"Somerset","era":"trad","nn":277,"risk":37,"cat":"amber"},{"name":"Royal British Legion","lat":51.23767,"lon":-2.99691,"postcode":"TA8 1AL","la":"Somerset","era":"trad","nn":94,"risk":16,"cat":"green"},{"name":"Royal Oak Inn","lat":51.12931,"lon":-3.4529,"postcode":"TA23 0SH","la":"Somerset","era":"trad","nn":4633,"risk":70,"cat":"red"},{"name":"Sea Cadets Corp - T.S. Dulverton","lat":51.22884,"lon":-2.98696,"postcode":"TA8 1NN","la":"Somerset","era":"other","nn":412,"risk":21,"cat":"green"},{"name":"Seagull Inn (Public House - Catering)","lat":51.29062,"lon":-3.01172,"postcode":"TA8 2RF","la":"Somerset","era":"other","nn":369,"risk":21,"cat":"green"},{"name":"Sedgemoor Inn","lat":51.10868,"lon":-2.92821,"postcode":"TA7 0EB","la":"Somerset","era":"trad","nn":490,"risk":39,"cat":"amber"},{"name":"Shepherds Rest","lat":51.00813,"lon":-3.12494,"postcode":"TA1 5NZ","la":"Somerset","era":"other","nn":214,"risk":22,"cat":"green"},{"name":"Skylark","lat":50.98102,"lon":-3.20687,"postcode":"TA21 9AD","la":"Somerset","era":"other","nn":1419,"risk":48,"cat":"amber"},{"name":"Somerset Boat Centre","lat":51.05985,"lon":-2.98921,"postcode":"TA7 0DQ","la":"Somerset","era":"other","nn":1760,"risk":50,"cat":"amber"},{"name":"Somerton Sports Club","lat":51.05354,"lon":-2.74219,"postcode":"TA11 6HS","la":"Somerset","era":"other","nn":481,"risk":19,"cat":"green"},{"name":"South Petherton Bowling Club","lat":50.94918,"lon":-2.80353,"postcode":"TA13 5AU","la":"Somerset","era":"other","nn":0,"risk":20,"cat":"green"},{"name":"South Petherton Sports & Social Club","lat":50.94897,"lon":-2.80979,"postcode":"TA13 5BT","la":"Somerset","era":"mod","nn":47,"risk":21,"cat":"green"},{"name":"St John Ambulance Hall","lat":51.22041,"lon":-2.97459,"postcode":"TA9 3DA","la":"Somerset","era":"other","nn":154,"risk":19,"cat":"green"},{"name":"Stockland Sports & Social Club","lat":51.18582,"lon":-3.08883,"postcode":"TA5 2PZ","la":"Somerset","era":"mod","nn":2357,"risk":54,"cat":"amber"},{"name":"Stoke Sub Hamdon Working Men's Club","lat":50.95402,"lon":-2.74837,"postcode":"TA14 6PS","la":"Somerset","era":"trad","nn":198,"risk":34,"cat":"amber"},{"name":"Stonegallows","lat":51.00975,"lon":-3.13832,"postcode":"TA1 5JP","la":"Somerset","era":"other","nn":729,"risk":26,"cat":"green"},{"name":"Studio 36","lat":51.20599,"lon":-3.46172,"postcode":"TA24 5SH","la":"Somerset","era":"mod","nn":0,"risk":15,"cat":"green"},{"name":"Sugar Cafe Bar","lat":51.20678,"lon":-3.47413,"postcode":"TA24 5AY","la":"Somerset","era":"other","nn":0,"risk":15,"cat":"green"},{"name":"Tapstone Brewing Company Ltd","lat":50.87055,"lon":-2.95303,"postcode":"TA20 2BB","la":"Somerset","era":"other","nn":527,"risk":19,"cat":"green"},{"name":"Tarr Farm Inn Ltd","lat":51.07763,"lon":-3.61664,"postcode":"TA22 9PY","la":"Somerset","era":"trad","nn":6164,"risk":73,"cat":"red"},{"name":"Taunton Masonic Hall","lat":51.01246,"lon":-3.10529,"postcode":"TA1 4EB","la":"Somerset","era":"trad","nn":226,"risk":17,"cat":"green"},{"name":"The Abbey","lat":51.12788,"lon":-3.00732,"postcode":"TA6 3BN","la":"Somerset","era":"trad","nn":29,"risk":16,"cat":"green"},{"name":"The Allerford Inn","lat":51.01834,"lon":-3.17055,"postcode":"TA4 1AL","la":"Somerset","era":"trad","nn":1379,"risk":48,"cat":"amber"},{"name":"The Anchor Inn","lat":51.0155,"lon":-3.18974,"postcode":"TA4 1AW","la":"Somerset","era":"trad","nn":1379,"risk":48,"cat":"amber"},{"name":"The Ashcott Inn","lat":51.12826,"lon":-2.80889,"postcode":"TA7 9QQ","la":"Somerset","era":"trad","nn":251,"risk":37,"cat":"amber"},{"name":"The Babbling Brook","lat":51.19332,"lon":-3.14011,"postcode":"TA5 1QE","la":"Somerset","era":"other","nn":3670,"risk":64,"cat":"red"},{"name":"The Barton Inn","lat":51.08653,"lon":-2.65698,"postcode":"TA11 6BZ","la":"Somerset","era":"trad","nn":1248,"risk":47,"cat":"amber"},{"name":"The Beachcomber","lat":51.30403,"lon":-3.01025,"postcode":"TA8 2RP","la":"Somerset","era":"other","nn":551,"risk":39,"cat":"amber"},{"name":"The Beachcomber Inn","lat":51.20599,"lon":-3.46172,"postcode":"TA24 5SH","la":"Somerset","era":"trad","nn":0,"risk":15,"cat":"green"},{"name":"The Beambridge Inn","lat":50.96661,"lon":-3.27284,"postcode":"TA21 0HB","la":"Somerset","era":"trad","nn":1492,"risk":48,"cat":"amber"},{"name":"The Bear Inn","lat":51.04279,"lon":-3.31295,"postcode":"TA4 2JY","la":"Somerset","era":"trad","nn":1483,"risk":48,"cat":"amber"},{"name":"The Bell","lat":50.93449,"lon":-2.96554,"postcode":"TA19 9RG","la":"Somerset","era":"other","nn":546,"risk":37,"cat":"amber"},{"name":"The Bell","lat":50.85315,"lon":-2.88952,"postcode":"TA20 4HU","la":"Somerset","era":"other","nn":2073,"risk":52,"cat":"amber"},{"name":"The Bell Inn","lat":50.98342,"lon":-2.75111,"postcode":"TA12 6NS","la":"Somerset","era":"trad","nn":1143,"risk":46,"cat":"amber"},{"name":"The Bell Inn","lat":51.02694,"lon":-3.03928,"postcode":"TA3 5DP","la":"Somerset","era":"trad","nn":1080,"risk":46,"cat":"amber"},{"name":"The Bell Inn","lat":50.99262,"lon":-2.9618,"postcode":"TA3 6SY","la":"Somerset","era":"trad","nn":1878,"risk":51,"cat":"amber"},{"name":"The Bell Inn","lat":51.18261,"lon":-3.33122,"postcode":"TA23 0AN","la":"Somerset","era":"trad","nn":0,"risk":15,"cat":"green"},{"name":"The Bicknoller Inn","lat":51.14581,"lon":-3.27392,"postcode":"TA4 4EL","la":"Somerset","era":"trad","nn":3500,"risk":62,"cat":"red"},{"name":"The Bird In Hand","lat":51.02247,"lon":-2.97147,"postcode":"TA3 6LT","la":"Somerset","era":"other","nn":1602,"risk":49,"cat":"amber"},{"name":"The Black Horse","lat":51.01889,"lon":-3.10521,"postcode":"TA1 1UD","la":"Somerset","era":"trad","nn":104,"risk":16,"cat":"green"},{"name":"The Black Swan","lat":51.03886,"lon":-2.82726,"postcode":"TA10 9RQ","la":"Somerset","era":"trad","nn":256,"risk":35,"cat":"amber"},{"name":"The Blake Arms Hotel","lat":51.12738,"lon":-3.00775,"postcode":"TA6 3PF","la":"Somerset","era":"trad","nn":0,"risk":15,"cat":"green"},{"name":"The Blue Ball","lat":50.9538,"lon":-3.2665,"postcode":"TA21 9QL","la":"Somerset","era":"other","nn":1492,"risk":48,"cat":"amber"},{"name":"The Boss Lounge","lat":51.23737,"lon":-2.99818,"postcode":"TA8 1AU","la":"Somerset","era":"mod","nn":94,"risk":16,"cat":"green"},{"name":"The Brewer's Arms","lat":50.9492,"lon":-2.80924,"postcode":"TA13 5BW","la":"Somerset","era":"trad","nn":47,"risk":21,"cat":"green"},{"name":"The Bridge Inn","lat":51.03952,"lon":-3.55252,"postcode":"TA22 9HJ","la":"Somerset","era":"trad","nn":196,"risk":34,"cat":"amber"},{"name":"The Britannia Inn","lat":51.1949,"lon":-3.46573,"postcode":"TA24 6EH","la":"Somerset","era":"trad","nn":654,"risk":40,"cat":"amber"},{"name":"The Butchers Arms","lat":51.17344,"lon":-3.41895,"postcode":"TA24 6LP","la":"Somerset","era":"trad","nn":2153,"risk":53,"cat":"amber"},{"name":"The Canal Inn","lat":50.99773,"lon":-2.98737,"postcode":"TA3 6DF","la":"Somerset","era":"trad","nn":1878,"risk":51,"cat":"amber"},{"name":"The Candlelight Inn","lat":50.90961,"lon":-3.0589,"postcode":"TA20 3RS","la":"Somerset","era":"trad","nn":2186,"risk":53,"cat":"amber"},{"name":"The Castle","lat":51.20881,"lon":-3.59712,"postcode":"TA24 8PY","la":"Somerset","era":"other","nn":135,"risk":36,"cat":"amber"},{"name":"The Cat Head Inn","lat":50.92964,"lon":-2.75904,"postcode":"TA14 6TT","la":"Somerset","era":"trad","nn":1086,"risk":46,"cat":"amber"},{"name":"The Cerdic","lat":50.87304,"lon":-2.96151,"postcode":"TA20 1QA","la":"Somerset","era":"other","nn":0,"risk":15,"cat":"green"},{"name":"The Chapel","lat":51.03782,"lon":-3.18832,"postcode":"TA4 1HX","la":"Somerset","era":"other","nn":1977,"risk":52,"cat":"amber"},{"name":"The Choughs","lat":50.87229,"lon":-2.97071,"postcode":"TA20 1QT","la":"Somerset","era":"other","nn":283,"risk":17,"cat":"green"},{"name":"The Cobblestones","lat":51.12931,"lon":-2.99735,"postcode":"TA6 5AP","la":"Somerset","era":"other","nn":26,"risk":16,"cat":"green"},{"name":"The Commercial Inn","lat":51.12683,"lon":-2.98897,"postcode":"TA6 5BG","la":"Somerset","era":"trad","nn":252,"risk":17,"cat":"green"},{"name":"The Compass Tavern","lat":51.10009,"lon":-3.0023,"postcode":"TA6 6PR","la":"Somerset","era":"other","nn":363,"risk":36,"cat":"amber"},{"name":"The Cornhill","lat":51.12809,"lon":-3.00353,"postcode":"TA6 3BU","la":"Somerset","era":"other","nn":82,"risk":16,"cat":"green"},{"name":"The Cotley Inn","lat":50.8643,"lon":-3.00145,"postcode":"TA20 3EN","la":"Somerset","era":"trad","nn":2333,"risk":54,"cat":"amber"},{"name":"The Cottage Inn","lat":50.9742,"lon":-3.2319,"postcode":"TA21 8BH","la":"Somerset","era":"trad","nn":457,"risk":21,"cat":"green"},{"name":"The Cottage Inn","lat":51.13553,"lon":-3.02765,"postcode":"TA6 7PZ","la":"Somerset","era":"trad","nn":1102,"risk":46,"cat":"amber"},{"name":"The Cottage Inn","lat":51.14661,"lon":-3.12885,"postcode":"TA5 1HZ","la":"Somerset","era":"trad","nn":1705,"risk":50,"cat":"amber"},{"name":"The Cricketers","lat":51.01402,"lon":-3.10322,"postcode":"TA1 3PG","la":"Somerset","era":"other","nn":73,"risk":16,"cat":"green"},{"name":"The Crooked Swan","lat":50.88477,"lon":-2.79642,"postcode":"TA18 7HR","la":"Somerset","era":"trad","nn":40,"risk":16,"cat":"green"},{"name":"The Crown","lat":51.12747,"lon":-2.99332,"postcode":"TA6 5HZ","la":"Somerset","era":"trad","nn":60,"risk":16,"cat":"green"},{"name":"The Crown Inn","lat":51.15596,"lon":-2.86386,"postcode":"TA7 9HQ","la":"Somerset","era":"trad","nn":858,"risk":41,"cat":"amber"},{"name":"The Dolphin Hotel","lat":50.87283,"lon":-2.96324,"postcode":"TA20 1PT","la":"Somerset","era":"other","nn":124,"risk":16,"cat":"green"},{"name":"The Drayton Crown","lat":51.01884,"lon":-2.84929,"postcode":"TA10 0JY","la":"Somerset","era":"trad","nn":1506,"risk":49,"cat":"amber"},{"name":"The Duke","lat":51.12761,"lon":-3.00706,"postcode":"TA6 3BQ","la":"Somerset","era":"trad","nn":35,"risk":16,"cat":"green"},{"name":"The Etsome Arms","lat":51.0536,"lon":-2.73039,"postcode":"TA11 7PS","la":"Somerset","era":"trad","nn":35,"risk":16,"cat":"green"},{"name":"The Farmers Arms","lat":50.97291,"lon":-3.03726,"postcode":"TA3 5RS","la":"Somerset","era":"trad","nn":1637,"risk":49,"cat":"amber"},{"name":"The Farmers Arms","lat":51.07824,"lon":-3.21212,"postcode":"TA4 3HZ","la":"Somerset","era":"trad","nn":2271,"risk":54,"cat":"amber"},{"name":"The Firehouse Somerset","lat":51.02344,"lon":-2.86955,"postcode":"TA10 0HE","la":"Somerset","era":"mod","nn":1506,"risk":49,"cat":"amber"},{"name":"The Flying Fish Pub","lat":50.9442,"lon":-2.98375,"postcode":"TA19 9NX","la":"Somerset","era":"other","nn":1557,"risk":49,"cat":"amber"},{"name":"The Flying Horse","lat":51.0122,"lon":-3.08571,"postcode":"TA1 2HH","la":"Somerset","era":"trad","nn":557,"risk":19,"cat":"green"},{"name":"The George Hotel","lat":50.88488,"lon":-2.79523,"postcode":"TA18 7LP","la":"Somerset","era":"trad","nn":37,"risk":16,"cat":"green"},{"name":"The George Inn (trading as Faulkners Catering Consultancy Ltd)","lat":50.92238,"lon":-2.94267,"postcode":"TA19 0RW","la":"Somerset","era":"trad","nn":1926,"risk":51,"cat":"amber"},{"name":"The Globe Inn","lat":50.87066,"lon":-2.77522,"postcode":"TA18 8LX","la":"Somerset","era":"trad","nn":415,"risk":38,"cat":"amber"},{"name":"The Globe Inn","lat":51.05356,"lon":-2.72815,"postcode":"TA11 7LX","la":"Somerset","era":"trad","nn":0,"risk":15,"cat":"green"},{"name":"The Globe Inn","lat":51.2206,"lon":-2.97678,"postcode":"TA9 3HX","la":"Somerset","era":"trad","nn":154,"risk":19,"cat":"green"},{"name":"The Globe Inn","lat":51.02459,"lon":-3.25176,"postcode":"TA4 1JX","la":"Somerset","era":"trad","nn":486,"risk":39,"cat":"amber"},{"name":"The Globe Inn","lat":50.98501,"lon":-3.3242,"postcode":"TA21 0HJ","la":"Somerset","era":"trad","nn":4127,"risk":67,"cat":"red"},{"name":"The Green Dragon","lat":50.89641,"lon":-2.99295,"postcode":"TA20 3NG","la":"Somerset","era":"trad","nn":523,"risk":39,"cat":"amber"},{"name":"The Greyhound","lat":50.96064,"lon":-3.05016,"postcode":"TA3 5SP","la":"Somerset","era":"trad","nn":1637,"risk":49,"cat":"amber"},{"name":"The Grumpy Foxx","lat":50.95139,"lon":-2.92695,"postcode":"TA19 9EY","la":"Somerset","era":"trad","nn":136,"risk":34,"cat":"amber"},{"name":"The Hairy Dog","lat":51.20629,"lon":-3.47422,"postcode":"TA24 5AZ","la":"Somerset","era":"other","nn":55,"risk":16,"cat":"green"},{"name":"The Half Moon Inn","lat":50.99562,"lon":-3.05016,"postcode":"TA3 5BY","la":"Somerset","era":"trad","nn":1806,"risk":51,"cat":"amber"},{"name":"The Halfway House","lat":51.04623,"lon":-2.78738,"postcode":"TA10 9AB","la":"Somerset","era":"other","nn":2189,"risk":53,"cat":"amber"},{"name":"The Hatch Inn","lat":50.97937,"lon":-2.99697,"postcode":"TA3 6SG","la":"Somerset","era":"trad","nn":2150,"risk":53,"cat":"amber"},{"name":"The Haymaker","lat":50.89021,"lon":-2.98011,"postcode":"TA20 3AP","la":"Somerset","era":"other","nn":1134,"risk":46,"cat":"amber"},{"name":"The Highwayman","lat":51.20599,"lon":-3.46172,"postcode":"TA24 5SH","la":"Somerset","era":"other","nn":0,"risk":15,"cat":"green"},{"name":"The Iron Duke","lat":51.235,"lon":-2.9989,"postcode":"TA8 1BB","la":"Somerset","era":"trad","nn":104,"risk":16,"cat":"green"},{"name":"The Iron Duke","lat":50.97843,"lon":-3.22804,"postcode":"TA21 8LU","la":"Somerset","era":"trad","nn":94,"risk":19,"cat":"green"},{"name":"The King Alfred Inn","lat":51.07043,"lon":-2.91824,"postcode":"TA7 0RB","la":"Somerset","era":"trad","nn":3004,"risk":59,"cat":"amber"},{"name":"The Kings Arms Inn","lat":50.95065,"lon":-2.71825,"postcode":"TA15 6UU","la":"Somerset","era":"trad","nn":234,"risk":37,"cat":"amber"},{"name":"The Kings Head","lat":50.9126,"lon":-2.79071,"postcode":"TA16 5PR","la":"Somerset","era":"trad","nn":360,"risk":38,"cat":"amber"},{"name":"The Kings Head Inn","lat":51.0786,"lon":-2.82147,"postcode":"TA10 9DE","la":"Somerset","era":"trad","nn":3207,"risk":60,"cat":"amber"},{"name":"The Kingsdon Inn","lat":51.03304,"lon":-2.68865,"postcode":"TA11 7LG","la":"Somerset","era":"trad","nn":3124,"risk":60,"cat":"amber"},{"name":"The Knowls","lat":51.00446,"lon":-3.11415,"postcode":"TA1 4QW","la":"Somerset","era":"other","nn":709,"risk":38,"cat":"amber"},{"name":"The Lawns Social Club Taunton Ltd","lat":51.01253,"lon":-3.10106,"postcode":"TA1 3PE","la":"Somerset","era":"mod","nn":223,"risk":17,"cat":"green"},{"name":"The Lethbridge Arms","lat":51.05559,"lon":-3.18815,"postcode":"TA4 3BW","la":"Somerset","era":"trad","nn":1241,"risk":47,"cat":"amber"},{"name":"The Lighthouse","lat":51.23129,"lon":-2.99139,"postcode":"TA8 1LN","la":"Somerset","era":"other","nn":412,"risk":18,"cat":"green"},{"name":"The Lime Kiln Inn","lat":51.1265,"lon":-2.9984,"postcode":"TA6 5LU","la":"Somerset","era":"trad","nn":73,"risk":16,"cat":"green"},{"name":"The Lime Kiln Inn","lat":51.02897,"lon":-2.74158,"postcode":"TA10 9JH","la":"Somerset","era":"trad","nn":832,"risk":41,"cat":"amber"},{"name":"The Lion Inn","lat":51.16717,"lon":-3.49376,"postcode":"TA24 7TP","la":"Somerset","era":"trad","nn":3546,"risk":63,"cat":"red"},{"name":"The Lord Nelson","lat":50.93997,"lon":-2.75314,"postcode":"TA14 6SP","la":"Somerset","era":"trad","nn":1221,"risk":47,"cat":"amber"},{"name":"The Lord Poulett Arms","lat":50.91039,"lon":-2.82489,"postcode":"TA17 8SE","la":"Somerset","era":"trad","nn":1792,"risk":51,"cat":"amber"},{"name":"The Manor Arms","lat":50.88227,"lon":-2.74799,"postcode":"TA18 7SG","la":"Somerset","era":"trad","nn":112,"risk":36,"cat":"amber"},{"name":"The Martlet Inn","lat":50.99735,"lon":-3.26858,"postcode":"TA21 0QZ","la":"Somerset","era":"trad","nn":3027,"risk":59,"cat":"amber"},{"name":"The Masons Arms","lat":51.16422,"lon":-3.32236,"postcode":"TA4 4SN","la":"Somerset","era":"trad","nn":486,"risk":36,"cat":"amber"},{"name":"The Maypole Inn","lat":51.059,"lon":-3.03716,"postcode":"TA2 8RF","la":"Somerset","era":"trad","nn":2987,"risk":59,"cat":"amber"},{"name":"The Merry Monk","lat":51.03658,"lon":-3.06446,"postcode":"TA2 8NE","la":"Somerset","era":"trad","nn":1000,"risk":45,"cat":"amber"},{"name":"The Muddled Man","lat":50.91995,"lon":-2.75712,"postcode":"TA18 7PT","la":"Somerset","era":"other","nn":1086,"risk":46,"cat":"amber"},{"name":"The New Foresters","lat":51.12801,"lon":-2.99337,"postcode":"TA6 5HX","la":"Somerset","era":"other","nn":60,"risk":16,"cat":"green"},{"name":"The New Inn","lat":50.90773,"lon":-2.89048,"postcode":"TA19 0NZ","la":"Somerset","era":"trad","nn":2228,"risk":54,"cat":"amber"},{"name":"The Old Inn","lat":51.0162,"lon":-3.13644,"postcode":"TA1 5EG","la":"Somerset","era":"trad","nn":729,"risk":38,"cat":"amber"},{"name":"The Old Pound Inn","lat":51.06088,"lon":-2.85769,"postcode":"TA10 0RA","la":"Somerset","era":"trad","nn":3207,"risk":60,"cat":"amber"},{"name":"The Old Ship Aground","lat":51.21283,"lon":-3.47443,"postcode":"TA24 5UL","la":"Somerset","era":"trad","nn":247,"risk":17,"cat":"green"},{"name":"The Orchard","lat":51.20762,"lon":-2.98723,"postcode":"TA9 3SA","la":"Somerset","era":"other","nn":1558,"risk":49,"cat":"amber"},{"name":"The Pavilion at Shapwick","lat":51.13996,"lon":-2.83225,"postcode":"TA7 9LN","la":"Somerset","era":"trad","nn":2057,"risk":52,"cat":"amber"},{"name":"The Pavilion Miliverton Recreation Ground","lat":51.02384,"lon":-3.2586,"postcode":"TA4 1JR","la":"Somerset","era":"trad","nn":486,"risk":39,"cat":"amber"},{"name":"The Pavilion Sports Club","lat":50.94918,"lon":-2.80353,"postcode":"TA13 5AU","la":"Somerset","era":"trad","nn":0,"risk":20,"cat":"green"},{"name":"The Phelips Arms","lat":50.94942,"lon":-2.71554,"postcode":"TA15 6XB","la":"Somerset","era":"trad","nn":234,"risk":37,"cat":"amber"},{"name":"The Phoenix Hotel","lat":50.87293,"lon":-2.96525,"postcode":"TA20 1PH","la":"Somerset","era":"other","nn":112,"risk":16,"cat":"green"},{"name":"The Plough Inn","lat":51.02152,"lon":-3.10348,"postcode":"TA1 1PB","la":"Somerset","era":"trad","nn":50,"risk":16,"cat":"green"},{"name":"The Prince of Wales Inn","lat":50.95026,"lon":-2.74668,"postcode":"TA14 6RW","la":"Somerset","era":"trad","nn":431,"risk":36,"cat":"amber"},{"name":"The Princess Royal Inn","lat":51.01713,"lon":-3.09893,"postcode":"TA1 1SW","la":"Somerset","era":"trad","nn":147,"risk":16,"cat":"green"},{"name":"The Pub","lat":50.97948,"lon":-3.22698,"postcode":"TA21 8QT","la":"Somerset","era":"other","nn":138,"risk":19,"cat":"green"},{"name":"The Quarry Inn Ltd","lat":51.07671,"lon":-2.6483,"postcode":"TA11 6DZ","la":"Somerset","era":"trad","nn":1248,"risk":47,"cat":"amber"},{"name":"The Quay Inn","lat":51.21062,"lon":-3.474,"postcode":"TA24 5UJ","la":"Somerset","era":"trad","nn":247,"risk":17,"cat":"green"},{"name":"The Queens Arms","lat":50.96689,"lon":-3.11103,"postcode":"TA3 7AZ","la":"Somerset","era":"trad","nn":1498,"risk":48,"cat":"amber"},{"name":"The Queens Head Inn","lat":51.20641,"lon":-3.4795,"postcode":"TA24 5NR","la":"Somerset","era":"trad","nn":369,"risk":18,"cat":"green"},{"name":"The Railway Inn","lat":51.16344,"lon":-3.3155,"postcode":"TA4 4QY","la":"Somerset","era":"trad","nn":486,"risk":36,"cat":"amber"},{"name":"The Red Cow","lat":51.25657,"lon":-2.9629,"postcode":"TA9 4BE","la":"Somerset","era":"other","nn":1991,"risk":52,"cat":"amber"},{"name":"The Red Lion Inn","lat":51.05557,"lon":-2.6199,"postcode":"TA11 7ED","la":"Somerset","era":"trad","nn":2414,"risk":55,"cat":"amber"},{"name":"The Rising Sun","lat":51.02659,"lon":-2.99342,"postcode":"TA3 6BG","la":"Somerset","era":"other","nn":1602,"risk":49,"cat":"amber"},{"name":"The Rising Sun Inn","lat":51.09352,"lon":-3.18486,"postcode":"TA4 3EF","la":"Somerset","era":"trad","nn":2552,"risk":56,"cat":"amber"},{"name":"The Rose and Crown East Lambrook Ltd","lat":50.96736,"lon":-2.81391,"postcode":"TA13 5HF","la":"Somerset","era":"trad","nn":1471,"risk":48,"cat":"amber"},{"name":"The Rosewood","lat":51.23741,"lon":-2.98602,"postcode":"TA8 1EZ","la":"Somerset","era":"other","nn":534,"risk":19,"cat":"green"},{"name":"The Royal British Legion","lat":51.18227,"lon":-3.33186,"postcode":"TA23 0AR","la":"Somerset","era":"trad","nn":24,"risk":16,"cat":"green"},{"name":"The Royal Oak","lat":51.05438,"lon":-2.73544,"postcode":"TA11 6NA","la":"Somerset","era":"trad","nn":334,"risk":18,"cat":"green"},{"name":"The Royal Oak","lat":50.9354,"lon":-2.8058,"postcode":"TA13 5LQ","la":"Somerset","era":"trad","nn":1132,"risk":46,"cat":"amber"},{"name":"The Royal Oak","lat":51.02794,"lon":-3.21369,"postcode":"TA4 1DS","la":"Somerset","era":"trad","nn":2087,"risk":53,"cat":"amber"},{"name":"The Royal Oak","lat":51.20926,"lon":-3.59531,"postcode":"TA24 8PS","la":"Somerset","era":"trad","nn":135,"risk":36,"cat":"amber"},{"name":"The Royal Oak (r.oakilminsterltd)","lat":50.92312,"lon":-2.91084,"postcode":"TA19 0EH","la":"Somerset","era":"trad","nn":487,"risk":39,"cat":"amber"},{"name":"The Ruishton Inn","lat":51.02019,"lon":-3.05038,"postcode":"TA3 5JW","la":"Somerset","era":"trad","nn":979,"risk":42,"cat":"amber"},{"name":"The Rusty Axe","lat":50.9801,"lon":-2.81956,"postcode":"TA12 6BL","la":"Somerset","era":"other","nn":1471,"risk":48,"cat":"amber"},{"name":"The Ship Inn","lat":51.20684,"lon":-3.62346,"postcode":"TA24 8QD","la":"Somerset","era":"trad","nn":1848,"risk":51,"cat":"amber"},{"name":"The Somerset & Dorset","lat":51.23469,"lon":-2.99736,"postcode":"TA8 1NX","la":"Somerset","era":"other","nn":0,"risk":15,"cat":"green"},{"name":"The Somerset Inn","lat":51.01713,"lon":-3.08911,"postcode":"TA1 3HY","la":"Somerset","era":"trad","nn":123,"risk":16,"cat":"green"},{"name":"The Sportsman","lat":51.1326,"lon":-2.99331,"postcode":"TA6 4PH","la":"Somerset","era":"other","nn":0,"risk":15,"cat":"green"},{"name":"The Stags Head Inn","lat":51.18218,"lon":-3.44651,"postcode":"TA24 6SN","la":"Somerset","era":"trad","nn":178,"risk":37,"cat":"amber"},{"name":"The Star Inn","lat":51.1824,"lon":-3.33213,"postcode":"TA23 0BZ","la":"Somerset","era":"trad","nn":24,"risk":16,"cat":"green"},{"name":"The Swan","lat":51.06114,"lon":-3.1139,"postcode":"TA2 8HW","la":"Somerset","era":"trad","nn":2802,"risk":58,"cat":"amber"},{"name":"The Three Horseshoes","lat":51.0542,"lon":-3.32393,"postcode":"TA4 2UL","la":"Somerset","era":"trad","nn":1483,"risk":48,"cat":"amber"},{"name":"The Unicorn Hotel","lat":51.05382,"lon":-2.73075,"postcode":"TA11 7PR","la":"Somerset","era":"other","nn":35,"risk":16,"cat":"green"},{"name":"The Valiant Soldier","lat":51.13477,"lon":-3.38708,"postcode":"TA23 0QZ","la":"Somerset","era":"other","nn":3245,"risk":61,"cat":"red"},{"name":"The Vivary Arms","lat":51.00983,"lon":-3.10868,"postcode":"TA1 3JR","la":"Somerset","era":"trad","nn":376,"risk":18,"cat":"green"},{"name":"The Waggon","lat":51.03319,"lon":-3.09581,"postcode":"TA2 7JN","la":"Somerset","era":"other","nn":728,"risk":41,"cat":"amber"},{"name":"The Washford Inn","lat":51.16155,"lon":-3.36856,"postcode":"TA23 0PP","la":"Somerset","era":"trad","nn":3235,"risk":61,"cat":"red"},{"name":"The West Somerset Hotel","lat":51.18162,"lon":-3.33051,"postcode":"TA23 0AB","la":"Somerset","era":"other","nn":87,"risk":16,"cat":"green"},{"name":"The White Hart","lat":51.05356,"lon":-2.72815,"postcode":"TA11 7LX","la":"Somerset","era":"trad","nn":0,"risk":15,"cat":"green"},{"name":"The White Hart Inn","lat":50.88498,"lon":-2.79473,"postcode":"TA18 7LW","la":"Somerset","era":"trad","nn":37,"risk":16,"cat":"green"},{"name":"The White Horse","lat":50.89657,"lon":-2.75223,"postcode":"TA18 7RJ","la":"Somerset","era":"trad","nn":1555,"risk":49,"cat":"amber"},{"name":"The White Swan","lat":50.8691,"lon":-2.76985,"postcode":"TA18 8NR","la":"Somerset","era":"trad","nn":415,"risk":38,"cat":"amber"},{"name":"The Winchester Arms","lat":50.99277,"lon":-3.11699,"postcode":"TA3 7LG","la":"Somerset","era":"trad","nn":1315,"risk":47,"cat":"amber"},{"name":"The Winsham Community Club","lat":51.16166,"lon":-3.04114,"postcode":"TA20 4JN","la":"Somerset","era":"other","nn":0,"risk":33,"cat":"amber"},{"name":"The Worlds End","lat":50.99056,"lon":-3.17849,"postcode":"TA4 1ET","la":"Somerset","era":"other","nn":1027,"risk":45,"cat":"amber"},{"name":"The York Inn","lat":50.90717,"lon":-3.1208,"postcode":"TA3 7RF","la":"Somerset","era":"trad","nn":3565,"risk":63,"cat":"red"},{"name":"Trimwise Health & Fitness","lat":51.12926,"lon":-2.99772,"postcode":"TA6 5AP","la":"Somerset","era":"other","nn":26,"risk":16,"cat":"green"},{"name":"Vaux Park Polo Club","lat":50.93355,"lon":-2.78991,"postcode":"TA13 5LP","la":"Somerset","era":"other","nn":1132,"risk":46,"cat":"amber"},{"name":"Victoria Arms","lat":50.97903,"lon":-3.22961,"postcode":"TA21 8LY","la":"Somerset","era":"trad","nn":128,"risk":19,"cat":"green"},{"name":"Victoria Gate","lat":51.0163,"lon":-3.09028,"postcode":"TA1 3EZ","la":"Somerset","era":"trad","nn":123,"risk":16,"cat":"green"},{"name":"Victoria Park Bowling Club","lat":51.13066,"lon":-3.0139,"postcode":"TA6 7AD","la":"Somerset","era":"trad","nn":286,"risk":17,"cat":"green"},{"name":"Vintage Inn","lat":50.97759,"lon":-3.22819,"postcode":"TA21 8AQ","la":"Somerset","era":"trad","nn":94,"risk":19,"cat":"green"},{"name":"Volunteer Inn","lat":50.93353,"lon":-2.84167,"postcode":"TA19 0QE","la":"Somerset","era":"trad","nn":2118,"risk":53,"cat":"amber"},{"name":"Watchet Bowling Club","lat":51.17887,"lon":-3.32169,"postcode":"TA23 0EW","la":"Somerset","era":"other","nn":284,"risk":17,"cat":"green"},{"name":"Watchet Town Football Club","lat":51.18131,"lon":-3.32293,"postcode":"TA23 0TE","la":"Somerset","era":"other","nn":284,"risk":17,"cat":"green"},{"name":"Watchfield Inn","lat":51.21942,"lon":-2.93474,"postcode":"TA9 4RD","la":"Somerset","era":"trad","nn":1187,"risk":46,"cat":"amber"},{"name":"West India House","lat":51.12322,"lon":-3.02834,"postcode":"TA6 7JE","la":"Somerset","era":"other","nn":937,"risk":27,"cat":"green"},{"name":"White Horse Inn","lat":50.99964,"lon":-3.18126,"postcode":"TA4 1HF","la":"Somerset","era":"trad","nn":1027,"risk":45,"cat":"amber"},{"name":"White Willow","lat":51.10175,"lon":-2.99783,"postcode":"TA6 6DF","la":"Somerset","era":"trad","nn":363,"risk":38,"cat":"amber"},{"name":"Wild Rocket Restaurant Bar","lat":51.12829,"lon":-3.0055,"postcode":"TA6 3BJ","la":"Somerset","era":"other","nn":53,"risk":16,"cat":"green"},{"name":"Wildwood","lat":51.01463,"lon":-3.10283,"postcode":"TA1 1JD","la":"Somerset","era":"other","nn":72,"risk":16,"cat":"green"},{"name":"Windwhistle Inn","lat":50.8832,"lon":-2.87748,"postcode":"TA20 4DQ","la":"Somerset","era":"trad","nn":1284,"risk":47,"cat":"amber"},{"name":"Wyndham Arms","lat":51.15944,"lon":-3.31962,"postcode":"TA4 4NW","la":"Somerset","era":"trad","nn":530,"risk":37,"cat":"amber"},{"name":"Ye Olde Poppe Inn Ltd","lat":50.84638,"lon":-2.95883,"postcode":"TA20 2NZ","la":"Somerset","era":"trad","nn":970,"risk":42,"cat":"amber"},{"name":"Zinc Taunton","lat":51.01822,"lon":-3.10417,"postcode":"TA1 1UB","la":"Somerset","era":"other","nn":104,"risk":16,"cat":"green"}]