[{"name":"Black Bull","lat":53.64225,"lon":-2.39703,"postcode":"BL7 0AF","la":"Blackburn with Darwen","era":"trad","nn":132,"risk":32,"cat":"amber"},{"name":"Bolton Sailing Club c/o  Rear Commodore","lat":53.64531,"lon":-2.49647,"postcode":"BL7 8BD","la":"Blackburn with Darwen","era":"other","nn":854,"risk":52,"cat":"amber"},{"name":"Edgworth Cricket Club","lat":53.64306,"lon":-2.39556,"postcode":"BL7 0AP","la":"Blackburn with Darwen","era":"other","nn":132,"risk":32,"cat":"amber"},{"name":"Jumbles Sailing Club","lat":53.62812,"lon":-2.40426,"postcode":"BL7 0HJ","la":"Blackburn with Darwen","era":"other","nn":482,"risk":50,"cat":"amber"},{"name":"King William Hotel","lat":53.62554,"lon":-2.41013,"postcode":"BL7 9AN","la":"Blackburn with Darwen","era":"trad","nn":482,"risk":50,"cat":"amber"},{"name":"Rose and Crown","lat":53.64557,"lon":-2.38977,"postcode":"BL7 0AR","la":"Blackburn with Darwen","era":"trad","nn":473,"risk":47,"cat":"amber"},{"name":"Strawbury Duck","lat":53.65296,"lon":-2.41692,"postcode":"BL7 0LU","la":"Blackburn with Darwen","era":"other","nn":1771,"risk":61,"cat":"red"},{"name":"The Black Dog Inn","lat":53.63772,"lon":-2.49446,"postcode":"BL7 8AB","la":"Blackburn with Darwen","era":"trad","nn":854,"risk":52,"cat":"amber"},{"name":"The Chetham Arms","lat":53.63765,"lon":-2.4051,"postcode":"BL7 0EW","la":"Blackburn with Darwen","era":"trad","nn":738,"risk":49,"cat":"amber"},{"name":"Ainsworth Arms","lat":53.59618,"lon":-2.45019,"postcode":"BL1 8BY","la":"Bolton","era":"trad","nn":235,"risk":24,"cat":"green"},{"name":"Astley Bridge Conservative Club","lat":53.60124,"lon":-2.43421,"postcode":"BL1 8NP","la":"Bolton","era":"other","nn":161,"risk":24,"cat":"green"},{"name":"Astley Bridge Cricket Club","lat":53.60004,"lon":-2.44212,"postcode":"BL1 6PZ","la":"Bolton","era":"other","nn":538,"risk":26,"cat":"green"},{"name":"Balmoral Hotel","lat":53.57735,"lon":-2.42648,"postcode":"BL1 1QQ","la":"Bolton","era":"other","nn":28,"risk":23,"cat":"green"},{"name":"Bank Top Brewery Ale House","lat":53.59872,"lon":-2.53787,"postcode":"BL6 6AD","la":"Bolton","era":"other","nn":374,"risk":25,"cat":"green"},{"name":"Barristers At The Swan","lat":53.5794,"lon":-2.42644,"postcode":"BL1 1HJ","la":"Bolton","era":"trad","nn":38,"risk":23,"cat":"green"},{"name":"Beaumont Arms","lat":53.57014,"lon":-2.47604,"postcode":"BL3 4XB","la":"Bolton","era":"trad","nn":522,"risk":26,"cat":"green"},{"name":"Beeley's Bar","lat":53.60138,"lon":-2.55415,"postcode":"BL6 7QH","la":"Bolton","era":"other","nn":34,"risk":23,"cat":"green"},{"name":"Blackrod Conservative Club","lat":53.59432,"lon":-2.58549,"postcode":"BL6 5EQ","la":"Bolton","era":"other","nn":86,"risk":28,"cat":"green"},{"name":"Blackrod Cricket Club","lat":53.59148,"lon":-2.5798,"postcode":"BL6 5AA","la":"Bolton","era":"other","nn":332,"risk":27,"cat":"green"},{"name":"Blundell Arms","lat":53.59531,"lon":-2.50622,"postcode":"BL6 6PY","la":"Bolton","era":"trad","nn":1587,"risk":56,"cat":"amber"},{"name":"Bolton Castle","lat":53.59607,"lon":-2.41103,"postcode":"BL2 3BQ","la":"Bolton","era":"other","nn":704,"risk":45,"cat":"amber"},{"name":"Bolton Irish Centre","lat":53.56907,"lon":-2.42486,"postcode":"BL3 2AB","la":"Bolton","era":"other","nn":222,"risk":24,"cat":"green"},{"name":"Bolton Masonic Hall","lat":53.57836,"lon":-2.42363,"postcode":"BL1 1PZ","la":"Bolton","era":"trad","nn":142,"risk":24,"cat":"green"},{"name":"Bolton Rugby Union F.C.","lat":53.58547,"lon":-2.44496,"postcode":"BL1 3AW","la":"Bolton","era":"other","nn":222,"risk":24,"cat":"green"},{"name":"Bolton Snooker Club Ltd","lat":53.56445,"lon":-2.4123,"postcode":"BL3 2ND","la":"Bolton","era":"other","nn":741,"risk":33,"cat":"amber"},{"name":"Bolton Socialist Club","lat":53.57858,"lon":-2.42575,"postcode":"BL1 1DY","la":"Bolton","era":"mod","nn":52,"risk":23,"cat":"green"},{"name":"Bolton Ukranian Social Club","lat":53.57754,"lon":-2.41571,"postcode":"BL2 1JP","la":"Bolton","era":"mod","nn":105,"risk":23,"cat":"green"},{"name":"Bowling Green","lat":53.58049,"lon":-2.40773,"postcode":"BL2 6AX","la":"Bolton","era":"other","nn":339,"risk":27,"cat":"green"},{"name":"Bowling Green Horwich Limited T/A The Bowling Green","lat":53.60194,"lon":-2.55144,"postcode":"BL6 7JD","la":"Bolton","era":"other","nn":0,"risk":23,"cat":"green"},{"name":"Bradshaw Conservative Club","lat":53.60558,"lon":-2.39885,"postcode":"BL2 3ET","la":"Bolton","era":"other","nn":0,"risk":25,"cat":"green"},{"name":"Bradshaw Cricket, Tennis & Bowling Club","lat":53.60744,"lon":-2.40384,"postcode":"BL2 3EL","la":"Bolton","era":"other","nn":389,"risk":28,"cat":"green"},{"name":"Breightmet Conservative Club","lat":53.58093,"lon":-2.38973,"postcode":"BL2 6JD","la":"Bolton","era":"other","nn":245,"risk":24,"cat":"green"},{"name":"Breightmet United Football Club","lat":53.57984,"lon":-2.38065,"postcode":"BL2 6NX","la":"Bolton","era":"other","nn":224,"risk":24,"cat":"green"},{"name":"Bridge Hotel","lat":53.59926,"lon":-2.54347,"postcode":"BL6 7BR","la":"Bolton","era":"other","nn":136,"risk":24,"cat":"green"},{"name":"Bridgewater Hotel","lat":53.54217,"lon":-2.40142,"postcode":"BL4 9PF","la":"Bolton","era":"other","nn":270,"risk":24,"cat":"green"},{"name":"Bunbury's","lat":53.58819,"lon":-2.45746,"postcode":"BL1 6AH","la":"Bolton","era":"other","nn":791,"risk":28,"cat":"green"},{"name":"Bytes","lat":53.54865,"lon":-2.52213,"postcode":"BL5 3AG","la":"Bolton","era":"other","nn":25,"risk":23,"cat":"green"},{"name":"Church Ward Conservative Club","lat":53.57669,"lon":-2.41501,"postcode":"BL2 1JL","la":"Bolton","era":"other","nn":105,"risk":23,"cat":"green"},{"name":"Colliers Arms","lat":53.59145,"lon":-2.48081,"postcode":"BL1 5SX","la":"Bolton","era":"trad","nn":45,"risk":23,"cat":"green"},{"name":"Coopers Taverns (The Moss Rose)","lat":53.53956,"lon":-2.37457,"postcode":"BL4 8QG","la":"Bolton","era":"trad","nn":132,"risk":24,"cat":"green"},{"name":"Cotton Kier","lat":53.59719,"lon":-2.42397,"postcode":"BL1 8TS","la":"Bolton","era":"other","nn":573,"risk":27,"cat":"green"},{"name":"Crofters Arms","lat":53.59529,"lon":-2.44696,"postcode":"BL1 8BP","la":"Bolton","era":"trad","nn":0,"risk":23,"cat":"green"},{"name":"Crown Hotel","lat":53.60158,"lon":-2.55376,"postcode":"BL6 7QJ","la":"Bolton","era":"trad","nn":34,"risk":23,"cat":"green"},{"name":"Crux Emporium","lat":53.60002,"lon":-2.54602,"postcode":"BL6 7AX","la":"Bolton","era":"other","nn":0,"risk":23,"cat":"green"},{"name":"Daisy Hill Football Club","lat":53.53321,"lon":-2.51951,"postcode":"BL5 2EB","la":"Bolton","era":"other","nn":196,"risk":41,"cat":"amber"},{"name":"Darcy Lever Cricket & Sports Club","lat":53.56762,"lon":-2.40243,"postcode":"BL3 1SD","la":"Bolton","era":"other","nn":120,"risk":41,"cat":"amber"},{"name":"Deane Golf Club","lat":53.56879,"lon":-2.46847,"postcode":"BL3 4NS","la":"Bolton","era":"other","nn":157,"risk":24,"cat":"green"},{"name":"Definitely Maybe Bar","lat":53.57785,"lon":-2.42805,"postcode":"BL1 1LD","la":"Bolton","era":"other","nn":33,"risk":23,"cat":"green"},{"name":"Defnitely maybe bar","lat":53.57747,"lon":-2.42684,"postcode":"BL1 1JT","la":"Bolton","era":"other","nn":0,"risk":23,"cat":"green"},{"name":"D'Havilland","lat":53.55022,"lon":-2.40839,"postcode":"BL4 7EQ","la":"Bolton","era":"other","nn":244,"risk":24,"cat":"green"},{"name":"Diversion","lat":53.5801,"lon":-2.42927,"postcode":"BL1 2AN","la":"Bolton","era":"other","nn":112,"risk":23,"cat":"green"},{"name":"Doffcocker Inn","lat":53.58999,"lon":-2.47188,"postcode":"BL1 5QD","la":"Bolton","era":"trad","nn":102,"risk":23,"cat":"green"},{"name":"Duke Of Wellington","lat":53.56381,"lon":-2.50307,"postcode":"BL6 4HA","la":"Bolton","era":"trad","nn":14,"risk":40,"cat":"amber"},{"name":"Dunscar Golf Club","lat":53.61917,"lon":-2.4438,"postcode":"BL7 9QY","la":"Bolton","era":"other","nn":493,"risk":29,"cat":"green"},{"name":"Egerton Cricket Club","lat":53.63218,"lon":-2.44344,"postcode":"BL7 9TH","la":"Bolton","era":"other","nn":31,"risk":28,"cat":"green"},{"name":"Ellesmere Recreation Club","lat":53.55931,"lon":-2.4496,"postcode":"BL3 3JT","la":"Bolton","era":"other","nn":238,"risk":29,"cat":"green"},{"name":"Farnworth and Kearsley events","lat":54.6053,"lon":-2.57884,"postcode":"BL4 9BD","la":"Bolton","era":"other","nn":982,"risk":49,"cat":"amber"},{"name":"Farnworth Cricket & Bowling Club","lat":53.55458,"lon":-2.41721,"postcode":"BL4 0EA","la":"Bolton","era":"other","nn":698,"risk":27,"cat":"green"},{"name":"Farnworth Masonic Hall","lat":53.55378,"lon":-2.40088,"postcode":"BL4 7NG","la":"Bolton","era":"trad","nn":209,"risk":24,"cat":"green"},{"name":"Farnworth Social Circle","lat":53.54229,"lon":-2.4055,"postcode":"BL4 9QJ","la":"Bolton","era":"mod","nn":270,"risk":24,"cat":"green"},{"name":"Finishers Arms","lat":53.59156,"lon":-2.46807,"postcode":"BL1 5RE","la":"Bolton","era":"trad","nn":45,"risk":23,"cat":"green"},{"name":"Frame 3 Snooker","lat":53.56373,"lon":-2.44325,"postcode":"BL3 3BJ","la":"Bolton","era":"trad","nn":490,"risk":26,"cat":"green"},{"name":"Freemasons","lat":53.54978,"lon":-2.39506,"postcode":"BL4 7NY","la":"Bolton","era":"trad","nn":0,"risk":23,"cat":"green"},{"name":"Game Vault Bolton","lat":53.58109,"lon":-2.42959,"postcode":"BL1 2AL","la":"Bolton","era":"other","nn":72,"risk":23,"cat":"green"},{"name":"Gilnow Arms","lat":53.57274,"lon":-2.44636,"postcode":"BL3 5HP","la":"Bolton","era":"trad","nn":185,"risk":29,"cat":"green"},{"name":"Grey Mare Inn","lat":53.60729,"lon":-2.39146,"postcode":"BL2 4DA","la":"Bolton","era":"trad","nn":390,"risk":28,"cat":"green"},{"name":"Hardy Hall","lat":53.56265,"lon":-2.37593,"postcode":"BL3 1BL","la":"Bolton","era":"other","nn":99,"risk":23,"cat":"green"},{"name":"Harvester","lat":53.57897,"lon":-2.53794,"postcode":"BL6 6LB","la":"Bolton","era":"trad","nn":0,"risk":43,"cat":"amber"},{"name":"Harwood Golf Club","lat":53.60435,"lon":-2.36796,"postcode":"BL2 4JD","la":"Bolton","era":"other","nn":1584,"risk":56,"cat":"amber"},{"name":"Heaton Cricket Club","lat":53.5919,"lon":-2.46769,"postcode":"BL1 5RH","la":"Bolton","era":"other","nn":45,"risk":23,"cat":"green"},{"name":"Hen & Chickens","lat":53.57849,"lon":-2.43443,"postcode":"BL1 1EX","la":"Bolton","era":"other","nn":68,"risk":23,"cat":"green"},{"name":"Henighans","lat":53.5796,"lon":-2.37703,"postcode":"BL2 6PY","la":"Bolton","era":"other","nn":18,"risk":23,"cat":"green"},{"name":"Henighans","lat":53.56445,"lon":-2.37473,"postcode":"BL3 1BA","la":"Bolton","era":"other","nn":178,"risk":24,"cat":"green"},{"name":"Henighans Eat and Drink","lat":53.57969,"lon":-2.37726,"postcode":"BL2 6PY","la":"Bolton","era":"other","nn":18,"risk":23,"cat":"green"},{"name":"Heroes Club Limited","lat":53.58948,"lon":-2.57605,"postcode":"BL6 5BB","la":"Bolton","era":"other","nn":332,"risk":27,"cat":"green"},{"name":"Hogarths","lat":53.57982,"lon":-2.42608,"postcode":"BL1 1HU","la":"Bolton","era":"other","nn":0,"risk":23,"cat":"green"},{"name":"Hope & Anchor","lat":53.58922,"lon":-2.47104,"postcode":"BL1 5QH","la":"Bolton","era":"trad","nn":102,"risk":23,"cat":"green"},{"name":"Horwich RMI Club","lat":53.59539,"lon":-2.54431,"postcode":"BL6 5NH","la":"Bolton","era":"other","nn":430,"risk":26,"cat":"green"},{"name":"House Without a Name","lat":53.60558,"lon":-2.39885,"postcode":"BL2 3ET","la":"Bolton","era":"mod","nn":0,"risk":25,"cat":"green"},{"name":"Hulton Arms","lat":53.5473,"lon":-2.46976,"postcode":"BL5 1EJ","la":"Bolton","era":"trad","nn":117,"risk":41,"cat":"amber"},{"name":"Jolly Carter","lat":53.56194,"lon":-2.38124,"postcode":"BL3 1BW","la":"Bolton","era":"other","nn":359,"risk":25,"cat":"green"},{"name":"Kahiki Hideout","lat":53.57916,"lon":-2.4272,"postcode":"BL1 1DG","la":"Bolton","era":"other","nn":0,"risk":23,"cat":"green"},{"name":"Kearsley Cricket Club","lat":53.53826,"lon":-2.37934,"postcode":"BL4 8LA","la":"Bolton","era":"other","nn":347,"risk":30,"cat":"green"},{"name":"Kearsley Social Club","lat":53.53865,"lon":-2.37328,"postcode":"BL4 8NZ","la":"Bolton","era":"mod","nn":132,"risk":24,"cat":"green"},{"name":"Keg & Thread","lat":53.59423,"lon":-2.44423,"postcode":"BL1 8DE","la":"Bolton","era":"other","nn":168,"risk":24,"cat":"green"},{"name":"Kings Arms","lat":53.54838,"lon":-2.4104,"postcode":"BL4 0AB","la":"Bolton","era":"trad","nn":0,"risk":23,"cat":"green"},{"name":"Kings Head","lat":53.56817,"lon":-2.46634,"postcode":"BL3 4NA","la":"Bolton","era":"trad","nn":157,"risk":26,"cat":"green"},{"name":"Kitchen at Queen Anne Pub","lat":53.56108,"lon":-2.36449,"postcode":"BL3 1NB","la":"Bolton","era":"other","nn":0,"risk":23,"cat":"green"},{"name":"KOO Cafe Bar Limited","lat":53.54883,"lon":-2.5242,"postcode":"BL5 3AA","la":"Bolton","era":"mod","nn":0,"risk":23,"cat":"green"},{"name":"Lamb Hotel","lat":53.5987,"lon":-2.43305,"postcode":"BL1 8NN","la":"Bolton","era":"other","nn":79,"risk":23,"cat":"green"},{"name":"Level Nightclub","lat":53.57745,"lon":-2.42773,"postcode":"BL1 1LL","la":"Bolton","era":"other","nn":50,"risk":23,"cat":"green"},{"name":"Little John","lat":53.56823,"lon":-2.42791,"postcode":"BL3 6NN","la":"Bolton","era":"other","nn":146,"risk":24,"cat":"green"},{"name":"Little Lever Conservative Club","lat":53.5611,"lon":-2.3705,"postcode":"BL3 1HW","la":"Bolton","era":"other","nn":210,"risk":24,"cat":"green"},{"name":"Little Lever Cricket Club","lat":53.56408,"lon":-2.36788,"postcode":"BL3 1JB","la":"Bolton","era":"other","nn":164,"risk":24,"cat":"green"},{"name":"Little Lever Working Mens Club","lat":53.56274,"lon":-2.36896,"postcode":"BL3 1HZ","la":"Bolton","era":"trad","nn":164,"risk":24,"cat":"green"},{"name":"Loco","lat":53.57905,"lon":-2.42652,"postcode":"BL1 1EL","la":"Bolton","era":"other","nn":38,"risk":23,"cat":"green"},{"name":"Lord Raglan","lat":53.59389,"lon":-2.44175,"postcode":"BL1 8AP","la":"Bolton","era":"other","nn":168,"risk":24,"cat":"green"},{"name":"Lucknow Junction","lat":53.54549,"lon":-2.39075,"postcode":"BL4 8HQ","la":"Bolton","era":"other","nn":24,"risk":23,"cat":"green"},{"name":"Market Hotel","lat":53.54766,"lon":-2.39436,"postcode":"BL4 9DS","la":"Bolton","era":"other","nn":129,"risk":24,"cat":"green"},{"name":"Markland Hill Lawn Tennis Club","lat":53.58292,"lon":-2.48082,"postcode":"BL1 5AN","la":"Bolton","era":"other","nn":239,"risk":24,"cat":"green"},{"name":"Masonic Hall","lat":53.55396,"lon":-2.52517,"postcode":"BL5 3SP","la":"Bolton","era":"trad","nn":541,"risk":26,"cat":"green"},{"name":"Merkur Slots","lat":53.57306,"lon":-2.44362,"postcode":"BL3 5DP","la":"Bolton","era":"other","nn":185,"risk":24,"cat":"green"},{"name":"Millstone","lat":53.57999,"lon":-2.42744,"postcode":"BL1 2RU","la":"Bolton","era":"trad","nn":6,"risk":23,"cat":"green"},{"name":"Missoula","lat":53.57897,"lon":-2.53794,"postcode":"BL6 6LB","la":"Bolton","era":"other","nn":0,"risk":43,"cat":"amber"},{"name":"Morris Dancers","lat":53.55794,"lon":-2.45237,"postcode":"BL3 3QL","la":"Bolton","era":"other","nn":238,"risk":29,"cat":"green"},{"name":"Nook & Cranny","lat":53.61493,"lon":-2.41925,"postcode":"BL7 9BS","la":"Bolton","era":"other","nn":294,"risk":30,"cat":"green"},{"name":"Northern Monkey Brew Co Ltd","lat":53.57804,"lon":-2.42674,"postcode":"BL1 1AQ","la":"Bolton","era":"trad","nn":37,"risk":23,"cat":"green"},{"name":"Oasis Club","lat":53.57182,"lon":-2.43696,"postcode":"BL3 6HG","la":"Bolton","era":"other","nn":431,"risk":26,"cat":"green"},{"name":"Old Three Crowns","lat":53.57997,"lon":-2.42754,"postcode":"BL1 1BR","la":"Bolton","era":"trad","nn":7,"risk":23,"cat":"green"},{"name":"Over Hulton Conservative Club Ltd","lat":53.55018,"lon":-2.46929,"postcode":"BL5 1AA","la":"Bolton","era":"other","nn":229,"risk":42,"cat":"amber"},{"name":"Park Hotel","lat":53.56867,"lon":-2.43317,"postcode":"BL3 6RR","la":"Bolton","era":"other","nn":205,"risk":24,"cat":"green"},{"name":"Plodder Lane Conservative Club","lat":53.5489,"lon":-2.42172,"postcode":"BL4 0JP","la":"Bolton","era":"other","nn":698,"risk":30,"cat":"green"},{"name":"Post Office","lat":53.54673,"lon":-2.39226,"postcode":"BL4 9AJ","la":"Bolton","era":"other","nn":56,"risk":23,"cat":"green"},{"name":"Powerleague Bolton Community Club","lat":53.57971,"lon":-2.39282,"postcode":"BL2 6EB","la":"Bolton","era":"other","nn":245,"risk":24,"cat":"green"},{"name":"Queen Anne","lat":53.56108,"lon":-2.36449,"postcode":"BL3 1NB","la":"Bolton","era":"trad","nn":0,"risk":23,"cat":"green"},{"name":"Queen Elizabeth","lat":53.56835,"lon":-2.43011,"postcode":"BL3 6NQ","la":"Bolton","era":"trad","nn":146,"risk":24,"cat":"green"},{"name":"Railway Hotel","lat":53.55555,"lon":-2.40194,"postcode":"BL4 7JZ","la":"Bolton","era":"trad","nn":201,"risk":24,"cat":"green"},{"name":"Real Axe","lat":53.61737,"lon":-2.43696,"postcode":"BL7 9PQ","la":"Bolton","era":"other","nn":466,"risk":26,"cat":"green"},{"name":"Red Lion","lat":53.54815,"lon":-2.46871,"postcode":"BL5 1BJ","la":"Bolton","era":"trad","nn":117,"risk":41,"cat":"amber"},{"name":"Regent Hall","lat":53.56388,"lon":-2.45067,"postcode":"BL3 3LZ","la":"Bolton","era":"other","nn":490,"risk":26,"cat":"green"},{"name":"Robert Shaw","lat":53.54863,"lon":-2.52251,"postcode":"BL5 3AG","la":"Bolton","era":"other","nn":25,"risk":23,"cat":"green"},{"name":"Rose and Crown","lat":53.55311,"lon":-2.51292,"postcode":"BL5 3EE","la":"Bolton","era":"trad","nn":107,"risk":23,"cat":"green"},{"name":"Rose Hill Tavern","lat":53.54098,"lon":-2.51591,"postcode":"BL5 2JQ","la":"Bolton","era":"trad","nn":716,"risk":28,"cat":"green"},{"name":"Royal British Legion","lat":53.60289,"lon":-2.43359,"postcode":"BL1 7AG","la":"Bolton","era":"trad","nn":48,"risk":23,"cat":"green"},{"name":"Royal Hotel","lat":53.58201,"lon":-2.43679,"postcode":"BL1 2PP","la":"Bolton","era":"trad","nn":386,"risk":25,"cat":"green"},{"name":"Royal Hotel","lat":53.54573,"lon":-2.39985,"postcode":"BL4 9HE","la":"Bolton","era":"trad","nn":409,"risk":25,"cat":"green"},{"name":"Sam's Bar","lat":53.59919,"lon":-2.54553,"postcode":"BL6 7BY","la":"Bolton","era":"other","nn":98,"risk":23,"cat":"green"},{"name":"Seven Stars","lat":53.60524,"lon":-2.39626,"postcode":"BL2 4BQ","la":"Bolton","era":"other","nn":175,"risk":26,"cat":"green"},{"name":"Shakespeare Public House","lat":53.54981,"lon":-2.40463,"postcode":"BL4 7DN","la":"Bolton","era":"other","nn":253,"risk":24,"cat":"green"},{"name":"Shots Bar","lat":53.57825,"lon":-2.4263,"postcode":"BL1 1DR","la":"Bolton","era":"other","nn":37,"risk":23,"cat":"green"},{"name":"Sportsman","lat":53.61697,"lon":-2.4221,"postcode":"BL7 9JG","la":"Bolton","era":"other","nn":265,"risk":24,"cat":"green"},{"name":"St Gregory's Social Club","lat":53.54874,"lon":-2.38962,"postcode":"BL4 8AQ","la":"Bolton","era":"mod","nn":283,"risk":25,"cat":"green"},{"name":"Stanley Arms","lat":53.58405,"lon":-2.44731,"postcode":"BL1 3AS","la":"Bolton","era":"trad","nn":222,"risk":27,"cat":"green"},{"name":"Stopes Tavern","lat":53.56295,"lon":-2.36028,"postcode":"BL3 1NW","la":"Bolton","era":"other","nn":348,"risk":25,"cat":"green"},{"name":"Stork tavern","lat":53.5953,"lon":-2.44696,"postcode":"BL1 8BP","la":"Bolton","era":"other","nn":0,"risk":23,"cat":"green"},{"name":"Sweet Green Tavern","lat":53.57363,"lon":-2.42624,"postcode":"BL3 6DD","la":"Bolton","era":"other","nn":183,"risk":24,"cat":"green"},{"name":"Tails and Ales","lat":53.60139,"lon":-2.54947,"postcode":"BL6 7AG","la":"Bolton","era":"other","nn":45,"risk":23,"cat":"green"},{"name":"Tansy Green","lat":53.57664,"lon":-2.38063,"postcode":"BL2 6UF","la":"Bolton","era":"other","nn":356,"risk":25,"cat":"green"},{"name":"Tempest United AFC","lat":53.57079,"lon":-2.4951,"postcode":"BL6 4EL","la":"Bolton","era":"other","nn":924,"risk":47,"cat":"amber"},{"name":"The Bank","lat":53.54883,"lon":-2.5242,"postcode":"BL5 3AA","la":"Bolton","era":"other","nn":0,"risk":23,"cat":"green"},{"name":"The Bay Mare","lat":53.60274,"lon":-2.43291,"postcode":"BL1 7AA","la":"Bolton","era":"other","nn":48,"risk":23,"cat":"green"},{"name":"The Beehive","lat":53.5846,"lon":-2.52211,"postcode":"BL6 4BA","la":"Bolton","era":"other","nn":1218,"risk":54,"cat":"amber"},{"name":"The Beer School","lat":53.54913,"lon":-2.52424,"postcode":"BL5 3AZ","la":"Bolton","era":"other","nn":0,"risk":23,"cat":"green"},{"name":"The Black Horse","lat":53.54533,"lon":-2.39051,"postcode":"BL4 8HQ","la":"Bolton","era":"trad","nn":24,"risk":23,"cat":"green"},{"name":"The Black Horse","lat":53.58044,"lon":-2.4026,"postcode":"BL2 6DD","la":"Bolton","era":"trad","nn":339,"risk":25,"cat":"green"},{"name":"The Brewhouse","lat":53.61345,"lon":-2.43446,"postcode":"BL1 7LG","la":"Bolton","era":"other","nn":466,"risk":26,"cat":"green"},{"name":"The Britannia Inn","lat":53.54867,"lon":-2.39531,"postcode":"BL4 7AF","la":"Bolton","era":"trad","nn":124,"risk":23,"cat":"green"},{"name":"The Cave","lat":53.58168,"lon":-2.43005,"postcode":"BL1 2AL","la":"Bolton","era":"other","nn":72,"risk":23,"cat":"green"},{"name":"The Churchgate","lat":53.57982,"lon":-2.42608,"postcode":"BL1 1HU","la":"Bolton","era":"other","nn":0,"risk":23,"cat":"green"},{"name":"The Cotton Tree","lat":53.58521,"lon":-2.43112,"postcode":"BL1 2NP","la":"Bolton","era":"other","nn":400,"risk":25,"cat":"green"},{"name":"The Courthouse","lat":53.57789,"lon":-2.42855,"postcode":"BL1 1LF","la":"Bolton","era":"other","nn":33,"risk":23,"cat":"green"},{"name":"The Craven Heifer","lat":53.59806,"lon":-2.43253,"postcode":"BL1 8NL","la":"Bolton","era":"other","nn":79,"risk":23,"cat":"green"},{"name":"The Cross Guns Inn","lat":53.6324,"lon":-2.44317,"postcode":"BL7 9TR","la":"Bolton","era":"trad","nn":31,"risk":28,"cat":"green"},{"name":"The duke of wellington","lat":53.56391,"lon":-2.50293,"postcode":"BL6 4HA","la":"Bolton","era":"trad","nn":14,"risk":40,"cat":"amber"},{"name":"The Elephant & Castle","lat":53.57993,"lon":-2.42745,"postcode":"BL1 1BR","la":"Bolton","era":"other","nn":6,"risk":23,"cat":"green"},{"name":"The Flag Inn","lat":53.62069,"lon":-2.43025,"postcode":"BL7 9HL","la":"Bolton","era":"trad","nn":576,"risk":27,"cat":"green"},{"name":"The Gatehouse","lat":53.55424,"lon":-2.40404,"postcode":"BL4 7LX","la":"Bolton","era":"other","nn":201,"risk":24,"cat":"green"},{"name":"The Grapes","lat":53.54838,"lon":-2.4104,"postcode":"BL4 0AB","la":"Bolton","era":"other","nn":0,"risk":23,"cat":"green"},{"name":"The Grey Man","lat":53.53497,"lon":-2.51979,"postcode":"BL5 2JS","la":"Bolton","era":"other","nn":196,"risk":41,"cat":"amber"},{"name":"The Greyhound Inn","lat":53.579,"lon":-2.43388,"postcode":"BL1 1BB","la":"Bolton","era":"trad","nn":68,"risk":23,"cat":"green"},{"name":"The Griffin","lat":53.57608,"lon":-2.42933,"postcode":"BL1 1SW","la":"Bolton","era":"trad","nn":163,"risk":24,"cat":"green"},{"name":"The Italian Loft Ltd","lat":53.5488,"lon":-2.52322,"postcode":"BL5 3AG","la":"Bolton","era":"other","nn":51,"risk":23,"cat":"green"},{"name":"The Loft","lat":53.60194,"lon":-2.55144,"postcode":"BL6 7JD","la":"Bolton","era":"other","nn":0,"risk":23,"cat":"green"},{"name":"The Lord Clyde","lat":53.5826,"lon":-2.42352,"postcode":"BL1 2SZ","la":"Bolton","era":"other","nn":352,"risk":25,"cat":"green"},{"name":"The Market Tavern","lat":53.59908,"lon":-2.55109,"postcode":"BL6 5QF","la":"Bolton","era":"other","nn":249,"risk":24,"cat":"green"},{"name":"The Masons Arms","lat":53.62591,"lon":-2.43823,"postcode":"BL7 9SB","la":"Bolton","era":"trad","nn":476,"risk":26,"cat":"green"},{"name":"The New Inn","lat":53.56286,"lon":-2.37447,"postcode":"BL3 1BE","la":"Bolton","era":"trad","nn":99,"risk":23,"cat":"green"},{"name":"The Northern Way","lat":53.57747,"lon":-2.42684,"postcode":"BL1 1JT","la":"Bolton","era":"other","nn":0,"risk":23,"cat":"green"},{"name":"The Old Original Bay Horse","lat":53.6019,"lon":-2.55289,"postcode":"BL6 7JF","la":"Bolton","era":"trad","nn":68,"risk":23,"cat":"green"},{"name":"The Pineapple Inn","lat":53.60219,"lon":-2.43238,"postcode":"BL1 7AL","la":"Bolton","era":"trad","nn":70,"risk":23,"cat":"green"},{"name":"The Poacher","lat":53.57939,"lon":-2.5671,"postcode":"BL6 5SG","la":"Bolton","era":"other","nn":1192,"risk":53,"cat":"amber"},{"name":"The Post Office","lat":53.54628,"lon":-2.39191,"postcode":"BL4 9AJ","la":"Bolton","era":"other","nn":56,"risk":23,"cat":"green"},{"name":"The Qanne Limited","lat":53.56811,"lon":-2.4635,"postcode":"BL3 4LT","la":"Bolton","era":"other","nn":0,"risk":23,"cat":"green"},{"name":"The Red Lion","lat":53.59402,"lon":-2.58429,"postcode":"BL6 5EF","la":"Bolton","era":"trad","nn":86,"risk":28,"cat":"green"},{"name":"The Rivington Pub and Grill","lat":53.59,"lon":-2.56958,"postcode":"BL6 5JF","la":"Bolton","era":"other","nn":431,"risk":43,"cat":"amber"},{"name":"The Roundhouse","lat":53.59013,"lon":-2.43939,"postcode":"BL1 3TZ","la":"Bolton","era":"other","nn":447,"risk":26,"cat":"green"},{"name":"The Saddle","lat":53.60002,"lon":-2.54602,"postcode":"BL6 7AX","la":"Bolton","era":"other","nn":0,"risk":23,"cat":"green"},{"name":"The Spinning Mule","lat":53.57747,"lon":-2.42684,"postcode":"BL1 1JT","la":"Bolton","era":"trad","nn":0,"risk":23,"cat":"green"},{"name":"The Spread Eagle","lat":53.61502,"lon":-2.42441,"postcode":"BL7 9DE","la":"Bolton","era":"trad","nn":265,"risk":24,"cat":"green"},{"name":"The Tap","lat":53.60409,"lon":-2.43454,"postcode":"BL1 7AN","la":"Bolton","era":"mod","nn":147,"risk":24,"cat":"green"},{"name":"The Tempest Arms","lat":53.59183,"lon":-2.48059,"postcode":"BL1 5SE","la":"Bolton","era":"trad","nn":45,"risk":23,"cat":"green"},{"name":"The Thomas Egerton","lat":53.62985,"lon":-2.44104,"postcode":"BL7 9SR","la":"Bolton","era":"other","nn":303,"risk":30,"cat":"green"},{"name":"The Venue Bar","lat":53.5794,"lon":-2.42568,"postcode":"BL1 1HL","la":"Bolton","era":"other","nn":0,"risk":23,"cat":"green"},{"name":"The Vulcan","lat":53.56811,"lon":-2.4635,"postcode":"BL3 4LT","la":"Bolton","era":"other","nn":0,"risk":23,"cat":"green"},{"name":"The Wellington Pub","lat":53.54978,"lon":-2.39506,"postcode":"BL4 7NY","la":"Bolton","era":"trad","nn":0,"risk":23,"cat":"green"},{"name":"The Wheatsheaf","lat":53.54913,"lon":-2.52424,"postcode":"BL5 3AZ","la":"Bolton","era":"trad","nn":0,"risk":23,"cat":"green"},{"name":"The Withins","lat":53.58247,"lon":-2.38233,"postcode":"BL2 6PP","la":"Bolton","era":"other","nn":214,"risk":24,"cat":"green"},{"name":"The Withins","lat":53.58194,"lon":-2.38545,"postcode":"BL2 6PP","la":"Bolton","era":"other","nn":214,"risk":24,"cat":"green"},{"name":"The York Hotel","lat":53.57477,"lon":-2.42823,"postcode":"BL3 6AB","la":"Bolton","era":"other","nn":163,"risk":24,"cat":"green"},{"name":"Three Pigeons","lat":53.56155,"lon":-2.47707,"postcode":"BL3 4RD","la":"Bolton","era":"other","nn":957,"risk":47,"cat":"amber"},{"name":"Tonge Moor Conservative Club","lat":53.58978,"lon":-2.41216,"postcode":"BL2 2HN","la":"Bolton","era":"other","nn":704,"risk":48,"cat":"amber"},{"name":"Unity Brook Inn","lat":53.53238,"lon":-2.35912,"postcode":"BL4 8RX","la":"Bolton","era":"trad","nn":902,"risk":49,"cat":"amber"},{"name":"Victoria & Albert","lat":53.60124,"lon":-2.5501,"postcode":"BL6 7AF","la":"Bolton","era":"trad","nn":45,"risk":23,"cat":"green"},{"name":"Victoria Inn","lat":53.58296,"lon":-2.47719,"postcode":"BL1 5AG","la":"Bolton","era":"trad","nn":239,"risk":27,"cat":"green"},{"name":"Volunteer Inn","lat":53.56867,"lon":-2.40282,"postcode":"BL3 1RS","la":"Bolton","era":"trad","nn":120,"risk":41,"cat":"amber"},{"name":"Waggon and Horses","lat":53.56287,"lon":-2.53218,"postcode":"BL5 3PN","la":"Bolton","era":"trad","nn":1093,"risk":53,"cat":"amber"},{"name":"Westhoughton Sports & Social","lat":53.54803,"lon":-2.51904,"postcode":"BL5 3DE","la":"Bolton","era":"mod","nn":170,"risk":24,"cat":"green"},{"name":"White Horse","lat":53.59444,"lon":-2.38614,"postcode":"BL2 4HT","la":"Bolton","era":"trad","nn":1354,"risk":55,"cat":"amber"},{"name":"White Horse Tavern","lat":53.55379,"lon":-2.51178,"postcode":"BL5 3ED","la":"Bolton","era":"trad","nn":107,"risk":23,"cat":"green"},{"name":"White Lion Hotel","lat":53.54894,"lon":-2.52112,"postcode":"BL5 3AN","la":"Bolton","era":"trad","nn":74,"risk":23,"cat":"green"},{"name":"Yates","lat":53.57916,"lon":-2.4272,"postcode":"BL1 1DG","la":"Bolton","era":"other","nn":0,"risk":23,"cat":"green"},{"name":"Yates Bolton","lat":53.57916,"lon":-2.4272,"postcode":"BL1 1DG","la":"Bolton","era":"other","nn":0,"risk":23,"cat":"green"},{"name":"Ye Olde Man and Scythe","lat":53.5794,"lon":-2.42568,"postcode":"BL1 1HL","la":"Bolton","era":"other","nn":0,"risk":23,"cat":"green"},{"name":"Casked Alehouse & Ginporium","lat":53.64791,"lon":-2.31721,"postcode":"BL0 9FN","la":"Bury","era":"mod","nn":60,"risk":29,"cat":"green"},{"name":"Cheers Bar and Bistro","lat":53.59285,"lon":-2.29755,"postcode":"BL9 0AJ","la":"Bury","era":"mod","nn":46,"risk":29,"cat":"green"},{"name":"Duckworth Arms","lat":53.6602,"lon":-2.30332,"postcode":"BL0 0EG","la":"Bury","era":"trad","nn":702,"risk":51,"cat":"amber"},{"name":"Hare and Hounds","lat":53.63392,"lon":-2.33455,"postcode":"BL0 9RY","la":"Bury","era":"trad","nn":117,"risk":47,"cat":"amber"},{"name":"Holcombe Tap","lat":53.64246,"lon":-2.32269,"postcode":"BL0 9NA","la":"Bury","era":"mod","nn":332,"risk":31,"cat":"amber"},{"name":"Hoysters","lat":53.63302,"lon":-2.33549,"postcode":"BL0 9RY","la":"Bury","era":"other","nn":117,"risk":47,"cat":"amber"},{"name":"Martini's on the Rock","lat":53.59448,"lon":-2.29174,"postcode":"BL9 0JX","la":"Bury","era":"other","nn":406,"risk":31,"cat":"amber"},{"name":"Murphys","lat":53.59297,"lon":-2.29879,"postcode":"BL9 0EX","la":"Bury","era":"other","nn":36,"risk":28,"cat":"green"},{"name":"O'Marleys Queen Anne","lat":53.56338,"lon":-2.27241,"postcode":"BL9 8JH","la":"Bury","era":"trad","nn":372,"risk":51,"cat":"amber"},{"name":"Society on silver street","lat":53.593,"lon":-2.29825,"postcode":"BL9 0EU","la":"Bury","era":"mod","nn":5,"risk":28,"cat":"green"},{"name":"Stanleys of Bury","lat":53.59302,"lon":-2.29818,"postcode":"BL9 0EU","la":"Bury","era":"other","nn":5,"risk":28,"cat":"green"},{"name":"The Art Picture House","lat":53.59211,"lon":-2.29792,"postcode":"BL9 0AY","la":"Bury","era":"other","nn":16,"risk":28,"cat":"green"},{"name":"The Bay Horse Inn","lat":53.56006,"lon":-2.27316,"postcode":"BL9 8JN","la":"Bury","era":"trad","nn":372,"risk":51,"cat":"amber"},{"name":"The Blue Bell","lat":53.56204,"lon":-2.29261,"postcode":"BL9 8DW","la":"Bury","era":"other","nn":1082,"risk":58,"cat":"amber"},{"name":"The Brook","lat":53.63592,"lon":-2.33169,"postcode":"BL0 9QY","la":"Bury","era":"other","nn":291,"risk":35,"cat":"amber"},{"name":"The Brown Cow","lat":53.61055,"lon":-2.30482,"postcode":"BL8 1DA","la":"Bury","era":"other","nn":811,"risk":54,"cat":"amber"},{"name":"The Dungeon Inn","lat":53.61502,"lon":-2.34275,"postcode":"BL8 4AW","la":"Bury","era":"trad","nn":147,"risk":49,"cat":"amber"},{"name":"The Elephants Trunk Ltd T/A The Major","lat":53.64501,"lon":-2.32006,"postcode":"BL0 9JA","la":"Bury","era":"other","nn":332,"risk":31,"cat":"amber"},{"name":"The Grey Mare Inn","lat":53.64795,"lon":-2.31855,"postcode":"BL0 9HU","la":"Bury","era":"trad","nn":89,"risk":29,"cat":"green"},{"name":"The Help Me Thro","lat":53.59745,"lon":-2.30896,"postcode":"BL8 1AL","la":"Bury","era":"other","nn":793,"risk":34,"cat":"amber"},{"name":"The Knowsley Hotel","lat":53.59197,"lon":-2.29796,"postcode":"BL9 0AY","la":"Bury","era":"other","nn":16,"risk":28,"cat":"green"},{"name":"The Lamb Inn","lat":53.60558,"lon":-2.32629,"postcode":"BL8 1UB","la":"Bury","era":"trad","nn":968,"risk":55,"cat":"amber"},{"name":"The Oaks","lat":53.64856,"lon":-2.31744,"postcode":"BL0 9AD","la":"Bury","era":"trad","nn":36,"risk":28,"cat":"green"},{"name":"The Old Bank Ramsbottom","lat":53.64843,"lon":-2.31694,"postcode":"BL0 9AD","la":"Bury","era":"trad","nn":36,"risk":28,"cat":"green"},{"name":"The Old White Lion","lat":53.59365,"lon":-2.29879,"postcode":"BL9 0LQ","la":"Bury","era":"trad","nn":0,"risk":28,"cat":"green"},{"name":"The Pack Horse","lat":53.61922,"lon":-2.37219,"postcode":"BL8 3QW","la":"Bury","era":"trad","nn":1320,"risk":60,"cat":"amber"},{"name":"The Papermill","lat":53.57812,"lon":-2.27535,"postcode":"BL9 8RN","la":"Bury","era":"trad","nn":1364,"risk":60,"cat":"amber"},{"name":"The Red Lion Hotel","lat":53.63107,"lon":-2.37119,"postcode":"BL8 4JS","la":"Bury","era":"trad","nn":410,"risk":51,"cat":"amber"},{"name":"The Robert Peel","lat":53.5938,"lon":-2.29825,"postcode":"BL9 0LD","la":"Bury","era":"other","nn":39,"risk":29,"cat":"green"},{"name":"The Robin Hood Hotel","lat":53.61434,"lon":-2.34084,"postcode":"BL8 4AA","la":"Bury","era":"other","nn":147,"risk":49,"cat":"amber"},{"name":"The Rose & Crown","lat":53.58978,"lon":-2.34382,"postcode":"BL8 2HB","la":"Bury","era":"trad","nn":1440,"risk":61,"cat":"red"},{"name":"The Rose and Crown","lat":53.64968,"lon":-2.32253,"postcode":"BL0 9EG","la":"Bury","era":"trad","nn":325,"risk":31,"cat":"amber"},{"name":"The Shoulder Of Mutton","lat":53.50655,"lon":-2.32009,"postcode":"BL8 4LZ","la":"Bury","era":"other","nn":219,"risk":30,"cat":"green"},{"name":"The Swan & Cemetery","lat":53.5758,"lon":-2.29663,"postcode":"BL9 9NS","la":"Bury","era":"trad","nn":726,"risk":53,"cat":"amber"},{"name":"The Towler Inn","lat":53.61171,"lon":-2.29269,"postcode":"BL9 6QE","la":"Bury","era":"trad","nn":811,"risk":54,"cat":"amber"},{"name":"The Two Tubs","lat":53.59418,"lon":-2.29787,"postcode":"BL9 0LA","la":"Bury","era":"other","nn":49,"risk":29,"cat":"green"},{"name":"The Waggon & Horses","lat":53.63089,"lon":-2.36497,"postcode":"BL8 4JL","la":"Bury","era":"trad","nn":410,"risk":51,"cat":"amber"},{"name":"The Wellington Hotel","lat":53.58892,"lon":-2.31971,"postcode":"BL8 2PP","la":"Bury","era":"trad","nn":1185,"risk":59,"cat":"amber"},{"name":"The White Boar Hotel","lat":53.57936,"lon":-2.30584,"postcode":"BL9 9LN","la":"Bury","era":"other","nn":726,"risk":53,"cat":"amber"},{"name":"The White Horse","lat":53.60254,"lon":-2.34003,"postcode":"BL8 3BD","la":"Bury","era":"trad","nn":968,"risk":55,"cat":"amber"},{"name":"Wyldes","lat":53.59365,"lon":-2.29879,"postcode":"BL9 0LQ","la":"Bury","era":"other","nn":0,"risk":28,"cat":"green"},{"name":"Rivington Hall Barn","lat":53.62565,"lon":-2.55613,"postcode":"BL6 7SB","la":"Chorley","era":"other","nn":855,"risk":52,"cat":"amber"},{"name":"The Rivington","lat":53.62494,"lon":-2.56904,"postcode":"BL6 7SE","la":"Chorley","era":"other","nn":855,"risk":52,"cat":"amber"},{"name":"Heap Bridge Social Club","lat":53.58979,"lon":-2.26896,"postcode":"BL9 7JY","la":"Rochdale","era":"mod","nn":485,"risk":44,"cat":"amber"},{"name":"Pack Horse Inn","lat":53.61057,"lon":-2.25061,"postcode":"BL9 6UR","la":"Rochdale","era":"trad","nn":1971,"risk":60,"cat":"amber"},{"name":"Village Urban Resort Bury","lat":53.59249,"lon":-2.2776,"postcode":"BL9 7DB","la":"Bury","era":"other","nn":230,"risk":35,"cat":"amber"},{"name":"Waterfold Farm Pub Restaurant","lat":53.5906,"lon":-2.27618,"postcode":"BL9 7BQ","la":"Rochdale","era":"other","nn":230,"risk":42,"cat":"amber"},{"name":"Edenfield Cricket Club","lat":53.6697,"lon":-2.30317,"postcode":"BL0 0JW","la":"Rossendale","era":"other","nn":113,"risk":45,"cat":"amber"},{"name":"Rostron Arms","lat":53.66893,"lon":-2.30429,"postcode":"BL0 0JS","la":"Rossendale","era":"trad","nn":113,"risk":33,"cat":"amber"},{"name":"The Coach At Edenfield","lat":53.6736,"lon":-2.30608,"postcode":"BL0 0HJ","la":"Rossendale","era":"trad","nn":474,"risk":48,"cat":"amber"},{"name":"The Fisherman's Retreat","lat":53.65392,"lon":-2.30218,"postcode":"BL0 0HH","la":"Bury","era":"other","nn":702,"risk":53,"cat":"amber"}]