[{"name":"Bounce","lat":51.51807,"lon":-0.10849,"postcode":"EC1N 2TD","la":"Camden","era":"other","nn":0,"risk":21,"cat":"green"},{"name":"Craft Beer Company","lat":51.52125,"lon":-0.1096,"postcode":"EC1N 7TR","la":"Camden","era":"mod","nn":119,"risk":22,"cat":"green"},{"name":"Gunmakers Arms","lat":51.52257,"lon":-0.11057,"postcode":"EC1R 5ET","la":"Camden","era":"trad","nn":40,"risk":21,"cat":"green"},{"name":"Hat & Tun","lat":51.52178,"lon":-0.10811,"postcode":"EC1N 8HX","la":"Camden","era":"other","nn":88,"risk":21,"cat":"green"},{"name":"Scottish Malt Whisky Society","lat":51.5194,"lon":-0.10693,"postcode":"EC1N 8SQ","la":"Camden","era":"mod","nn":0,"risk":21,"cat":"green"},{"name":"Sir Christopher Hatton","lat":51.51807,"lon":-0.10849,"postcode":"EC1N 7RA","la":"Camden","era":"other","nn":0,"risk":21,"cat":"green"},{"name":"Sir John Oldcastle","lat":51.51983,"lon":-0.10594,"postcode":"EC1M 3JF","la":"Camden","era":"other","nn":40,"risk":21,"cat":"green"},{"name":"The Argyle","lat":51.51909,"lon":-0.10884,"postcode":"EC1N 8PQ","la":"Camden","era":"other","nn":116,"risk":22,"cat":"green"},{"name":"The Bleeding Heart Tavern","lat":51.5194,"lon":-0.10693,"postcode":"EC1N 8SQ","la":"Camden","era":"other","nn":0,"risk":21,"cat":"green"},{"name":"The Clerk and Well","lat":51.52222,"lon":-0.11067,"postcode":"EC1R 5DU","la":"Camden","era":"other","nn":40,"risk":21,"cat":"green"},{"name":"The Griffin","lat":51.52163,"lon":-0.11223,"postcode":"EC1R 5DB","la":"Camden","era":"trad","nn":103,"risk":22,"cat":"green"},{"name":"The One Tun","lat":51.51974,"lon":-0.10651,"postcode":"EC1N 8QS","la":"Camden","era":"other","nn":40,"risk":21,"cat":"green"},{"name":"Ye Olde Mitre","lat":51.51844,"lon":-0.1074,"postcode":"EC1N 6SJ","la":"Camden","era":"other","nn":86,"risk":21,"cat":"green"},{"name":"37 Jewry","lat":51.51335,"lon":-0.07656,"postcode":"EC3N 2ER","la":"City of London","era":"other","nn":5,"risk":22,"cat":"green"},{"name":"47 Ludgate","lat":51.51384,"lon":-0.10253,"postcode":"EC4M 7JZ","la":"City of London","era":"other","nn":66,"risk":23,"cat":"green"},{"name":"All Bar One","lat":51.5098,"lon":-0.07894,"postcode":"EC3R 5BA","la":"City of London","era":"mod","nn":11,"risk":22,"cat":"green"},{"name":"All Bar One","lat":51.51176,"lon":-0.08984,"postcode":"EC4N 5AG","la":"City of London","era":"mod","nn":10,"risk":22,"cat":"green"},{"name":"All Bar One","lat":51.51574,"lon":-0.07913,"postcode":"EC3A 7BD","la":"City of London","era":"mod","nn":88,"risk":23,"cat":"green"},{"name":"Back To Mine","lat":51.52034,"lon":-0.08186,"postcode":"EC2A 2BR","la":"City of London","era":"other","nn":104,"risk":23,"cat":"green"},{"name":"Balfour St Bart's","lat":51.51888,"lon":-0.10056,"postcode":"EC1A 9DY","la":"City of London","era":"other","nn":0,"risk":22,"cat":"green"},{"name":"Balls Brothers - Minster Court","lat":51.51082,"lon":-0.08106,"postcode":"EC3R 7PP","la":"City of London","era":"other","nn":34,"risk":22,"cat":"green"},{"name":"Balls Brothers Austin Friars","lat":51.51572,"lon":-0.08531,"postcode":"EC2N 2HG","la":"City of London","era":"other","nn":89,"risk":23,"cat":"green"},{"name":"Barbican Bars","lat":51.51982,"lon":-0.09393,"postcode":"EC2Y 8DS","la":"City of London","era":"other","nn":234,"risk":24,"cat":"green"},{"name":"Be At One","lat":51.51065,"lon":-0.08712,"postcode":"EC4R 9AT","la":"City of London","era":"other","nn":39,"risk":22,"cat":"green"},{"name":"Be At One","lat":51.5157,"lon":-0.08403,"postcode":"EC2N 1HT","la":"City of London","era":"other","nn":89,"risk":23,"cat":"green"},{"name":"Bedales Wine Bar","lat":51.51245,"lon":-0.0838,"postcode":"EC3V 1LT","la":"City of London","era":"other","nn":29,"risk":22,"cat":"green"},{"name":"Bishops Finger","lat":51.5185,"lon":-0.10194,"postcode":"EC1A 9JR","la":"City of London","era":"trad","nn":79,"risk":23,"cat":"green"},{"name":"Brewdog","lat":51.51673,"lon":-0.10892,"postcode":"EC4A 1DE","la":"City of London","era":"other","nn":152,"risk":23,"cat":"green"},{"name":"Brokers Wine Bar","lat":51.51269,"lon":-0.08341,"postcode":"EC3V 1LR","la":"City of London","era":"other","nn":0,"risk":22,"cat":"green"},{"name":"Browns","lat":51.51411,"lon":-0.09062,"postcode":"EC2R 8DN","la":"City of London","era":"other","nn":23,"risk":22,"cat":"green"},{"name":"Bunch of Grapes","lat":51.51234,"lon":-0.08342,"postcode":"EC3M 7AN","la":"City of London","era":"other","nn":29,"risk":22,"cat":"green"},{"name":"Candlemaker","lat":51.512,"lon":-0.09016,"postcode":"EC4N 8AF","la":"City of London","era":"other","nn":35,"risk":22,"cat":"green"},{"name":"Cannick Tapps","lat":51.51175,"lon":-0.0897,"postcode":"EC4N 5AD","la":"City of London","era":"mod","nn":10,"risk":22,"cat":"green"},{"name":"Cheshire Cheese","lat":51.51133,"lon":-0.07868,"postcode":"EC3N 2AP","la":"City of London","era":"other","nn":8,"risk":22,"cat":"green"},{"name":"City Of London Distillery","lat":51.51393,"lon":-0.10503,"postcode":"EC4Y 8DT","la":"City of London","era":"other","nn":0,"risk":22,"cat":"green"},{"name":"Club Gascon","lat":51.5186,"lon":-0.10015,"postcode":"EC1A 9DS","la":"City of London","era":"other","nn":42,"risk":22,"cat":"green"},{"name":"Cococure","lat":51.51338,"lon":-0.07561,"postcode":"EC3N 1BJ","la":"City of London","era":"other","nn":66,"risk":23,"cat":"green"},{"name":"Core","lat":51.51298,"lon":-0.09282,"postcode":"EC4N 1TX","la":"City of London","era":"other","nn":34,"risk":22,"cat":"green"},{"name":"Crosse Keys PH","lat":51.51274,"lon":-0.08503,"postcode":"EC3V 0DR","la":"City of London","era":"trad","nn":51,"risk":23,"cat":"green"},{"name":"Davys, 1 Plantation Place","lat":51.51114,"lon":-0.08227,"postcode":"EC3M 3BD","la":"City of London","era":"other","nn":74,"risk":23,"cat":"green"},{"name":"Devonshire Terrace","lat":51.51701,"lon":-0.07835,"postcode":"EC2M 4YF","la":"City of London","era":"other","nn":47,"risk":22,"cat":"green"},{"name":"Dirty Dicks Public House","lat":51.51783,"lon":-0.07964,"postcode":"EC2M 4NR","la":"City of London","era":"other","nn":56,"risk":23,"cat":"green"},{"name":"Dirty Martini","lat":51.51725,"lon":-0.08039,"postcode":"EC2M 4LX","la":"City of London","era":"other","nn":39,"risk":22,"cat":"green"},{"name":"Dirty Martini","lat":51.51454,"lon":-0.09486,"postcode":"EC2V 6DL","la":"City of London","era":"other","nn":129,"risk":23,"cat":"green"},{"name":"Dirty Martini Monument","lat":51.51033,"lon":-0.08411,"postcode":"EC3R 8DT","la":"City of London","era":"other","nn":34,"risk":22,"cat":"green"},{"name":"East India Arms","lat":51.51252,"lon":-0.07874,"postcode":"EC3M 4BR","la":"City of London","era":"trad","nn":38,"risk":22,"cat":"green"},{"name":"Eastcheap Records","lat":51.51051,"lon":-0.08372,"postcode":"EC3M 1EB","la":"City of London","era":"other","nn":24,"risk":22,"cat":"green"},{"name":"Editors Tap","lat":51.51441,"lon":-0.10935,"postcode":"EC4A 1BR","la":"City of London","era":"mod","nn":48,"risk":23,"cat":"green"},{"name":"Eight Club (1 Change Alley)","lat":51.5129,"lon":-0.08689,"postcode":"EC3V 9AZ","la":"City of London","era":"other","nn":39,"risk":22,"cat":"green"},{"name":"El Vino Co Ltd","lat":51.51257,"lon":-0.10399,"postcode":"EC4V 6BJ","la":"City of London","era":"other","nn":52,"risk":23,"cat":"green"},{"name":"El Vino Co Ltd","lat":51.51399,"lon":-0.10919,"postcode":"EC4Y 1BJ","la":"City of London","era":"other","nn":48,"risk":23,"cat":"green"},{"name":"Enoteca Da Luca","lat":51.51572,"lon":-0.09086,"postcode":"EC2V 5BQ","la":"City of London","era":"other","nn":33,"risk":22,"cat":"green"},{"name":"Enoteca Da Luca","lat":51.51298,"lon":-0.09403,"postcode":"EC4M 9BR","la":"City of London","era":"other","nn":0,"risk":22,"cat":"green"},{"name":"Enoteca Da Luca","lat":51.51663,"lon":-0.07863,"postcode":"EC2M 4AE","la":"City of London","era":"other","nn":47,"risk":22,"cat":"green"},{"name":"Feeneys","lat":51.50985,"lon":-0.08001,"postcode":"EC3R 7QH","la":"City of London","era":"other","nn":0,"risk":22,"cat":"green"},{"name":"Forge","lat":51.51322,"lon":-0.08713,"postcode":"EC3V 3ND","la":"City of London","era":"trad","nn":0,"risk":22,"cat":"green"},{"name":"Fox Fine Wines","lat":51.51772,"lon":-0.08899,"postcode":"EC2Y 5JA","la":"City of London","era":"trad","nn":15,"risk":22,"cat":"green"},{"name":"Goodman City Ltd","lat":51.51431,"lon":-0.09053,"postcode":"EC2R 8DU","la":"City of London","era":"other","nn":23,"risk":22,"cat":"green"},{"name":"Hamilton Hall","lat":51.51907,"lon":-0.08139,"postcode":"EC2M 7PY","la":"City of London","era":"other","nn":145,"risk":23,"cat":"green"},{"name":"Hand & Shears Public House","lat":51.51942,"lon":-0.09857,"postcode":"EC1A 7JA","la":"City of London","era":"other","nn":51,"risk":23,"cat":"green"},{"name":"Harrild And Sons","lat":51.51571,"lon":-0.10403,"postcode":"EC4A 4AB","la":"City of London","era":"other","nn":41,"risk":22,"cat":"green"},{"name":"Harry's Bar","lat":51.51152,"lon":-0.08863,"postcode":"EC4N 7BA","la":"City of London","era":"other","nn":78,"risk":23,"cat":"green"},{"name":"Humble Grape","lat":51.51693,"lon":-0.08014,"postcode":"EC2M 4RH","la":"City of London","era":"other","nn":0,"risk":22,"cat":"green"},{"name":"Jamaica Wine House","lat":51.51303,"lon":-0.08564,"postcode":"EC3V 9DS","la":"City of London","era":"other","nn":48,"risk":23,"cat":"green"},{"name":"Jin Bo Law, 14TH FLR, Dorsett City H","lat":51.51435,"lon":-0.07564,"postcode":"EC3N 1AH","la":"City of London","era":"other","nn":88,"risk":23,"cat":"green"},{"name":"Karaoke Box","lat":51.51798,"lon":-0.10271,"postcode":"EC1A 9LA","la":"City of London","era":"other","nn":79,"risk":23,"cat":"green"},{"name":"Lady Abercorn, Andaz Hotel","lat":51.51736,"lon":-0.08123,"postcode":"EC2M 7QN","la":"City of London","era":"other","nn":60,"risk":23,"cat":"green"},{"name":"Liberty Bounds","lat":51.50975,"lon":-0.0788,"postcode":"EC3N 4AA","la":"City of London","era":"other","nn":0,"risk":22,"cat":"green"},{"name":"Little Fable","lat":51.51632,"lon":-0.10369,"postcode":"EC4M 7RA","la":"City of London","era":"other","nn":71,"risk":23,"cat":"green"},{"name":"London Cocktail Club","lat":51.51061,"lon":-0.08523,"postcode":"EC3M 1AE","la":"City of London","era":"other","nn":41,"risk":22,"cat":"green"},{"name":"London Cocktail Club","lat":51.51254,"lon":-0.09355,"postcode":"EC4N 4SJ","la":"City of London","era":"other","nn":8,"risk":22,"cat":"green"},{"name":"Magpie & Stump","lat":51.51565,"lon":-0.10284,"postcode":"EC4M 7EP","la":"City of London","era":"other","nn":83,"risk":23,"cat":"green"},{"name":"Merchant House","lat":51.51329,"lon":-0.09328,"postcode":"EC4M 9DN","la":"City of London","era":"other","nn":39,"risk":22,"cat":"green"},{"name":"Mr Tipsy's Down The Hatch","lat":51.51102,"lon":-0.07611,"postcode":"EC3N 2LS","la":"City of London","era":"other","nn":81,"risk":23,"cat":"green"},{"name":"Munich Cricket Club","lat":51.51139,"lon":-0.0774,"postcode":"EC3N 2AU","la":"City of London","era":"other","nn":89,"risk":23,"cat":"green"},{"name":"Old Red Cow","lat":51.5192,"lon":-0.09997,"postcode":"EC1A 9EJ","la":"City of London","era":"other","nn":4,"risk":22,"cat":"green"},{"name":"Oyster Shed","lat":51.50969,"lon":-0.0898,"postcode":"EC4R 3AB","la":"City of London","era":"other","nn":136,"risk":23,"cat":"green"},{"name":"Patch Bar","lat":51.51332,"lon":-0.10161,"postcode":"EC4V 5EA","la":"City of London","era":"other","nn":28,"risk":22,"cat":"green"},{"name":"Patch East","lat":51.51344,"lon":-0.07831,"postcode":"EC3A 3DH","la":"City of London","era":"other","nn":44,"risk":22,"cat":"green"},{"name":"Pavilion End","lat":51.51298,"lon":-0.09403,"postcode":"EC4M 9BR","la":"City of London","era":"trad","nn":0,"risk":22,"cat":"green"},{"name":"Pegasus Bar","lat":51.51297,"lon":-0.10971,"postcode":"EC4Y 7HL","la":"City of London","era":"other","nn":96,"risk":23,"cat":"green"},{"name":"Pelt Trader, Arch 3","lat":51.511,"lon":-0.09133,"postcode":"EC4R 2SU","la":"City of London","era":"other","nn":57,"risk":23,"cat":"green"},{"name":"Piano Smithfield","lat":51.5198,"lon":-0.09901,"postcode":"EC1A 9PN","la":"City of London","era":"other","nn":51,"risk":23,"cat":"green"},{"name":"Pitch","lat":51.51523,"lon":-0.08244,"postcode":"EC2N 4AW","la":"City of London","era":"other","nn":13,"risk":22,"cat":"green"},{"name":"Pitch Golf Studio","lat":51.51513,"lon":-0.08253,"postcode":"EC2N 4AW","la":"City of London","era":"mod","nn":13,"risk":22,"cat":"green"},{"name":"Pitcher & Piano","lat":51.51322,"lon":-0.08713,"postcode":"EC3V 3ND","la":"City of London","era":"other","nn":0,"risk":22,"cat":"green"},{"name":"Planet Of The Grapes","lat":51.51256,"lon":-0.08419,"postcode":"EC3V 1LU","la":"City of London","era":"other","nn":27,"risk":22,"cat":"green"},{"name":"Popworld","lat":51.51284,"lon":-0.09477,"postcode":"EC4M 9BB","la":"City of London","era":"other","nn":54,"risk":23,"cat":"green"},{"name":"Punch Tavern","lat":51.51403,"lon":-0.10482,"postcode":"EC4Y 1DE","la":"City of London","era":"other","nn":18,"risk":22,"cat":"green"},{"name":"Puttshack, Ground Floor Reception","lat":51.51334,"lon":-0.09108,"postcode":"EC2R 8EJ","la":"City of London","era":"other","nn":91,"risk":23,"cat":"green"},{"name":"Revolution","lat":51.51374,"lon":-0.08306,"postcode":"EC3V 4QT","la":"City of London","era":"other","nn":119,"risk":23,"cat":"green"},{"name":"Rudds","lat":51.51227,"lon":-0.10155,"postcode":"EC4V 4BY","la":"City of London","era":"other","nn":39,"risk":22,"cat":"green"},{"name":"Salotto 31","lat":51.50976,"lon":-0.08408,"postcode":"EC3R 8EB","la":"City of London","era":"other","nn":28,"risk":22,"cat":"green"},{"name":"Samuel Peyps","lat":51.51042,"lon":-0.09627,"postcode":"EC4V 3PT","la":"City of London","era":"other","nn":250,"risk":24,"cat":"green"},{"name":"Seething Lane Tap","lat":51.50985,"lon":-0.08001,"postcode":"EC3N 4AX","la":"City of London","era":"mod","nn":0,"risk":22,"cat":"green"},{"name":"Shaws Booksellers","lat":51.51259,"lon":-0.10132,"postcode":"EC4V 5DE","la":"City of London","era":"other","nn":39,"risk":22,"cat":"green"},{"name":"Simmons, Unit 5","lat":51.51073,"lon":-0.08371,"postcode":"EC3M 1DT","la":"City of London","era":"other","nn":24,"risk":22,"cat":"green"},{"name":"Simon's Bar Bank","lat":51.51322,"lon":-0.08713,"postcode":"EC3V 3ND","la":"City of London","era":"mod","nn":0,"risk":22,"cat":"green"},{"name":"Sir John Hawkshaw","lat":51.51098,"lon":-0.09051,"postcode":"EC4N 6AP","la":"City of London","era":"other","nn":0,"risk":22,"cat":"green"},{"name":"Slug & Lettuce/Chik Box/Locked N Loaded/K Town","lat":51.51242,"lon":-0.07516,"postcode":"EC3N 1DD","la":"City of London","era":"other","nn":111,"risk":23,"cat":"green"},{"name":"Slug And Lettuce","lat":51.51613,"lon":-0.09368,"postcode":"EC2V 7JQ","la":"City of London","era":"other","nn":195,"risk":24,"cat":"green"},{"name":"Slug And Lettuce","lat":51.51503,"lon":-0.08112,"postcode":"EC3A 8AA","la":"City of London","era":"other","nn":94,"risk":23,"cat":"green"},{"name":"Spirit Of Man","lat":51.51317,"lon":-0.07958,"postcode":"EC3A 2BJ","la":"City of London","era":"other","nn":68,"risk":23,"cat":"green"},{"name":"St Bride Foundation","lat":51.51335,"lon":-0.10515,"postcode":"EC4Y 8EQ","la":"City of London","era":"other","nn":63,"risk":23,"cat":"green"},{"name":"Steam Wine Bar","lat":51.5105,"lon":-0.08466,"postcode":"EC3R 8DJ","la":"City of London","era":"other","nn":41,"risk":22,"cat":"green"},{"name":"Swan Tavern","lat":51.51221,"lon":-0.08422,"postcode":"EC3V 1LY","la":"City of London","era":"trad","nn":21,"risk":22,"cat":"green"},{"name":"Swingers","lat":51.51401,"lon":-0.08045,"postcode":"EC3A 8AL","la":"City of London","era":"other","nn":111,"risk":23,"cat":"green"},{"name":"Ten Trinity Square Private Club","lat":51.51037,"lon":-0.07885,"postcode":"EC3N 4AJ","la":"City of London","era":"other","nn":63,"risk":23,"cat":"green"},{"name":"The Albion","lat":51.51384,"lon":-0.10469,"postcode":"EC4V 6AA","la":"City of London","era":"other","nn":23,"risk":22,"cat":"green"},{"name":"The Alchemist","lat":51.51498,"lon":-0.07946,"postcode":"EC3A 7BA","la":"City of London","era":"other","nn":65,"risk":23,"cat":"green"},{"name":"The Alice","lat":51.51552,"lon":-0.07775,"postcode":"EC3A 7BX","la":"City of London","era":"other","nn":0,"risk":22,"cat":"green"},{"name":"The Anthologist","lat":51.51481,"lon":-0.09111,"postcode":"EC2V 7BB","la":"City of London","era":"other","nn":69,"risk":23,"cat":"green"},{"name":"The Arbitrager","lat":51.51509,"lon":-0.08613,"postcode":"EC2N 2AN","la":"City of London","era":"other","nn":0,"risk":22,"cat":"green"},{"name":"The Banker","lat":51.50966,"lon":-0.09176,"postcode":"EC4R 3TE","la":"City of London","era":"other","nn":136,"risk":23,"cat":"green"},{"name":"The Bell","lat":51.511,"lon":-0.08939,"postcode":"EC4R 0AN","la":"City of London","era":"other","nn":7,"risk":22,"cat":"green"},{"name":"The Blackfriar","lat":51.51213,"lon":-0.10376,"postcode":"EC4V 4EG","la":"City of London","era":"other","nn":52,"risk":23,"cat":"green"},{"name":"The Bolthole","lat":51.51096,"lon":-0.08931,"postcode":"EC4R 0AT","la":"City of London","era":"other","nn":7,"risk":22,"cat":"green"},{"name":"The Bootlegger's Club Ltd","lat":51.51195,"lon":-0.08342,"postcode":"EC3M 7HR","la":"City of London","era":"other","nn":43,"risk":22,"cat":"green"},{"name":"The Botanist","lat":51.51892,"lon":-0.08359,"postcode":"EC2M 2QS","la":"City of London","era":"other","nn":126,"risk":23,"cat":"green"},{"name":"The Britannia","lat":51.50993,"lon":-0.08588,"postcode":"EC3R 8AJ","la":"City of London","era":"trad","nn":58,"risk":23,"cat":"green"},{"name":"The Bull","lat":51.51693,"lon":-0.08014,"postcode":"EC2M 4RH","la":"City of London","era":"trad","nn":0,"risk":22,"cat":"green"},{"name":"The Butcher's Hook And Cleaver","lat":51.51888,"lon":-0.10056,"postcode":"EC1A 9DY","la":"City of London","era":"other","nn":0,"risk":22,"cat":"green"},{"name":"The Cock & Woolpack","lat":51.5137,"lon":-0.08577,"postcode":"EC3V 3NA","la":"City of London","era":"trad","nn":75,"risk":23,"cat":"green"},{"name":"The Cockpit","lat":51.51302,"lon":-0.10133,"postcode":"EC4V 5BY","la":"City of London","era":"other","nn":11,"risk":22,"cat":"green"},{"name":"The Corn Exchange","lat":51.51094,"lon":-0.08061,"postcode":"EC3R 7BB","la":"City of London","era":"other","nn":34,"risk":22,"cat":"green"},{"name":"The Counting House","lat":51.5132,"lon":-0.085,"postcode":"EC3V 3PD","la":"City of London","era":"other","nn":48,"risk":23,"cat":"green"},{"name":"The Craft Beer Company","lat":51.51394,"lon":-0.07876,"postcode":"EC3A 5BU","la":"City of London","era":"mod","nn":37,"risk":22,"cat":"green"},{"name":"The Crown And Sugar Loaf","lat":51.51393,"lon":-0.10503,"postcode":"EC4Y 8DT","la":"City of London","era":"trad","nn":0,"risk":22,"cat":"green"},{"name":"The Crutched Friar","lat":51.51132,"lon":-0.07879,"postcode":"EC3N 2AE","la":"City of London","era":"other","nn":8,"risk":22,"cat":"green"},{"name":"The Drift","lat":51.51625,"lon":-0.08094,"postcode":"EC2N 4AY","la":"City of London","era":"other","nn":94,"risk":23,"cat":"green"},{"name":"The English Wine And Spirit Co Ltd","lat":51.51693,"lon":-0.08014,"postcode":"EC2M 4RH","la":"City of London","era":"other","nn":0,"risk":22,"cat":"green"},{"name":"The Fable","lat":51.51699,"lon":-0.10366,"postcode":"EC1A 2FD","la":"City of London","era":"other","nn":75,"risk":23,"cat":"green"},{"name":"The Folly","lat":51.51124,"lon":-0.08602,"postcode":"EC3V 0BT","la":"City of London","era":"other","nn":30,"risk":22,"cat":"green"},{"name":"The Globe","lat":51.51778,"lon":-0.0888,"postcode":"EC2M 6SA","la":"City of London","era":"other","nn":15,"risk":22,"cat":"green"},{"name":"The Gobpsy, Basement Bar","lat":51.51179,"lon":-0.08255,"postcode":"EC3M 6BL","la":"City of London","era":"other","nn":63,"risk":23,"cat":"green"},{"name":"The Golden Fleece","lat":51.51327,"lon":-0.09272,"postcode":"EC4N 1SP","la":"City of London","era":"trad","nn":34,"risk":22,"cat":"green"},{"name":"The Golden Goose","lat":51.51269,"lon":-0.08341,"postcode":"EC3V 1LR","la":"City of London","era":"other","nn":0,"risk":22,"cat":"green"},{"name":"The Hoop & Grapes","lat":51.5141,"lon":-0.07444,"postcode":"EC3N 1AL","la":"City of London","era":"other","nn":62,"risk":23,"cat":"green"},{"name":"The Hung Drawn & Quartered","lat":51.50964,"lon":-0.08114,"postcode":"EC3R 5AQ","la":"City of London","era":"mod","nn":82,"risk":23,"cat":"green"},{"name":"The Hydrant, Equitable House","lat":51.51039,"lon":-0.08637,"postcode":"EC3R 8BG","la":"City of London","era":"other","nn":46,"risk":22,"cat":"green"},{"name":"The Jugged Hare","lat":51.52079,"lon":-0.09094,"postcode":"EC1Y 4SA","la":"City of London","era":"other","nn":231,"risk":24,"cat":"green"},{"name":"The Kings Arms","lat":51.51641,"lon":-0.08257,"postcode":"EC2M 1RP","la":"City of London","era":"trad","nn":101,"risk":23,"cat":"green"},{"name":"The Lamb And Trotter","lat":51.51709,"lon":-0.09802,"postcode":"EC1A 7BX","la":"City of London","era":"other","nn":116,"risk":23,"cat":"green"},{"name":"The Lamb Tavern","lat":51.51269,"lon":-0.08341,"postcode":"EC3V 1LR","la":"City of London","era":"other","nn":0,"risk":22,"cat":"green"},{"name":"The Leaf And Cane At Hyatt Regency London Blackfriars","lat":51.51226,"lon":-0.10467,"postcode":"EC4V 6DB","la":"City of London","era":"other","nn":58,"risk":23,"cat":"green"},{"name":"The Lion","lat":51.51503,"lon":-0.07852,"postcode":"EC3A 7DB","la":"City of London","era":"trad","nn":65,"risk":23,"cat":"green"},{"name":"The Long Lane (Bar)","lat":51.51922,"lon":-0.09991,"postcode":"EC1A 9EJ","la":"City of London","era":"other","nn":4,"risk":22,"cat":"green"},{"name":"The Lord Aberconway","lat":51.51727,"lon":-0.08301,"postcode":"EC2M 1QT","la":"City of London","era":"other","nn":42,"risk":22,"cat":"green"},{"name":"The Lord Raglan","lat":51.51656,"lon":-0.09657,"postcode":"EC1A 4ER","la":"City of London","era":"other","nn":116,"risk":23,"cat":"green"},{"name":"The Magpie","lat":51.51725,"lon":-0.07932,"postcode":"EC2M 4TP","la":"City of London","era":"other","nn":66,"risk":23,"cat":"green"},{"name":"The Minories Public House","lat":51.51064,"lon":-0.07453,"postcode":"EC3N 1JL","la":"City of London","era":"other","nn":118,"risk":23,"cat":"green"},{"name":"The Moniker","lat":51.51282,"lon":-0.08076,"postcode":"EC3M 5AD","la":"City of London","era":"other","nn":91,"risk":23,"cat":"green"},{"name":"The Monument Public House","lat":51.51004,"lon":-0.0867,"postcode":"EC3R 6DB","la":"City of London","era":"other","nn":46,"risk":22,"cat":"green"},{"name":"The New Moon Public House","lat":51.51285,"lon":-0.08419,"postcode":"EC3V 0DN","la":"City of London","era":"other","nn":32,"risk":22,"cat":"green"},{"name":"The Old Bell Tavern","lat":51.51401,"lon":-0.10543,"postcode":"EC4Y 1DH","la":"City of London","era":"other","nn":29,"risk":22,"cat":"green"},{"name":"The Old Doctor Butler's Head","lat":51.51583,"lon":-0.09042,"postcode":"EC2V 5BT","la":"City of London","era":"trad","nn":33,"risk":22,"cat":"green"},{"name":"The Old Tea Warehouse","lat":51.51361,"lon":-0.07888,"postcode":"EC3A 5AY","la":"City of London","era":"other","nn":0,"risk":22,"cat":"green"},{"name":"The Olde Wine Shades","lat":51.51087,"lon":-0.08756,"postcode":"EC4R 0DJ","la":"City of London","era":"other","nn":39,"risk":22,"cat":"green"},{"name":"The Paternoster","lat":51.51486,"lon":-0.09812,"postcode":"EC4M 7DZ","la":"City of London","era":"other","nn":217,"risk":24,"cat":"green"},{"name":"The Phoenix","lat":51.51509,"lon":-0.08613,"postcode":"EC2N 2AN","la":"City of London","era":"other","nn":0,"risk":22,"cat":"green"},{"name":"The Rack & Tenter","lat":51.51878,"lon":-0.08889,"postcode":"EC2Y 9AE","la":"City of London","era":"other","nn":111,"risk":23,"cat":"green"},{"name":"The Railway Tavern","lat":51.51751,"lon":-0.08348,"postcode":"EC2M 7NX","la":"City of London","era":"trad","nn":42,"risk":22,"cat":"green"},{"name":"The Red Lion","lat":51.51878,"lon":-0.08556,"postcode":"EC2M 7LS","la":"City of London","era":"trad","nn":137,"risk":23,"cat":"green"},{"name":"The Rising Sun","lat":51.51309,"lon":-0.10143,"postcode":"EC4V 5DY","la":"City of London","era":"other","nn":11,"risk":22,"cat":"green"},{"name":"The Rising Sun Public House","lat":51.51913,"lon":-0.09978,"postcode":"EC1A 7JQ","la":"City of London","era":"other","nn":13,"risk":22,"cat":"green"},{"name":"The Saint","lat":51.51349,"lon":-0.09406,"postcode":"EC4M 9DQ","la":"City of London","era":"trad","nn":24,"risk":22,"cat":"green"},{"name":"The Sea Horse","lat":51.5126,"lon":-0.09363,"postcode":"EC4N 4SJ","la":"City of London","era":"trad","nn":8,"risk":22,"cat":"green"},{"name":"The Shakespeare","lat":51.52249,"lon":-0.09738,"postcode":"EC1M 7AA","la":"City of London","era":"other","nn":292,"risk":24,"cat":"green"},{"name":"The Ship","lat":51.51088,"lon":-0.07996,"postcode":"EC3R 7NB","la":"City of London","era":"trad","nn":45,"risk":22,"cat":"green"},{"name":"The Ship Public House","lat":51.51099,"lon":-0.08497,"postcode":"EC3V 0BP","la":"City of London","era":"trad","nn":35,"risk":22,"cat":"green"},{"name":"The Steel Yard","lat":51.51098,"lon":-0.09051,"postcode":"EC4R 3UL","la":"City of London","era":"mod","nn":0,"risk":22,"cat":"green"},{"name":"The Sugarloaf","lat":51.51236,"lon":-0.093,"postcode":"EC4N 5AA","la":"City of London","era":"other","nn":43,"risk":22,"cat":"green"},{"name":"The Swan PH","lat":51.51236,"lon":-0.08441,"postcode":"EC3V 0AS","la":"City of London","era":"trad","nn":21,"risk":22,"cat":"green"},{"name":"The Telegraph","lat":51.51566,"lon":-0.08833,"postcode":"EC2R 7AR","la":"City of London","era":"other","nn":81,"risk":23,"cat":"green"},{"name":"The Tipperary","lat":51.51403,"lon":-0.10759,"postcode":"EC4Y 1HT","la":"City of London","era":"other","nn":43,"risk":22,"cat":"green"},{"name":"The Trinity Bell","lat":51.51361,"lon":-0.07888,"postcode":"EC3A 5AY","la":"City of London","era":"other","nn":0,"risk":22,"cat":"green"},{"name":"The Walrus & The Carpenter PH","lat":51.50951,"lon":-0.08411,"postcode":"EC3R 8BU","la":"City of London","era":"trad","nn":28,"risk":22,"cat":"green"},{"name":"The Windsor","lat":51.51127,"lon":-0.07973,"postcode":"EC3R 7NA","la":"City of London","era":"other","nn":46,"risk":22,"cat":"green"},{"name":"The Woodins Shades","lat":51.5183,"lon":-0.07931,"postcode":"EC2M 4PT","la":"City of London","era":"other","nn":56,"risk":23,"cat":"green"},{"name":"Three Cranes","lat":51.51201,"lon":-0.09372,"postcode":"EC4V 2BA","la":"City of London","era":"other","nn":60,"risk":23,"cat":"green"},{"name":"Three Tuns","lat":51.51331,"lon":-0.07656,"postcode":"EC3N 2ET","la":"City of London","era":"other","nn":5,"risk":22,"cat":"green"},{"name":"Tokenhouse","lat":51.51519,"lon":-0.08924,"postcode":"EC2R 6DA","la":"City of London","era":"other","nn":81,"risk":23,"cat":"green"},{"name":"Traitors Gate","lat":51.50975,"lon":-0.0788,"postcode":"EC3N 4AA","la":"City of London","era":"other","nn":0,"risk":22,"cat":"green"},{"name":"Vagabond Wines","lat":51.51103,"lon":-0.08548,"postcode":"EC3V 0EH","la":"City of London","era":"other","nn":16,"risk":22,"cat":"green"},{"name":"Vagabond Wines","lat":51.51116,"lon":-0.0856,"postcode":"EC3V 0EH","la":"City of London","era":"other","nn":16,"risk":22,"cat":"green"},{"name":"Viaduct Tavern Public House","lat":51.51622,"lon":-0.10162,"postcode":"EC1A 7AA","la":"City of London","era":"other","nn":106,"risk":23,"cat":"green"},{"name":"White Haus","lat":51.51539,"lon":-0.10433,"postcode":"EC4A 4AB","la":"City of London","era":"other","nn":41,"risk":22,"cat":"green"},{"name":"Williamsons Tavern","lat":51.51328,"lon":-0.09412,"postcode":"EC4M 9EH","la":"City of London","era":"other","nn":24,"risk":22,"cat":"green"},{"name":"Willys Wine Bar","lat":51.51259,"lon":-0.07927,"postcode":"EC3M 5JF","la":"City of London","era":"other","nn":38,"risk":22,"cat":"green"},{"name":"Wood Street Bar And Restaurant","lat":51.51775,"lon":-0.09046,"postcode":"EC2Y 5EJ","la":"City of London","era":"mod","nn":102,"risk":23,"cat":"green"},{"name":"Ye Olde Cheshire Cheese","lat":51.51439,"lon":-0.10739,"postcode":"EC4A 2BU","la":"City of London","era":"other","nn":43,"risk":22,"cat":"green"},{"name":"Ye Olde Cock Tavern","lat":51.51369,"lon":-0.1105,"postcode":"EC4Y 1AA","la":"City of London","era":"other","nn":60,"risk":23,"cat":"green"},{"name":"Ye Olde London","lat":51.51408,"lon":-0.10165,"postcode":"EC4M 7DE","la":"City of London","era":"other","nn":66,"risk":23,"cat":"green"},{"name":"Ye Olde Watling","lat":51.51298,"lon":-0.09403,"postcode":"EC4M 9BR","la":"City of London","era":"other","nn":0,"risk":22,"cat":"green"},{"name":"All Bar One","lat":51.52004,"lon":-0.08327,"postcode":"EC2A 2AS","la":"Hackney","era":"mod","nn":104,"risk":24,"cat":"green"},{"name":"Canvas Bar","lat":51.52625,"lon":-0.08601,"postcode":"EC1V 9HB","la":"Hackney","era":"other","nn":68,"risk":24,"cat":"green"},{"name":"Cargo","lat":51.5262,"lon":-0.07886,"postcode":"EC2A 3AY","la":"Hackney","era":"other","nn":41,"risk":24,"cat":"green"},{"name":"Home Bar","lat":51.52481,"lon":-0.08218,"postcode":"EC2A 4QW","la":"Hackney","era":"other","nn":13,"risk":24,"cat":"green"},{"name":"Lounge Bohemia","lat":51.52295,"lon":-0.07841,"postcode":"EC2A 3EJ","la":"Hackney","era":"mod","nn":136,"risk":24,"cat":"green"},{"name":"Ninetyeight Bar and Lounge","lat":51.52501,"lon":-0.07996,"postcode":"EC2A 3AF","la":"Hackney","era":"mod","nn":70,"risk":24,"cat":"green"},{"name":"Old Kings Head","lat":51.52315,"lon":-0.08232,"postcode":"EC2A 4JB","la":"Hackney","era":"trad","nn":124,"risk":24,"cat":"green"},{"name":"Queen of Hoxton","lat":51.52228,"lon":-0.0812,"postcode":"EC2A 3JX","la":"Hackney","era":"trad","nn":98,"risk":24,"cat":"green"},{"name":"Roadtrip Bar","lat":51.52667,"lon":-0.084,"postcode":"EC1V 9EY","la":"Hackney","era":"other","nn":104,"risk":24,"cat":"green"},{"name":"Sink Pong","lat":51.52262,"lon":-0.08408,"postcode":"EC2A 4JH","la":"Hackney","era":"other","nn":67,"risk":24,"cat":"green"},{"name":"The Barley Mow","lat":51.52622,"lon":-0.08067,"postcode":"EC2A 3BX","la":"Hackney","era":"other","nn":32,"risk":24,"cat":"green"},{"name":"The Book Club","lat":51.52454,"lon":-0.08149,"postcode":"EC2A 4RH","la":"Hackney","era":"other","nn":50,"risk":24,"cat":"green"},{"name":"The Bricklayers Arms","lat":51.52631,"lon":-0.08112,"postcode":"EC2A 3PE","la":"Hackney","era":"trad","nn":32,"risk":24,"cat":"green"},{"name":"The Flying Horse","lat":51.52049,"lon":-0.08501,"postcode":"EC2A 2ER","la":"Hackney","era":"trad","nn":131,"risk":24,"cat":"green"},{"name":"The Fox Public House","lat":51.52347,"lon":-0.08428,"postcode":"EC2A 4LB","la":"Hackney","era":"trad","nn":47,"risk":24,"cat":"green"},{"name":"The Griffin","lat":51.52485,"lon":-0.082,"postcode":"EC2A 4RD","la":"Hackney","era":"trad","nn":13,"risk":24,"cat":"green"},{"name":"The Horse And Groom","lat":51.52299,"lon":-0.08036,"postcode":"EC2A 3NZ","la":"Hackney","era":"trad","nn":98,"risk":24,"cat":"green"},{"name":"The LightHouse","lat":51.52663,"lon":-0.07891,"postcode":"EC2A 3AY","la":"Hackney","era":"other","nn":41,"risk":24,"cat":"green"},{"name":"The Old Blue Last","lat":51.52438,"lon":-0.08007,"postcode":"EC2A 3ES","la":"Hackney","era":"other","nn":70,"risk":24,"cat":"green"},{"name":"Trafik","lat":51.52714,"lon":-0.08065,"postcode":"EC1V 9LE","la":"Hackney","era":"other","nn":98,"risk":24,"cat":"green"},{"name":"23 Paul Street","lat":51.52312,"lon":-0.08464,"postcode":"EC2A 4JU","la":"Islington","era":"other","nn":47,"risk":25,"cat":"green"},{"name":"All Bar One","lat":51.52013,"lon":-0.08777,"postcode":"EC2A 1NS","la":"Islington","era":"mod","nn":169,"risk":26,"cat":"green"},{"name":"Artillery Arms Public House","lat":51.52339,"lon":-0.09014,"postcode":"EC1Y 8ND","la":"Islington","era":"trad","nn":127,"risk":26,"cat":"green"},{"name":"Be At One Farringdon","lat":51.52023,"lon":-0.10048,"postcode":"EC1M 6JN","la":"Islington","era":"other","nn":34,"risk":25,"cat":"green"},{"name":"Beduin","lat":51.51932,"lon":-0.10353,"postcode":"EC1M 6HA","la":"Islington","era":"other","nn":57,"risk":25,"cat":"green"},{"name":"Bourne & Hollingsworth Buildings","lat":51.52557,"lon":-0.10738,"postcode":"EC1R 0HU","la":"Islington","era":"other","nn":191,"risk":26,"cat":"green"},{"name":"Britannia Public House","lat":51.52733,"lon":-0.0945,"postcode":"EC1V 3QR","la":"Islington","era":"trad","nn":172,"risk":26,"cat":"green"},{"name":"Clerkenwell & Social","lat":51.5222,"lon":-0.10329,"postcode":"EC1M 4DE","la":"Islington","era":"mod","nn":61,"risk":25,"cat":"green"},{"name":"Club Glam","lat":51.52589,"lon":-0.08516,"postcode":"EC1V 9DD","la":"Islington","era":"other","nn":15,"risk":25,"cat":"green"},{"name":"Dame Alice Owen Public House","lat":51.52821,"lon":-0.10458,"postcode":"EC1V 4PA","la":"Islington","era":"other","nn":219,"risk":26,"cat":"green"},{"name":"Dreamboys","lat":51.52278,"lon":-0.08689,"postcode":"EC1Y 1AG","la":"Islington","era":"other","nn":0,"risk":25,"cat":"green"},{"name":"Eagle Public House","lat":51.52416,"lon":-0.10976,"postcode":"EC1R 3AL","la":"Islington","era":"trad","nn":149,"risk":26,"cat":"green"},{"name":"Fabric","lat":51.51954,"lon":-0.10278,"postcode":"EC1M 6BN","la":"Islington","era":"other","nn":57,"risk":25,"cat":"green"},{"name":"Finch's PH","lat":51.52175,"lon":-0.0874,"postcode":"EC2A 1AN","la":"Islington","era":"other","nn":119,"risk":25,"cat":"green"},{"name":"For Your Eyes Only","lat":51.52278,"lon":-0.08689,"postcode":"EC1Y 1AG","la":"Islington","era":"other","nn":0,"risk":25,"cat":"green"},{"name":"Ninth Ward London","lat":51.52251,"lon":-0.10762,"postcode":"EC1R 3BT","la":"Islington","era":"other","nn":88,"risk":25,"cat":"green"},{"name":"Old Red Lion Public House","lat":51.53148,"lon":-0.10585,"postcode":"EC1V 4NJ","la":"Islington","era":"trad","nn":178,"risk":26,"cat":"green"},{"name":"Q Shoreditch","lat":51.52451,"lon":-0.08574,"postcode":"EC2A 4AA","la":"Islington","era":"other","nn":109,"risk":25,"cat":"green"},{"name":"Simmons Farringdon","lat":51.52028,"lon":-0.10099,"postcode":"EC1M 6HW","la":"Islington","era":"other","nn":26,"risk":25,"cat":"green"},{"name":"Sports Bar & Grill Farringdon","lat":51.52068,"lon":-0.10336,"postcode":"EC1M 5UG","la":"Islington","era":"mod","nn":73,"risk":25,"cat":"green"},{"name":"The Angel Public House","lat":51.52471,"lon":-0.08737,"postcode":"EC1Y 1BD","la":"Islington","era":"trad","nn":115,"risk":25,"cat":"green"},{"name":"The Artisan","lat":51.52292,"lon":-0.10413,"postcode":"EC1V 4JL","la":"Islington","era":"other","nn":33,"risk":25,"cat":"green"},{"name":"The Betsey Trotwood","lat":51.52336,"lon":-0.10803,"postcode":"EC1R 3BL","la":"Islington","era":"other","nn":99,"risk":25,"cat":"green"},{"name":"The Castle","lat":51.52025,"lon":-0.10422,"postcode":"EC1M 6DB","la":"Islington","era":"other","nn":42,"risk":25,"cat":"green"},{"name":"The Chocolate Cocktail Club","lat":51.52167,"lon":-0.10138,"postcode":"EC1M 4DT","la":"Islington","era":"other","nn":139,"risk":26,"cat":"green"},{"name":"The Corner Bar / Charlie's Cantina","lat":51.52721,"lon":-0.09699,"postcode":"EC1V 8AP","la":"Islington","era":"mod","nn":172,"risk":26,"cat":"green"},{"name":"The Dovetail","lat":51.5232,"lon":-0.10397,"postcode":"EC1V 4JP","la":"Islington","era":"other","nn":33,"risk":25,"cat":"green"},{"name":"The Fence","lat":51.52005,"lon":-0.1037,"postcode":"EC1M 6BP","la":"Islington","era":"other","nn":42,"risk":25,"cat":"green"},{"name":"The Fox and Anchor","lat":51.52047,"lon":-0.10078,"postcode":"EC1M 6AA","la":"Islington","era":"trad","nn":26,"risk":25,"cat":"green"},{"name":"The George & Monkey","lat":51.52993,"lon":-0.11022,"postcode":"EC1R 1UU","la":"Islington","era":"trad","nn":220,"risk":26,"cat":"green"},{"name":"The Green","lat":51.52279,"lon":-0.10638,"postcode":"EC1R 0DU","la":"Islington","era":"other","nn":91,"risk":25,"cat":"green"},{"name":"The Harlequin Public House","lat":51.5299,"lon":-0.10622,"postcode":"EC1R 1UY","la":"Islington","era":"other","nn":178,"risk":26,"cat":"green"},{"name":"The Holy Tavern","lat":51.52182,"lon":-0.10393,"postcode":"EC1M 5UQ","la":"Islington","era":"other","nn":61,"risk":25,"cat":"green"},{"name":"The Honourable Artillery Company","lat":51.52302,"lon":-0.08841,"postcode":"EC1Y 2BQ","la":"Islington","era":"other","nn":108,"risk":25,"cat":"green"},{"name":"The Hope","lat":51.51983,"lon":-0.10202,"postcode":"EC1M 6BH","la":"Islington","era":"other","nn":61,"risk":25,"cat":"green"},{"name":"The Horns","lat":51.52602,"lon":-0.0851,"postcode":"EC1V 9DD","la":"Islington","era":"other","nn":15,"risk":25,"cat":"green"},{"name":"The Horseshoe Public House","lat":51.52389,"lon":-0.1068,"postcode":"EC1R 0AG","la":"Islington","era":"trad","nn":104,"risk":25,"cat":"green"},{"name":"The Whitecross Tap","lat":51.52415,"lon":-0.09347,"postcode":"EC1Y 8QJ","la":"Islington","era":"other","nn":189,"risk":26,"cat":"green"},{"name":"The Windmill Public House","lat":51.52322,"lon":-0.08647,"postcode":"EC2A 4DE","la":"Islington","era":"trad","nn":57,"risk":25,"cat":"green"},{"name":"Two Brewers Public House","lat":51.52249,"lon":-0.09287,"postcode":"EC1Y 8JH","la":"Islington","era":"other","nn":189,"risk":26,"cat":"green"},{"name":"Wilmington Arms","lat":51.52608,"lon":-0.11006,"postcode":"EC1R 4RL","la":"Islington","era":"trad","nn":195,"risk":26,"cat":"green"},{"name":"XOYO","lat":51.52549,"lon":-0.0856,"postcode":"EC2A 4AP","la":"Islington","era":"other","nn":54,"risk":25,"cat":"green"},{"name":"Wine Library","lat":51.5104,"lon":-0.07671,"postcode":"EC3N 4DJ","la":"Tower Hamlets","era":"other","nn":81,"risk":24,"cat":"green"},{"name":"Yeoman Warder Club","lat":51.50827,"lon":-0.07625,"postcode":"EC3N 4AE","la":"Tower Hamlets","era":"other","nn":239,"risk":25,"cat":"green"},{"name":"Maison Arslan / The Green Ribbon","lat":51.51397,"lon":-0.11124,"postcode":"EC4A 2AH","la":"Westminster","era":"other","nn":60,"risk":26,"cat":"green"}]