[{"name":"Alchemy Bar And Lounge","lat":51.26252,"lon":-1.08796,"postcode":"RG21 7DZ","la":"Basingstoke and Deane","era":"mod","nn":31,"risk":28,"cat":"green"},{"name":"Ambassadors Club","lat":51.35819,"lon":-1.15776,"postcode":"RG26 4QQ","la":"Basingstoke and Deane","era":"other","nn":510,"risk":49,"cat":"amber"},{"name":"Arkells At The White Hart Hotel","lat":51.23029,"lon":-1.33874,"postcode":"RG28 7DN","la":"Basingstoke and Deane","era":"trad","nn":76,"risk":29,"cat":"green"},{"name":"Bar Fever","lat":51.26224,"lon":-1.08834,"postcode":"RG21 7EE","la":"Basingstoke and Deane","era":"mod","nn":40,"risk":28,"cat":"green"},{"name":"Basingstoke Conservative Club","lat":51.26024,"lon":-1.09307,"postcode":"RG21 3DD","la":"Basingstoke and Deane","era":"other","nn":57,"risk":29,"cat":"green"},{"name":"Basingstoke Golf Club","lat":51.21284,"lon":-1.15907,"postcode":"RG25 2AD","la":"Basingstoke and Deane","era":"other","nn":0,"risk":48,"cat":"amber"},{"name":"Basingstoke Hockey Club","lat":51.24681,"lon":-1.12733,"postcode":"RG22 5SN","la":"Basingstoke and Deane","era":"other","nn":447,"risk":36,"cat":"amber"},{"name":"Basingstoke Labour Club","lat":51.25663,"lon":-1.1097,"postcode":"RG22 6AS","la":"Basingstoke and Deane","era":"other","nn":1081,"risk":58,"cat":"amber"},{"name":"Basingstoke Rugby Club","lat":51.25066,"lon":-1.12921,"postcode":"RG22 5HH","la":"Basingstoke and Deane","era":"other","nn":1,"risk":33,"cat":"amber"},{"name":"Basingstoke Snooker Club / Academy","lat":51.2627,"lon":-1.12988,"postcode":"RG22 5EE","la":"Basingstoke and Deane","era":"other","nn":132,"risk":34,"cat":"amber"},{"name":"Basingstoke Town Bowling Club","lat":51.25927,"lon":-1.08684,"postcode":"RG21 3DR","la":"Basingstoke and Deane","era":"other","nn":98,"risk":29,"cat":"green"},{"name":"Bishopswood Golf Course","lat":51.34935,"lon":-1.1568,"postcode":"RG26 4AT","la":"Basingstoke and Deane","era":"trad","nn":969,"risk":52,"cat":"amber"},{"name":"Dummer Down Brewery","lat":51.20139,"lon":-1.17654,"postcode":"RG25 2AR","la":"Basingstoke and Deane","era":"other","nn":1611,"risk":62,"cat":"red"},{"name":"Gabardine Bar","lat":51.26223,"lon":-1.08477,"postcode":"RG21 7PG","la":"Basingstoke and Deane","era":"other","nn":29,"risk":28,"cat":"green"},{"name":"George & Dragon Country Pub & Hotel","lat":51.32515,"lon":-1.18956,"postcode":"RG26 5ST","la":"Basingstoke and Deane","era":"trad","nn":1974,"risk":64,"cat":"red"},{"name":"George And Horn","lat":51.32498,"lon":-1.24293,"postcode":"RG20 5NU","la":"Basingstoke and Deane","era":"trad","nn":72,"risk":49,"cat":"amber"},{"name":"Global Kitchen Catering And Events","lat":51.25066,"lon":-1.12919,"postcode":"RG22 5HH","la":"Basingstoke and Deane","era":"mod","nn":1,"risk":33,"cat":"amber"},{"name":"Harber Inns Ltd At The Red Lion","lat":51.24377,"lon":-1.26662,"postcode":"RG25 3HQ","la":"Basingstoke and Deane","era":"trad","nn":145,"risk":29,"cat":"green"},{"name":"Kingsclere Bowling Club","lat":51.32534,"lon":-1.24206,"postcode":"RG20 5NY","la":"Basingstoke and Deane","era":"trad","nn":72,"risk":49,"cat":"amber"},{"name":"Laarsens","lat":51.26291,"lon":-1.08666,"postcode":"RG21 7NE","la":"Basingstoke and Deane","era":"other","nn":44,"risk":28,"cat":"green"},{"name":"Longbridge Mill","lat":51.31865,"lon":-1.02122,"postcode":"RG27 0DL","la":"Basingstoke and Deane","era":"trad","nn":293,"risk":35,"cat":"amber"},{"name":"Overton Cricket Club","lat":51.24537,"lon":-1.26504,"postcode":"RG25 3HD","la":"Basingstoke and Deane","era":"other","nn":82,"risk":29,"cat":"green"},{"name":"Overton Football Club","lat":51.24464,"lon":-1.26506,"postcode":"RG25 3HD","la":"Basingstoke and Deane","era":"other","nn":82,"risk":29,"cat":"green"},{"name":"Overton Rugby Club","lat":51.2378,"lon":-1.30601,"postcode":"RG28 7NU","la":"Basingstoke and Deane","era":"other","nn":339,"risk":51,"cat":"amber"},{"name":"Plush","lat":51.2633,"lon":-1.08653,"postcode":"RG21 7NE","la":"Basingstoke and Deane","era":"other","nn":23,"risk":28,"cat":"green"},{"name":"Popinjay","lat":51.28096,"lon":-1.0906,"postcode":"RG24 9ES","la":"Basingstoke and Deane","era":"other","nn":666,"risk":38,"cat":"amber"},{"name":"Portsmouth Arms","lat":51.23514,"lon":-1.11861,"postcode":"RG22 4RA","la":"Basingstoke and Deane","era":"trad","nn":1433,"risk":61,"cat":"red"},{"name":"Rhu Bar","lat":51.26225,"lon":-1.08576,"postcode":"RG21 7NT","la":"Basingstoke and Deane","era":"other","nn":69,"risk":29,"cat":"green"},{"name":"Royal British Legion","lat":51.26934,"lon":-1.0484,"postcode":"RG24 7DN","la":"Basingstoke and Deane","era":"trad","nn":209,"risk":47,"cat":"amber"},{"name":"Royal British Legion","lat":51.20136,"lon":-1.03928,"postcode":"RG25 2PG","la":"Basingstoke and Deane","era":"trad","nn":1420,"risk":61,"cat":"red"},{"name":"Sandford Springs Golf Club","lat":51.32136,"lon":-1.21731,"postcode":"RG26 5RT","la":"Basingstoke and Deane","era":"other","nn":1776,"risk":63,"cat":"red"},{"name":"Sherborne St John Social Club","lat":51.29453,"lon":-1.10605,"postcode":"RG24 9HP","la":"Basingstoke and Deane","era":"mod","nn":148,"risk":49,"cat":"amber"},{"name":"Sherfield Oaks Golf Club","lat":51.31244,"lon":-1.01684,"postcode":"RG27 0HB","la":"Basingstoke and Deane","era":"trad","nn":716,"risk":38,"cat":"amber"},{"name":"Test Valley Golf Club","lat":51.2135,"lon":-1.26144,"postcode":"RG25 3DS","la":"Basingstoke and Deane","era":"other","nn":3229,"risk":73,"cat":"red"},{"name":"The Angel","lat":51.26552,"lon":-1.08449,"postcode":"RG21 7BB","la":"Basingstoke and Deane","era":"trad","nn":276,"risk":30,"cat":"green"},{"name":"The Badgers Wood","lat":51.35139,"lon":-1.17037,"postcode":"RG26 5JH","la":"Basingstoke and Deane","era":"other","nn":724,"risk":51,"cat":"amber"},{"name":"The Bakers","lat":51.26233,"lon":-1.08764,"postcode":"RG21 7ED","la":"Basingstoke and Deane","era":"other","nn":5,"risk":28,"cat":"green"},{"name":"The Barley Mow","lat":51.24822,"lon":-1.17894,"postcode":"RG23 7JZ","la":"Basingstoke and Deane","era":"other","nn":1590,"risk":62,"cat":"red"},{"name":"The Bell Inn","lat":51.23051,"lon":-1.3414,"postcode":"RG28 7DD","la":"Basingstoke and Deane","era":"trad","nn":158,"risk":29,"cat":"green"},{"name":"The Bolton Arms","lat":51.27608,"lon":-1.04492,"postcode":"RG24 7DA","la":"Basingstoke and Deane","era":"trad","nn":632,"risk":50,"cat":"amber"},{"name":"The Bounty Inn / Daddy's Dim Sum","lat":51.26015,"lon":-1.08874,"postcode":"RG21 3BZ","la":"Basingstoke and Deane","era":"trad","nn":77,"risk":29,"cat":"green"},{"name":"The Bramley Inn","lat":51.33014,"lon":-1.06227,"postcode":"RG26 5BT","la":"Basingstoke and Deane","era":"trad","nn":2964,"risk":71,"cat":"red"},{"name":"The Calleva Arms","lat":51.35496,"lon":-1.10343,"postcode":"RG7 2PH","la":"Basingstoke and Deane","era":"trad","nn":1507,"risk":61,"cat":"red"},{"name":"The Carnarvon Arms","lat":51.33335,"lon":-1.34371,"postcode":"RG20 9LE","la":"Basingstoke and Deane","era":"trad","nn":1170,"risk":59,"cat":"amber"},{"name":"The Carpenters Arms","lat":51.34316,"lon":-1.33762,"postcode":"RG20 9JY","la":"Basingstoke and Deane","era":"trad","nn":1170,"risk":59,"cat":"amber"},{"name":"The Chineham Arms","lat":51.29847,"lon":-1.05705,"postcode":"RG24 8XA","la":"Basingstoke and Deane","era":"trad","nn":2629,"risk":69,"cat":"red"},{"name":"The Crown","lat":51.27112,"lon":-1.04935,"postcode":"RG24 7BW","la":"Basingstoke and Deane","era":"trad","nn":209,"risk":47,"cat":"amber"},{"name":"The Duck And Tipple","lat":51.26346,"lon":-1.08672,"postcode":"RG21 7NW","la":"Basingstoke and Deane","era":"other","nn":23,"risk":28,"cat":"green"},{"name":"The Elephant","lat":51.3569,"lon":-1.16481,"postcode":"RG26 5LU","la":"Basingstoke and Deane","era":"other","nn":510,"risk":49,"cat":"amber"},{"name":"The Four Horseshoes","lat":51.31564,"lon":-1.02579,"postcode":"RG27 0EX","la":"Basingstoke and Deane","era":"trad","nn":198,"risk":35,"cat":"amber"},{"name":"The Fox","lat":51.20405,"lon":-1.09672,"postcode":"RG25 2QW","la":"Basingstoke and Deane","era":"trad","nn":3778,"risk":77,"cat":"red"},{"name":"The Fox And Hounds","lat":51.35586,"lon":-1.1434,"postcode":"RG26 3JG","la":"Basingstoke and Deane","era":"trad","nn":1031,"risk":58,"cat":"amber"},{"name":"The Fox Inn","lat":51.25942,"lon":-1.16474,"postcode":"RG23 7HH","la":"Basingstoke and Deane","era":"trad","nn":1590,"risk":62,"cat":"red"},{"name":"The Furze Bush Inn","lat":51.366,"lon":-1.39306,"postcode":"RG20 0NQ","la":"Basingstoke and Deane","era":"trad","nn":1558,"risk":62,"cat":"red"},{"name":"The Gamekeepers","lat":51.2595,"lon":-1.02024,"postcode":"RG25 2LU","la":"Basingstoke and Deane","era":"other","nn":1043,"risk":58,"cat":"amber"},{"name":"The Golden Lion","lat":51.24866,"lon":-1.09132,"postcode":"RG22 4BS","la":"Basingstoke and Deane","era":"trad","nn":1220,"risk":59,"cat":"amber"},{"name":"The Greyhound","lat":51.24252,"lon":-1.26303,"postcode":"RG25 3HS","la":"Basingstoke and Deane","era":"trad","nn":180,"risk":29,"cat":"green"},{"name":"The Hatch","lat":51.26403,"lon":-1.03337,"postcode":"RG24 7JL","la":"Basingstoke and Deane","era":"other","nn":1043,"risk":58,"cat":"amber"},{"name":"The Hoddington Arms","lat":51.22927,"lon":-0.99899,"postcode":"RG25 2RL","la":"Basingstoke and Deane","era":"trad","nn":2448,"risk":68,"cat":"red"},{"name":"The Holly Blue","lat":51.23273,"lon":-1.14398,"postcode":"RG23 7GF","la":"Basingstoke and Deane","era":"trad","nn":1598,"risk":62,"cat":"red"},{"name":"The Irish Centre","lat":51.25955,"lon":-1.08818,"postcode":"RG21 3DH","la":"Basingstoke and Deane","era":"other","nn":77,"risk":29,"cat":"green"},{"name":"The Kestrel","lat":51.24666,"lon":-1.13834,"postcode":"RG22 5NZ","la":"Basingstoke and Deane","era":"other","nn":766,"risk":39,"cat":"amber"},{"name":"The Kings Arms","lat":51.22944,"lon":-1.33991,"postcode":"RG28 7AB","la":"Basingstoke and Deane","era":"trad","nn":50,"risk":29,"cat":"green"},{"name":"The Maidenhead Inn","lat":51.26233,"lon":-1.08757,"postcode":"RG21 7ED","la":"Basingstoke and Deane","era":"trad","nn":5,"risk":28,"cat":"green"},{"name":"The Mole","lat":51.30666,"lon":-1.13152,"postcode":"RG26 5HS","la":"Basingstoke and Deane","era":"other","nn":1532,"risk":61,"cat":"red"},{"name":"The New Inn","lat":51.26347,"lon":-1.09239,"postcode":"RG21 8SS","la":"Basingstoke and Deane","era":"trad","nn":216,"risk":30,"cat":"green"},{"name":"The Oak","lat":51.27817,"lon":-1.08077,"postcode":"RG21 5RJ","la":"Basingstoke and Deane","era":"trad","nn":0,"risk":46,"cat":"amber"},{"name":"The Oak","lat":51.27817,"lon":-1.08077,"postcode":"RG21 5RJ","la":"Basingstoke and Deane","era":"trad","nn":0,"risk":46,"cat":"amber"},{"name":"The Old House At Home","lat":51.24505,"lon":-1.26097,"postcode":"RG25 3DU","la":"Basingstoke and Deane","era":"mod","nn":173,"risk":29,"cat":"green"},{"name":"The Old House At Home","lat":51.28199,"lon":-0.98936,"postcode":"RG27 9AH","la":"Basingstoke and Deane","era":"mod","nn":1090,"risk":58,"cat":"amber"},{"name":"The Pelican","lat":51.35789,"lon":-1.12462,"postcode":"RG26 3EA","la":"Basingstoke and Deane","era":"other","nn":1324,"risk":60,"cat":"amber"},{"name":"The Plough","lat":51.33354,"lon":-1.10924,"postcode":"RG26 5EP","la":"Basingstoke and Deane","era":"trad","nn":1712,"risk":63,"cat":"red"},{"name":"The Prince Regent","lat":51.23148,"lon":-1.32852,"postcode":"RG28 7LT","la":"Basingstoke and Deane","era":"trad","nn":724,"risk":36,"cat":"amber"},{"name":"The Queen Inn","lat":51.21284,"lon":-1.15907,"postcode":"RG25 2AD","la":"Basingstoke and Deane","era":"trad","nn":0,"risk":48,"cat":"amber"},{"name":"The Queens College Arms","lat":51.3208,"lon":-1.12309,"postcode":"RG26 5QR","la":"Basingstoke and Deane","era":"trad","nn":1678,"risk":62,"cat":"red"},{"name":"The Rampant Cat","lat":51.359,"lon":-1.37364,"postcode":"RG20 9TP","la":"Basingstoke and Deane","era":"trad","nn":1558,"risk":62,"cat":"red"},{"name":"The Red House","lat":51.33747,"lon":-1.3764,"postcode":"RG20 9PU","la":"Basingstoke and Deane","era":"other","nn":2317,"risk":67,"cat":"red"},{"name":"The Red Lion","lat":51.37215,"lon":-1.0909,"postcode":"RG7 2HU","la":"Basingstoke and Deane","era":"trad","nn":1210,"risk":59,"cat":"amber"},{"name":"The Rising Sun","lat":51.2694,"lon":-1.09198,"postcode":"RG21 5TB","la":"Basingstoke and Deane","era":"other","nn":660,"risk":33,"cat":"amber"},{"name":"The Royal Exchange","lat":51.26247,"lon":-1.08463,"postcode":"RG21 7NY","la":"Basingstoke and Deane","era":"trad","nn":29,"risk":28,"cat":"green"},{"name":"The Royal Oak","lat":51.33181,"lon":-1.28562,"postcode":"RG20 4UH","la":"Basingstoke and Deane","era":"trad","nn":2026,"risk":65,"cat":"red"},{"name":"The Royal Oak","lat":51.26226,"lon":-1.13164,"postcode":"RG22 5EA","la":"Basingstoke and Deane","era":"trad","nn":132,"risk":47,"cat":"amber"},{"name":"The Soldiers Return","lat":51.27669,"lon":-1.0973,"postcode":"RG21 5RP","la":"Basingstoke and Deane","era":"other","nn":666,"risk":50,"cat":"amber"},{"name":"The Spruce Goose","lat":51.26497,"lon":-1.11767,"postcode":"RG22 6PG","la":"Basingstoke and Deane","era":"other","nn":796,"risk":51,"cat":"amber"},{"name":"The Star Inn","lat":51.33939,"lon":-1.2591,"postcode":"RG20 4SY","la":"Basingstoke and Deane","era":"trad","nn":1957,"risk":64,"cat":"red"},{"name":"The Sun Inn","lat":51.21568,"lon":-1.17273,"postcode":"RG25 2DJ","la":"Basingstoke and Deane","era":"trad","nn":1003,"risk":58,"cat":"amber"},{"name":"The Swan","lat":51.29339,"lon":-1.10495,"postcode":"RG24 9HS","la":"Basingstoke and Deane","era":"trad","nn":148,"risk":49,"cat":"amber"},{"name":"The Swan Inn","lat":51.37245,"lon":-1.31656,"postcode":"RG20 9BH","la":"Basingstoke and Deane","era":"trad","nn":1342,"risk":60,"cat":"amber"},{"name":"The Wellington Arms","lat":51.34065,"lon":-1.16357,"postcode":"RG26 5LP","la":"Basingstoke and Deane","era":"trad","nn":1076,"risk":58,"cat":"amber"},{"name":"The Wheatsheaf","lat":51.2624,"lon":-1.08979,"postcode":"RG21 8EU","la":"Basingstoke and Deane","era":"trad","nn":102,"risk":29,"cat":"green"},{"name":"The White Hart","lat":51.31733,"lon":-1.02486,"postcode":"RG27 0BT","la":"Basingstoke and Deane","era":"trad","nn":198,"risk":35,"cat":"amber"},{"name":"The White Hart","lat":51.26253,"lon":-1.08156,"postcode":"RG21 4AE","la":"Basingstoke and Deane","era":"trad","nn":214,"risk":30,"cat":"green"},{"name":"The White Hart","lat":51.31556,"lon":-1.14834,"postcode":"RG26 5QA","la":"Basingstoke and Deane","era":"trad","nn":1532,"risk":61,"cat":"red"},{"name":"The White Hart Inn","lat":51.26184,"lon":-1.13358,"postcode":"RG22 5EQ","la":"Basingstoke and Deane","era":"trad","nn":143,"risk":47,"cat":"amber"},{"name":"The Winkle","lat":51.27171,"lon":-1.11377,"postcode":"RG23 8BA","la":"Basingstoke and Deane","era":"other","nn":389,"risk":48,"cat":"amber"},{"name":"Upham Inns At The White Hart","lat":51.24414,"lon":-1.263,"postcode":"RG25 3NW","la":"Basingstoke and Deane","era":"trad","nn":154,"risk":29,"cat":"green"},{"name":"Watership Down Inn","lat":51.23556,"lon":-1.30931,"postcode":"RG28 7NJ","la":"Basingstoke and Deane","era":"trad","nn":339,"risk":51,"cat":"amber"},{"name":"Wellington Social Club","lat":51.27475,"lon":-1.11652,"postcode":"RG23 8LE","la":"Basingstoke and Deane","era":"other","nn":389,"risk":51,"cat":"amber"},{"name":"Weybrook Park Golf Club","lat":51.28456,"lon":-1.12029,"postcode":"RG24 9NT","la":"Basingstoke and Deane","era":"other","nn":1122,"risk":59,"cat":"amber"},{"name":"Whitchurch Cricket Club","lat":51.22973,"lon":-1.33936,"postcode":"RG28 7AS","la":"Basingstoke and Deane","era":"other","nn":50,"risk":29,"cat":"green"},{"name":"Whitchurch Sports And Social Club","lat":51.22196,"lon":-1.3382,"postcode":"RG28 7RB","la":"Basingstoke and Deane","era":"mod","nn":839,"risk":37,"cat":"amber"},{"name":"Yiannis Catering","lat":51.25976,"lon":-1.09278,"postcode":"RG21 3DD","la":"Basingstoke and Deane","era":"other","nn":57,"risk":29,"cat":"green"},{"name":"Binfield Cricket Club","lat":51.43151,"lon":-0.79627,"postcode":"RG42 4DU","la":"Bracknell Forest","era":"other","nn":1651,"risk":64,"cat":"red"},{"name":"Binfield Football Club","lat":51.44042,"lon":-0.77661,"postcode":"RG42 5QZ","la":"Bracknell Forest","era":"other","nn":1685,"risk":64,"cat":"red"},{"name":"Great Hollands Bowls Club","lat":51.39039,"lon":-0.77829,"postcode":"RG40 3EE","la":"Bracknell Forest","era":"other","nn":1763,"risk":65,"cat":"red"},{"name":"Hangovers Bar","lat":51.3961,"lon":-0.7365,"postcode":"RG12 0PE","la":"Bracknell Forest","era":"other","nn":59,"risk":48,"cat":"amber"},{"name":"Market Inn","lat":51.41354,"lon":-0.75157,"postcode":"RG12 1HY","la":"Bracknell Forest","era":"trad","nn":374,"risk":50,"cat":"amber"},{"name":"Silver Birch","lat":51.39197,"lon":-0.75301,"postcode":"RG12 7DE","la":"Bracknell Forest","era":"other","nn":1234,"risk":61,"cat":"red"},{"name":"The Bull","lat":51.41687,"lon":-0.75078,"postcode":"RG12 1DP","la":"Bracknell Forest","era":"trad","nn":374,"risk":50,"cat":"amber"},{"name":"The Crown Wood","lat":51.39636,"lon":-0.73576,"postcode":"RG12 0PE","la":"Bracknell Forest","era":"trad","nn":59,"risk":48,"cat":"amber"},{"name":"The Crowthorne Inn","lat":51.36897,"lon":-0.7928,"postcode":"RG45 7AD","la":"Bracknell Forest","era":"trad","nn":1761,"risk":65,"cat":"red"},{"name":"The Downshire Arms","lat":51.41187,"lon":-0.75872,"postcode":"RG12 7AA","la":"Bracknell Forest","era":"trad","nn":529,"risk":51,"cat":"amber"},{"name":"The Woodcutters","lat":51.39785,"lon":-0.72802,"postcode":"RG12 0XQ","la":"Bracknell Forest","era":"other","nn":562,"risk":52,"cat":"amber"},{"name":"Prince Albert Public House","lat":51.60898,"lon":-0.84826,"postcode":"RG9 6PY","la":"Buckinghamshire","era":"trad","nn":438,"risk":41,"cat":"amber"},{"name":"Stag And Huntsman","lat":51.57222,"lon":-0.86974,"postcode":"RG9 6RP","la":"Buckinghamshire","era":"trad","nn":2319,"risk":56,"cat":"amber"},{"name":"The Bull And Butcher","lat":51.61425,"lon":-0.8955,"postcode":"RG9 6QU","la":"Buckinghamshire","era":"trad","nn":1349,"risk":49,"cat":"amber"},{"name":"The Frog At Skirmett","lat":51.60564,"lon":-0.88173,"postcode":"RG9 6TG","la":"Buckinghamshire","era":"other","nn":1349,"risk":49,"cat":"amber"},{"name":"The Yew Tree","lat":51.60561,"lon":-0.85157,"postcode":"RG9 6PJ","la":"Buckinghamshire","era":"other","nn":438,"risk":41,"cat":"amber"},{"name":"Chequers Public House","lat":51.34819,"lon":-0.85763,"postcode":"RG27 0NS","la":"Hart","era":"other","nn":0,"risk":49,"cat":"amber"},{"name":"Coach And Horses Public House","lat":51.3014,"lon":-0.97954,"postcode":"RG27 9BG","la":"Hart","era":"trad","nn":2264,"risk":70,"cat":"red"},{"name":"Fox And Goose","lat":51.25701,"lon":-0.97201,"postcode":"RG29 1BY","la":"Hart","era":"trad","nn":1182,"risk":63,"cat":"red"},{"name":"The Anchor Inn","lat":51.25709,"lon":-0.95503,"postcode":"RG29 1BE","la":"Hart","era":"trad","nn":1182,"risk":63,"cat":"red"},{"name":"The Barley Mow","lat":51.27933,"lon":-0.88705,"postcode":"RG27 8DE","la":"Hart","era":"other","nn":1368,"risk":64,"cat":"red"},{"name":"The Chequers Inn","lat":51.21565,"lon":-0.9097,"postcode":"RG29 1TL","la":"Hart","era":"trad","nn":2164,"risk":70,"cat":"red"},{"name":"The Crooked Billet","lat":51.28717,"lon":-0.94674,"postcode":"RG27 9EH","la":"Hart","era":"other","nn":1319,"risk":64,"cat":"red"},{"name":"The Derby Inn","lat":51.26782,"lon":-0.95483,"postcode":"RG29 1HD","la":"Hart","era":"trad","nn":1194,"risk":63,"cat":"red"},{"name":"The Four Horseshoes","lat":51.22008,"lon":-0.93996,"postcode":"RG29 1SR","la":"Hart","era":"trad","nn":1828,"risk":67,"cat":"red"},{"name":"The Frog And Wicket","lat":51.34819,"lon":-0.85763,"postcode":"RG27 0NS","la":"Hart","era":"other","nn":0,"risk":49,"cat":"amber"},{"name":"The Golden Pot","lat":51.34852,"lon":-0.86899,"postcode":"RG27 0NB","la":"Hart","era":"other","nn":790,"risk":55,"cat":"amber"},{"name":"The Hogget (Hook) Limited","lat":51.27542,"lon":-0.97775,"postcode":"RG27 9JJ","la":"Hart","era":"other","nn":1090,"risk":62,"cat":"red"},{"name":"The Old White Hart","lat":51.28208,"lon":-0.96387,"postcode":"RG27 9DJ","la":"Hart","era":"trad","nn":1217,"risk":63,"cat":"red"},{"name":"The Phoenix Inn","lat":51.29698,"lon":-0.91223,"postcode":"RG27 8RT","la":"Hart","era":"trad","nn":1338,"risk":64,"cat":"red"},{"name":"The Poacher Inn","lat":51.22151,"lon":-0.9661,"postcode":"RG29 1RP","la":"Hart","era":"trad","nn":1828,"risk":67,"cat":"red"},{"name":"The Queens Head","lat":51.26979,"lon":-0.87464,"postcode":"RG27 8SY","la":"Hart","era":"trad","nn":1122,"risk":62,"cat":"red"},{"name":"The Waterwitch Public House","lat":51.2584,"lon":-0.93264,"postcode":"RG29 1AL","la":"Hart","era":"other","nn":1565,"risk":65,"cat":"red"},{"name":"The Winchfield Inn","lat":51.28536,"lon":-0.90724,"postcode":"RG27 8BX","la":"Hart","era":"trad","nn":1338,"risk":64,"cat":"red"},{"name":"Waggon And Horses","lat":51.30665,"lon":-0.899,"postcode":"RG27 8NY","la":"Hart","era":"trad","nn":1415,"risk":64,"cat":"red"},{"name":"Angel Bar","lat":51.46798,"lon":-0.97288,"postcode":"RG4 8JG","la":"Reading","era":"trad","nn":92,"risk":26,"cat":"green"},{"name":"Back of Beyond","lat":51.45466,"lon":-0.96342,"postcode":"RG1 3BY","la":"Reading","era":"other","nn":106,"risk":26,"cat":"green"},{"name":"Bar Iguana","lat":51.45461,"lon":-0.97534,"postcode":"RG1 2LN","la":"Reading","era":"mod","nn":0,"risk":25,"cat":"green"},{"name":"Beefeater & Premier Inn","lat":51.41772,"lon":-0.97097,"postcode":"RG2 0TA","la":"Reading","era":"trad","nn":1199,"risk":56,"cat":"amber"},{"name":"BJ's Luxury Bingo Club","lat":51.43233,"lon":-0.97181,"postcode":"RG2 0BS","la":"Reading","era":"other","nn":219,"risk":44,"cat":"amber"},{"name":"Blue Collar Corner","lat":51.45403,"lon":-0.97524,"postcode":"RG1 7QL","la":"Reading","era":"other","nn":48,"risk":26,"cat":"green"},{"name":"Brewdog","lat":51.45339,"lon":-0.97475,"postcode":"RG1 7SB","la":"Reading","era":"other","nn":32,"risk":25,"cat":"green"},{"name":"Calico Bar & Eatery at Hotel 1843","lat":51.4527,"lon":-0.96808,"postcode":"RG1 4PS","la":"Reading","era":"mod","nn":205,"risk":27,"cat":"green"},{"name":"Caversham Bowling Club","lat":51.47221,"lon":-0.98167,"postcode":"RG4 7AN","la":"Reading","era":"other","nn":559,"risk":29,"cat":"green"},{"name":"Caversham Health & Fitness Club","lat":51.46705,"lon":-0.97366,"postcode":"RG4 8AN","la":"Reading","era":"other","nn":88,"risk":26,"cat":"green"},{"name":"Caversham Lawn Tennis Club","lat":51.48123,"lon":-0.99096,"postcode":"RG4 7JA","la":"Reading","era":"other","nn":363,"risk":45,"cat":"amber"},{"name":"Caversham Park Village Association","lat":51.48298,"lon":-0.96254,"postcode":"RG4 6PF","la":"Reading","era":"other","nn":70,"risk":43,"cat":"amber"},{"name":"Caversham Working Mens Club","lat":51.46777,"lon":-0.97416,"postcode":"RG4 8AU","la":"Reading","era":"trad","nn":88,"risk":26,"cat":"green"},{"name":"Club Era","lat":51.45689,"lon":-0.97143,"postcode":"RG1 1DB","la":"Reading","era":"other","nn":0,"risk":25,"cat":"green"},{"name":"CultureMix Arts & Music Centre","lat":51.45437,"lon":-0.97638,"postcode":"RG1 7QF","la":"Reading","era":"other","nn":77,"risk":26,"cat":"green"},{"name":"Escape Hunt","lat":51.45464,"lon":-0.96961,"postcode":"RG1 2HG","la":"Reading","era":"other","nn":18,"risk":25,"cat":"green"},{"name":"Fox And Hounds","lat":51.46635,"lon":-0.96939,"postcode":"RG4 8BN","la":"Reading","era":"trad","nn":160,"risk":26,"cat":"green"},{"name":"High Spirits Cocktail Company","lat":51.45477,"lon":-0.96976,"postcode":"RG1 2HG","la":"Reading","era":"other","nn":18,"risk":25,"cat":"green"},{"name":"Hope & Bear","lat":51.45291,"lon":-0.95114,"postcode":"RG1 5DE","la":"Reading","era":"other","nn":85,"risk":26,"cat":"green"},{"name":"Island Bohemian Bowls Club","lat":51.46328,"lon":-0.97166,"postcode":"RG1 8DG","la":"Reading","era":"other","nn":376,"risk":28,"cat":"green"},{"name":"Las Iguanas at The Oracle","lat":51.45365,"lon":-0.97133,"postcode":"RG1 2AG","la":"Reading","era":"other","nn":115,"risk":26,"cat":"green"},{"name":"Matchbox","lat":51.45689,"lon":-0.97143,"postcode":"RG1 1DB","la":"Reading","era":"other","nn":0,"risk":25,"cat":"green"},{"name":"McCafferty's","lat":51.45689,"lon":-0.97143,"postcode":"RG1 1DB","la":"Reading","era":"other","nn":0,"risk":25,"cat":"green"},{"name":"Medusa","lat":51.45951,"lon":-0.97808,"postcode":"RG1 7BL","la":"Reading","era":"other","nn":195,"risk":27,"cat":"green"},{"name":"Milk Bar Reading","lat":51.45739,"lon":-0.9735,"postcode":"RG1 1DT","la":"Reading","era":"mod","nn":107,"risk":26,"cat":"green"},{"name":"Miller & Carter Caversham","lat":51.48043,"lon":-0.98588,"postcode":"RG4 7NH","la":"Reading","era":"trad","nn":0,"risk":30,"cat":"green"},{"name":"Miller & Carter Caversham","lat":51.48043,"lon":-0.98588,"postcode":"RG4 7NH","la":"Reading","era":"trad","nn":0,"risk":30,"cat":"green"},{"name":"MNKY Lounge","lat":51.44946,"lon":-0.95044,"postcode":"RG1 5NA","la":"Reading","era":"mod","nn":387,"risk":28,"cat":"green"},{"name":"Namaste Kitchen at Hook & Tackle","lat":51.44979,"lon":-0.97362,"postcode":"RG1 2ND","la":"Reading","era":"mod","nn":408,"risk":28,"cat":"green"},{"name":"Oakford Social Club","lat":51.4577,"lon":-0.97082,"postcode":"RG1 1PZ","la":"Reading","era":"other","nn":31,"risk":25,"cat":"green"},{"name":"O'Neills","lat":51.45689,"lon":-0.97143,"postcode":"RG1 1DB","la":"Reading","era":"other","nn":0,"risk":25,"cat":"green"},{"name":"Palmer Tavern","lat":51.4504,"lon":-0.94007,"postcode":"RG6 1JL","la":"Reading","era":"other","nn":581,"risk":29,"cat":"green"},{"name":"Persian Palace (street level)","lat":51.46689,"lon":-0.97703,"postcode":"RG4 8AA","la":"Reading","era":"other","nn":0,"risk":25,"cat":"green"},{"name":"Phantom Brewing Co","lat":51.4622,"lon":-0.97918,"postcode":"RG1 8LB","la":"Reading","era":"other","nn":238,"risk":27,"cat":"green"},{"name":"Piwnica Pub","lat":51.4523,"lon":-0.95546,"postcode":"RG1 5BY","la":"Reading","era":"other","nn":133,"risk":26,"cat":"green"},{"name":"Playlist Live / Live Investments","lat":51.45647,"lon":-0.97461,"postcode":"RG1 1EP","la":"Reading","era":"other","nn":0,"risk":25,"cat":"green"},{"name":"Police Social Club","lat":51.45295,"lon":-0.97666,"postcode":"RG1 7TH","la":"Reading","era":"mod","nn":137,"risk":26,"cat":"green"},{"name":"Popworld/ Sub 89","lat":51.45647,"lon":-0.97461,"postcode":"RG1 1EP","la":"Reading","era":"other","nn":0,"risk":25,"cat":"green"},{"name":"Purple Turtle","lat":51.45395,"lon":-0.97292,"postcode":"RG1 2JR","la":"Reading","era":"other","nn":18,"risk":25,"cat":"green"},{"name":"Reading & District Irish Association","lat":51.45629,"lon":-0.98277,"postcode":"RG1 7HT","la":"Reading","era":"other","nn":120,"risk":26,"cat":"green"},{"name":"Reading Bowling Club","lat":51.44612,"lon":-0.96364,"postcode":"RG1 5DW","la":"Reading","era":"other","nn":340,"risk":28,"cat":"green"},{"name":"Reading Railway Club","lat":51.45892,"lon":-0.97472,"postcode":"RG1 1NB","la":"Reading","era":"trad","nn":80,"risk":26,"cat":"green"},{"name":"Revolucion De Cuba","lat":51.45654,"lon":-0.97279,"postcode":"RG1 1EX","la":"Reading","era":"other","nn":102,"risk":26,"cat":"green"},{"name":"Rivermead Bowls Club","lat":51.46368,"lon":-0.98494,"postcode":"RG1 8EQ","la":"Reading","era":"other","nn":177,"risk":26,"cat":"green"},{"name":"Salisbury Conservative Club","lat":51.45306,"lon":-0.95234,"postcode":"RG1 4HX","la":"Reading","era":"other","nn":85,"risk":26,"cat":"green"},{"name":"Signal Box","lat":51.45689,"lon":-0.97143,"postcode":"RG1 1DB","la":"Reading","era":"other","nn":0,"risk":25,"cat":"green"},{"name":"Slug & Lettuce / Loco Loco / El Rodeo Mexicano / Burrito Bandits","lat":51.45689,"lon":-0.97143,"postcode":"RG1 1DB","la":"Reading","era":"other","nn":0,"risk":25,"cat":"green"},{"name":"South Street Arts Centre Bar","lat":51.45257,"lon":-0.96514,"postcode":"RG1 4QU","la":"Reading","era":"other","nn":159,"risk":26,"cat":"green"},{"name":"Spinners","lat":51.45511,"lon":-0.97752,"postcode":"RG1 7QF","la":"Reading","era":"trad","nn":114,"risk":26,"cat":"green"},{"name":"The Ale House","lat":51.45564,"lon":-0.97064,"postcode":"RG1 2BH","la":"Reading","era":"other","nn":71,"risk":26,"cat":"green"},{"name":"The Allied Arms","lat":51.45498,"lon":-0.97451,"postcode":"RG1 2LG","la":"Reading","era":"trad","nn":71,"risk":26,"cat":"green"},{"name":"The Black Horse","lat":51.4842,"lon":-0.96425,"postcode":"RG4 8SE","la":"Reading","era":"trad","nn":119,"risk":44,"cat":"amber"},{"name":"The Blagrave Arms","lat":51.45743,"lon":-0.9707,"postcode":"RG1 1PW","la":"Reading","era":"trad","nn":31,"risk":25,"cat":"green"},{"name":"The Botanist","lat":51.45527,"lon":-0.96981,"postcode":"RG1 2HB","la":"Reading","era":"other","nn":55,"risk":26,"cat":"green"},{"name":"The Boundary","lat":51.45461,"lon":-0.97534,"postcode":"RG1 2LN","la":"Reading","era":"other","nn":0,"risk":25,"cat":"green"},{"name":"The Butchers Arms","lat":51.46407,"lon":-1.03821,"postcode":"RG31 6HH","la":"Reading","era":"trad","nn":209,"risk":27,"cat":"green"},{"name":"The Butler","lat":51.45595,"lon":-0.98112,"postcode":"RG1 7DS","la":"Reading","era":"other","nn":120,"risk":26,"cat":"green"},{"name":"The Castle Tap Public House","lat":51.45193,"lon":-0.97902,"postcode":"RG1 7RJ","la":"Reading","era":"mod","nn":199,"risk":27,"cat":"green"},{"name":"The Clifton Arms","lat":51.46714,"lon":-0.97131,"postcode":"RG4 8BS","la":"Reading","era":"trad","nn":143,"risk":26,"cat":"green"},{"name":"The Cocktail Club Reading","lat":51.45382,"lon":-0.97308,"postcode":"RG1 2JR","la":"Reading","era":"other","nn":18,"risk":25,"cat":"green"},{"name":"The Crown","lat":51.46689,"lon":-0.97703,"postcode":"RG4 8AA","la":"Reading","era":"trad","nn":0,"risk":25,"cat":"green"},{"name":"The Crucible Sports and Social Club","lat":51.46312,"lon":-0.98733,"postcode":"RG1 8EQ","la":"Reading","era":"mod","nn":177,"risk":26,"cat":"green"},{"name":"The Face Bar","lat":51.45406,"lon":-0.9876,"postcode":"RG1 7RB","la":"Reading","era":"other","nn":90,"risk":26,"cat":"green"},{"name":"The Foresters Arms","lat":51.45113,"lon":-0.98985,"postcode":"RG1 6NY","la":"Reading","era":"trad","nn":280,"risk":27,"cat":"green"},{"name":"The Gateway","lat":51.45855,"lon":-0.97571,"postcode":"RG1 1PA","la":"Reading","era":"other","nn":0,"risk":25,"cat":"green"},{"name":"The Greyfriar","lat":51.45855,"lon":-0.97571,"postcode":"RG1 1PA","la":"Reading","era":"other","nn":0,"risk":25,"cat":"green"},{"name":"The Griffin","lat":51.46757,"lon":-0.97853,"postcode":"RG4 7AD","la":"Reading","era":"trad","nn":129,"risk":26,"cat":"green"},{"name":"The Hop Leaf","lat":51.44794,"lon":-0.96759,"postcode":"RG1 2QZ","la":"Reading","era":"other","nn":340,"risk":28,"cat":"green"},{"name":"The Hope Tap","lat":51.45647,"lon":-0.97461,"postcode":"RG1 1EP","la":"Reading","era":"mod","nn":0,"risk":25,"cat":"green"},{"name":"The Last Crumb","lat":51.46907,"lon":-0.97117,"postcode":"RG4 8JN","la":"Reading","era":"other","nn":170,"risk":26,"cat":"green"},{"name":"The Mansion House","lat":51.44942,"lon":-1.01147,"postcode":"RG30 2ND","la":"Reading","era":"other","nn":877,"risk":51,"cat":"amber"},{"name":"The Moderation","lat":51.46388,"lon":-0.97706,"postcode":"RG1 8BB","la":"Reading","era":"other","nn":238,"risk":27,"cat":"green"},{"name":"The Monks Retreat","lat":51.45644,"lon":-0.97106,"postcode":"RG1 1HE","la":"Reading","era":"trad","nn":56,"risk":26,"cat":"green"},{"name":"The Nags Head","lat":51.45383,"lon":-0.98243,"postcode":"RG1 7XD","la":"Reading","era":"trad","nn":253,"risk":27,"cat":"green"},{"name":"The Outlook","lat":51.45457,"lon":-0.96538,"postcode":"RG1 3BJ","la":"Reading","era":"other","nn":99,"risk":26,"cat":"green"},{"name":"The Plough Inn","lat":51.4584,"lon":-1.04073,"postcode":"RG31 5AW","la":"Reading","era":"trad","nn":182,"risk":26,"cat":"green"},{"name":"The Pondhouse","lat":51.46014,"lon":-1.00793,"postcode":"RG30 1EH","la":"Reading","era":"other","nn":0,"risk":30,"cat":"green"},{"name":"The Prince","lat":51.45717,"lon":-1.04248,"postcode":"RG31 5BQ","la":"Reading","era":"trad","nn":148,"risk":26,"cat":"green"},{"name":"The Queens Head","lat":51.44279,"lon":-0.95569,"postcode":"RG2 7AZ","la":"Reading","era":"trad","nn":664,"risk":35,"cat":"amber"},{"name":"The Red Cow Inn","lat":51.46698,"lon":-0.95863,"postcode":"RG4 5BE","la":"Reading","era":"trad","nn":525,"risk":29,"cat":"green"},{"name":"The Retreat","lat":51.45322,"lon":-0.96062,"postcode":"RG1 4EH","la":"Reading","era":"other","nn":245,"risk":27,"cat":"green"},{"name":"The Rising Sun","lat":51.45362,"lon":-0.975,"postcode":"RG1 7RD","la":"Reading","era":"other","nn":32,"risk":25,"cat":"green"},{"name":"The Roebuck / The Kitchen","lat":51.44737,"lon":-0.93324,"postcode":"RG6 1NY","la":"Reading","era":"mod","nn":497,"risk":29,"cat":"green"},{"name":"The Rose & Thistle","lat":51.45352,"lon":-0.98857,"postcode":"RG1 7YL","la":"Reading","era":"trad","nn":90,"risk":26,"cat":"green"},{"name":"The Royal Albion","lat":51.46014,"lon":-1.00793,"postcode":"RG30 1EH","la":"Reading","era":"trad","nn":0,"risk":30,"cat":"green"},{"name":"The Royal Oak","lat":51.46141,"lon":-1.05007,"postcode":"RG31 5NW","la":"Reading","era":"trad","nn":565,"risk":29,"cat":"green"},{"name":"The Southcote Beefeater","lat":51.44606,"lon":-0.99716,"postcode":"RG30 3AG","la":"Reading","era":"other","nn":758,"risk":48,"cat":"amber"},{"name":"The Sportsman","lat":51.42949,"lon":-0.94582,"postcode":"RG2 7DS","la":"Reading","era":"other","nn":1032,"risk":55,"cat":"amber"},{"name":"The Spread Eagle","lat":51.45381,"lon":-1.00096,"postcode":"RG30 2EG","la":"Reading","era":"trad","nn":455,"risk":28,"cat":"green"},{"name":"The Three Guineas","lat":51.45894,"lon":-0.97341,"postcode":"RG1 1LY","la":"Reading","era":"other","nn":91,"risk":26,"cat":"green"},{"name":"The Three Tuns","lat":51.44297,"lon":-0.93196,"postcode":"RG6 1LT","la":"Reading","era":"other","nn":210,"risk":29,"cat":"green"},{"name":"The Tilehurst Club","lat":51.46221,"lon":-1.0342,"postcode":"RG31 6DE","la":"Reading","era":"other","nn":231,"risk":27,"cat":"green"},{"name":"The Victoria","lat":51.46014,"lon":-1.03398,"postcode":"RG30 6BP","la":"Reading","era":"trad","nn":231,"risk":27,"cat":"green"},{"name":"The Victoria Cross","lat":51.43413,"lon":-0.97052,"postcode":"RG2 0HB","la":"Reading","era":"trad","nn":219,"risk":44,"cat":"amber"},{"name":"The Walkabout / Chik Box and K-Town Chicken / Locked and Loaded","lat":51.45712,"lon":-0.97085,"postcode":"RG1 1DG","la":"Reading","era":"other","nn":35,"risk":25,"cat":"green"},{"name":"The Weather Station","lat":51.4529,"lon":-0.95711,"postcode":"RG1 4DX","la":"Reading","era":"other","nn":133,"risk":26,"cat":"green"},{"name":"The White Eagle","lat":51.4574,"lon":-0.9978,"postcode":"RG30 1AQ","la":"Reading","era":"trad","nn":270,"risk":27,"cat":"green"},{"name":"The White Horse","lat":51.48325,"lon":-0.96346,"postcode":"RG4 8SD","la":"Reading","era":"trad","nn":70,"risk":43,"cat":"amber"},{"name":"Tilehurst Bowls Club","lat":51.46449,"lon":-1.04115,"postcode":"RG31 6JR","la":"Reading","era":"other","nn":209,"risk":27,"cat":"green"},{"name":"Tilehurst Royal British Legion","lat":51.45829,"lon":-1.04364,"postcode":"RG31 5BB","la":"Reading","era":"trad","nn":148,"risk":26,"cat":"green"},{"name":"Travellers Rest","lat":51.47084,"lon":-0.95428,"postcode":"RG4 5DL","la":"Reading","era":"other","nn":525,"risk":49,"cat":"amber"},{"name":"Tylers Rest","lat":51.45959,"lon":-1.03032,"postcode":"RG30 6BS","la":"Reading","era":"other","nn":261,"risk":27,"cat":"green"},{"name":"Ukrainian Social Club","lat":51.45392,"lon":-0.9644,"postcode":"RG1 4QZ","la":"Reading","era":"mod","nn":99,"risk":26,"cat":"green"},{"name":"Up The Junction","lat":51.45349,"lon":-0.94757,"postcode":"RG1 3NY","la":"Reading","era":"other","nn":255,"risk":27,"cat":"green"},{"name":"Water Tower (Tilehurst)","lat":51.45271,"lon":-1.0465,"postcode":"RG31 4DU","la":"Reading","era":"other","nn":532,"risk":29,"cat":"green"},{"name":"Wishing Well","lat":51.45657,"lon":-0.99413,"postcode":"RG30 1AD","la":"Reading","era":"other","nn":270,"risk":27,"cat":"green"},{"name":"World Turned Upside Down","lat":51.42903,"lon":-0.9689,"postcode":"RG2 0JE","la":"Reading","era":"other","nn":418,"risk":46,"cat":"amber"},{"name":"Bird in Hand","lat":51.53582,"lon":-0.90487,"postcode":"RG9 1SB","la":"South Oxfordshire","era":"other","nn":165,"risk":28,"cat":"green"},{"name":"Goring Social Club","lat":51.5225,"lon":-1.13545,"postcode":"RG8 9BA","la":"South Oxfordshire","era":"mod","nn":155,"risk":46,"cat":"amber"},{"name":"Hare & Hounds","lat":51.5198,"lon":-0.98437,"postcode":"RG4 9TE","la":"South Oxfordshire","era":"trad","nn":3616,"risk":75,"cat":"red"},{"name":"Jacobini","lat":51.53785,"lon":-0.90266,"postcode":"RG9 2AR","la":"South Oxfordshire","era":"other","nn":28,"risk":27,"cat":"green"},{"name":"Nettlebed Village Club","lat":51.57572,"lon":-0.99154,"postcode":"RG9 5DD","la":"South Oxfordshire","era":"other","nn":2742,"risk":69,"cat":"red"},{"name":"Salisbury Conservative Club","lat":51.53558,"lon":-0.90251,"postcode":"RG9 1AP","la":"South Oxfordshire","era":"other","nn":83,"risk":28,"cat":"green"},{"name":"Shoulder Of Mutton","lat":51.47903,"lon":-0.93434,"postcode":"RG4 9QU","la":"South Oxfordshire","era":"other","nn":1493,"risk":60,"cat":"amber"},{"name":"Stable 34","lat":51.53759,"lon":-0.90263,"postcode":"RG9 2AU","la":"South Oxfordshire","era":"other","nn":28,"risk":27,"cat":"green"},{"name":"The Anchor","lat":51.53632,"lon":-0.90244,"postcode":"RG9 1AH","la":"South Oxfordshire","era":"trad","nn":83,"risk":28,"cat":"green"},{"name":"The Black Horse Pub","lat":51.55129,"lon":-1.04009,"postcode":"RG8 0TE","la":"South Oxfordshire","era":"trad","nn":2852,"risk":69,"cat":"red"},{"name":"The Black Lion","lat":51.5305,"lon":-1.06423,"postcode":"RG8 0RB","la":"South Oxfordshire","era":"trad","nn":2852,"risk":69,"cat":"red"},{"name":"THE BULL ON BELL STREET","lat":51.53858,"lon":-0.90504,"postcode":"RG9 2BA","la":"South Oxfordshire","era":"trad","nn":33,"risk":27,"cat":"green"},{"name":"The Catherine Wheel","lat":51.5215,"lon":-1.13702,"postcode":"RG8 9HB","la":"South Oxfordshire","era":"other","nn":155,"risk":46,"cat":"amber"},{"name":"The Greyhound Inn","lat":51.4897,"lon":-1.08611,"postcode":"RG8 7EL","la":"South Oxfordshire","era":"trad","nn":489,"risk":35,"cat":"amber"},{"name":"The Old Bell","lat":51.53855,"lon":-0.90456,"postcode":"RG9 2BG","la":"South Oxfordshire","era":"other","nn":33,"risk":27,"cat":"green"},{"name":"The Rising Sun","lat":51.55131,"lon":-0.99721,"postcode":"RG9 5PF","la":"South Oxfordshire","era":"other","nn":2742,"risk":69,"cat":"red"},{"name":"The Saracens Head","lat":51.53295,"lon":-0.90924,"postcode":"RG9 1TE","la":"South Oxfordshire","era":"trad","nn":440,"risk":30,"cat":"green"},{"name":"Three Horseshoes","lat":51.53064,"lon":-0.90001,"postcode":"RG9 1DN","la":"South Oxfordshire","era":"trad","nn":575,"risk":31,"cat":"amber"},{"name":"Three Tuns","lat":51.53725,"lon":-0.90577,"postcode":"RG9 2AA","la":"South Oxfordshire","era":"other","nn":156,"risk":28,"cat":"green"},{"name":"Bladebone,The","lat":51.4233,"lon":-1.18057,"postcode":"RG7 6PD","la":"West Berkshire","era":"other","nn":1536,"risk":62,"cat":"red"},{"name":"Borough Arms","lat":51.41249,"lon":-1.51625,"postcode":"RG17 0NA","la":"West Berkshire","era":"trad","nn":231,"risk":32,"cat":"amber"},{"name":"Bradfield Sunshine Club","lat":51.43245,"lon":-1.14332,"postcode":"RG7 6EY","la":"West Berkshire","era":"other","nn":159,"risk":49,"cat":"amber"},{"name":"Bull, The","lat":51.43809,"lon":-1.07425,"postcode":"RG7 5AH","la":"West Berkshire","era":"trad","nn":78,"risk":31,"cat":"amber"},{"name":"Canal Bar & The Old Waggon and Horses","lat":51.40131,"lon":-1.32306,"postcode":"RG14 5AG","la":"West Berkshire","era":"other","nn":12,"risk":28,"cat":"green"},{"name":"Catherine Wheel, The","lat":51.4001,"lon":-1.32325,"postcode":"RG14 5DB","la":"West Berkshire","era":"other","nn":52,"risk":29,"cat":"green"},{"name":"Cock Inn, The","lat":51.40925,"lon":-1.31468,"postcode":"RG14 1HR","la":"West Berkshire","era":"trad","nn":306,"risk":33,"cat":"amber"},{"name":"Core","lat":51.40059,"lon":-1.32342,"postcode":"RG14 5AA","la":"West Berkshire","era":"other","nn":39,"risk":29,"cat":"green"},{"name":"Cottage Inn, The","lat":51.41373,"lon":-1.22126,"postcode":"RG7 6QJ","la":"West Berkshire","era":"trad","nn":1825,"risk":64,"cat":"red"},{"name":"Cow & Cask","lat":51.39875,"lon":-1.32516,"postcode":"RG14 5DP","la":"West Berkshire","era":"other","nn":63,"risk":29,"cat":"green"},{"name":"Crickets","lat":51.40332,"lon":-1.25923,"postcode":"RG19 3JD","la":"West Berkshire","era":"other","nn":208,"risk":47,"cat":"amber"},{"name":"Cross Keys","lat":51.48327,"lon":-1.08731,"postcode":"RG8 7AR","la":"West Berkshire","era":"trad","nn":201,"risk":35,"cat":"amber"},{"name":"Crown Inn,The","lat":51.43708,"lon":-1.07723,"postcode":"RG7 5BT","la":"West Berkshire","era":"trad","nn":157,"risk":32,"cat":"amber"},{"name":"Crucible Sports & Social Club,The","lat":51.39903,"lon":-1.30643,"postcode":"RG14 5UT","la":"West Berkshire","era":"mod","nn":952,"risk":55,"cat":"amber"},{"name":"Cunning Man, The","lat":51.4315,"lon":-1.02214,"postcode":"RG30 3RB","la":"West Berkshire","era":"other","nn":2125,"risk":66,"cat":"red"},{"name":"Dolphin, The","lat":51.39889,"lon":-1.32604,"postcode":"RG14 5DT","la":"West Berkshire","era":"other","nn":63,"risk":29,"cat":"green"},{"name":"Donnington Valley Golf Club","lat":51.42926,"lon":-1.33076,"postcode":"RG14 3BG","la":"West Berkshire","era":"other","nn":1570,"risk":62,"cat":"red"},{"name":"Dundas Arms","lat":51.40201,"lon":-1.44594,"postcode":"RG17 9UT","la":"West Berkshire","era":"trad","nn":578,"risk":52,"cat":"amber"},{"name":"East Garston Social Club","lat":51.48872,"lon":-1.47755,"postcode":"RG17 7EX","la":"West Berkshire","era":"mod","nn":1833,"risk":64,"cat":"red"},{"name":"Fox And Hounds, The","lat":51.45201,"lon":-1.0541,"postcode":"RG31 5SB","la":"West Berkshire","era":"trad","nn":532,"risk":50,"cat":"amber"},{"name":"Fox Inn,The","lat":51.45506,"lon":-1.26814,"postcode":"RG18 9RB","la":"West Berkshire","era":"trad","nn":631,"risk":53,"cat":"amber"},{"name":"George,The","lat":51.50802,"lon":-1.53085,"postcode":"RG17 8XU","la":"West Berkshire","era":"trad","nn":65,"risk":46,"cat":"amber"},{"name":"Globe, The","lat":51.40084,"lon":-1.3241,"postcode":"RG14 5HB","la":"West Berkshire","era":"other","nn":55,"risk":29,"cat":"green"},{"name":"Goring & Streatley Golf Club","lat":51.52902,"lon":-1.15826,"postcode":"RG8 9QA","la":"West Berkshire","era":"other","nn":971,"risk":55,"cat":"amber"},{"name":"Gun,The","lat":51.38256,"lon":-1.3403,"postcode":"RG14 6NE","la":"West Berkshire","era":"other","nn":1258,"risk":60,"cat":"amber"},{"name":"Harrow Inn, The","lat":51.54033,"lon":-1.32292,"postcode":"RG20 7AR","la":"West Berkshire","era":"trad","nn":2640,"risk":69,"cat":"red"},{"name":"Hatch Gate Inn","lat":51.41185,"lon":-1.04166,"postcode":"RG30 3TH","la":"West Berkshire","era":"trad","nn":61,"risk":49,"cat":"amber"},{"name":"Hatchet Inn, The","lat":51.40079,"lon":-1.32281,"postcode":"RG14 5BD","la":"West Berkshire","era":"trad","nn":31,"risk":29,"cat":"green"},{"name":"John O'Gaunt, The","lat":51.41724,"lon":-1.51357,"postcode":"RG17 0EG","la":"West Berkshire","era":"other","nn":290,"risk":33,"cat":"amber"},{"name":"King Charles, The","lat":51.39922,"lon":-1.32193,"postcode":"RG14 5BX","la":"West Berkshire","era":"trad","nn":84,"risk":29,"cat":"green"},{"name":"Lock Stock & Barrel, The","lat":51.40171,"lon":-1.32465,"postcode":"RG14 1AA","la":"West Berkshire","era":"other","nn":104,"risk":29,"cat":"green"},{"name":"Old Bell At Grazeley Green, The","lat":51.39911,"lon":-1.01852,"postcode":"RG7 1LS","la":"West Berkshire","era":"other","nn":2106,"risk":66,"cat":"red"},{"name":"Old Chequers, The","lat":51.40188,"lon":-1.25691,"postcode":"RG19 3HP","la":"West Berkshire","era":"other","nn":81,"risk":46,"cat":"amber"},{"name":"Paggies Bar","lat":51.40256,"lon":-1.25649,"postcode":"RG19 3HN","la":"West Berkshire","era":"other","nn":81,"risk":34,"cat":"amber"},{"name":"Pangbourne Working Mens Club","lat":51.48507,"lon":-1.08697,"postcode":"RG8 7BS","la":"West Berkshire","era":"trad","nn":201,"risk":35,"cat":"amber"},{"name":"Purley Park Social Club","lat":51.48212,"lon":-1.0385,"postcode":"RG8 8BG","la":"West Berkshire","era":"mod","nn":1969,"risk":65,"cat":"red"},{"name":"Railway Tavern","lat":51.41468,"lon":-1.51272,"postcode":"RG17 0DY","la":"West Berkshire","era":"trad","nn":187,"risk":32,"cat":"amber"},{"name":"Reading YMCA Football Club","lat":51.40386,"lon":-1.12788,"postcode":"RG7 4HY","la":"West Berkshire","era":"other","nn":921,"risk":55,"cat":"amber"},{"name":"Red & Blue Trading Ltd @ Thatcham RFC","lat":51.40806,"lon":-1.27901,"postcode":"RG18 3BN","la":"West Berkshire","era":"other","nn":1470,"risk":61,"cat":"red"},{"name":"Slug & Lettuce/88thStreet/ValueMighty/SinCity","lat":51.40133,"lon":-1.32289,"postcode":"RG14 5AN","la":"West Berkshire","era":"other","nn":12,"risk":28,"cat":"green"},{"name":"Spotted Dog, The","lat":51.4242,"lon":-1.26371,"postcode":"RG18 9PR","la":"West Berkshire","era":"other","nn":43,"risk":49,"cat":"amber"},{"name":"Swan Public House","lat":51.48621,"lon":-1.09039,"postcode":"RG8 7DU","la":"West Berkshire","era":"trad","nn":269,"risk":35,"cat":"amber"},{"name":"Tadley Rugby Club","lat":51.37228,"lon":-1.12391,"postcode":"RG7 4PA","la":"West Berkshire","era":"other","nn":1600,"risk":62,"cat":"red"},{"name":"Thatcham Town Football Club","lat":51.39106,"lon":-1.24329,"postcode":"RG19 4PA","la":"West Berkshire","era":"other","nn":381,"risk":51,"cat":"amber"},{"name":"The Ace Space","lat":51.39841,"lon":-1.32812,"postcode":"RG14 5PR","la":"West Berkshire","era":"other","nn":153,"risk":29,"cat":"green"},{"name":"The Bacon Arms","lat":51.40606,"lon":-1.32604,"postcode":"RG14 1JB","la":"West Berkshire","era":"trad","nn":140,"risk":29,"cat":"green"},{"name":"The Bell Inn","lat":51.51304,"lon":-1.20044,"postcode":"RG8 9SE","la":"West Berkshire","era":"trad","nn":3416,"risk":75,"cat":"red"},{"name":"The Blue Ball","lat":51.39961,"lon":-1.45332,"postcode":"RG17 9TJ","la":"West Berkshire","era":"other","nn":578,"risk":52,"cat":"amber"},{"name":"The Bull","lat":51.52246,"lon":-1.14899,"postcode":"RG8 9JJ","la":"West Berkshire","era":"trad","nn":835,"risk":39,"cat":"amber"},{"name":"The Butt Inn Limited","lat":51.39881,"lon":-1.1384,"postcode":"RG7 4LA","la":"West Berkshire","era":"trad","nn":921,"risk":55,"cat":"amber"},{"name":"The Castle","lat":51.42444,"lon":-1.2642,"postcode":"RG18 9PS","la":"West Berkshire","era":"other","nn":43,"risk":49,"cat":"amber"},{"name":"The Coach","lat":51.48716,"lon":-1.29875,"postcode":"RG20 8SD","la":"West Berkshire","era":"trad","nn":3148,"risk":73,"cat":"red"},{"name":"The Cross Keys","lat":51.40583,"lon":-1.32406,"postcode":"RG14 1JX","la":"West Berkshire","era":"trad","nn":140,"risk":29,"cat":"green"},{"name":"The Downgate Pub","lat":51.41295,"lon":-1.50989,"postcode":"RG17 0ED","la":"West Berkshire","era":"other","nn":275,"risk":33,"cat":"amber"},{"name":"The Elephant At The Market","lat":51.40052,"lon":-1.32287,"postcode":"RG14 5BD","la":"West Berkshire","era":"other","nn":31,"risk":29,"cat":"green"},{"name":"The Elm Tree","lat":51.37165,"lon":-1.00317,"postcode":"RG7 2AZ","la":"West Berkshire","era":"trad","nn":2794,"risk":70,"cat":"red"},{"name":"The Falcon and The Jacket Bar","lat":51.43767,"lon":-1.07517,"postcode":"RG7 5AH","la":"West Berkshire","era":"other","nn":78,"risk":31,"cat":"amber"},{"name":"The Five Bells","lat":51.4443,"lon":-1.43406,"postcode":"RG20 8HH","la":"West Berkshire","era":"other","nn":3623,"risk":76,"cat":"red"},{"name":"The Halfway Inn","lat":51.41337,"lon":-1.41504,"postcode":"RG20 8NR","la":"West Berkshire","era":"trad","nn":2488,"risk":68,"cat":"red"},{"name":"The Hartley Arms & Honesty Coffee Shop","lat":51.41516,"lon":-1.33203,"postcode":"RG14 2LB","la":"West Berkshire","era":"trad","nn":810,"risk":54,"cat":"amber"},{"name":"The Ibex Inn","lat":51.493,"lon":-1.40238,"postcode":"RG20 7ER","la":"West Berkshire","era":"trad","nn":1347,"risk":60,"cat":"amber"},{"name":"The Lion","lat":51.40378,"lon":-1.32685,"postcode":"RG14 1BD","la":"West Berkshire","era":"trad","nn":163,"risk":29,"cat":"green"},{"name":"The Mill House","lat":51.40882,"lon":-1.24637,"postcode":"RG18 4QH","la":"West Berkshire","era":"trad","nn":988,"risk":55,"cat":"amber"},{"name":"The Monument","lat":51.40474,"lon":-1.32507,"postcode":"RG14 1AN","la":"West Berkshire","era":"other","nn":140,"risk":29,"cat":"green"},{"name":"The Newbury","lat":51.40029,"lon":-1.32446,"postcode":"RG14 5HB","la":"West Berkshire","era":"other","nn":66,"risk":29,"cat":"green"},{"name":"The Pheasant","lat":51.45868,"lon":-1.48097,"postcode":"RG17 7AA","la":"West Berkshire","era":"other","nn":3349,"risk":74,"cat":"red"},{"name":"The Plough Inn","lat":51.49375,"lon":-1.50276,"postcode":"RG17 7JN","la":"West Berkshire","era":"trad","nn":1833,"risk":64,"cat":"red"},{"name":"The Plough On The Green","lat":51.39308,"lon":-1.31628,"postcode":"RG14 7JF","la":"West Berkshire","era":"trad","nn":788,"risk":34,"cat":"amber"},{"name":"The Plume Of Hungerford","lat":51.4145,"lon":-1.5154,"postcode":"RG17 0NB","la":"West Berkshire","era":"other","nn":187,"risk":32,"cat":"amber"},{"name":"The Queens Head","lat":51.43339,"lon":-1.14159,"postcode":"RG7 6EY","la":"West Berkshire","era":"trad","nn":159,"risk":49,"cat":"amber"},{"name":"The Rowbarge","lat":51.39446,"lon":-1.17847,"postcode":"RG7 5SH","la":"West Berkshire","era":"other","nn":2708,"risk":70,"cat":"red"},{"name":"The Six Bells","lat":51.41637,"lon":-1.16141,"postcode":"RG7 5NX","la":"West Berkshire","era":"other","nn":1536,"risk":62,"cat":"red"},{"name":"The Six Bells","lat":51.4113,"lon":-1.04175,"postcode":"RG30 3TH","la":"West Berkshire","era":"other","nn":61,"risk":49,"cat":"amber"},{"name":"The Spring Inn","lat":51.42214,"lon":-1.10559,"postcode":"RG7 5HP","la":"West Berkshire","era":"trad","nn":2136,"risk":66,"cat":"red"},{"name":"The Starting Gate","lat":51.40862,"lon":-1.33718,"postcode":"RG14 1SG","la":"West Berkshire","era":"other","nn":810,"risk":34,"cat":"amber"},{"name":"The Swan","lat":51.52715,"lon":-1.29117,"postcode":"RG20 7LF","la":"West Berkshire","era":"trad","nn":2640,"risk":69,"cat":"red"},{"name":"The Swan Public House","lat":51.39438,"lon":-1.24469,"postcode":"RG19 4QL","la":"West Berkshire","era":"trad","nn":381,"risk":51,"cat":"amber"},{"name":"The Turners Arms","lat":51.37531,"lon":-1.07423,"postcode":"RG7 3TW","la":"West Berkshire","era":"trad","nn":578,"risk":52,"cat":"amber"},{"name":"The Victoria Arms and Franny's Bar and Grill","lat":51.37736,"lon":-1.06657,"postcode":"RG7 3SE","la":"West Berkshire","era":"other","nn":578,"risk":52,"cat":"amber"},{"name":"The White Hart","lat":51.48355,"lon":-1.23617,"postcode":"RG18 0TB","la":"West Berkshire","era":"trad","nn":3865,"risk":78,"cat":"red"},{"name":"The White Horse Hermitage","lat":51.45256,"lon":-1.2763,"postcode":"RG18 9TB","la":"West Berkshire","era":"trad","nn":631,"risk":53,"cat":"amber"},{"name":"Theale Golf Centre","lat":51.4415,"lon":-1.07951,"postcode":"RG7 5EX","la":"West Berkshire","era":"other","nn":516,"risk":34,"cat":"amber"},{"name":"Toby Carvery","lat":51.40666,"lon":-1.31617,"postcode":"RG14 2AJ","la":"West Berkshire","era":"other","nn":306,"risk":30,"cat":"green"},{"name":"Two Watermills","lat":51.38397,"lon":-1.32231,"postcode":"RG14 7RH","la":"West Berkshire","era":"trad","nn":1095,"risk":58,"cat":"amber"},{"name":"Valentines Tavern","lat":51.50747,"lon":-1.53117,"postcode":"RG17 8XN","la":"West Berkshire","era":"other","nn":65,"risk":46,"cat":"amber"},{"name":"Volunteer, The","lat":51.43566,"lon":-1.08368,"postcode":"RG7 5BX","la":"West Berkshire","era":"other","nn":475,"risk":34,"cat":"amber"},{"name":"Walkabout","lat":51.39983,"lon":-1.32264,"postcode":"RG14 5BX","la":"West Berkshire","era":"other","nn":52,"risk":29,"cat":"green"},{"name":"West Berkshire Golf Club","lat":51.48197,"lon":-1.41041,"postcode":"RG20 7DU","la":"West Berkshire","era":"other","nn":1347,"risk":60,"cat":"amber"},{"name":"Wheelwright Arms,The","lat":51.50904,"lon":-1.52978,"postcode":"RG17 8XY","la":"West Berkshire","era":"trad","nn":135,"risk":47,"cat":"amber"},{"name":"Ye Olde Red Lion","lat":51.46082,"lon":-1.31545,"postcode":"RG20 8XB","la":"West Berkshire","era":"trad","nn":2864,"risk":71,"cat":"red"},{"name":"The Wheatsheaf Inn","lat":51.43162,"lon":-1.53816,"postcode":"RG17 0TE","la":"Wiltshire","era":"trad","nn":2337,"risk":54,"cat":"amber"},{"name":"The Bell","lat":51.48323,"lon":-0.80559,"postcode":"RG10 0JJ","la":"Windsor and Maidenhead","era":"other","nn":2307,"risk":64,"cat":"red"},{"name":"The Royal Oak","lat":51.50732,"lon":-0.8119,"postcode":"RG10 9YE","la":"Windsor and Maidenhead","era":"trad","nn":850,"risk":52,"cat":"amber"},{"name":"Bearwood Lakes Golf Club","lat":51.40976,"lon":-0.87824,"postcode":"RG41 4SJ","la":"Wokingham","era":"other","nn":1103,"risk":59,"cat":"amber"},{"name":"Bell & Bottle","lat":51.40483,"lon":-0.94583,"postcode":"RG2 9EE","la":"Wokingham","era":"other","nn":969,"risk":56,"cat":"amber"},{"name":"Berkshire County Sports Club","lat":51.46958,"lon":-0.91448,"postcode":"RG4 6ST","la":"Wokingham","era":"other","nn":251,"risk":33,"cat":"amber"},{"name":"Bull & Chequers","lat":51.45549,"lon":-0.89555,"postcode":"RG5 4QP","la":"Wokingham","era":"trad","nn":520,"risk":50,"cat":"amber"},{"name":"Castle Royle Half Way Hut","lat":51.50042,"lon":-0.82428,"postcode":"RG10 9XA","la":"Wokingham","era":"other","nn":1151,"risk":60,"cat":"amber"},{"name":"Compass Group","lat":51.41275,"lon":-0.89522,"postcode":"RG41 5DB","la":"Wokingham","era":"other","nn":1158,"risk":60,"cat":"amber"},{"name":"Coppa Club","lat":51.47525,"lon":-0.9128,"postcode":"RG4 6UT","la":"Wokingham","era":"other","nn":227,"risk":33,"cat":"amber"},{"name":"Earley Home Guard Club","lat":51.45419,"lon":-0.92509,"postcode":"RG6 1BT","la":"Wokingham","era":"other","nn":509,"risk":38,"cat":"amber"},{"name":"East Berkshire Golf Club","lat":51.37091,"lon":-0.81797,"postcode":"RG45 6BD","la":"Wokingham","era":"other","nn":1761,"risk":64,"cat":"red"},{"name":"Elephant & Castle","lat":51.46145,"lon":-0.86027,"postcode":"RG10 0EH","la":"Wokingham","era":"other","nn":752,"risk":54,"cat":"amber"},{"name":"Emmbrook Inn","lat":51.42216,"lon":-0.85429,"postcode":"RG41 1HG","la":"Wokingham","era":"trad","nn":330,"risk":51,"cat":"amber"},{"name":"Goals Soccer Centre","lat":51.45296,"lon":-0.91801,"postcode":"RG5 3EU","la":"Wokingham","era":"other","nn":509,"risk":38,"cat":"amber"},{"name":"Grasshopper Cocktail and Wine Bar","lat":51.41201,"lon":-0.83152,"postcode":"RG40 1XU","la":"Wokingham","era":"other","nn":95,"risk":30,"cat":"green"},{"name":"Heron on the Ford","lat":51.46554,"lon":-0.88009,"postcode":"RG10 0UE","la":"Wokingham","era":"other","nn":1270,"risk":60,"cat":"amber"},{"name":"Hope & Anchor","lat":51.41179,"lon":-0.84033,"postcode":"RG40 2AD","la":"Wokingham","era":"trad","nn":0,"risk":29,"cat":"green"},{"name":"Leander Club","lat":51.53797,"lon":-0.89927,"postcode":"RG9 2LP","la":"Wokingham","era":"other","nn":181,"risk":30,"cat":"green"},{"name":"Maiden Place Social Club","lat":51.42838,"lon":-0.91509,"postcode":"RG6 3HA","la":"Wokingham","era":"mod","nn":94,"risk":50,"cat":"amber"},{"name":"Masonic Hall","lat":51.41392,"lon":-0.84095,"postcode":"RG41 1EG","la":"Wokingham","era":"trad","nn":241,"risk":31,"cat":"amber"},{"name":"Mojo's Bar","lat":51.44083,"lon":-0.94301,"postcode":"RG6 6EH","la":"Wokingham","era":"other","nn":802,"risk":37,"cat":"amber"},{"name":"Our Lady of Peace Social Club","lat":51.4416,"lon":-0.92987,"postcode":"RG6 7DA","la":"Wokingham","era":"mod","nn":210,"risk":35,"cat":"amber"},{"name":"Queen's Oak","lat":51.36941,"lon":-0.86105,"postcode":"RG40 4LS","la":"Wokingham","era":"trad","nn":2291,"risk":67,"cat":"red"},{"name":"Reading Rugby Football Club","lat":51.47037,"lon":-0.91787,"postcode":"RG4 6SU","la":"Wokingham","era":"other","nn":251,"risk":33,"cat":"amber"},{"name":"Redingensians Sports Club Ltd","lat":51.46958,"lon":-0.89977,"postcode":"RG4 6TQ","la":"Wokingham","era":"other","nn":493,"risk":35,"cat":"amber"},{"name":"Roebuck","lat":51.41015,"lon":-0.83447,"postcode":"RG40 1AL","la":"Wokingham","era":"other","nn":49,"risk":29,"cat":"green"},{"name":"Royal British Legion","lat":51.39372,"lon":-0.90482,"postcode":"RG2 9PR","la":"Wokingham","era":"trad","nn":461,"risk":52,"cat":"amber"},{"name":"Shepherds House Inn Gourmet Kitchen","lat":51.45998,"lon":-0.91738,"postcode":"RG6 1BD","la":"Wokingham","era":"other","nn":781,"risk":52,"cat":"amber"},{"name":"Sindlesham Court Limited","lat":51.42309,"lon":-0.88865,"postcode":"RG41 5EA","la":"Wokingham","era":"other","nn":354,"risk":49,"cat":"amber"},{"name":"Siren Craft Brew Tap Yard","lat":51.37608,"lon":-0.89477,"postcode":"RG40 4RF","la":"Wokingham","era":"mod","nn":2082,"risk":66,"cat":"red"},{"name":"Sit and Sip","lat":51.41093,"lon":-0.83301,"postcode":"RG40 1LY","la":"Wokingham","era":"other","nn":79,"risk":30,"cat":"green"},{"name":"Six Bells (incorporating Indian Imperial Kitchen)","lat":51.41101,"lon":-0.95743,"postcode":"RG2 9DA","la":"Wokingham","era":"mod","nn":558,"risk":53,"cat":"amber"},{"name":"Sonning Golf Club Ltd","lat":51.4652,"lon":-0.90092,"postcode":"RG4 6GJ","la":"Wokingham","era":"other","nn":493,"risk":50,"cat":"amber"},{"name":"St George and Dragon","lat":51.50323,"lon":-0.86949,"postcode":"RG10 8HY","la":"Wokingham","era":"trad","nn":896,"risk":55,"cat":"amber"},{"name":"Suttons Bowls Club","lat":51.42475,"lon":-0.93303,"postcode":"RG6 5HQ","la":"Wokingham","era":"other","nn":1032,"risk":59,"cat":"amber"},{"name":"Tally Ho","lat":51.35693,"lon":-0.88731,"postcode":"RG27 0RR","la":"Wokingham","era":"other","nn":1579,"risk":63,"cat":"red"},{"name":"The Broad Street Tavern","lat":51.41152,"lon":-0.83534,"postcode":"RG40 1AU","la":"Wokingham","era":"other","nn":164,"risk":30,"cat":"green"},{"name":"The Bull","lat":51.39762,"lon":-0.90709,"postcode":"RG2 9QD","la":"Wokingham","era":"trad","nn":461,"risk":52,"cat":"amber"},{"name":"The Bull At Barkham","lat":51.39594,"lon":-0.88227,"postcode":"RG41 4TL","la":"Wokingham","era":"trad","nn":1562,"risk":62,"cat":"red"},{"name":"The Bull at Riseley","lat":51.3621,"lon":-0.96595,"postcode":"RG7 1QL","la":"Wokingham","era":"trad","nn":1879,"risk":65,"cat":"red"},{"name":"The Bull Inn","lat":51.47341,"lon":-0.91141,"postcode":"RG4 6UP","la":"Wokingham","era":"trad","nn":100,"risk":30,"cat":"green"},{"name":"The Chequers","lat":51.45285,"lon":-0.90524,"postcode":"RG5 3JH","la":"Wokingham","era":"other","nn":508,"risk":35,"cat":"amber"},{"name":"The Crispin","lat":51.4087,"lon":-0.83584,"postcode":"RG40 2AY","la":"Wokingham","era":"other","nn":59,"risk":29,"cat":"green"},{"name":"The Crooked Billet","lat":51.39326,"lon":-0.81543,"postcode":"RG40 3BJ","la":"Wokingham","era":"other","nn":888,"risk":55,"cat":"amber"},{"name":"The Crown","lat":51.37835,"lon":-0.95856,"postcode":"RG7 1QY","la":"Wokingham","era":"trad","nn":1879,"risk":65,"cat":"red"},{"name":"The Dukes Head","lat":51.40778,"lon":-0.83651,"postcode":"RG40 2BQ","la":"Wokingham","era":"trad","nn":113,"risk":30,"cat":"green"},{"name":"The Farriers Arms","lat":51.39593,"lon":-0.97324,"postcode":"RG7 1AE","la":"Wokingham","era":"trad","nn":2004,"risk":65,"cat":"red"},{"name":"The Flower Pot Hotel","lat":51.55137,"lon":-0.87039,"postcode":"RG9 3DG","la":"Wokingham","era":"other","nn":1955,"risk":65,"cat":"red"},{"name":"The George","lat":51.4379,"lon":-0.90026,"postcode":"RG6 7EN","la":"Wokingham","era":"trad","nn":903,"risk":55,"cat":"amber"},{"name":"The Golden Cross","lat":51.47645,"lon":-0.86289,"postcode":"RG10 9EG","la":"Wokingham","era":"trad","nn":561,"risk":50,"cat":"amber"},{"name":"The Good Companions","lat":51.44601,"lon":-0.89952,"postcode":"RG5 4AG","la":"Wokingham","era":"other","nn":858,"risk":52,"cat":"amber"},{"name":"The Green Man","lat":51.45979,"lon":-0.84975,"postcode":"RG10 0BP","la":"Wokingham","era":"other","nn":752,"risk":54,"cat":"amber"},{"name":"The Jolly Farmer","lat":51.44209,"lon":-0.86851,"postcode":"RG10 0TH","la":"Wokingham","era":"other","nn":403,"risk":52,"cat":"amber"},{"name":"The Little Angel","lat":51.5381,"lon":-0.89665,"postcode":"RG9 2LS","la":"Wokingham","era":"trad","nn":181,"risk":30,"cat":"green"},{"name":"The Lord Raglan","lat":51.40913,"lon":-0.835,"postcode":"RG40 2BB","la":"Wokingham","era":"other","nn":41,"risk":29,"cat":"green"},{"name":"The Oakingham Belle","lat":51.4131,"lon":-0.80289,"postcode":"RG40 1LH","la":"Wokingham","era":"trad","nn":902,"risk":55,"cat":"amber"},{"name":"The Outhouse Brewery","lat":51.40921,"lon":-0.83557,"postcode":"RG40 2SL","la":"Wokingham","era":"mod","nn":41,"risk":29,"cat":"green"},{"name":"The Poachers Gastro Pub","lat":51.42476,"lon":-0.893,"postcode":"RG41 5DF","la":"Wokingham","era":"other","nn":354,"risk":49,"cat":"amber"},{"name":"The Queens Head","lat":51.41233,"lon":-0.8383,"postcode":"RG40 1BP","la":"Wokingham","era":"trad","nn":153,"risk":30,"cat":"green"},{"name":"The Red Lion - Pad Thai","lat":51.40983,"lon":-0.83399,"postcode":"RG40 1AP","la":"Wokingham","era":"trad","nn":49,"risk":29,"cat":"green"},{"name":"The Redan","lat":51.41072,"lon":-0.83193,"postcode":"RG40 1XG","la":"Wokingham","era":"other","nn":79,"risk":30,"cat":"green"},{"name":"The Rifle Volunteer","lat":51.41924,"lon":-0.85348,"postcode":"RG41 1HD","la":"Wokingham","era":"other","nn":330,"risk":51,"cat":"amber"},{"name":"The Royal British Legion Social Club","lat":51.42683,"lon":-0.86732,"postcode":"RG41 5LP","la":"Wokingham","era":"other","nn":1042,"risk":59,"cat":"amber"},{"name":"The Royal Oak","lat":51.48052,"lon":-0.85811,"postcode":"RG10 9JN","la":"Wokingham","era":"trad","nn":561,"risk":50,"cat":"amber"},{"name":"The Seven Red Roses","lat":51.42844,"lon":-0.91374,"postcode":"RG6 3HD","la":"Wokingham","era":"other","nn":94,"risk":50,"cat":"amber"},{"name":"The Shinfield Arms","lat":51.41312,"lon":-0.95014,"postcode":"RG2 9BP","la":"Wokingham","era":"trad","nn":558,"risk":50,"cat":"amber"},{"name":"The Ship Inn","lat":51.41142,"lon":-0.83052,"postcode":"RG40 1XH","la":"Wokingham","era":"trad","nn":95,"risk":30,"cat":"green"},{"name":"The Sonning Club","lat":51.4727,"lon":-0.91053,"postcode":"RG4 6UL","la":"Wokingham","era":"other","nn":100,"risk":30,"cat":"green"},{"name":"The Station Tap / K-Town / Chik Box / Locked & Loaded / 88th Street / Value Mighty / Sin City Burger / Pizza Amore & Dough Maste","lat":51.41179,"lon":-0.84033,"postcode":"RG40 2AD","la":"Wokingham","era":"mod","nn":0,"risk":29,"cat":"green"},{"name":"The Three Frogs","lat":51.40985,"lon":-0.81481,"postcode":"RG40 1RA","la":"Wokingham","era":"other","nn":902,"risk":53,"cat":"amber"},{"name":"The Two Poplars","lat":51.40113,"lon":-0.84057,"postcode":"RG41 2NU","la":"Wokingham","era":"other","nn":791,"risk":37,"cat":"amber"},{"name":"The Victoria Arms","lat":51.41053,"lon":-0.83013,"postcode":"RG40 2EH","la":"Wokingham","era":"trad","nn":103,"risk":30,"cat":"green"},{"name":"The Walter Arms","lat":51.41934,"lon":-0.88229,"postcode":"RG41 5BP","la":"Wokingham","era":"trad","nn":607,"risk":51,"cat":"amber"},{"name":"The Warren","lat":51.4321,"lon":-0.82006,"postcode":"RG40 5SB","la":"Wokingham","era":"other","nn":1651,"risk":63,"cat":"red"},{"name":"The Wee Waif Inn","lat":51.47518,"lon":-0.88994,"postcode":"RG10 9RJ","la":"Wokingham","era":"trad","nn":923,"risk":55,"cat":"amber"},{"name":"The Wheelwrights Arms","lat":51.43863,"lon":-0.87026,"postcode":"RG10 0TR","la":"Wokingham","era":"trad","nn":403,"risk":52,"cat":"amber"},{"name":"The White Horse","lat":51.40124,"lon":-0.81525,"postcode":"RG40 3AF","la":"Wokingham","era":"trad","nn":888,"risk":53,"cat":"amber"},{"name":"Waggon & Horses","lat":51.47806,"lon":-0.87185,"postcode":"RG10 9AJ","la":"Wokingham","era":"trad","nn":646,"risk":51,"cat":"amber"},{"name":"Wargrave Bowls Club","lat":51.50184,"lon":-0.85674,"postcode":"RG10 8BH","la":"Wokingham","era":"other","nn":896,"risk":55,"cat":"amber"},{"name":"Woodley Bowling Club","lat":51.4571,"lon":-0.9026,"postcode":"RG5 4LY","la":"Wokingham","era":"other","nn":508,"risk":38,"cat":"amber"},{"name":"Ye Olde Leathern Bottle","lat":51.40324,"lon":-0.86265,"postcode":"RG41 4BY","la":"Wokingham","era":"other","nn":1301,"risk":61,"cat":"red"}]