[{"name":"17 Miles","lat":53.9917,"lon":-1.54625,"postcode":"HG2 0NL","la":"North Yorkshire","era":"other","nn":93,"risk":15,"cat":"green"},{"name":"Balcony Sports Bar Ltd","lat":53.98093,"lon":-1.53872,"postcode":"HG2 9BP","la":"North Yorkshire","era":"mod","nn":528,"risk":21,"cat":"green"},{"name":"Bay Horse Inn","lat":54.22263,"lon":-1.65664,"postcode":"HG4 4DX","la":"North Yorkshire","era":"trad","nn":244,"risk":34,"cat":"amber"},{"name":"Berties","lat":53.99614,"lon":-1.51479,"postcode":"HG2 7LT","la":"North Yorkshire","era":"other","nn":643,"risk":19,"cat":"green"},{"name":"Best Bar","lat":53.9947,"lon":-1.54372,"postcode":"HG1 2RL","la":"North Yorkshire","era":"other","nn":98,"risk":15,"cat":"green"},{"name":"Bilton Cricket Club","lat":54.01092,"lon":-1.52923,"postcode":"HG1 3DQ","la":"North Yorkshire","era":"other","nn":836,"risk":38,"cat":"amber"},{"name":"Bilton Working Mens Club","lat":54.00437,"lon":-1.5357,"postcode":"HG1 4LL","la":"North Yorkshire","era":"trad","nn":787,"risk":20,"cat":"green"},{"name":"Black Swan","lat":54.13614,"lon":-1.52532,"postcode":"HG4 2BQ","la":"North Yorkshire","era":"trad","nn":141,"risk":15,"cat":"green"},{"name":"Blind Jacks","lat":54.00771,"lon":-1.46714,"postcode":"HG5 8AL","la":"North Yorkshire","era":"other","nn":0,"risk":14,"cat":"green"},{"name":"Blind Jacks Ltd","lat":54.00771,"lon":-1.46714,"postcode":"HG5 8AL","la":"North Yorkshire","era":"other","nn":0,"risk":14,"cat":"green"},{"name":"Christie's","lat":53.99568,"lon":-1.54193,"postcode":"HG1 5JW","la":"North Yorkshire","era":"other","nn":40,"risk":15,"cat":"green"},{"name":"Cold Bath Brewing","lat":53.99591,"lon":-1.54144,"postcode":"HG1 5JW","la":"North Yorkshire","era":"other","nn":1,"risk":14,"cat":"green"},{"name":"Cold Bath Brewing Clubhouse","lat":53.99591,"lon":-1.54146,"postcode":"HG1 5JW","la":"North Yorkshire","era":"other","nn":1,"risk":14,"cat":"green"},{"name":"Devonshire Tap House","lat":53.99777,"lon":-1.52879,"postcode":"HG1 4AA","la":"North Yorkshire","era":"mod","nn":0,"risk":14,"cat":"green"},{"name":"Elysian","lat":53.99469,"lon":-1.54188,"postcode":"HG1 1DH","la":"North Yorkshire","era":"other","nn":32,"risk":15,"cat":"green"},{"name":"Hales Bar","lat":53.99416,"lon":-1.54565,"postcode":"HG1 2RS","la":"North Yorkshire","era":"other","nn":136,"risk":15,"cat":"green"},{"name":"Hampsthwaite Cricket Club","lat":54.01452,"lon":-1.5615,"postcode":"HG3 2AB","la":"North Yorkshire","era":"other","nn":1323,"risk":46,"cat":"amber"},{"name":"Harrogate Hockey Club","lat":54.00117,"lon":-1.51964,"postcode":"HG1 4AP","la":"North Yorkshire","era":"other","nn":643,"risk":21,"cat":"green"},{"name":"Harrogate Railway Sports & Social Cl","lat":53.99867,"lon":-1.50248,"postcode":"HG2 7JA","la":"North Yorkshire","era":"other","nn":230,"risk":21,"cat":"green"},{"name":"Harrogate Rugby Union Football Club","lat":53.97344,"lon":-1.50177,"postcode":"HG3 1DQ","la":"North Yorkshire","era":"other","nn":1004,"risk":44,"cat":"amber"},{"name":"Harrogate Tap","lat":53.99276,"lon":-1.53757,"postcode":"HG1 1TE","la":"North Yorkshire","era":"mod","nn":91,"risk":15,"cat":"green"},{"name":"Harrogate Theatre","lat":53.99447,"lon":-1.54002,"postcode":"HG1 1QF","la":"North Yorkshire","era":"other","nn":53,"risk":15,"cat":"green"},{"name":"Husk","lat":53.99205,"lon":-1.53828,"postcode":"HG1 1TB","la":"North Yorkshire","era":"other","nn":91,"risk":15,"cat":"green"},{"name":"Ivory Bar Lounge Club","lat":53.99358,"lon":-1.54346,"postcode":"HG1 2RB","la":"North Yorkshire","era":"mod","nn":22,"risk":14,"cat":"green"},{"name":"Knaresborough Golf Club","lat":54.02881,"lon":-1.44602,"postcode":"HG5 0QQ","la":"North Yorkshire","era":"other","nn":2617,"risk":55,"cat":"amber"},{"name":"Knaresborough Masonic Lodge Club","lat":54.00695,"lon":-1.46405,"postcode":"HG5 0AA","la":"North Yorkshire","era":"trad","nn":158,"risk":15,"cat":"green"},{"name":"Knaresborough Town AFC","lat":54.00402,"lon":-1.44898,"postcode":"HG5 8LF","la":"North Yorkshire","era":"other","nn":1037,"risk":44,"cat":"amber"},{"name":"Locus Bar","lat":53.99487,"lon":-1.54226,"postcode":"HG1 1DH","la":"North Yorkshire","era":"other","nn":32,"risk":15,"cat":"green"},{"name":"Major Tom's","lat":53.99359,"lon":-1.5438,"postcode":"HG1 2RB","la":"North Yorkshire","era":"other","nn":22,"risk":14,"cat":"green"},{"name":"Masham Golf Club","lat":54.21767,"lon":-1.66618,"postcode":"HG4 4NS","la":"North Yorkshire","era":"other","nn":830,"risk":38,"cat":"amber"},{"name":"Mechanics Institute","lat":54.16458,"lon":-1.64411,"postcode":"HG4 3RS","la":"North Yorkshire","era":"other","nn":5867,"risk":72,"cat":"red"},{"name":"North Bar","lat":53.99472,"lon":-1.53933,"postcode":"HG1 1DA","la":"North Yorkshire","era":"other","nn":53,"risk":15,"cat":"green"},{"name":"Papitos","lat":53.99175,"lon":-1.54096,"postcode":"HG1 1JZ","la":"North Yorkshire","era":"other","nn":20,"risk":14,"cat":"green"},{"name":"Prince of Wales","lat":53.99934,"lon":-1.49914,"postcode":"HG2 7LQ","la":"North Yorkshire","era":"trad","nn":69,"risk":32,"cat":"amber"},{"name":"Ripon Conservative Club","lat":54.13506,"lon":-1.5242,"postcode":"HG4 1BQ","la":"North Yorkshire","era":"other","nn":108,"risk":15,"cat":"green"},{"name":"Ripon Motor Boat Club","lat":54.11969,"lon":-1.50189,"postcode":"HG4 3FE","la":"North Yorkshire","era":"other","nn":1753,"risk":49,"cat":"amber"},{"name":"Ripon Rugby Club","lat":54.13401,"lon":-1.53162,"postcode":"HG4 2QD","la":"North Yorkshire","era":"other","nn":474,"risk":18,"cat":"green"},{"name":"Ripon Tennis Centre","lat":54.15554,"lon":-1.52821,"postcode":"HG4 3HJ","la":"North Yorkshire","era":"other","nn":1249,"risk":46,"cat":"amber"},{"name":"Riverside Meadows Caravan Park","lat":54.14681,"lon":-1.51615,"postcode":"HG4 1JD","la":"North Yorkshire","era":"other","nn":756,"risk":37,"cat":"amber"},{"name":"Scotton Cricket Club","lat":54.03238,"lon":-1.50119,"postcode":"HG5 9HZ","la":"North Yorkshire","era":"other","nn":474,"risk":38,"cat":"amber"},{"name":"Shepherd's Dog","lat":53.98129,"lon":-1.55943,"postcode":"HG2 0AG","la":"North Yorkshire","era":"other","nn":1235,"risk":45,"cat":"amber"},{"name":"Shoulder Of Mutton Inn","lat":53.939,"lon":-1.50544,"postcode":"HG3 1HD","la":"North Yorkshire","era":"trad","nn":3462,"risk":61,"cat":"red"},{"name":"Six Poor Folk","lat":54.00735,"lon":-1.46733,"postcode":"HG5 8AR","la":"North Yorkshire","era":"other","nn":0,"risk":14,"cat":"green"},{"name":"So! Bar & Eats","lat":54.00777,"lon":-1.46602,"postcode":"HG5 8AJ","la":"North Yorkshire","era":"mod","nn":73,"risk":15,"cat":"green"},{"name":"St Georges Sports And Social Club","lat":53.97666,"lon":-1.54226,"postcode":"HG2 9ER","la":"North Yorkshire","era":"other","nn":528,"risk":38,"cat":"amber"},{"name":"St Robert's Club","lat":53.98898,"lon":-1.53813,"postcode":"HG1 1HP","la":"North Yorkshire","era":"other","nn":72,"risk":15,"cat":"green"},{"name":"Storehouse Bar & Eatery","lat":54.13745,"lon":-1.52711,"postcode":"HG4 2AJ","la":"North Yorkshire","era":"mod","nn":187,"risk":16,"cat":"green"},{"name":"Sun Inn","lat":53.98304,"lon":-1.68387,"postcode":"HG3 1SZ","la":"North Yorkshire","era":"trad","nn":3086,"risk":58,"cat":"amber"},{"name":"The Bridge Inn","lat":54.0903,"lon":-1.77098,"postcode":"HG3 5HL","la":"North Yorkshire","era":"trad","nn":916,"risk":41,"cat":"amber"},{"name":"The Castle Inn","lat":54.00735,"lon":-1.46733,"postcode":"HG5 8AR","la":"North Yorkshire","era":"trad","nn":0,"risk":14,"cat":"green"},{"name":"The Castle Inn","lat":53.95269,"lon":-1.44683,"postcode":"HG3 1BQ","la":"North Yorkshire","era":"trad","nn":2516,"risk":54,"cat":"amber"},{"name":"The Claro Beagle","lat":54.00237,"lon":-1.54726,"postcode":"HG1 2DR","la":"North Yorkshire","era":"trad","nn":784,"risk":20,"cat":"green"},{"name":"The Commercial Hotel","lat":54.00914,"lon":-1.46799,"postcode":"HG5 0EA","la":"North Yorkshire","era":"other","nn":40,"risk":15,"cat":"green"},{"name":"The Cricketers","lat":53.99939,"lon":-1.46744,"postcode":"HG5 8JL","la":"North Yorkshire","era":"other","nn":821,"risk":20,"cat":"green"},{"name":"The Cross Keys","lat":54.00677,"lon":-1.46683,"postcode":"HG5 8AX","la":"North Yorkshire","era":"trad","nn":72,"risk":15,"cat":"green"},{"name":"The Den","lat":53.9937,"lon":-1.54091,"postcode":"HG1 1NS","la":"North Yorkshire","era":"other","nn":104,"risk":15,"cat":"green"},{"name":"The Disappearing Chin","lat":53.99418,"lon":-1.53912,"postcode":"HG1 1QH","la":"North Yorkshire","era":"other","nn":61,"risk":15,"cat":"green"},{"name":"The Empress","lat":53.99422,"lon":-1.5246,"postcode":"HG1 4SP","la":"North Yorkshire","era":"other","nn":480,"risk":18,"cat":"green"},{"name":"The Four Leaf","lat":53.99184,"lon":-1.54069,"postcode":"HG1 1JZ","la":"North Yorkshire","era":"other","nn":20,"risk":14,"cat":"green"},{"name":"The George","lat":54.07992,"lon":-1.53424,"postcode":"HG3 3PR","la":"North Yorkshire","era":"trad","nn":1636,"risk":48,"cat":"amber"},{"name":"The Groves","lat":54.00826,"lon":-1.46704,"postcode":"HG5 8AG","la":"North Yorkshire","era":"other","nn":61,"risk":15,"cat":"green"},{"name":"The Guy Fawkes Arms","lat":54.02842,"lon":-1.50386,"postcode":"HG5 9HU","la":"North Yorkshire","era":"trad","nn":474,"risk":38,"cat":"amber"},{"name":"The Harrogate Club","lat":53.9911,"lon":-1.53353,"postcode":"HG1 5PR","la":"North Yorkshire","era":"other","nn":322,"risk":17,"cat":"green"},{"name":"The Inn at South Stainley","lat":54.06535,"lon":-1.53774,"postcode":"HG3 3ND","la":"North Yorkshire","era":"trad","nn":1636,"risk":48,"cat":"amber"},{"name":"The Joiners Arms","lat":54.02425,"lon":-1.60579,"postcode":"HG3 2EU","la":"North Yorkshire","era":"trad","nn":1757,"risk":49,"cat":"amber"},{"name":"The Knox","lat":54.01127,"lon":-1.54202,"postcode":"HG1 3AP","la":"North Yorkshire","era":"other","nn":836,"risk":38,"cat":"amber"},{"name":"The Last Post","lat":53.99119,"lon":-1.54736,"postcode":"HG2 0NA","la":"North Yorkshire","era":"other","nn":93,"risk":15,"cat":"green"},{"name":"The Magdalens","lat":54.14044,"lon":-1.52021,"postcode":"HG4 1HW","la":"North Yorkshire","era":"other","nn":294,"risk":16,"cat":"green"},{"name":"The Malt Shovel","lat":54.04352,"lon":-1.50997,"postcode":"HG3 3BX","la":"North Yorkshire","era":"other","nn":1366,"risk":46,"cat":"amber"},{"name":"The Masons Arms","lat":54.08986,"lon":-1.49847,"postcode":"HG3 3QU","la":"North Yorkshire","era":"trad","nn":2582,"risk":55,"cat":"amber"},{"name":"The Mitre","lat":54.00927,"lon":-1.47067,"postcode":"HG5 9AA","la":"North Yorkshire","era":"other","nn":27,"risk":15,"cat":"green"},{"name":"The Montpellier","lat":53.99296,"lon":-1.54463,"postcode":"HG1 2TG","la":"North Yorkshire","era":"other","nn":89,"risk":15,"cat":"green"},{"name":"The Mucky Duck","lat":53.99777,"lon":-1.52879,"postcode":"HG1 4AA","la":"North Yorkshire","era":"other","nn":0,"risk":14,"cat":"green"},{"name":"The Navigation Inn","lat":54.13218,"lon":-1.51829,"postcode":"HG4 1QN","la":"North Yorkshire","era":"trad","nn":101,"risk":15,"cat":"green"},{"name":"The Office Ale House","lat":53.99985,"lon":-1.49855,"postcode":"HG2 7LH","la":"North Yorkshire","era":"other","nn":69,"risk":32,"cat":"amber"},{"name":"The Pateley Club","lat":54.08634,"lon":-1.75866,"postcode":"HG3 5JU","la":"North Yorkshire","era":"other","nn":916,"risk":41,"cat":"amber"},{"name":"The Portly Pig","lat":54.13526,"lon":-1.52258,"postcode":"HG4 1PA","la":"North Yorkshire","era":"other","nn":108,"risk":15,"cat":"green"},{"name":"The Sawley Arms","lat":54.10524,"lon":-1.62167,"postcode":"HG4 3EQ","la":"North Yorkshire","era":"trad","nn":4812,"risk":71,"cat":"red"},{"name":"The Smiths Arms","lat":53.97366,"lon":-1.59349,"postcode":"HG3 1QW","la":"North Yorkshire","era":"trad","nn":2118,"risk":52,"cat":"amber"},{"name":"The Squinting Cat","lat":53.96847,"lon":-1.56233,"postcode":"HG3 1QE","la":"North Yorkshire","era":"other","nn":1438,"risk":47,"cat":"amber"},{"name":"The Station Hotel","lat":54.03397,"lon":-1.62698,"postcode":"HG3 3AG","la":"North Yorkshire","era":"other","nn":1757,"risk":49,"cat":"amber"},{"name":"The Staveley Arms","lat":54.18552,"lon":-1.56137,"postcode":"HG4 3HT","la":"North Yorkshire","era":"trad","nn":3971,"risk":65,"cat":"red"},{"name":"The Stone Beck","lat":54.00137,"lon":-1.55913,"postcode":"HG3 2XS","la":"North Yorkshire","era":"other","nn":784,"risk":40,"cat":"amber"},{"name":"The Swan At Burn Bridge","lat":53.95873,"lon":-1.54637,"postcode":"HG3 1PB","la":"North Yorkshire","era":"trad","nn":1504,"risk":47,"cat":"amber"},{"name":"The Tap","lat":53.98951,"lon":-1.53875,"postcode":"HG1 1HS","la":"North Yorkshire","era":"mod","nn":72,"risk":15,"cat":"green"},{"name":"The Water Rat","lat":54.13307,"lon":-1.51865,"postcode":"HG4 1QW","la":"North Yorkshire","era":"other","nn":101,"risk":15,"cat":"green"},{"name":"The White Bear Country Inn","lat":54.22464,"lon":-1.65815,"postcode":"HG4 4EN","la":"North Yorkshire","era":"trad","nn":244,"risk":34,"cat":"amber"},{"name":"The Woodlands Hotel","lat":53.98734,"lon":-1.50327,"postcode":"HG2 7AB","la":"North Yorkshire","era":"other","nn":852,"risk":40,"cat":"amber"},{"name":"The Worlds End","lat":54.00996,"lon":-1.47364,"postcode":"HG5 9AU","la":"North Yorkshire","era":"other","nn":209,"risk":16,"cat":"green"},{"name":"The Yorke Arms","lat":54.13493,"lon":-1.81987,"postcode":"HG3 5RL","la":"North Yorkshire","era":"trad","nn":5898,"risk":72,"cat":"red"},{"name":"Tiger Inn","lat":54.02437,"lon":-1.40053,"postcode":"HG5 0RY","la":"North Yorkshire","era":"trad","nn":3012,"risk":58,"cat":"amber"},{"name":"Track & Sleeper","lat":54.00912,"lon":-1.47035,"postcode":"HG5 9AA","la":"North Yorkshire","era":"other","nn":27,"risk":15,"cat":"green"},{"name":"Travellers Rest Inn","lat":53.9815,"lon":-1.49484,"postcode":"HG3 1DF","la":"North Yorkshire","era":"trad","nn":852,"risk":40,"cat":"amber"},{"name":"West Park Hotel","lat":53.98845,"lon":-1.5398,"postcode":"HG1 1BJ","la":"North Yorkshire","era":"other","nn":124,"risk":15,"cat":"green"},{"name":"Wetherspoons Crown Inn","lat":54.00878,"lon":-1.46792,"postcode":"HG5 0HB","la":"North Yorkshire","era":"trad","nn":40,"risk":15,"cat":"green"},{"name":"Wetherspoons The Unicorn Hotel","lat":54.13652,"lon":-1.523,"postcode":"HG4 1BP","la":"North Yorkshire","era":"other","nn":142,"risk":15,"cat":"green"},{"name":"White Horse","lat":54.13954,"lon":-1.52445,"postcode":"HG4 1EN","la":"North Yorkshire","era":"trad","nn":290,"risk":16,"cat":"green"},{"name":"Yorkshire Hussar Inn","lat":54.0801,"lon":-1.5616,"postcode":"HG3 3NR","la":"North Yorkshire","era":"trad","nn":1785,"risk":49,"cat":"amber"}]