[{"name":"Weybridge Mariners Club","lat":51.38167,"lon":-0.45776,"postcode":"TW17 9LW","la":"Elmbridge","era":"other","nn":160,"risk":27,"cat":"green"},{"name":"Crown Rivers","lat":51.47328,"lon":-0.48783,"postcode":"TW6 2GA","la":"Hillingdon","era":"trad","nn":0,"risk":28,"cat":"green"},{"name":"Diageo World Duty Free Bar","lat":51.47328,"lon":-0.48783,"postcode":"TW6 2GA","la":"Hillingdon","era":"other","nn":0,"risk":28,"cat":"green"},{"name":"London's Pride (airside)","lat":51.46974,"lon":-0.44972,"postcode":"TW6 1EW","la":"Hillingdon","era":"other","nn":611,"risk":47,"cat":"amber"},{"name":"The Curator","lat":51.47037,"lon":-0.45848,"postcode":"TW6 1QG","la":"Hillingdon","era":"other","nn":0,"risk":43,"cat":"amber"},{"name":"The Globe","lat":51.47328,"lon":-0.48783,"postcode":"TW6 2GA","la":"Hillingdon","era":"other","nn":0,"risk":28,"cat":"green"},{"name":"The Oceanic","lat":51.47037,"lon":-0.45848,"postcode":"TW6 1QG","la":"Hillingdon","era":"other","nn":0,"risk":43,"cat":"amber"},{"name":"The Star Light","lat":51.45967,"lon":-0.44735,"postcode":"TW6 3XA","la":"Hillingdon","era":"other","nn":966,"risk":52,"cat":"amber"},{"name":"The Three Magpies","lat":51.48108,"lon":-0.45086,"postcode":"TW6 2AU","la":"Hillingdon","era":"other","nn":912,"risk":52,"cat":"amber"},{"name":"African Queen","lat":51.46121,"lon":-0.37571,"postcode":"TW4 5HL","la":"Hounslow","era":"trad","nn":577,"risk":30,"cat":"green"},{"name":"Banquetting by Wainwright","lat":51.47866,"lon":-0.35578,"postcode":"TW3 4BX","la":"Hounslow","era":"other","nn":461,"risk":32,"cat":"amber"},{"name":"Bedfont Football & Social Club","lat":51.45814,"lon":-0.43363,"postcode":"TW14 9PR","la":"Hounslow","era":"mod","nn":281,"risk":28,"cat":"green"},{"name":"Black Dog Beer House","lat":51.48552,"lon":-0.30184,"postcode":"TW8 0NF","la":"Hounslow","era":"other","nn":89,"risk":27,"cat":"green"},{"name":"Cinnamon Lounge","lat":51.47225,"lon":-0.32852,"postcode":"TW7 6AB","la":"Hounslow","era":"other","nn":403,"risk":29,"cat":"green"},{"name":"Circa Loca","lat":51.46836,"lon":-0.36548,"postcode":"TW3 1HB","la":"Hounslow","era":"other","nn":76,"risk":27,"cat":"green"},{"name":"David Lloyd Club","lat":51.49351,"lon":-0.40041,"postcode":"TW5 9PE","la":"Hounslow","era":"other","nn":899,"risk":50,"cat":"amber"},{"name":"Duke of Wellington","lat":51.46236,"lon":-0.42735,"postcode":"TW14 9QS","la":"Hounslow","era":"trad","nn":640,"risk":31,"cat":"amber"},{"name":"Eddies Social Club","lat":51.43829,"lon":-0.39116,"postcode":"TW13 6PX","la":"Hounslow","era":"mod","nn":322,"risk":46,"cat":"amber"},{"name":"Express Tavern","lat":51.48911,"lon":-0.28794,"postcode":"TW8 0EW","la":"Hounslow","era":"other","nn":122,"risk":27,"cat":"green"},{"name":"Feltham Constitutional Club","lat":51.44675,"lon":-0.40487,"postcode":"TW13 5AB","la":"Hounslow","era":"other","nn":286,"risk":28,"cat":"green"},{"name":"General Roy","lat":51.44073,"lon":-0.41368,"postcode":"TW13 7AB","la":"Hounslow","era":"other","nn":390,"risk":29,"cat":"green"},{"name":"Goals Soccer Centre","lat":51.48866,"lon":-0.33657,"postcode":"TW7 5PT","la":"Hounslow","era":"other","nn":200,"risk":30,"cat":"green"},{"name":"Grasshoppers R.F.Sports & Social Club","lat":51.48687,"lon":-0.33641,"postcode":"TW7 5PN","la":"Hounslow","era":"mod","nn":200,"risk":30,"cat":"green"},{"name":"Haniya Lounge","lat":51.46619,"lon":-0.3648,"postcode":"TW3 3NX","la":"Hounslow","era":"mod","nn":81,"risk":27,"cat":"green"},{"name":"Hanworth Royal Naval Association Club","lat":51.43562,"lon":-0.39293,"postcode":"TW13 6PP","la":"Hounslow","era":"trad","nn":322,"risk":46,"cat":"amber"},{"name":"Heston Catholic Social Club","lat":51.48811,"lon":-0.37437,"postcode":"TW5 0HB","la":"Hounslow","era":"mod","nn":254,"risk":30,"cat":"green"},{"name":"Hounslow Sports & Social Club","lat":51.46682,"lon":-0.36421,"postcode":"TW3 3FX","la":"Hounslow","era":"mod","nn":81,"risk":27,"cat":"green"},{"name":"Hussar Bar and Restaurant","lat":51.46314,"lon":-0.38797,"postcode":"TW4 5AR","la":"Hounslow","era":"mod","nn":224,"risk":45,"cat":"amber"},{"name":"Indian Gymkhana Club","lat":51.48072,"lon":-0.34849,"postcode":"TW7 4NQ","la":"Hounslow","era":"other","nn":554,"risk":33,"cat":"amber"},{"name":"Inverness Lodge Social Club Ltd","lat":51.48677,"lon":-0.30842,"postcode":"TW8 8DW","la":"Hounslow","era":"mod","nn":208,"risk":28,"cat":"green"},{"name":"Isleworth Lions Club","lat":51.46432,"lon":-0.35444,"postcode":"TW3 2NP","la":"Hounslow","era":"trad","nn":392,"risk":29,"cat":"green"},{"name":"Isleworthians Association","lat":51.4779,"lon":-0.3341,"postcode":"TW7 5ED","la":"Hounslow","era":"other","nn":278,"risk":28,"cat":"green"},{"name":"Keg & Cask Pub","lat":51.4725,"lon":-0.38613,"postcode":"TW4 7DN","la":"Hounslow","era":"other","nn":950,"risk":53,"cat":"amber"},{"name":"KTM ROX","lat":51.4438,"lon":-0.41094,"postcode":"TW13 4AB","la":"Hounslow","era":"other","nn":294,"risk":28,"cat":"green"},{"name":"Lamplighter","lat":51.46713,"lon":-0.36863,"postcode":"TW3 3LF","la":"Hounslow","era":"other","nn":50,"risk":26,"cat":"green"},{"name":"London Apprentice","lat":51.47112,"lon":-0.32085,"postcode":"TW7 6BG","la":"Hounslow","era":"other","nn":341,"risk":29,"cat":"green"},{"name":"Milford Arms","lat":51.47356,"lon":-0.34577,"postcode":"TW7 4EY","la":"Hounslow","era":"trad","nn":562,"risk":30,"cat":"green"},{"name":"Moon on the Square","lat":51.4464,"lon":-0.41015,"postcode":"TW13 4AU","la":"Hounslow","era":"other","nn":294,"risk":31,"cat":"amber"},{"name":"Moon Under Water","lat":51.46699,"lon":-0.36931,"postcode":"TW3 3LF","la":"Hounslow","era":"other","nn":50,"risk":26,"cat":"green"},{"name":"New Inn","lat":51.48918,"lon":-0.30221,"postcode":"TW8 0NX","la":"Hounslow","era":"trad","nn":196,"risk":28,"cat":"green"},{"name":"Northumberland Arms","lat":51.48221,"lon":-0.31273,"postcode":"TW8 8JB","la":"Hounslow","era":"trad","nn":113,"risk":27,"cat":"green"},{"name":"One Over the Ait","lat":51.48804,"lon":-0.28832,"postcode":"TW8 0FH","la":"Hounslow","era":"other","nn":122,"risk":27,"cat":"green"},{"name":"Queens Head","lat":51.48501,"lon":-0.40529,"postcode":"TW5 9PB","la":"Hounslow","era":"trad","nn":1004,"risk":56,"cat":"amber"},{"name":"Rose and Crown","lat":51.48593,"lon":-0.37328,"postcode":"TW5 0RH","la":"Hounslow","era":"trad","nn":254,"risk":45,"cat":"amber"},{"name":"Royal Albion Public House","lat":51.46395,"lon":-0.36865,"postcode":"TW3 3RP","la":"Hounslow","era":"trad","nn":275,"risk":28,"cat":"green"},{"name":"Royal Antediluvian Order Of Buffaloes Hall","lat":51.43634,"lon":-0.41982,"postcode":"TW13 4PE","la":"Hounslow","era":"trad","nn":190,"risk":30,"cat":"green"},{"name":"Royal British Legion Club","lat":51.46913,"lon":-0.32513,"postcode":"TW7 6BT","la":"Hounslow","era":"trad","nn":70,"risk":27,"cat":"green"},{"name":"Royal British Legion Club","lat":51.45568,"lon":-0.43269,"postcode":"TW14 8HT","la":"Hounslow","era":"trad","nn":281,"risk":28,"cat":"green"},{"name":"Royal British Legion Club Ltd","lat":51.48502,"lon":-0.37846,"postcode":"TW5 0LG","la":"Hounslow","era":"trad","nn":373,"risk":46,"cat":"amber"},{"name":"Royal British Legion Club Ltd","lat":51.43381,"lon":-0.38801,"postcode":"TW13 6QW","la":"Hounslow","era":"trad","nn":396,"risk":46,"cat":"amber"},{"name":"Royal Oak","lat":51.4671,"lon":-0.34064,"postcode":"TW7 6EP","la":"Hounslow","era":"trad","nn":692,"risk":33,"cat":"amber"},{"name":"Six Bells","lat":51.48229,"lon":-0.31111,"postcode":"TW8 8EW","la":"Hounslow","era":"other","nn":113,"risk":27,"cat":"green"},{"name":"Sparrow Farm Residents Association @ Sparrow Farm Drive","lat":51.45322,"lon":-0.39883,"postcode":"TW14 0DQ","la":"Hounslow","era":"other","nn":808,"risk":49,"cat":"amber"},{"name":"Staines Rugby Football Club Main Kitchen","lat":51.43201,"lon":-0.41311,"postcode":"TW13 7NB","la":"Hounslow","era":"mod","nn":670,"risk":31,"cat":"amber"},{"name":"Stoneywall Community Association","lat":51.44939,"lon":-0.43222,"postcode":"TW14 8SA","la":"Hounslow","era":"other","nn":483,"risk":32,"cat":"amber"},{"name":"Sun Inn","lat":51.46652,"lon":-0.36216,"postcode":"TW3 1UG","la":"Hounslow","era":"trad","nn":146,"risk":27,"cat":"green"},{"name":"The Airman","lat":51.44606,"lon":-0.4009,"postcode":"TW13 5AX","la":"Hounslow","era":"other","nn":286,"risk":31,"cat":"amber"},{"name":"The Beehive","lat":51.48374,"lon":-0.30629,"postcode":"TW8 0JG","la":"Hounslow","era":"other","nn":145,"risk":27,"cat":"green"},{"name":"The Beehive Albinuta Restaurant","lat":51.45542,"lon":-0.42013,"postcode":"TW14 9HF","la":"Hounslow","era":"other","nn":404,"risk":31,"cat":"amber"},{"name":"The Bell","lat":51.46778,"lon":-0.36605,"postcode":"TW3 3JS","la":"Hounslow","era":"other","nn":76,"risk":27,"cat":"green"},{"name":"The Bell on the Green","lat":51.45115,"lon":-0.43859,"postcode":"TW14 8PA","la":"Hounslow","era":"other","nn":483,"risk":32,"cat":"amber"},{"name":"The Black Horse","lat":51.4779,"lon":-0.36307,"postcode":"TW3 4EZ","la":"Hounslow","era":"trad","nn":345,"risk":34,"cat":"amber"},{"name":"The Brewery Tap","lat":51.48243,"lon":-0.30622,"postcode":"TW8 8BD","la":"Hounslow","era":"mod","nn":145,"risk":27,"cat":"green"},{"name":"The Brook","lat":51.48824,"lon":-0.30461,"postcode":"TW8 0NU","la":"Hounslow","era":"other","nn":186,"risk":27,"cat":"green"},{"name":"The Bulstrode Pub","lat":51.47085,"lon":-0.3667,"postcode":"TW3 1JG","la":"Hounslow","era":"other","nn":289,"risk":28,"cat":"green"},{"name":"The Castle","lat":51.46837,"lon":-0.3246,"postcode":"TW7 7BN","la":"Hounslow","era":"other","nn":62,"risk":27,"cat":"green"},{"name":"The Cross Lances","lat":51.46434,"lon":-0.36473,"postcode":"TW3 3TU","la":"Hounslow","era":"trad","nn":206,"risk":28,"cat":"green"},{"name":"The George","lat":51.46594,"lon":-0.35947,"postcode":"TW3 1XH","la":"Hounslow","era":"trad","nn":198,"risk":28,"cat":"green"},{"name":"The Globe","lat":51.49052,"lon":-0.30976,"postcode":"TW8 9NA","la":"Hounslow","era":"other","nn":166,"risk":27,"cat":"green"},{"name":"The Green Man","lat":51.46542,"lon":-0.41619,"postcode":"TW14 0PZ","la":"Hounslow","era":"other","nn":845,"risk":52,"cat":"amber"},{"name":"The Griffin Pub","lat":51.48706,"lon":-0.30271,"postcode":"TW8 0NP","la":"Hounslow","era":"trad","nn":182,"risk":27,"cat":"green"},{"name":"The Hare and Hounds","lat":51.49165,"lon":-0.33925,"postcode":"TW7 5PR","la":"Hounslow","era":"trad","nn":367,"risk":31,"cat":"amber"},{"name":"The Honeycombe","lat":51.46399,"lon":-0.38504,"postcode":"TW4 5AR","la":"Hounslow","era":"other","nn":224,"risk":33,"cat":"amber"},{"name":"The Kings Arms","lat":51.48785,"lon":-0.31089,"postcode":"TW8 8EA","la":"Hounslow","era":"trad","nn":208,"risk":28,"cat":"green"},{"name":"The Load of Hay","lat":51.45466,"lon":-0.42583,"postcode":"TW14 9HD","la":"Hounslow","era":"other","nn":404,"risk":29,"cat":"green"},{"name":"The Lord Nelson","lat":51.49178,"lon":-0.30847,"postcode":"TW8 9NY","la":"Hounslow","era":"trad","nn":166,"risk":27,"cat":"green"},{"name":"The Magpie and Crown","lat":51.48271,"lon":-0.3091,"postcode":"TW8 8EW","la":"Hounslow","era":"trad","nn":106,"risk":27,"cat":"green"},{"name":"The Red Lion","lat":51.47353,"lon":-0.33395,"postcode":"TW7 6QJ","la":"Hounslow","era":"trad","nn":265,"risk":28,"cat":"green"},{"name":"The Rising Sun","lat":51.47585,"lon":-0.3318,"postcode":"TW7 5AQ","la":"Hounslow","era":"other","nn":278,"risk":28,"cat":"green"},{"name":"The Royal Horse Guardsmen","lat":51.48637,"lon":-0.30002,"postcode":"TW8 0JU","la":"Hounslow","era":"trad","nn":158,"risk":27,"cat":"green"},{"name":"The Swan Inn","lat":51.46888,"lon":-0.3242,"postcode":"TW7 6XA","la":"Hounslow","era":"trad","nn":62,"risk":27,"cat":"green"},{"name":"The Three Horseshoes","lat":51.43796,"lon":-0.42071,"postcode":"TW13 4PE","la":"Hounslow","era":"trad","nn":190,"risk":30,"cat":"green"},{"name":"The Victoria Tavern","lat":51.46439,"lon":-0.32771,"postcode":"TW7 7HU","la":"Hounslow","era":"trad","nn":493,"risk":30,"cat":"green"},{"name":"The Watermans Arms","lat":51.48477,"lon":-0.30138,"postcode":"TW8 0AW","la":"Hounslow","era":"trad","nn":89,"risk":27,"cat":"green"},{"name":"The Weir Bar & Dining Room","lat":51.48366,"lon":-0.30931,"postcode":"TW8 8EQ","la":"Hounslow","era":"mod","nn":106,"risk":27,"cat":"green"},{"name":"The White Bear","lat":51.47545,"lon":-0.36001,"postcode":"TW3 4AR","la":"Hounslow","era":"other","nn":345,"risk":29,"cat":"green"},{"name":"The Woodlands Tavern","lat":51.47305,"lon":-0.3377,"postcode":"TW7 6NY","la":"Hounslow","era":"other","nn":265,"risk":28,"cat":"green"},{"name":"Thistleworth Tennis Club","lat":51.48396,"lon":-0.3421,"postcode":"TW7 5LX","la":"Hounslow","era":"other","nn":510,"risk":30,"cat":"green"},{"name":"Wycombe House Cricket & Tennis","lat":51.48842,"lon":-0.34036,"postcode":"TW7 5PJ","la":"Hounslow","era":"mod","nn":264,"risk":30,"cat":"green"},{"name":"Be at One","lat":51.44727,"lon":-0.32733,"postcode":"TW1 3LJ","la":"Richmond upon Thames","era":"other","nn":48,"risk":26,"cat":"green"},{"name":"Be At One","lat":51.45757,"lon":-0.30505,"postcode":"TW10 6UH","la":"Richmond upon Thames","era":"other","nn":60,"risk":26,"cat":"green"},{"name":"Cambridge Park Bowling Club","lat":51.45367,"lon":-0.3113,"postcode":"TW1 2PG","la":"Richmond upon Thames","era":"other","nn":454,"risk":29,"cat":"green"},{"name":"Chalk","lat":51.46151,"lon":-0.3042,"postcode":"TW9 1HP","la":"Richmond upon Thames","era":"other","nn":85,"risk":26,"cat":"green"},{"name":"CTZN Brew","lat":51.44767,"lon":-0.32709,"postcode":"TW1 3JZ","la":"Richmond upon Thames","era":"other","nn":48,"risk":26,"cat":"green"},{"name":"David Lloyd Hampton","lat":51.43637,"lon":-0.37294,"postcode":"TW2 5JD","la":"Richmond upon Thames","era":"other","nn":938,"risk":52,"cat":"amber"},{"name":"Duke Of Cambridge","lat":51.45531,"lon":-0.35171,"postcode":"TW2 7DT","la":"Richmond upon Thames","era":"trad","nn":180,"risk":27,"cat":"green"},{"name":"Fulwell Golf Club Limited","lat":51.43217,"lon":-0.35275,"postcode":"TW12 1JY","la":"Richmond upon Thames","era":"other","nn":379,"risk":28,"cat":"green"},{"name":"Hampton and Richmond Football Club","lat":51.41396,"lon":-0.36343,"postcode":"TW12 2BX","la":"Richmond upon Thames","era":"other","nn":149,"risk":27,"cat":"green"},{"name":"Hampton Hill Cricket Club","lat":51.42585,"lon":-0.35612,"postcode":"TW12 1PA","la":"Richmond upon Thames","era":"other","nn":108,"risk":29,"cat":"green"},{"name":"Hampton Social Club","lat":51.4164,"lon":-0.37231,"postcode":"TW12 2JA","la":"Richmond upon Thames","era":"mod","nn":307,"risk":30,"cat":"green"},{"name":"HMO The Old Ship","lat":51.45996,"lon":-0.30695,"postcode":"TW9 1ND","la":"Richmond upon Thames","era":"trad","nn":59,"risk":26,"cat":"green"},{"name":"Levy UK at Harlequins RFC","lat":51.45076,"lon":-0.34323,"postcode":"TW2 7SX","la":"Richmond upon Thames","era":"other","nn":766,"risk":31,"cat":"amber"},{"name":"NPL Sports Club","lat":51.42127,"lon":-0.3356,"postcode":"TW11 0EL","la":"Richmond upon Thames","era":"other","nn":274,"risk":27,"cat":"green"},{"name":"One Kew Road","lat":51.46334,"lon":-0.3024,"postcode":"TW9 2NQ","la":"Richmond upon Thames","era":"other","nn":85,"risk":26,"cat":"green"},{"name":"Prince Albert","lat":51.44217,"lon":-0.34429,"postcode":"TW2 5QB","la":"Richmond upon Thames","era":"trad","nn":30,"risk":26,"cat":"green"},{"name":"Prince Of Wales","lat":51.43953,"lon":-0.34819,"postcode":"TW2 5QR","la":"Richmond upon Thames","era":"trad","nn":80,"risk":26,"cat":"green"},{"name":"Putney Town Rowing Club","lat":51.47572,"lon":-0.27796,"postcode":"TW9 4EN","la":"Richmond upon Thames","era":"other","nn":530,"risk":29,"cat":"green"},{"name":"Richmond Golf Club","lat":51.43949,"lon":-0.29739,"postcode":"TW10 7AT","la":"Richmond upon Thames","era":"other","nn":646,"risk":35,"cat":"amber"},{"name":"Rose of York","lat":51.45262,"lon":-0.30166,"postcode":"TW10 6UY","la":"Richmond upon Thames","era":"trad","nn":217,"risk":27,"cat":"green"},{"name":"Royal British Legion Club","lat":51.44197,"lon":-0.33317,"postcode":"TW1 4JT","la":"Richmond upon Thames","era":"trad","nn":397,"risk":28,"cat":"green"},{"name":"Royal British Legion Club Ltd","lat":51.42764,"lon":-0.32742,"postcode":"TW11 8HH","la":"Richmond upon Thames","era":"trad","nn":219,"risk":27,"cat":"green"},{"name":"Royal Mid Surrey Golf Club","lat":51.46697,"lon":-0.30701,"postcode":"TW9 2SB","la":"Richmond upon Thames","era":"trad","nn":462,"risk":29,"cat":"green"},{"name":"St Margaret's Tavern","lat":51.45418,"lon":-0.3178,"postcode":"TW1 2LJ","la":"Richmond upon Thames","era":"other","nn":337,"risk":28,"cat":"green"},{"name":"Stokes & Moncreiff","lat":51.44862,"lon":-0.32501,"postcode":"TW1 3AB","la":"Richmond upon Thames","era":"other","nn":179,"risk":27,"cat":"green"},{"name":"Strawberry Hill Golf Club","lat":51.43876,"lon":-0.33904,"postcode":"TW2 5SD","la":"Richmond upon Thames","era":"other","nn":525,"risk":29,"cat":"green"},{"name":"Tamesis Club","lat":51.42341,"lon":-0.30861,"postcode":"TW11 9QY","la":"Richmond upon Thames","era":"other","nn":536,"risk":34,"cat":"amber"},{"name":"Tap on the Line","lat":51.47729,"lon":-0.28518,"postcode":"TW9 3PZ","la":"Richmond upon Thames","era":"other","nn":530,"risk":29,"cat":"green"},{"name":"Tap Tavern","lat":51.46151,"lon":-0.3024,"postcode":"TW9 1ED","la":"Richmond upon Thames","era":"other","nn":118,"risk":26,"cat":"green"},{"name":"Teddington Constitutional Club","lat":51.42733,"lon":-0.3415,"postcode":"TW11 8TP","la":"Richmond upon Thames","era":"other","nn":180,"risk":27,"cat":"green"},{"name":"Thai @The Albert","lat":51.44198,"lon":-0.34458,"postcode":"TW2 5QB","la":"Richmond upon Thames","era":"other","nn":30,"risk":26,"cat":"green"},{"name":"Thames Young Mariners","lat":51.43778,"lon":-0.32676,"postcode":"TW10 7RX","la":"Richmond upon Thames","era":"other","nn":643,"risk":30,"cat":"green"},{"name":"The Abercorn Arms","lat":51.42882,"lon":-0.33833,"postcode":"TW11 8EY","la":"Richmond upon Thames","era":"trad","nn":237,"risk":27,"cat":"green"},{"name":"The Adelaide","lat":51.42365,"lon":-0.3346,"postcode":"TW11 0AU","la":"Richmond upon Thames","era":"other","nn":274,"risk":27,"cat":"green"},{"name":"The Admiral Nelson","lat":51.45307,"lon":-0.35825,"postcode":"TW2 7BB","la":"Richmond upon Thames","era":"trad","nn":180,"risk":29,"cat":"green"},{"name":"The Ailsa Tavern","lat":51.46034,"lon":-0.32308,"postcode":"TW1 1NJ","la":"Richmond upon Thames","era":"other","nn":437,"risk":29,"cat":"green"},{"name":"The Albany","lat":51.44904,"lon":-0.33241,"postcode":"TW1 4EZ","la":"Richmond upon Thames","era":"other","nn":171,"risk":27,"cat":"green"},{"name":"The Angel and Crown","lat":51.46051,"lon":-0.30413,"postcode":"TW9 1JL","la":"Richmond upon Thames","era":"trad","nn":79,"risk":26,"cat":"green"},{"name":"The Anglers","lat":51.42925,"lon":-0.32242,"postcode":"TW11 9NR","la":"Richmond upon Thames","era":"other","nn":93,"risk":26,"cat":"green"},{"name":"The Bell Inn","lat":51.41302,"lon":-0.36189,"postcode":"TW12 2EA","la":"Richmond upon Thames","era":"trad","nn":149,"risk":27,"cat":"green"},{"name":"The Bloomsbury","lat":51.44167,"lon":-0.35258,"postcode":"TW2 5BB","la":"Richmond upon Thames","era":"other","nn":312,"risk":28,"cat":"green"},{"name":"The Britannia","lat":51.46095,"lon":-0.30503,"postcode":"TW9 1HH","la":"Richmond upon Thames","era":"trad","nn":79,"risk":26,"cat":"green"},{"name":"The Cabbage Patch","lat":51.44881,"lon":-0.32997,"postcode":"TW1 3SZ","la":"Richmond upon Thames","era":"other","nn":61,"risk":26,"cat":"green"},{"name":"The Castlebar","lat":51.42734,"lon":-0.33054,"postcode":"TW11 8HA","la":"Richmond upon Thames","era":"other","nn":92,"risk":26,"cat":"green"},{"name":"The Coach And Horses","lat":51.48324,"lon":-0.28644,"postcode":"TW9 3BH","la":"Richmond upon Thames","era":"trad","nn":223,"risk":27,"cat":"green"},{"name":"The Cricketers","lat":51.4855,"lon":-0.28852,"postcode":"TW9 3AH","la":"Richmond upon Thames","era":"other","nn":170,"risk":27,"cat":"green"},{"name":"The Cricketers","lat":51.4604,"lon":-0.30772,"postcode":"TW9 1LX","la":"Richmond upon Thames","era":"other","nn":72,"risk":26,"cat":"green"},{"name":"The Crown","lat":51.46622,"lon":-0.29196,"postcode":"TW9 2JZ","la":"Richmond upon Thames","era":"trad","nn":351,"risk":28,"cat":"green"},{"name":"The Crown Inn","lat":51.45119,"lon":-0.31858,"postcode":"TW1 2NH","la":"Richmond upon Thames","era":"trad","nn":337,"risk":28,"cat":"green"},{"name":"The Duke Of Clarence","lat":51.42682,"lon":-0.35615,"postcode":"TW12 1NJ","la":"Richmond upon Thames","era":"trad","nn":108,"risk":29,"cat":"green"},{"name":"The Dukes Head","lat":51.45863,"lon":-0.29963,"postcode":"TW10 6AZ","la":"Richmond upon Thames","era":"trad","nn":327,"risk":28,"cat":"green"},{"name":"The Dysart Petersham","lat":51.44659,"lon":-0.30028,"postcode":"TW10 7AA","la":"Richmond upon Thames","era":"other","nn":235,"risk":27,"cat":"green"},{"name":"The Eel Pie","lat":51.447,"lon":-0.32657,"postcode":"TW1 3NJ","la":"Richmond upon Thames","era":"other","nn":22,"risk":26,"cat":"green"},{"name":"The Fountain Beefeater","lat":51.4389,"lon":-0.36003,"postcode":"TW2 5PE","la":"Richmond upon Thames","era":"other","nn":602,"risk":30,"cat":"green"},{"name":"The Fox","lat":51.44665,"lon":-0.32707,"postcode":"TW1 3NR","la":"Richmond upon Thames","era":"trad","nn":52,"risk":26,"cat":"green"},{"name":"The Fox & Duck","lat":51.44516,"lon":-0.30278,"postcode":"TW10 7AD","la":"Richmond upon Thames","era":"trad","nn":235,"risk":30,"cat":"green"},{"name":"The George","lat":51.4461,"lon":-0.32906,"postcode":"TW1 3SN","la":"Richmond upon Thames","era":"trad","nn":151,"risk":27,"cat":"green"},{"name":"The Greyhound","lat":51.48524,"lon":-0.2861,"postcode":"TW9 3AP","la":"Richmond upon Thames","era":"trad","nn":170,"risk":27,"cat":"green"},{"name":"The Hampton","lat":51.42599,"lon":-0.37719,"postcode":"TW12 3YH","la":"Richmond upon Thames","era":"other","nn":436,"risk":49,"cat":"amber"},{"name":"The Hogarth","lat":51.42587,"lon":-0.3368,"postcode":"TW11 8QY","la":"Richmond upon Thames","era":"other","nn":186,"risk":27,"cat":"green"},{"name":"The Marlborough","lat":51.45508,"lon":-0.29678,"postcode":"TW10 6NH","la":"Richmond upon Thames","era":"other","nn":315,"risk":28,"cat":"green"},{"name":"The Masons' Arms","lat":51.42675,"lon":-0.33908,"postcode":"TW11 8PJ","la":"Richmond upon Thames","era":"trad","nn":180,"risk":27,"cat":"green"},{"name":"The Mitre","lat":51.46308,"lon":-0.29157,"postcode":"TW9 1UY","la":"Richmond upon Thames","era":"other","nn":351,"risk":28,"cat":"green"},{"name":"The New Inn","lat":51.43623,"lon":-0.30511,"postcode":"TW10 7DB","la":"Richmond upon Thames","era":"trad","nn":646,"risk":50,"cat":"amber"},{"name":"The Orange Tree","lat":51.46428,"lon":-0.30163,"postcode":"TW9 2NQ","la":"Richmond upon Thames","era":"other","nn":38,"risk":26,"cat":"green"},{"name":"The Prince Albert","lat":51.45467,"lon":-0.35854,"postcode":"TW2 7EX","la":"Richmond upon Thames","era":"trad","nn":180,"risk":29,"cat":"green"},{"name":"The Princes Head","lat":51.46034,"lon":-0.30636,"postcode":"TW9 1LX","la":"Richmond upon Thames","era":"trad","nn":59,"risk":26,"cat":"green"},{"name":"The Railway Bell","lat":51.41539,"lon":-0.3682,"postcode":"TW12 2AP","la":"Richmond upon Thames","era":"trad","nn":98,"risk":29,"cat":"green"},{"name":"The Railway Tavern","lat":51.46258,"lon":-0.30239,"postcode":"TW9 1DN","la":"Richmond upon Thames","era":"trad","nn":85,"risk":26,"cat":"green"},{"name":"The Red Cow","lat":51.46173,"lon":-0.29681,"postcode":"TW9 1YJ","la":"Richmond upon Thames","era":"other","nn":48,"risk":26,"cat":"green"},{"name":"The Red Lion","lat":51.43088,"lon":-0.34513,"postcode":"TW11 8UD","la":"Richmond upon Thames","era":"trad","nn":468,"risk":29,"cat":"green"},{"name":"The Rifleman","lat":51.44013,"lon":-0.34882,"postcode":"TW2 5EL","la":"Richmond upon Thames","era":"other","nn":80,"risk":26,"cat":"green"},{"name":"The Roebuck","lat":51.45247,"lon":-0.29853,"postcode":"TW10 6RN","la":"Richmond upon Thames","era":"other","nn":217,"risk":27,"cat":"green"},{"name":"The Roebuck","lat":51.4288,"lon":-0.35196,"postcode":"TW12 1JN","la":"Richmond upon Thames","era":"other","nn":364,"risk":28,"cat":"green"},{"name":"The Royal Oak","lat":51.42327,"lon":-0.3817,"postcode":"TW12 3NR","la":"Richmond upon Thames","era":"trad","nn":436,"risk":49,"cat":"amber"},{"name":"The Shack 68","lat":51.44913,"lon":-0.32925,"postcode":"TW1 3QS","la":"Richmond upon Thames","era":"other","nn":61,"risk":26,"cat":"green"},{"name":"The Shaftesbury Arms","lat":51.4656,"lon":-0.29918,"postcode":"TW9 2PN","la":"Richmond upon Thames","era":"trad","nn":224,"risk":27,"cat":"green"},{"name":"The Sun Inn","lat":51.46414,"lon":-0.30213,"postcode":"TW9 2RG","la":"Richmond upon Thames","era":"trad","nn":38,"risk":26,"cat":"green"},{"name":"The Sussex Arms","lat":51.44407,"lon":-0.34586,"postcode":"TW2 5BG","la":"Richmond upon Thames","era":"trad","nn":238,"risk":27,"cat":"green"},{"name":"The Teddington Arms","lat":51.42703,"lon":-0.33176,"postcode":"TW11 8EW","la":"Richmond upon Thames","era":"trad","nn":92,"risk":26,"cat":"green"},{"name":"The Three Kings","lat":51.44545,"lon":-0.33186,"postcode":"TW1 4BZ","la":"Richmond upon Thames","era":"trad","nn":207,"risk":27,"cat":"green"},{"name":"The Tide End Cottage","lat":51.42943,"lon":-0.32373,"postcode":"TW11 9NN","la":"Richmond upon Thames","era":"other","nn":93,"risk":26,"cat":"green"},{"name":"The Turk's Head","lat":51.45641,"lon":-0.323,"postcode":"TW1 1LF","la":"Richmond upon Thames","era":"trad","nn":437,"risk":29,"cat":"green"},{"name":"The Twickenham Club","lat":51.4471,"lon":-0.3263,"postcode":"TW1 3NJ","la":"Richmond upon Thames","era":"other","nn":22,"risk":26,"cat":"green"},{"name":"The Victoria Inn","lat":51.45732,"lon":-0.30385,"postcode":"TW10 6UB","la":"Richmond upon Thames","era":"trad","nn":88,"risk":26,"cat":"green"},{"name":"The White Hart","lat":51.45564,"lon":-0.35426,"postcode":"TW2 7DY","la":"Richmond upon Thames","era":"trad","nn":180,"risk":27,"cat":"green"},{"name":"The White Horse","lat":51.46155,"lon":-0.29618,"postcode":"TW10 6DF","la":"Richmond upon Thames","era":"trad","nn":48,"risk":26,"cat":"green"},{"name":"The White Swan","lat":51.46127,"lon":-0.3112,"postcode":"TW9 1PG","la":"Richmond upon Thames","era":"trad","nn":260,"risk":27,"cat":"green"},{"name":"The Winning Post","lat":51.44731,"lon":-0.35636,"postcode":"TW2 6LS","la":"Richmond upon Thames","era":"trad","nn":654,"risk":30,"cat":"green"},{"name":"The Worlds End","lat":51.41514,"lon":-0.36685,"postcode":"TW12 2AX","la":"Richmond upon Thames","era":"other","nn":98,"risk":29,"cat":"green"},{"name":"Twickenham District Masonic Council","lat":51.45231,"lon":-0.32967,"postcode":"TW1 1HD","la":"Richmond upon Thames","era":"trad","nn":355,"risk":28,"cat":"green"},{"name":"Viva Club","lat":51.45802,"lon":-0.30552,"postcode":"TW10 6UQ","la":"Richmond upon Thames","era":"other","nn":60,"risk":26,"cat":"green"},{"name":"Waldegrave Arms","lat":51.43269,"lon":-0.339,"postcode":"TW11 8LX","la":"Richmond upon Thames","era":"trad","nn":433,"risk":29,"cat":"green"},{"name":"8 Bar 9 - Kingswood Hall Bar","lat":51.43686,"lon":-0.56313,"postcode":"TW20 0LG","la":"Runnymede","era":"other","nn":769,"risk":33,"cat":"amber"},{"name":"Armstrong Gun","lat":51.42934,"lon":-0.57025,"postcode":"TW20 0QX","la":"Runnymede","era":"trad","nn":164,"risk":29,"cat":"green"},{"name":"Egham Band Social Club","lat":51.42953,"lon":-0.5489,"postcode":"TW20 9LN","la":"Runnymede","era":"mod","nn":232,"risk":29,"cat":"green"},{"name":"Egham Constitutional Club","lat":51.43163,"lon":-0.54774,"postcode":"TW20 9HP","la":"Runnymede","era":"other","nn":55,"risk":28,"cat":"green"},{"name":"Egham Cricket Club","lat":51.42731,"lon":-0.53722,"postcode":"TW20 8NP","la":"Runnymede","era":"other","nn":376,"risk":30,"cat":"green"},{"name":"Egham Town Football Club Ltd","lat":51.42636,"lon":-0.53201,"postcode":"TW20 8HX","la":"Runnymede","era":"other","nn":156,"risk":46,"cat":"amber"},{"name":"Egham United Services Club","lat":51.4301,"lon":-0.55356,"postcode":"TW20 9PE","la":"Runnymede","era":"other","nn":196,"risk":29,"cat":"green"},{"name":"Medicine Bar","lat":51.42533,"lon":-0.56723,"postcode":"TW20 0EX","la":"Runnymede","era":"other","nn":326,"risk":30,"cat":"green"},{"name":"Rose & Crown","lat":51.4043,"lon":-0.54914,"postcode":"TW20 8QL","la":"Runnymede","era":"trad","nn":1102,"risk":58,"cat":"amber"},{"name":"Staines Boat Club","lat":51.431,"lon":-0.51377,"postcode":"TW18 3JN","la":"Runnymede","era":"other","nn":259,"risk":29,"cat":"green"},{"name":"The Bailiwick Freehouse","lat":51.42006,"lon":-0.58822,"postcode":"TW20 0HN","la":"Runnymede","era":"other","nn":1241,"risk":59,"cat":"amber"},{"name":"The Barley Mow","lat":51.43282,"lon":-0.57501,"postcode":"TW20 0NX","la":"Runnymede","era":"other","nn":419,"risk":30,"cat":"green"},{"name":"The Beehive","lat":51.43003,"lon":-0.56495,"postcode":"TW20 0JL","la":"Runnymede","era":"other","nn":236,"risk":29,"cat":"green"},{"name":"The Crown/K-Town/Chik Box/Locked and Loaded","lat":51.4316,"lon":-0.5493,"postcode":"TW20 9DP","la":"Runnymede","era":"trad","nn":71,"risk":28,"cat":"green"},{"name":"The Forresters Arms","lat":51.42831,"lon":-0.55177,"postcode":"TW20 9RP","la":"Runnymede","era":"trad","nn":235,"risk":29,"cat":"green"},{"name":"The Fox and Hounds","lat":51.43949,"lon":-0.59061,"postcode":"TW20 0XU","la":"Runnymede","era":"trad","nn":1312,"risk":59,"cat":"amber"},{"name":"The Happy Man","lat":51.42824,"lon":-0.56779,"postcode":"TW20 0QS","la":"Runnymede","era":"other","nn":210,"risk":29,"cat":"green"},{"name":"The Holly Tree","lat":51.42936,"lon":-0.57261,"postcode":"TW20 0DB","la":"Runnymede","era":"trad","nn":164,"risk":29,"cat":"green"},{"name":"The Kings Arms/ Sovrano Pizza","lat":51.4318,"lon":-0.55279,"postcode":"TW20 9EA","la":"Runnymede","era":"trad","nn":196,"risk":29,"cat":"green"},{"name":"The Packhorse","lat":51.42802,"lon":-0.5639,"postcode":"TW20 0BQ","la":"Runnymede","era":"trad","nn":236,"risk":29,"cat":"green"},{"name":"The Red Lion","lat":51.43191,"lon":-0.54839,"postcode":"TW20 9EW","la":"Runnymede","era":"trad","nn":55,"risk":28,"cat":"green"},{"name":"The Red Lion","lat":51.4083,"lon":-0.53331,"postcode":"TW20 8UE","la":"Runnymede","era":"trad","nn":1184,"risk":58,"cat":"amber"},{"name":"The Robin Hood","lat":51.42631,"lon":-0.52977,"postcode":"TW20 8HA","la":"Runnymede","era":"other","nn":156,"risk":46,"cat":"amber"},{"name":"The Swan Hotel","lat":51.43263,"lon":-0.51643,"postcode":"TW18 3JB","la":"Runnymede","era":"trad","nn":123,"risk":28,"cat":"green"},{"name":"The White Lion","lat":51.43351,"lon":-0.54234,"postcode":"TW20 9HQ","la":"Runnymede","era":"trad","nn":428,"risk":30,"cat":"green"},{"name":"Ashford Town Football Club","lat":51.45131,"lon":-0.46328,"postcode":"TW19 7BH","la":"Spelthorne","era":"other","nn":841,"risk":54,"cat":"amber"},{"name":"Five Bells","lat":51.45709,"lon":-0.47901,"postcode":"TW19 7JS","la":"Spelthorne","era":"other","nn":0,"risk":31,"cat":"amber"},{"name":"Hermanos Burgers At The White Horse PH","lat":51.40653,"lon":-0.40586,"postcode":"TW16 5QF","la":"Spelthorne","era":"trad","nn":0,"risk":28,"cat":"green"},{"name":"Jolly Butcher","lat":51.42737,"lon":-0.48881,"postcode":"TW18 1PE","la":"Spelthorne","era":"other","nn":853,"risk":52,"cat":"amber"},{"name":"Kings Fairway","lat":51.42926,"lon":-0.46778,"postcode":"TW15 2SS","la":"Spelthorne","era":"trad","nn":782,"risk":51,"cat":"amber"},{"name":"Kings Head","lat":51.43235,"lon":-0.45661,"postcode":"TW15 2EB","la":"Spelthorne","era":"trad","nn":490,"risk":49,"cat":"amber"},{"name":"London Stone","lat":51.43403,"lon":-0.51446,"postcode":"TW18 4EP","la":"Spelthorne","era":"other","nn":29,"risk":29,"cat":"green"},{"name":"London Stone - Kitchen","lat":51.43383,"lon":-0.51421,"postcode":"TW18 4EP","la":"Spelthorne","era":"mod","nn":29,"risk":29,"cat":"green"},{"name":"Magpie","lat":51.40598,"lon":-0.40688,"postcode":"TW16 6AF","la":"Spelthorne","era":"other","nn":0,"risk":28,"cat":"green"},{"name":"Northlands II Social Club","lat":51.45751,"lon":-0.47504,"postcode":"TW19 7JW","la":"Spelthorne","era":"mod","nn":279,"risk":33,"cat":"amber"},{"name":"Red Lion","lat":51.39021,"lon":-0.44397,"postcode":"TW17 9HX","la":"Spelthorne","era":"trad","nn":454,"risk":34,"cat":"amber"},{"name":"Royal British Legion Club","lat":51.41977,"lon":-0.42033,"postcode":"TW16 7AB","la":"Spelthorne","era":"trad","nn":426,"risk":31,"cat":"amber"},{"name":"Running Horse","lat":51.42831,"lon":-0.42224,"postcode":"TW16 7LB","la":"Spelthorne","era":"trad","nn":534,"risk":32,"cat":"amber"},{"name":"Shepperton Cricket Club","lat":51.38923,"lon":-0.45233,"postcode":"TW17 9JS","la":"Spelthorne","era":"other","nn":397,"risk":31,"cat":"amber"},{"name":"Shepperton Sports & Soc.","lat":51.39633,"lon":-0.44722,"postcode":"TW17 8AR","la":"Spelthorne","era":"other","nn":471,"risk":34,"cat":"amber"},{"name":"Slug & Lettuce/88th Street/Value Mighty/Sin City Burger","lat":51.43365,"lon":-0.51574,"postcode":"TW18 4BU","la":"Spelthorne","era":"other","nn":98,"risk":29,"cat":"green"},{"name":"Stanwell Moor Village Hall","lat":51.46165,"lon":-0.50073,"postcode":"TW19 6AE","la":"Spelthorne","era":"other","nn":57,"risk":49,"cat":"amber"},{"name":"Sunbury Conservative Club","lat":51.40761,"lon":-0.41457,"postcode":"TW16 6RA","la":"Spelthorne","era":"other","nn":88,"risk":29,"cat":"green"},{"name":"Sunbury Sports Assocation","lat":51.41085,"lon":-0.39283,"postcode":"TW16 5PS","la":"Spelthorne","era":"other","nn":1023,"risk":58,"cat":"amber"},{"name":"Thaibury Kitchen","lat":51.424,"lon":-0.41885,"postcode":"TW16 7QX","la":"Spelthorne","era":"mod","nn":0,"risk":28,"cat":"green"},{"name":"Thames Court Hotel","lat":51.38241,"lon":-0.45973,"postcode":"TW17 9LJ","la":"Spelthorne","era":"other","nn":160,"risk":30,"cat":"green"},{"name":"The Admiral Hawke","lat":51.40682,"lon":-0.41465,"postcode":"TW16 6RD","la":"Spelthorne","era":"other","nn":88,"risk":29,"cat":"green"},{"name":"The Anchor","lat":51.46182,"lon":-0.50151,"postcode":"TW19 6AQ","la":"Spelthorne","era":"trad","nn":57,"risk":49,"cat":"amber"},{"name":"The Barley Mow","lat":51.40342,"lon":-0.45832,"postcode":"TW17 0EE","la":"Spelthorne","era":"other","nn":811,"risk":54,"cat":"amber"},{"name":"The Beehive","lat":51.42922,"lon":-0.50689,"postcode":"TW18 2EP","la":"Spelthorne","era":"other","nn":516,"risk":32,"cat":"amber"},{"name":"The Bell Inn","lat":51.40063,"lon":-0.44752,"postcode":"TW17 8BT","la":"Spelthorne","era":"trad","nn":478,"risk":34,"cat":"amber"},{"name":"The Bells","lat":51.436,"lon":-0.51809,"postcode":"TW18 4ZB","la":"Spelthorne","era":"other","nn":308,"risk":31,"cat":"amber"},{"name":"The District Arms","lat":51.43153,"lon":-0.47846,"postcode":"TW15 3LQ","la":"Spelthorne","era":"trad","nn":782,"risk":51,"cat":"amber"},{"name":"The Flower Pot","lat":51.40423,"lon":-0.41204,"postcode":"TW16 6AA","la":"Spelthorne","era":"other","nn":154,"risk":29,"cat":"green"},{"name":"The Freeman Arms","lat":51.43299,"lon":-0.44961,"postcode":"TW15 1BS","la":"Spelthorne","era":"trad","nn":490,"risk":52,"cat":"amber"},{"name":"The George","lat":51.43384,"lon":-0.51287,"postcode":"TW18 4EE","la":"Spelthorne","era":"trad","nn":0,"risk":28,"cat":"green"},{"name":"The Goat - Stonehouse Pizza & Carvery","lat":51.40069,"lon":-0.43239,"postcode":"TW17 8RX","la":"Spelthorne","era":"mod","nn":1049,"risk":58,"cat":"amber"},{"name":"The Grey Horse","lat":51.41875,"lon":-0.41441,"postcode":"TW16 5AA","la":"Spelthorne","era":"trad","nn":426,"risk":34,"cat":"amber"},{"name":"The Grizzly Bear","lat":51.41317,"lon":-0.42561,"postcode":"TW16 6LU","la":"Spelthorne","era":"other","nn":820,"risk":39,"cat":"amber"},{"name":"The Hare And Hounds","lat":51.424,"lon":-0.41885,"postcode":"TW16 7QX","la":"Spelthorne","era":"trad","nn":0,"risk":28,"cat":"green"},{"name":"The Harrow Inn","lat":51.40894,"lon":-0.44419,"postcode":"TW17 0RJ","la":"Spelthorne","era":"trad","nn":953,"risk":55,"cat":"amber"},{"name":"The Old Red Lion","lat":51.4335,"lon":-0.49652,"postcode":"TW18 4PB","la":"Spelthorne","era":"trad","nn":445,"risk":34,"cat":"amber"},{"name":"The Phoenix","lat":51.40598,"lon":-0.40688,"postcode":"TW16 6AF","la":"Spelthorne","era":"other","nn":0,"risk":28,"cat":"green"},{"name":"The Retreat","lat":51.4195,"lon":-0.49741,"postcode":"TW18 2RT","la":"Spelthorne","era":"other","nn":776,"risk":54,"cat":"amber"},{"name":"The Sir John Gibson","lat":51.45121,"lon":-0.47542,"postcode":"TW19 7QT","la":"Spelthorne","era":"other","nn":700,"risk":36,"cat":"amber"},{"name":"The Star Kitchen","lat":51.43328,"lon":-0.50293,"postcode":"TW18 4NL","la":"Spelthorne","era":"mod","nn":313,"risk":31,"cat":"amber"},{"name":"The Swan Public House","lat":51.45709,"lon":-0.47901,"postcode":"TW19 7JS","la":"Spelthorne","era":"trad","nn":0,"risk":31,"cat":"amber"},{"name":"The Three Fishes","lat":51.40537,"lon":-0.41332,"postcode":"TW16 6RE","la":"Spelthorne","era":"other","nn":154,"risk":29,"cat":"green"},{"name":"The Three Horseshoes","lat":51.39235,"lon":-0.44954,"postcode":"TW17 9BL","la":"Spelthorne","era":"trad","nn":397,"risk":34,"cat":"amber"},{"name":"The Three Horseshoes","lat":51.40817,"lon":-0.48918,"postcode":"TW18 1SE","la":"Spelthorne","era":"trad","nn":276,"risk":48,"cat":"amber"},{"name":"The Turks Head","lat":51.41045,"lon":-0.48759,"postcode":"TW18 1SB","la":"Spelthorne","era":"trad","nn":276,"risk":48,"cat":"amber"},{"name":"The White Horse Public House","lat":51.40653,"lon":-0.40586,"postcode":"TW16 5QF","la":"Spelthorne","era":"trad","nn":0,"risk":28,"cat":"green"},{"name":"Three Tuns Public House","lat":51.43604,"lon":-0.50378,"postcode":"TW18 4BN","la":"Spelthorne","era":"other","nn":313,"risk":31,"cat":"amber"},{"name":"Turtle Bay","lat":51.43384,"lon":-0.51287,"postcode":"TW18 4EE","la":"Spelthorne","era":"other","nn":0,"risk":28,"cat":"green"},{"name":"Wheatsheaf & Pigeon","lat":51.42104,"lon":-0.50833,"postcode":"TW18 2LL","la":"Spelthorne","era":"trad","nn":776,"risk":51,"cat":"amber"},{"name":"Z's Kitchen LTD","lat":51.46016,"lon":-0.47771,"postcode":"TW19 7LB","la":"Spelthorne","era":"mod","nn":347,"risk":36,"cat":"amber"},{"name":"The George Steakhouse","lat":51.45719,"lon":-0.55908,"postcode":"TW19 5DE","la":"Windsor and Maidenhead","era":"trad","nn":171,"risk":45,"cat":"amber"},{"name":"The Perseverance","lat":51.45682,"lon":-0.55493,"postcode":"TW19 5DB","la":"Windsor and Maidenhead","era":"other","nn":183,"risk":45,"cat":"amber"},{"name":"Wraysbury Village Club","lat":51.45792,"lon":-0.5569,"postcode":"TW19 5NA","la":"Windsor and Maidenhead","era":"other","nn":171,"risk":45,"cat":"amber"}]