[{"name":"The Compasses Inn","lat":51.20449,"lon":1.00071,"postcode":"CT4 7ES","la":"Ashford","era":"trad","nn":3755,"risk":79,"cat":"red"},{"name":"The Tudor Peacock","lat":51.24396,"lon":0.9622,"postcode":"CT4 8BY","la":"Ashford","era":"other","nn":3158,"risk":75,"cat":"red"},{"name":"Alberrys Wine Bar","lat":51.27782,"lon":1.07883,"postcode":"CT1 2TY","la":"Canterbury","era":"other","nn":25,"risk":24,"cat":"green"},{"name":"Alberta Holiday Park Clubhouse","lat":51.34497,"lon":0.99079,"postcode":"CT5 4BJ","la":"Canterbury","era":"other","nn":0,"risk":43,"cat":"amber"},{"name":"Ales And Antiques","lat":51.3636,"lon":1.04394,"postcode":"CT5 2AN","la":"Canterbury","era":"other","nn":73,"risk":24,"cat":"green"},{"name":"Bar19","lat":51.37321,"lon":1.12034,"postcode":"CT6 5JN","la":"Canterbury","era":"other","nn":165,"risk":24,"cat":"green"},{"name":"Bell & Crown Public House","lat":51.28086,"lon":1.0812,"postcode":"CT1 2DZ","la":"Canterbury","era":"trad","nn":78,"risk":24,"cat":"green"},{"name":"Black Robin Inn","lat":51.21794,"lon":1.15123,"postcode":"CT4 6HS","la":"Canterbury","era":"trad","nn":1669,"risk":58,"cat":"amber"},{"name":"Bouncing Barrel","lat":51.37169,"lon":1.13051,"postcode":"CT6 5EA","la":"Canterbury","era":"other","nn":48,"risk":24,"cat":"green"},{"name":"Bramleys","lat":51.28046,"lon":1.08028,"postcode":"CT1 2JA","la":"Canterbury","era":"trad","nn":0,"risk":23,"cat":"green"},{"name":"British Legion Social Centre","lat":51.35499,"lon":1.02551,"postcode":"CT5 1DA","la":"Canterbury","era":"mod","nn":40,"risk":24,"cat":"green"},{"name":"Butcher's Arms","lat":51.35036,"lon":1.13348,"postcode":"CT6 7HL","la":"Canterbury","era":"trad","nn":15,"risk":41,"cat":"amber"},{"name":"Cains Pier Arcade","lat":51.37175,"lon":1.11985,"postcode":"CT6 8SS","la":"Canterbury","era":"other","nn":133,"risk":24,"cat":"green"},{"name":"Canterbury Bowling Club","lat":51.26732,"lon":1.08385,"postcode":"CT1 3LJ","la":"Canterbury","era":"other","nn":624,"risk":28,"cat":"green"},{"name":"Canterbury Conservative Club","lat":51.27828,"lon":1.07906,"postcode":"CT1 2TG","la":"Canterbury","era":"other","nn":54,"risk":24,"cat":"green"},{"name":"Canterbury Tales","lat":51.2807,"lon":1.07871,"postcode":"CT1 2AS","la":"Canterbury","era":"other","nn":36,"risk":24,"cat":"green"},{"name":"Chestfield Cricket Club","lat":51.35187,"lon":1.06304,"postcode":"CT5 3LX","la":"Canterbury","era":"other","nn":460,"risk":32,"cat":"amber"},{"name":"Chestfield Womens Institute","lat":51.35583,"lon":1.06496,"postcode":"CT5 3LD","la":"Canterbury","era":"other","nn":300,"risk":25,"cat":"green"},{"name":"Chislet Colliery Welfare Club","lat":51.31479,"lon":1.158,"postcode":"CT3 4HX","la":"Canterbury","era":"other","nn":0,"risk":43,"cat":"amber"},{"name":"Club Chemistry","lat":51.27434,"lon":1.07692,"postcode":"CT1 2RB","la":"Canterbury","era":"other","nn":89,"risk":24,"cat":"green"},{"name":"Divers Arms","lat":51.3728,"lon":1.12696,"postcode":"CT6 5JQ","la":"Canterbury","era":"trad","nn":48,"risk":24,"cat":"green"},{"name":"Dolphin","lat":51.28265,"lon":1.08173,"postcode":"CT1 2AA","la":"Canterbury","era":"other","nn":71,"risk":24,"cat":"green"},{"name":"East Station Snooker Club","lat":51.27453,"lon":1.07567,"postcode":"CT1 2RB","la":"Canterbury","era":"other","nn":89,"risk":24,"cat":"green"},{"name":"Eight Bells","lat":51.28338,"lon":1.06838,"postcode":"CT2 8LN","la":"Canterbury","era":"other","nn":199,"risk":25,"cat":"green"},{"name":"Evenhill House","lat":51.2759,"lon":1.1587,"postcode":"CT3 1TA","la":"Canterbury","era":"other","nn":1730,"risk":58,"cat":"amber"},{"name":"Falstaff Hotel","lat":51.28196,"lon":1.07518,"postcode":"CT2 8AF","la":"Canterbury","era":"other","nn":29,"risk":24,"cat":"green"},{"name":"Grove Ferry Inn","lat":51.32297,"lon":1.20945,"postcode":"CT3 4BP","la":"Canterbury","era":"trad","nn":2326,"risk":62,"cat":"red"},{"name":"Hampton Pier Yacht Club","lat":51.37201,"lon":1.10413,"postcode":"CT6 8EP","la":"Canterbury","era":"other","nn":0,"risk":23,"cat":"green"},{"name":"Harbour Garden Cafe & Burger Buoys","lat":51.36332,"lon":1.02609,"postcode":"CT5 1AB","la":"Canterbury","era":"other","nn":111,"risk":24,"cat":"green"},{"name":"Herne Bay Amateur Rowing Club","lat":51.37201,"lon":1.10413,"postcode":"CT6 8EP","la":"Canterbury","era":"other","nn":0,"risk":23,"cat":"green"},{"name":"Herne Bay Angling Association","lat":51.37285,"lon":1.12766,"postcode":"CT6 5JG","la":"Canterbury","era":"other","nn":48,"risk":24,"cat":"green"},{"name":"Herne Bay Blind Club","lat":51.36977,"lon":1.12883,"postcode":"CT6 5BP","la":"Canterbury","era":"other","nn":133,"risk":24,"cat":"green"},{"name":"Herne Bay Bowling Club","lat":51.36607,"lon":1.1245,"postcode":"CT6 5QN","la":"Canterbury","era":"other","nn":320,"risk":26,"cat":"green"},{"name":"Herne Bay Catholic Social Club","lat":51.36985,"lon":1.11537,"postcode":"CT6 8TH","la":"Canterbury","era":"mod","nn":149,"risk":24,"cat":"green"},{"name":"Herne Bay Constitutional Club Ltd","lat":51.3715,"lon":1.12754,"postcode":"CT6 5LA","la":"Canterbury","era":"other","nn":77,"risk":24,"cat":"green"},{"name":"Herne Bay Ex-Service Men's Club And Inst","lat":51.37097,"lon":1.12874,"postcode":"CT6 5NR","la":"Canterbury","era":"other","nn":101,"risk":24,"cat":"green"},{"name":"Herne Bay Little Theatre","lat":51.36893,"lon":1.11691,"postcode":"CT6 8UH","la":"Canterbury","era":"other","nn":149,"risk":24,"cat":"green"},{"name":"Herne Bay Sailing Club","lat":51.37283,"lon":1.13517,"postcode":"CT6 5HU","la":"Canterbury","era":"other","nn":146,"risk":24,"cat":"green"},{"name":"Heron Angling Society","lat":51.37201,"lon":1.10413,"postcode":"CT6 8EP","la":"Canterbury","era":"mod","nn":0,"risk":23,"cat":"green"},{"name":"Hnca Lunch Club","lat":51.31479,"lon":1.158,"postcode":"CT3 4HX","la":"Canterbury","era":"other","nn":0,"risk":43,"cat":"amber"},{"name":"Homing Club House Ltd","lat":51.34091,"lon":1.00428,"postcode":"CT5 4BU","la":"Canterbury","era":"mod","nn":1040,"risk":53,"cat":"amber"},{"name":"Houdini's Magic Bar","lat":51.28028,"lon":1.07819,"postcode":"CT1 2AT","la":"Canterbury","era":"other","nn":60,"risk":24,"cat":"green"},{"name":"K Bar","lat":51.295,"lon":1.06561,"postcode":"CT2 7NP","la":"Canterbury","era":"other","nn":144,"risk":29,"cat":"green"},{"name":"Kent & Canterbury Club","lat":51.27533,"lon":1.08238,"postcode":"CT1 3JB","la":"Canterbury","era":"other","nn":182,"risk":25,"cat":"green"},{"name":"King Ethelbert Inn","lat":51.37896,"lon":1.19816,"postcode":"CT6 6SU","la":"Canterbury","era":"trad","nn":3344,"risk":69,"cat":"red"},{"name":"Labour Club","lat":51.35442,"lon":1.02671,"postcode":"CT5 1QP","la":"Canterbury","era":"other","nn":55,"risk":24,"cat":"green"},{"name":"Lazy Lobster","lat":51.36077,"lon":1.02392,"postcode":"CT5 1AN","la":"Canterbury","era":"other","nn":61,"risk":24,"cat":"green"},{"name":"Limes Lounge","lat":51.27641,"lon":1.07547,"postcode":"CT1 2PN","la":"Canterbury","era":"mod","nn":122,"risk":24,"cat":"green"},{"name":"Loft Bar","lat":51.27761,"lon":1.07898,"postcode":"CT1 2TP","la":"Canterbury","era":"other","nn":25,"risk":24,"cat":"green"},{"name":"Masonic Temple","lat":51.36885,"lon":1.13382,"postcode":"CT6 6DL","la":"Canterbury","era":"trad","nn":296,"risk":25,"cat":"green"},{"name":"Matches Sports Bar & Social Canterbury","lat":51.27872,"lon":1.08163,"postcode":"CT1 2JR","la":"Canterbury","era":"mod","nn":16,"risk":23,"cat":"green"},{"name":"Millers Arms","lat":51.28255,"lon":1.08315,"postcode":"CT1 2AA","la":"Canterbury","era":"trad","nn":41,"risk":24,"cat":"green"},{"name":"New Inn","lat":51.36157,"lon":1.02666,"postcode":"CT5 1HG","la":"Canterbury","era":"trad","nn":27,"risk":24,"cat":"green"},{"name":"Old Buttermarket","lat":51.27889,"lon":1.08124,"postcode":"CT1 2HW","la":"Canterbury","era":"other","nn":18,"risk":23,"cat":"green"},{"name":"Parkerville","lat":51.37148,"lon":1.13311,"postcode":"CT6 5AD","la":"Canterbury","era":"other","nn":60,"risk":24,"cat":"green"},{"name":"Pegasus Tap Room Limited","lat":51.28192,"lon":1.0746,"postcode":"CT2 8AD","la":"Canterbury","era":"mod","nn":41,"risk":24,"cat":"green"},{"name":"Penny Theatre /88th Street /Value Mighty / Sin City Burger","lat":51.28377,"lon":1.08593,"postcode":"CT1 1BL","la":"Canterbury","era":"other","nn":103,"risk":24,"cat":"green"},{"name":"Polo Farm Sports Club","lat":51.27885,"lon":1.12748,"postcode":"CT3 4AF","la":"Canterbury","era":"other","nn":1876,"risk":59,"cat":"amber"},{"name":"Porto Wine Bar","lat":51.36167,"lon":1.02545,"postcode":"CT5 1AG","la":"Canterbury","era":"other","nn":26,"risk":24,"cat":"green"},{"name":"Prince Of Wales","lat":51.37202,"lon":1.13308,"postcode":"CT6 5DS","la":"Canterbury","era":"trad","nn":60,"risk":24,"cat":"green"},{"name":"Prince Of Wales - Hoath","lat":51.33899,"lon":1.15854,"postcode":"CT3 4LN","la":"Canterbury","era":"trad","nn":2061,"risk":60,"cat":"amber"},{"name":"Prince Of Wales Youth Club","lat":51.28528,"lon":1.09541,"postcode":"CT1 1YX","la":"Canterbury","era":"trad","nn":680,"risk":28,"cat":"green"},{"name":"Rising Sun","lat":51.36897,"lon":1.15271,"postcode":"CT6 6ND","la":"Canterbury","era":"other","nn":47,"risk":44,"cat":"amber"},{"name":"Seasalter Sailing Club","lat":51.34586,"lon":0.9695,"postcode":"CT5 4BW","la":"Canterbury","era":"other","nn":771,"risk":49,"cat":"amber"},{"name":"Seven Stars","lat":51.28002,"lon":1.08027,"postcode":"CT1 2JA","la":"Canterbury","era":"other","nn":33,"risk":24,"cat":"green"},{"name":"Ship Centurion","lat":51.35731,"lon":1.02495,"postcode":"CT5 1AY","la":"Canterbury","era":"trad","nn":36,"risk":24,"cat":"green"},{"name":"Smugglers Inn","lat":51.35045,"lon":1.13331,"postcode":"CT6 7AN","la":"Canterbury","era":"trad","nn":15,"risk":41,"cat":"amber"},{"name":"South Quay Shed","lat":51.36278,"lon":1.02744,"postcode":"CT5 1AB","la":"Canterbury","era":"other","nn":111,"risk":24,"cat":"green"},{"name":"Swalecliffe & Chestfield Community Association","lat":51.36187,"lon":1.06749,"postcode":"CT5 2QU","la":"Canterbury","era":"other","nn":148,"risk":24,"cat":"green"},{"name":"Tankerton Bay Sailing Club","lat":51.36449,"lon":1.04031,"postcode":"CT5 2BG","la":"Canterbury","era":"other","nn":271,"risk":25,"cat":"green"},{"name":"The Artichoke","lat":51.25412,"lon":1.02046,"postcode":"CT4 7JQ","la":"Canterbury","era":"other","nn":618,"risk":48,"cat":"amber"},{"name":"The Ballroom / Churros Frescos","lat":51.28046,"lon":1.08028,"postcode":"CT1 2JA","la":"Canterbury","era":"other","nn":0,"risk":23,"cat":"green"},{"name":"The Bishops Finger","lat":51.2822,"lon":1.07502,"postcode":"CT2 8AF","la":"Canterbury","era":"trad","nn":29,"risk":24,"cat":"green"},{"name":"The Black Griffin","lat":51.28086,"lon":1.07665,"postcode":"CT1 2BG","la":"Canterbury","era":"trad","nn":44,"risk":24,"cat":"green"},{"name":"The Brickfield Micropub","lat":51.36104,"lon":1.06582,"postcode":"CT5 2LX","la":"Canterbury","era":"other","nn":148,"risk":24,"cat":"green"},{"name":"The Bridge Arms","lat":51.24618,"lon":1.12554,"postcode":"CT4 5LA","la":"Canterbury","era":"trad","nn":139,"risk":44,"cat":"amber"},{"name":"The Carpenters Arms","lat":51.28037,"lon":1.07621,"postcode":"CT1 2DE","la":"Canterbury","era":"trad","nn":63,"risk":24,"cat":"green"},{"name":"The Cherry Tree","lat":51.27917,"lon":1.07905,"postcode":"CT1 2RU","la":"Canterbury","era":"other","nn":76,"risk":24,"cat":"green"},{"name":"The City Arms Inn","lat":51.27873,"lon":1.08126,"postcode":"CT1 2JR","la":"Canterbury","era":"trad","nn":12,"risk":23,"cat":"green"},{"name":"The Coach And Horses","lat":51.35557,"lon":1.02489,"postcode":"CT5 1DB","la":"Canterbury","era":"trad","nn":78,"risk":24,"cat":"green"},{"name":"The Copper Pottle","lat":51.36859,"lon":1.15246,"postcode":"CT6 6ND","la":"Canterbury","era":"other","nn":47,"risk":44,"cat":"amber"},{"name":"The Cricketers","lat":51.28081,"lon":1.07741,"postcode":"CT1 2BQ","la":"Canterbury","era":"other","nn":19,"risk":23,"cat":"green"},{"name":"The Curious Cat","lat":51.34428,"lon":1.12496,"postcode":"CT6 7JU","la":"Canterbury","era":"other","nn":898,"risk":47,"cat":"amber"},{"name":"The Druids Head","lat":51.37126,"lon":1.13051,"postcode":"CT6 5AP","la":"Canterbury","era":"trad","nn":48,"risk":24,"cat":"green"},{"name":"The Duke Of Cumberland","lat":51.36018,"lon":1.02397,"postcode":"CT5 1BQ","la":"Canterbury","era":"trad","nn":46,"risk":24,"cat":"green"},{"name":"The Duke William","lat":51.27834,"lon":1.18327,"postcode":"CT3 1QP","la":"Canterbury","era":"trad","nn":753,"risk":49,"cat":"amber"},{"name":"The East Kent","lat":51.35477,"lon":1.02505,"postcode":"CT5 1DA","la":"Canterbury","era":"other","nn":40,"risk":24,"cat":"green"},{"name":"The Fig Wine Bar Ltd","lat":51.28026,"lon":1.07998,"postcode":"CT1 2JA","la":"Canterbury","era":"mod","nn":17,"risk":23,"cat":"green"},{"name":"The Firkin Frog","lat":51.37092,"lon":1.12123,"postcode":"CT6 5QA","la":"Canterbury","era":"other","nn":25,"risk":24,"cat":"green"},{"name":"The Fordwich Arms","lat":51.2957,"lon":1.12621,"postcode":"CT2 0DB","la":"Canterbury","era":"trad","nn":0,"risk":43,"cat":"amber"},{"name":"The Foundry Brew Pub","lat":51.27875,"lon":1.07819,"postcode":"CT1 2NR","la":"Canterbury","era":"mod","nn":76,"risk":24,"cat":"green"},{"name":"The Fountain","lat":51.36135,"lon":1.02649,"postcode":"CT5 1HW","la":"Canterbury","era":"other","nn":27,"risk":24,"cat":"green"},{"name":"The Four Fathoms","lat":51.371,"lon":1.12157,"postcode":"CT6 5LH","la":"Canterbury","era":"other","nn":25,"risk":24,"cat":"green"},{"name":"The Gate Inn","lat":51.34539,"lon":1.18736,"postcode":"CT3 4EB","la":"Canterbury","era":"trad","nn":2125,"risk":61,"cat":"red"},{"name":"The George And Dragon","lat":51.2957,"lon":1.12621,"postcode":"CT2 0DB","la":"Canterbury","era":"trad","nn":0,"risk":43,"cat":"amber"},{"name":"The Golden Lion","lat":51.31257,"lon":1.10633,"postcode":"CT2 0QJ","la":"Canterbury","era":"trad","nn":2330,"risk":62,"cat":"red"},{"name":"The Granville","lat":51.24038,"lon":1.07464,"postcode":"CT4 7AL","la":"Canterbury","era":"other","nn":3063,"risk":67,"cat":"red"},{"name":"The Hampton Inn","lat":51.37192,"lon":1.09921,"postcode":"CT6 8DL","la":"Canterbury","era":"trad","nn":342,"risk":31,"cat":"amber"},{"name":"The Handsome Sam","lat":51.35435,"lon":1.02593,"postcode":"CT5 4HJ","la":"Canterbury","era":"other","nn":55,"risk":24,"cat":"green"},{"name":"The Hare At Blean","lat":51.30215,"lon":1.0471,"postcode":"CT2 9EF","la":"Canterbury","era":"other","nn":1251,"risk":55,"cat":"amber"},{"name":"The Haywain","lat":51.26701,"lon":1.18992,"postcode":"CT3 1NB","la":"Canterbury","era":"other","nn":1341,"risk":55,"cat":"amber"},{"name":"The Heron","lat":51.36586,"lon":1.1199,"postcode":"CT6 5QJ","la":"Canterbury","era":"other","nn":320,"risk":26,"cat":"green"},{"name":"The Huntsman And Horn","lat":51.3575,"lon":1.15721,"postcode":"CT6 7AF","la":"Canterbury","era":"other","nn":1276,"risk":55,"cat":"amber"},{"name":"The Kings School Recreation Centre","lat":51.28479,"lon":1.07973,"postcode":"CT2 7HU","la":"Canterbury","era":"trad","nn":275,"risk":25,"cat":"green"},{"name":"The Lady Luck","lat":51.28096,"lon":1.07726,"postcode":"CT1 2BQ","la":"Canterbury","era":"other","nn":19,"risk":23,"cat":"green"},{"name":"The Local","lat":51.24857,"lon":1.02091,"postcode":"CT4 7PT","la":"Canterbury","era":"other","nn":618,"risk":48,"cat":"amber"},{"name":"The Maidens Head","lat":51.27444,"lon":1.07306,"postcode":"CT1 3QZ","la":"Canterbury","era":"trad","nn":182,"risk":25,"cat":"green"},{"name":"The Marlowe Theatre","lat":51.28069,"lon":1.07923,"postcode":"CT1 2AS","la":"Canterbury","era":"other","nn":36,"risk":24,"cat":"green"},{"name":"The Mermaid Inn","lat":51.22947,"lon":1.1359,"postcode":"CT4 5HX","la":"Canterbury","era":"trad","nn":1669,"risk":58,"cat":"amber"},{"name":"The Monument","lat":51.35636,"lon":1.0403,"postcode":"CT5 1PH","la":"Canterbury","era":"other","nn":822,"risk":29,"cat":"green"},{"name":"The Monument","lat":51.28403,"lon":1.07105,"postcode":"CT2 8BZ","la":"Canterbury","era":"other","nn":198,"risk":25,"cat":"green"},{"name":"The New Inn","lat":51.28069,"lon":1.0872,"postcode":"CT1 1NP","la":"Canterbury","era":"trad","nn":326,"risk":26,"cat":"green"},{"name":"The Old City Bar","lat":51.27504,"lon":1.08495,"postcode":"CT1 3HJ","la":"Canterbury","era":"other","nn":97,"risk":24,"cat":"green"},{"name":"The Old Coach And Horses","lat":51.28289,"lon":1.05427,"postcode":"CT2 9AB","la":"Canterbury","era":"trad","nn":982,"risk":50,"cat":"amber"},{"name":"The Old Gate Inn","lat":51.26195,"lon":1.10312,"postcode":"CT1 3EL","la":"Canterbury","era":"trad","nn":1467,"risk":56,"cat":"amber"},{"name":"The Old Neptune","lat":51.35843,"lon":1.02002,"postcode":"CT5 1EJ","la":"Canterbury","era":"other","nn":260,"risk":25,"cat":"green"},{"name":"The Oyster Bed","lat":51.35957,"lon":1.0621,"postcode":"CT5 3JE","la":"Canterbury","era":"other","nn":168,"risk":25,"cat":"green"},{"name":"The Oyster Pearl Pub And Restaurant Ltd","lat":51.34497,"lon":0.99079,"postcode":"CT5 4BJ","la":"Canterbury","era":"other","nn":0,"risk":43,"cat":"amber"},{"name":"The Parrot","lat":51.28236,"lon":1.08264,"postcode":"CT1 2AG","la":"Canterbury","era":"other","nn":41,"risk":24,"cat":"green"},{"name":"The Pearsons Arms","lat":51.3605,"lon":1.02316,"postcode":"CT5 1BT","la":"Canterbury","era":"trad","nn":61,"risk":24,"cat":"green"},{"name":"The Peter Cushing","lat":51.35654,"lon":1.02412,"postcode":"CT5 1DD","la":"Canterbury","era":"other","nn":30,"risk":24,"cat":"green"},{"name":"The Phoenix","lat":51.27272,"lon":1.08623,"postcode":"CT1 3DB","la":"Canterbury","era":"other","nn":273,"risk":25,"cat":"green"},{"name":"The Playhouse","lat":51.35754,"lon":1.02459,"postcode":"CT5 1AZ","la":"Canterbury","era":"other","nn":22,"risk":23,"cat":"green"},{"name":"The Plough","lat":51.36428,"lon":1.07275,"postcode":"CT5 2RN","la":"Canterbury","era":"trad","nn":454,"risk":29,"cat":"green"},{"name":"The Quayside","lat":51.36178,"lon":1.02577,"postcode":"CT5 1AG","la":"Canterbury","era":"other","nn":26,"risk":24,"cat":"green"},{"name":"The Red Lion Inn","lat":51.24515,"lon":1.12669,"postcode":"CT4 5LB","la":"Canterbury","era":"trad","nn":139,"risk":44,"cat":"amber"},{"name":"The Red Lion Public House","lat":51.30069,"lon":1.18223,"postcode":"CT3 4BA","la":"Canterbury","era":"trad","nn":1734,"risk":58,"cat":"amber"},{"name":"The Rock Lodge","lat":51.35654,"lon":1.02455,"postcode":"CT5 1DB","la":"Canterbury","era":"other","nn":30,"risk":24,"cat":"green"},{"name":"The Rose In Bloom","lat":51.34992,"lon":1.01107,"postcode":"CT5 4DD","la":"Canterbury","era":"trad","nn":897,"risk":50,"cat":"amber"},{"name":"The Rose Inn","lat":51.37207,"lon":1.12952,"postcode":"CT6 5ER","la":"Canterbury","era":"trad","nn":56,"risk":24,"cat":"green"},{"name":"The Rose Inn","lat":51.28511,"lon":1.18347,"postcode":"CT3 1RQ","la":"Canterbury","era":"trad","nn":753,"risk":49,"cat":"amber"},{"name":"The Royal","lat":51.36446,"lon":1.05007,"postcode":"CT5 2BB","la":"Canterbury","era":"trad","nn":372,"risk":28,"cat":"green"},{"name":"The Royal Naval Reserve","lat":51.35978,"lon":1.0241,"postcode":"CT5 1BQ","la":"Canterbury","era":"trad","nn":46,"risk":24,"cat":"green"},{"name":"The Royal Oak","lat":51.31146,"lon":1.037,"postcode":"CT2 9JJ","la":"Canterbury","era":"trad","nn":1251,"risk":55,"cat":"amber"},{"name":"The Shakespeare","lat":51.27877,"lon":1.08142,"postcode":"CT1 2JR","la":"Canterbury","era":"other","nn":12,"risk":23,"cat":"green"},{"name":"The Ship Inn","lat":51.37286,"lon":1.13307,"postcode":"CT6 5HT","la":"Canterbury","era":"trad","nn":94,"risk":24,"cat":"green"},{"name":"The Smack Inn","lat":51.3593,"lon":1.0235,"postcode":"CT5 1BJ","la":"Canterbury","era":"trad","nn":68,"risk":24,"cat":"green"},{"name":"The Tankerton Arms","lat":51.36401,"lon":1.04477,"postcode":"CT5 2AW","la":"Canterbury","era":"trad","nn":73,"risk":24,"cat":"green"},{"name":"The Thomas Tallis","lat":51.28321,"lon":1.08474,"postcode":"CT1 1BE","la":"Canterbury","era":"other","nn":103,"risk":24,"cat":"green"},{"name":"The Twelve Taps","lat":51.35773,"lon":1.02453,"postcode":"CT5 1AZ","la":"Canterbury","era":"mod","nn":22,"risk":23,"cat":"green"},{"name":"The Two Brewers","lat":51.35234,"lon":1.0234,"postcode":"CT5 4HD","la":"Canterbury","era":"other","nn":285,"risk":25,"cat":"green"},{"name":"The Two Sawyers","lat":51.19796,"lon":1.20215,"postcode":"CT4 6SE","la":"Canterbury","era":"other","nn":3960,"risk":74,"cat":"red"},{"name":"The Venue University","lat":51.29585,"lon":1.06717,"postcode":"CT2 7UL","la":"Canterbury","era":"other","nn":144,"risk":29,"cat":"green"},{"name":"The Westgate Inn","lat":51.28208,"lon":1.0756,"postcode":"CT2 7EB","la":"Canterbury","era":"trad","nn":32,"risk":24,"cat":"green"},{"name":"The Wine Bar","lat":51.37206,"lon":1.12819,"postcode":"CT6 5PR","la":"Canterbury","era":"other","nn":77,"risk":24,"cat":"green"},{"name":"Thomas Becket","lat":51.28029,"lon":1.07974,"postcode":"CT1 2JB","la":"Canterbury","era":"other","nn":17,"risk":23,"cat":"green"},{"name":"Thomas Ingoldsby","lat":51.27832,"lon":1.08446,"postcode":"CT1 2HG","la":"Canterbury","era":"other","nn":187,"risk":25,"cat":"green"},{"name":"Three Tuns","lat":51.27744,"lon":1.07826,"postcode":"CT1 2UD","la":"Canterbury","era":"other","nn":53,"risk":24,"cat":"green"},{"name":"Tokyo Tea Rooms","lat":51.27586,"lon":1.08541,"postcode":"CT1 1UT","la":"Canterbury","era":"mod","nn":97,"risk":24,"cat":"green"},{"name":"Two Sawyers","lat":51.27694,"lon":1.086,"postcode":"CT1 1TU","la":"Canterbury","era":"other","nn":126,"risk":24,"cat":"green"},{"name":"Tylers Kiln Canterbury","lat":51.3072,"lon":1.06969,"postcode":"CT2 9NE","la":"Canterbury","era":"other","nn":971,"risk":50,"cat":"amber"},{"name":"Unicorn Inn","lat":51.28265,"lon":1.07287,"postcode":"CT2 8BS","la":"Canterbury","era":"trad","nn":145,"risk":24,"cat":"green"},{"name":"Vivid Night Club","lat":51.37159,"lon":1.12979,"postcode":"CT6 5AQ","la":"Canterbury","era":"other","nn":51,"risk":24,"cat":"green"},{"name":"Waterfront Bar And Venue","lat":51.36429,"lon":1.03178,"postcode":"CT5 2BP","la":"Canterbury","era":"mod","nn":109,"risk":24,"cat":"green"},{"name":"Westgate Community Trust Canterbury Ltd","lat":51.28127,"lon":1.0776,"postcode":"CT1 2BT","la":"Canterbury","era":"other","nn":42,"risk":24,"cat":"green"},{"name":"White Hart Inn","lat":51.27549,"lon":1.07644,"postcode":"CT1 2QX","la":"Canterbury","era":"trad","nn":119,"risk":24,"cat":"green"},{"name":"Whitstable Bowling Club","lat":51.36433,"lon":1.03476,"postcode":"CT5 2BW","la":"Canterbury","era":"other","nn":207,"risk":25,"cat":"green"},{"name":"Whitstable Cricket Club","lat":51.35474,"lon":1.02874,"postcode":"CT5 1QJ","la":"Canterbury","era":"other","nn":146,"risk":24,"cat":"green"},{"name":"Whitstable Rugby Football Club","lat":51.3584,"lon":1.06365,"postcode":"CT5 3QS","la":"Canterbury","era":"other","nn":168,"risk":25,"cat":"green"},{"name":"Whitstable Yacht Club","lat":51.36218,"lon":1.02527,"postcode":"CT5 1BX","la":"Canterbury","era":"other","nn":57,"risk":24,"cat":"green"},{"name":"Whitstable Youth & Community Centre","lat":51.36332,"lon":1.03155,"postcode":"CT5 2BJ","la":"Canterbury","era":"other","nn":109,"risk":24,"cat":"green"},{"name":"Woody's And Co Op Supermarket","lat":51.2985,"lon":1.07088,"postcode":"CT2 7NZ","la":"Canterbury","era":"other","nn":391,"risk":31,"cat":"amber"},{"name":"Ye Olde Beverlie","lat":51.29,"lon":1.07726,"postcode":"CT2 7JU","la":"Canterbury","era":"other","nn":604,"risk":28,"cat":"green"},{"name":"Ye Olde Sportsman","lat":51.34392,"lon":0.95885,"postcode":"CT5 4BP","la":"Canterbury","era":"other","nn":771,"risk":49,"cat":"amber"},{"name":"Ye Olde Yew Tree Inn","lat":51.30608,"lon":1.1463,"postcode":"CT2 0HH","la":"Canterbury","era":"trad","nn":1265,"risk":55,"cat":"amber"},{"name":"Admiral Harvey","lat":51.13159,"lon":1.30553,"postcode":"CT16 2LB","la":"Dover","era":"other","nn":119,"risk":26,"cat":"green"},{"name":"Adventure Backpackers Hostel","lat":51.1264,"lon":1.32548,"postcode":"CT16 1LS","la":"Dover","era":"other","nn":782,"risk":31,"cat":"amber"},{"name":"Astor Theatre","lat":51.22491,"lon":1.40166,"postcode":"CT14 6AB","la":"Dover","era":"other","nn":146,"risk":27,"cat":"green"},{"name":"Aylesham & District Social Club","lat":51.23423,"lon":1.2074,"postcode":"CT3 3HL","la":"Dover","era":"mod","nn":3105,"risk":70,"cat":"red"},{"name":"Bloody Mary's","lat":51.22746,"lon":1.40266,"postcode":"CT14 6BG","la":"Dover","era":"other","nn":32,"risk":26,"cat":"green"},{"name":"Boars Head","lat":51.12501,"lon":1.29295,"postcode":"CT17 9PB","la":"Dover","era":"trad","nn":153,"risk":44,"cat":"amber"},{"name":"Carpenters Arms Public House","lat":51.17596,"lon":1.24682,"postcode":"CT15 5AJ","la":"Dover","era":"trad","nn":1732,"risk":60,"cat":"amber"},{"name":"Cinque Port Arms","lat":51.11577,"lon":1.31059,"postcode":"CT17 9DQ","la":"Dover","era":"trad","nn":236,"risk":30,"cat":"green"},{"name":"Crown And Sceptre","lat":51.12371,"lon":1.29223,"postcode":"CT17 9NZ","la":"Dover","era":"trad","nn":153,"risk":44,"cat":"amber"},{"name":"Deal Ability","lat":51.22037,"lon":1.40229,"postcode":"CT14 7AY","la":"Dover","era":"other","nn":209,"risk":27,"cat":"green"},{"name":"Deal Angling Club","lat":51.23039,"lon":1.40417,"postcode":"CT14 6NF","la":"Dover","era":"other","nn":35,"risk":26,"cat":"green"},{"name":"Deal Walmer & Kingsdowm Amateur Row Club","lat":51.2307,"lon":1.40407,"postcode":"CT14 6NG","la":"Dover","era":"trad","nn":35,"risk":26,"cat":"green"},{"name":"Deal Welfare Club","lat":51.21055,"lon":1.38532,"postcode":"CT14 9EU","la":"Dover","era":"other","nn":154,"risk":44,"cat":"amber"},{"name":"Dog & Duck Inn","lat":51.32364,"lon":1.25375,"postcode":"CT3 1JB","la":"Dover","era":"trad","nn":1908,"risk":61,"cat":"red"},{"name":"Dover District Working Mens Club","lat":51.13367,"lon":1.30052,"postcode":"CT17 0SZ","la":"Dover","era":"trad","nn":53,"risk":26,"cat":"green"},{"name":"Dover Sea Angling Association","lat":51.12709,"lon":1.30942,"postcode":"CT17 9RG","la":"Dover","era":"other","nn":50,"risk":26,"cat":"green"},{"name":"Eagle Tavern","lat":51.22288,"lon":1.39964,"postcode":"CT14 6HD","la":"Dover","era":"trad","nn":47,"risk":26,"cat":"green"},{"name":"Eight Bells Ph","lat":51.12579,"lon":1.31242,"postcode":"CT16 1DA","la":"Dover","era":"other","nn":87,"risk":26,"cat":"green"},{"name":"Five Bells","lat":51.2444,"lon":1.30806,"postcode":"CT13 0HX","la":"Dover","era":"other","nn":3024,"risk":69,"cat":"red"},{"name":"Fleur De Lis","lat":51.27507,"lon":1.33942,"postcode":"CT13 9BZ","la":"Dover","era":"other","nn":19,"risk":28,"cat":"green"},{"name":"Golden Lion","lat":51.12652,"lon":1.31008,"postcode":"CT17 9AA","la":"Dover","era":"trad","nn":78,"risk":26,"cat":"green"},{"name":"Half Moon & Seven Stars Bar & Restaurant","lat":51.30544,"lon":1.22772,"postcode":"CT3 1EB","la":"Dover","era":"mod","nn":2326,"risk":64,"cat":"red"},{"name":"Hull Park Sports Club","lat":51.22432,"lon":1.37561,"postcode":"CT14 0AF","la":"Dover","era":"other","nn":915,"risk":37,"cat":"amber"},{"name":"Kings Arms","lat":51.27743,"lon":1.3384,"postcode":"CT13 9HN","la":"Dover","era":"trad","nn":254,"risk":30,"cat":"green"},{"name":"Kings Head","lat":51.1847,"lon":1.39967,"postcode":"CT14 8BJ","la":"Dover","era":"trad","nn":306,"risk":45,"cat":"amber"},{"name":"Kings Head Ph","lat":51.22263,"lon":1.40404,"postcode":"CT14 7AH","la":"Dover","era":"trad","nn":31,"risk":26,"cat":"green"},{"name":"Leather Bottle","lat":51.21694,"lon":1.36981,"postcode":"CT14 9PE","la":"Dover","era":"other","nn":140,"risk":32,"cat":"amber"},{"name":"Les Fleurs","lat":51.1286,"lon":1.30888,"postcode":"CT16 1DQ","la":"Dover","era":"other","nn":123,"risk":26,"cat":"green"},{"name":"Louis Armstrong","lat":51.13141,"lon":1.30759,"postcode":"CT16 1RA","la":"Dover","era":"trad","nn":145,"risk":27,"cat":"green"},{"name":"Ocean Rooms","lat":51.22314,"lon":1.40092,"postcode":"CT14 6EY","la":"Dover","era":"mod","nn":49,"risk":26,"cat":"green"},{"name":"Old Lantern Inn","lat":51.17448,"lon":1.3436,"postcode":"CT15 5JL","la":"Dover","era":"trad","nn":2481,"risk":65,"cat":"red"},{"name":"Prince Albert","lat":51.22903,"lon":1.40328,"postcode":"CT14 6LW","la":"Dover","era":"trad","nn":141,"risk":27,"cat":"green"},{"name":"Prince Albert","lat":51.12752,"lon":1.30919,"postcode":"CT16 1BB","la":"Dover","era":"trad","nn":50,"risk":26,"cat":"green"},{"name":"Princes Golf Club & The Lodge","lat":51.28416,"lon":1.37696,"postcode":"CT13 9QB","la":"Dover","era":"trad","nn":1359,"risk":58,"cat":"amber"},{"name":"Queen Street Tap","lat":51.22292,"lon":1.4003,"postcode":"CT14 6EY","la":"Dover","era":"other","nn":47,"risk":26,"cat":"green"},{"name":"Rhino & Bull's","lat":51.1245,"lon":1.31408,"postcode":"CT16 1NR","la":"Dover","era":"trad","nn":42,"risk":26,"cat":"green"},{"name":"Royal Cinque Ports Artisan Golf Club","lat":51.23958,"lon":1.39618,"postcode":"CT14 6RF","la":"Dover","era":"trad","nn":0,"risk":46,"cat":"amber"},{"name":"Royal Cinque Ports Golf Club","lat":51.23958,"lon":1.39618,"postcode":"CT14 6RF","la":"Dover","era":"trad","nn":0,"risk":46,"cat":"amber"},{"name":"Royal Oak","lat":51.10294,"lon":1.23185,"postcode":"CT18 7HY","la":"Dover","era":"trad","nn":1863,"risk":61,"cat":"red"},{"name":"Royal Oak","lat":51.14424,"lon":1.27968,"postcode":"CT17 0QU","la":"Dover","era":"trad","nn":719,"risk":48,"cat":"amber"},{"name":"Royal St Georges Golf Club","lat":51.27369,"lon":1.36689,"postcode":"CT13 9PD","la":"Dover","era":"trad","nn":1177,"risk":56,"cat":"amber"},{"name":"Sandwich Sailing And Motorboat Club","lat":51.28005,"lon":1.35337,"postcode":"CT13 9LY","la":"Dover","era":"other","nn":1081,"risk":56,"cat":"amber"},{"name":"Sandwich Town Cricket Club","lat":51.27656,"lon":1.33473,"postcode":"CT13 9HQ","la":"Dover","era":"other","nn":273,"risk":30,"cat":"green"},{"name":"Ship Inn","lat":51.22777,"lon":1.40337,"postcode":"CT14 6JZ","la":"Dover","era":"trad","nn":60,"risk":26,"cat":"green"},{"name":"Sir Norman Wisdom","lat":51.22319,"lon":1.40161,"postcode":"CT14 6ET","la":"Dover","era":"other","nn":49,"risk":26,"cat":"green"},{"name":"Spires Hospitality Ltd","lat":51.22642,"lon":1.4022,"postcode":"CT14 6BB","la":"Dover","era":"other","nn":90,"risk":26,"cat":"green"},{"name":"Sportsman Pub","lat":51.13409,"lon":1.30016,"postcode":"CT17 0TA","la":"Dover","era":"other","nn":53,"risk":26,"cat":"green"},{"name":"Stanley's Bar & Coffee Lounge Ltd","lat":51.12643,"lon":1.3117,"postcode":"CT16 1DB","la":"Dover","era":"mod","nn":29,"risk":26,"cat":"green"},{"name":"The Archer Pub Ltd","lat":51.15548,"lon":1.28977,"postcode":"CT16 3LG","la":"Dover","era":"other","nn":356,"risk":46,"cat":"amber"},{"name":"The Bar","lat":51.22717,"lon":1.40269,"postcode":"CT14 6BG","la":"Dover","era":"other","nn":32,"risk":26,"cat":"green"},{"name":"The Berry","lat":51.21308,"lon":1.39979,"postcode":"CT14 7EQ","la":"Dover","era":"other","nn":174,"risk":29,"cat":"green"},{"name":"The Black Pig","lat":51.26095,"lon":1.26443,"postcode":"CT3 1LE","la":"Dover","era":"other","nn":1944,"risk":62,"cat":"red"},{"name":"The Blue Pigeons","lat":51.25648,"lon":1.34698,"postcode":"CT14 0DE","la":"Dover","era":"other","nn":2126,"risk":63,"cat":"red"},{"name":"The Bohemian","lat":51.22391,"lon":1.40429,"postcode":"CT14 6HY","la":"Dover","era":"other","nn":21,"risk":26,"cat":"green"},{"name":"The Booking Hall","lat":51.11737,"lon":1.30837,"postcode":"CT17 9FE","la":"Dover","era":"trad","nn":236,"risk":27,"cat":"green"},{"name":"The Bowling Green Tavern","lat":51.22029,"lon":1.38815,"postcode":"CT14 9UD","la":"Dover","era":"other","nn":536,"risk":29,"cat":"green"},{"name":"The Brewery Of Angels & Demons","lat":51.10458,"lon":1.20529,"postcode":"CT18 7HQ","la":"Dover","era":"trad","nn":997,"risk":53,"cat":"amber"},{"name":"The Bull Inn","lat":51.13707,"lon":1.29557,"postcode":"CT17 0TG","la":"Dover","era":"trad","nn":210,"risk":27,"cat":"green"},{"name":"The Chance Inn","lat":51.15296,"lon":1.32196,"postcode":"CT15 5EW","la":"Dover","era":"trad","nn":2133,"risk":63,"cat":"red"},{"name":"The Chequer Inn","lat":51.27934,"lon":1.27583,"postcode":"CT3 2ET","la":"Dover","era":"trad","nn":424,"risk":49,"cat":"amber"},{"name":"The Clarendon","lat":51.22409,"lon":1.40423,"postcode":"CT14 6HY","la":"Dover","era":"other","nn":21,"risk":26,"cat":"green"},{"name":"The Coastguard Inn","lat":51.15022,"lon":1.38427,"postcode":"CT15 6DY","la":"Dover","era":"trad","nn":981,"risk":52,"cat":"amber"},{"name":"The Cricketers","lat":51.13982,"lon":1.2872,"postcode":"CT17 0JB","la":"Dover","era":"other","nn":148,"risk":29,"cat":"green"},{"name":"The Crown Inn","lat":51.19543,"lon":1.26799,"postcode":"CT15 4BG","la":"Dover","era":"trad","nn":1008,"risk":55,"cat":"amber"},{"name":"The Dizzy Donkey/The American Kitchen & The Milkshake Bar","lat":51.12658,"lon":1.31204,"postcode":"CT16 1BU","la":"Dover","era":"mod","nn":29,"risk":26,"cat":"green"},{"name":"The Dover Rugby Club","lat":51.13849,"lon":1.28742,"postcode":"CT17 0QE","la":"Dover","era":"other","nn":148,"risk":29,"cat":"green"},{"name":"The Drum Major","lat":51.21078,"lon":1.40111,"postcode":"CT14 7JW","la":"Dover","era":"other","nn":226,"risk":45,"cat":"amber"},{"name":"The Duchess","lat":51.12427,"lon":1.31361,"postcode":"CT16 1JH","la":"Dover","era":"other","nn":10,"risk":26,"cat":"green"},{"name":"The Eagle","lat":51.13038,"lon":1.30476,"postcode":"CT17 0SX","la":"Dover","era":"trad","nn":145,"risk":27,"cat":"green"},{"name":"The Elephant & Hind","lat":51.12477,"lon":1.31353,"postcode":"CT16 1NX","la":"Dover","era":"other","nn":49,"risk":26,"cat":"green"},{"name":"The Farrier","lat":51.21719,"lon":1.38225,"postcode":"CT14 9DB","la":"Dover","era":"other","nn":536,"risk":29,"cat":"green"},{"name":"The Five Bells","lat":51.18434,"lon":1.37553,"postcode":"CT14 8HP","la":"Dover","era":"other","nn":1683,"risk":60,"cat":"amber"},{"name":"The Fox Inn","lat":51.15259,"lon":1.26913,"postcode":"CT16 3DU","la":"Dover","era":"trad","nn":1185,"risk":56,"cat":"amber"},{"name":"The Freed Man","lat":51.20085,"lon":1.38856,"postcode":"CT14 7NX","la":"Dover","era":"other","nn":23,"risk":46,"cat":"amber"},{"name":"The Goodwin","lat":51.22335,"lon":1.40296,"postcode":"CT14 6HE","la":"Dover","era":"other","nn":96,"risk":26,"cat":"green"},{"name":"The Griffins Head","lat":51.23576,"lon":1.25193,"postcode":"CT3 1PS","la":"Dover","era":"trad","nn":2933,"risk":69,"cat":"red"},{"name":"The Hoptimist Taproom And Bar","lat":51.12419,"lon":1.31369,"postcode":"CT16 1JH","la":"Dover","era":"mod","nn":10,"risk":26,"cat":"green"},{"name":"The Just Reproach","lat":51.22459,"lon":1.40369,"postcode":"CT14 6HX","la":"Dover","era":"other","nn":67,"risk":26,"cat":"green"},{"name":"The Lord Nelson","lat":51.12455,"lon":1.31468,"postcode":"CT16 1HG","la":"Dover","era":"trad","nn":42,"risk":26,"cat":"green"},{"name":"The Lydden Bell","lat":51.1632,"lon":1.23257,"postcode":"CT15 7EX","la":"Dover","era":"other","nn":1732,"risk":60,"cat":"amber"},{"name":"The Malvern Inn","lat":51.1236,"lon":1.30443,"postcode":"CT17 9QA","la":"Dover","era":"trad","nn":511,"risk":29,"cat":"green"},{"name":"The Market Square Inn","lat":51.27497,"lon":1.3392,"postcode":"CT13 9AE","la":"Dover","era":"trad","nn":19,"risk":28,"cat":"green"},{"name":"The Mill Inn","lat":51.21166,"lon":1.38399,"postcode":"CT14 9ER","la":"Dover","era":"trad","nn":154,"risk":44,"cat":"amber"},{"name":"The Old Endeavour","lat":51.13582,"lon":1.29783,"postcode":"CT17 0TG","la":"Dover","era":"other","nn":210,"risk":27,"cat":"green"},{"name":"The Port Arms","lat":51.22247,"lon":1.4044,"postcode":"CT14 7AH","la":"Dover","era":"trad","nn":31,"risk":26,"cat":"green"},{"name":"The Pub at Solleys","lat":51.20416,"lon":1.36362,"postcode":"CT14 8JL","la":"Dover","era":"other","nn":1378,"risk":58,"cat":"amber"},{"name":"The Red Lion","lat":51.1326,"lon":1.30608,"postcode":"CT16 2PS","la":"Dover","era":"trad","nn":119,"risk":26,"cat":"green"},{"name":"The Rising Sun","lat":51.18634,"lon":1.4032,"postcode":"CT14 8AH","la":"Dover","era":"other","nn":109,"risk":44,"cat":"amber"},{"name":"The Rock Rose","lat":51.15244,"lon":1.29139,"postcode":"CT16 2ES","la":"Dover","era":"other","nn":356,"risk":48,"cat":"amber"},{"name":"The Smugglers","lat":51.15421,"lon":1.37173,"postcode":"CT15 6AU","la":"Dover","era":"other","nn":981,"risk":52,"cat":"amber"},{"name":"The Stag","lat":51.21269,"lon":1.40221,"postcode":"CT14 7DY","la":"Dover","era":"trad","nn":174,"risk":29,"cat":"green"},{"name":"The Thompsons Bell","lat":51.20067,"lon":1.38839,"postcode":"CT14 7NX","la":"Dover","era":"other","nn":23,"risk":46,"cat":"amber"},{"name":"The Three Compasses","lat":51.22669,"lon":1.40416,"postcode":"CT14 6JS","la":"Dover","era":"other","nn":115,"risk":26,"cat":"green"},{"name":"The Whitfield Club","lat":51.16406,"lon":1.29333,"postcode":"CT16 3JD","la":"Dover","era":"other","nn":986,"risk":52,"cat":"amber"},{"name":"The Zetland Arms","lat":51.1862,"lon":1.40474,"postcode":"CT14 8AF","la":"Dover","era":"trad","nn":109,"risk":44,"cat":"amber"},{"name":"Three Horseshoes","lat":51.21622,"lon":1.36816,"postcode":"CT14 9LL","la":"Dover","era":"trad","nn":140,"risk":44,"cat":"amber"},{"name":"Tilmanstone Colliery Sports Club","lat":51.20412,"lon":1.26389,"postcode":"CT15 4AN","la":"Dover","era":"other","nn":1008,"risk":55,"cat":"amber"},{"name":"Time & Tide Taphouse","lat":51.2752,"lon":1.33917,"postcode":"CT13 9BZ","la":"Dover","era":"mod","nn":22,"risk":28,"cat":"green"},{"name":"Victoria Park Bowling Club","lat":51.22064,"lon":1.39813,"postcode":"CT14 9AB","la":"Dover","era":"trad","nn":269,"risk":27,"cat":"green"},{"name":"Volunteer Inn","lat":51.27808,"lon":1.27008,"postcode":"CT3 2HL","la":"Dover","era":"trad","nn":424,"risk":49,"cat":"amber"},{"name":"Walmer Castle Public House","lat":51.22213,"lon":1.40334,"postcode":"CT14 7AW","la":"Dover","era":"other","nn":74,"risk":26,"cat":"green"},{"name":"Black Bull - Hungry Horse","lat":51.08949,"lon":1.18079,"postcode":"CT19 5NX","la":"Folkestone and Hythe","era":"trad","nn":490,"risk":29,"cat":"green"},{"name":"Botolphs Bridge Inn","lat":51.06113,"lon":1.02502,"postcode":"CT21 4NL","la":"Folkestone and Hythe","era":"trad","nn":900,"risk":52,"cat":"amber"},{"name":"Britannia Inn","lat":51.08104,"lon":1.12346,"postcode":"CT21 5SR","la":"Folkestone and Hythe","era":"trad","nn":1196,"risk":56,"cat":"amber"},{"name":"Castle Hotel","lat":51.08025,"lon":1.0769,"postcode":"CT21 4AJ","la":"Folkestone and Hythe","era":"other","nn":1046,"risk":55,"cat":"amber"},{"name":"Chambers","lat":51.07814,"lon":1.17663,"postcode":"CT20 2BE","la":"Folkestone and Hythe","era":"other","nn":44,"risk":26,"cat":"green"},{"name":"Churchills","lat":51.08065,"lon":1.1851,"postcode":"CT20 1JP","la":"Folkestone and Hythe","era":"other","nn":0,"risk":25,"cat":"green"},{"name":"Coach & Horses","lat":51.12704,"lon":1.08787,"postcode":"CT18 8JA","la":"Folkestone and Hythe","era":"trad","nn":1479,"risk":58,"cat":"amber"},{"name":"Cookhouse & Pub, The Brickfield Tavern","lat":51.0939,"lon":1.15637,"postcode":"CT19 4AP","la":"Folkestone and Hythe","era":"mod","nn":525,"risk":47,"cat":"amber"},{"name":"County Members","lat":51.07475,"lon":1.02292,"postcode":"CT21 4LH","la":"Folkestone and Hythe","era":"other","nn":1093,"risk":56,"cat":"amber"},{"name":"Docker Taproom","lat":51.07354,"lon":1.14347,"postcode":"CT20 3BY","la":"Folkestone and Hythe","era":"mod","nn":105,"risk":26,"cat":"green"},{"name":"Dover Road Social Club","lat":51.08392,"lon":1.18444,"postcode":"CT20 1JZ","la":"Folkestone and Hythe","era":"mod","nn":278,"risk":27,"cat":"green"},{"name":"Earl of Clarendon","lat":51.07299,"lon":1.13483,"postcode":"CT20 3DH","la":"Folkestone and Hythe","era":"other","nn":66,"risk":26,"cat":"green"},{"name":"Eastcliff Tavern","lat":51.08349,"lon":1.18884,"postcode":"CT19 6BU","la":"Folkestone and Hythe","era":"other","nn":261,"risk":27,"cat":"green"},{"name":"Foco Club","lat":51.08555,"lon":1.17765,"postcode":"CT19 5AB","la":"Folkestone and Hythe","era":"other","nn":28,"risk":26,"cat":"green"},{"name":"George Inn","lat":51.16367,"lon":1.05171,"postcode":"CT4 6DF","la":"Folkestone and Hythe","era":"trad","nn":2209,"risk":63,"cat":"red"},{"name":"Globe Inn","lat":51.07117,"lon":1.08082,"postcode":"CT21 5AT","la":"Folkestone and Hythe","era":"trad","nn":71,"risk":26,"cat":"green"},{"name":"Harbour Inn","lat":51.07979,"lon":1.18551,"postcode":"CT20 1QN","la":"Folkestone and Hythe","era":"trad","nn":15,"risk":26,"cat":"green"},{"name":"Home Taproom","lat":51.08167,"lon":1.18263,"postcode":"CT20 1JR","la":"Folkestone and Hythe","era":"mod","nn":21,"risk":26,"cat":"green"},{"name":"Hythe Albion Club","lat":51.06749,"lon":1.08196,"postcode":"CT21 6BY","la":"Folkestone and Hythe","era":"other","nn":99,"risk":26,"cat":"green"},{"name":"Jolsons Party Bar","lat":51.08065,"lon":1.1851,"postcode":"CT20 1JU","la":"Folkestone and Hythe","era":"other","nn":0,"risk":25,"cat":"green"},{"name":"Junction 13","lat":51.07839,"lon":1.17616,"postcode":"CT20 2AD","la":"Folkestone and Hythe","era":"other","nn":44,"risk":26,"cat":"green"},{"name":"Keppel's Bar","lat":51.07514,"lon":1.16354,"postcode":"CT20 2LR","la":"Folkestone and Hythe","era":"other","nn":670,"risk":30,"cat":"green"},{"name":"Kings Arms","lat":51.15286,"lon":1.11189,"postcode":"CT4 6TJ","la":"Folkestone and Hythe","era":"trad","nn":3325,"risk":71,"cat":"red"},{"name":"Kings Head","lat":51.07203,"lon":1.08694,"postcode":"CT21 5JJ","la":"Folkestone and Hythe","era":"trad","nn":55,"risk":26,"cat":"green"},{"name":"Kipps Alehouse","lat":51.08023,"lon":1.18235,"postcode":"CT20 1RL","la":"Folkestone and Hythe","era":"other","nn":16,"risk":26,"cat":"green"},{"name":"Nailbox","lat":51.08418,"lon":1.15164,"postcode":"CT20 3QE","la":"Folkestone and Hythe","era":"other","nn":405,"risk":46,"cat":"amber"},{"name":"Noiy's Noodles at The Hope Inn","lat":51.06783,"lon":1.08327,"postcode":"CT21 6DA","la":"Folkestone and Hythe","era":"trad","nn":99,"risk":26,"cat":"green"},{"name":"Oddfellows Cheriton Social Club","lat":51.08749,"lon":1.14271,"postcode":"CT19 4DH","la":"Folkestone and Hythe","era":"mod","nn":372,"risk":33,"cat":"amber"},{"name":"One Foot In The Grape","lat":51.07883,"lon":1.17588,"postcode":"CT20 2AY","la":"Folkestone and Hythe","era":"other","nn":24,"risk":26,"cat":"green"},{"name":"Panataria","lat":51.08024,"lon":1.18149,"postcode":"CT20 1EY","la":"Folkestone and Hythe","era":"other","nn":51,"risk":26,"cat":"green"},{"name":"Park Inn Hotel","lat":51.08347,"lon":1.17068,"postcode":"CT19 5AU","la":"Folkestone and Hythe","era":"trad","nn":525,"risk":29,"cat":"green"},{"name":"Picklebacks","lat":51.07885,"lon":1.17622,"postcode":"CT20 2AZ","la":"Folkestone and Hythe","era":"other","nn":0,"risk":25,"cat":"green"},{"name":"Prince of Wales Inn","lat":51.06393,"lon":1.05606,"postcode":"CT21 6PG","la":"Folkestone and Hythe","era":"trad","nn":1640,"risk":59,"cat":"amber"},{"name":"Quarterhouse","lat":51.08178,"lon":1.18239,"postcode":"CT20 1JR","la":"Folkestone and Hythe","era":"mod","nn":21,"risk":26,"cat":"green"},{"name":"Red Cow","lat":51.0853,"lon":1.17762,"postcode":"CT19 5AB","la":"Folkestone and Hythe","era":"other","nn":28,"risk":26,"cat":"green"},{"name":"Red Lion Hotel","lat":51.07071,"lon":1.08011,"postcode":"CT21 5AU","la":"Folkestone and Hythe","era":"trad","nn":71,"risk":26,"cat":"green"},{"name":"Remedies","lat":51.07126,"lon":1.08193,"postcode":"CT21 5AT","la":"Folkestone and Hythe","era":"other","nn":54,"risk":26,"cat":"green"},{"name":"Rose & Crown","lat":51.18207,"lon":1.06363,"postcode":"CT4 6AS","la":"Folkestone and Hythe","era":"trad","nn":2209,"risk":63,"cat":"red"},{"name":"Royal George","lat":51.0802,"lon":1.18615,"postcode":"CT20 1QW","la":"Folkestone and Hythe","era":"trad","nn":64,"risk":26,"cat":"green"},{"name":"Royal Norfolk Hotel","lat":51.07394,"lon":1.14862,"postcode":"CT20 3BD","la":"Folkestone and Hythe","era":"trad","nn":181,"risk":27,"cat":"green"},{"name":"Sandgate Mens Club","lat":51.07384,"lon":1.14489,"postcode":"CT20 3AR","la":"Folkestone and Hythe","era":"other","nn":40,"risk":26,"cat":"green"},{"name":"Space Bar & Gallery","lat":51.08034,"lon":1.18221,"postcode":"CT20 1RJ","la":"Folkestone and Hythe","era":"mod","nn":16,"risk":26,"cat":"green"},{"name":"Sunshine BBQ Wine Bar","lat":51.07152,"lon":1.08258,"postcode":"CT21 5AD","la":"Folkestone and Hythe","era":"other","nn":54,"risk":26,"cat":"green"},{"name":"Swan Hotel","lat":51.07156,"lon":1.08345,"postcode":"CT21 5AD","la":"Folkestone and Hythe","era":"trad","nn":61,"risk":26,"cat":"green"},{"name":"The Beer Shop Folkestone","lat":51.08067,"lon":1.18177,"postcode":"CT20 1EZ","la":"Folkestone and Hythe","era":"other","nn":5,"risk":25,"cat":"green"},{"name":"The Black Horse Inn","lat":51.13098,"lon":1.15867,"postcode":"CT18 7BG","la":"Folkestone and Hythe","era":"trad","nn":2104,"risk":63,"cat":"red"},{"name":"The British Lion","lat":51.07905,"lon":1.18273,"postcode":"CT20 1SQ","la":"Folkestone and Hythe","era":"trad","nn":95,"risk":26,"cat":"green"},{"name":"The Butt of Sherry","lat":51.0716,"lon":1.08652,"postcode":"CT21 5LD","la":"Folkestone and Hythe","era":"other","nn":55,"risk":26,"cat":"green"},{"name":"The Cat and Custard Pot","lat":51.11574,"lon":1.13632,"postcode":"CT18 8AD","la":"Folkestone and Hythe","era":"other","nn":1819,"risk":61,"cat":"red"},{"name":"The Famous Ship Inn","lat":51.07357,"lon":1.14528,"postcode":"CT20 3AH","la":"Folkestone and Hythe","era":"trad","nn":40,"risk":26,"cat":"green"},{"name":"The Firkin Alehouse","lat":51.07885,"lon":1.17622,"postcode":"CT20 2AZ","la":"Folkestone and Hythe","era":"other","nn":0,"risk":25,"cat":"green"},{"name":"The Firs Bar Lounge","lat":51.09001,"lon":1.13469,"postcode":"CT19 4QF","la":"Folkestone and Hythe","era":"mod","nn":626,"risk":47,"cat":"amber"},{"name":"The Gatekeeper","lat":51.11431,"lon":1.09407,"postcode":"CT18 8DE","la":"Folkestone and Hythe","era":"other","nn":1479,"risk":58,"cat":"amber"},{"name":"The Guildhall","lat":51.07996,"lon":1.18349,"postcode":"CT20 1SQ","la":"Folkestone and Hythe","era":"other","nn":85,"risk":26,"cat":"green"},{"name":"The Harp Restrung","lat":51.08137,"lon":1.18082,"postcode":"CT20 1HA","la":"Folkestone and Hythe","era":"other","nn":99,"risk":26,"cat":"green"},{"name":"The Lanterns & Folkestone Snooker Club","lat":51.08055,"lon":1.18201,"postcode":"CT20 1EZ","la":"Folkestone and Hythe","era":"other","nn":21,"risk":26,"cat":"green"},{"name":"The Lifeboat","lat":51.08152,"lon":1.18679,"postcode":"CT19 6AF","la":"Folkestone and Hythe","era":"other","nn":118,"risk":26,"cat":"green"},{"name":"The London & Paris Hotel","lat":51.07967,"lon":1.18543,"postcode":"CT20 1QN","la":"Folkestone and Hythe","era":"other","nn":15,"risk":26,"cat":"green"},{"name":"The Lord Morris","lat":51.08026,"lon":1.17978,"postcode":"CT20 1EA","la":"Folkestone and Hythe","era":"other","nn":120,"risk":26,"cat":"green"},{"name":"The Master Brewer","lat":51.09067,"lon":1.16185,"postcode":"CT19 5UD","la":"Folkestone and Hythe","era":"other","nn":525,"risk":49,"cat":"amber"},{"name":"The Mayfly","lat":51.11216,"lon":1.16174,"postcode":"CT18 7RU","la":"Folkestone and Hythe","era":"other","nn":570,"risk":49,"cat":"amber"},{"name":"The Old Buoy","lat":51.08125,"lon":1.18364,"postcode":"CT20 1JU","la":"Folkestone and Hythe","era":"other","nn":84,"risk":26,"cat":"green"},{"name":"The Portland Hotel & Skuba","lat":51.07635,"lon":1.17294,"postcode":"CT20 2EA","la":"Folkestone and Hythe","era":"other","nn":320,"risk":28,"cat":"green"},{"name":"The Potting Shed","lat":51.07237,"lon":1.08916,"postcode":"CT21 5JR","la":"Folkestone and Hythe","era":"other","nn":159,"risk":27,"cat":"green"},{"name":"The Potting Shed/Bodega","lat":51.08069,"lon":1.18172,"postcode":"CT20 1EZ","la":"Folkestone and Hythe","era":"other","nn":5,"risk":25,"cat":"green"},{"name":"The Providence Inn","lat":51.07363,"lon":1.14608,"postcode":"CT20 3AH","la":"Folkestone and Hythe","era":"trad","nn":57,"risk":26,"cat":"green"},{"name":"The Pullman","lat":51.07959,"lon":1.18168,"postcode":"CT20 1SE","la":"Folkestone and Hythe","era":"other","nn":73,"risk":26,"cat":"green"},{"name":"The Royal Cheriton","lat":51.087,"lon":1.14797,"postcode":"CT19 4BP","la":"Folkestone and Hythe","era":"trad","nn":372,"risk":31,"cat":"amber"},{"name":"The Rum Clinic","lat":51.07834,"lon":1.17887,"postcode":"CT20 1RR","la":"Folkestone and Hythe","era":"other","nn":158,"risk":27,"cat":"green"},{"name":"The Sandgate Hotel","lat":51.07246,"lon":1.13441,"postcode":"CT20 3DY","la":"Folkestone and Hythe","era":"other","nn":66,"risk":26,"cat":"green"},{"name":"The Ship","lat":51.08066,"lon":1.18777,"postcode":"CT19 6AB","la":"Folkestone and Hythe","era":"trad","nn":0,"risk":25,"cat":"green"},{"name":"The Ships Galley","lat":51.08066,"lon":1.18777,"postcode":"CT19 6AB","la":"Folkestone and Hythe","era":"trad","nn":0,"risk":25,"cat":"green"},{"name":"Three Mariners","lat":51.06847,"lon":1.08063,"postcode":"CT21 6BH","la":"Folkestone and Hythe","era":"other","nn":144,"risk":26,"cat":"green"},{"name":"Unit 1 Riverside Ltd","lat":51.06736,"lon":1.03324,"postcode":"CT21 4NB","la":"Folkestone and Hythe","era":"other","nn":900,"risk":52,"cat":"amber"},{"name":"Valiant Sailor","lat":51.09641,"lon":1.19937,"postcode":"CT18 7JJ","la":"Folkestone and Hythe","era":"other","nn":997,"risk":52,"cat":"amber"},{"name":"White Hart","lat":51.07163,"lon":1.08434,"postcode":"CT21 5AJ","la":"Folkestone and Hythe","era":"trad","nn":63,"risk":26,"cat":"green"},{"name":"White Horse Inn","lat":51.11182,"lon":1.16989,"postcode":"CT18 7JA","la":"Folkestone and Hythe","era":"trad","nn":570,"risk":49,"cat":"amber"},{"name":"101 Social Club","lat":51.38866,"lon":1.39452,"postcode":"CT9 2QY","la":"Thanet","era":"mod","nn":267,"risk":26,"cat":"green"},{"name":"Ales Of The Unexpected","lat":51.38466,"lon":1.36736,"postcode":"CT9 5AX","la":"Thanet","era":"other","nn":339,"risk":26,"cat":"green"},{"name":"Artillery Arms","lat":51.33111,"lon":1.41198,"postcode":"CT11 9LF","la":"Thanet","era":"trad","nn":90,"risk":24,"cat":"green"},{"name":"Australian Arms","lat":51.33583,"lon":1.4027,"postcode":"CT11 0BJ","la":"Thanet","era":"trad","nn":185,"risk":25,"cat":"green"},{"name":"Bake & Alehouse","lat":51.38211,"lon":1.33664,"postcode":"CT8 8RE","la":"Thanet","era":"other","nn":0,"risk":24,"cat":"green"},{"name":"Bar Only","lat":51.37869,"lon":1.33115,"postcode":"CT8 8LT","la":"Thanet","era":"mod","nn":475,"risk":27,"cat":"green"},{"name":"Barnacles","lat":51.39081,"lon":1.38238,"postcode":"CT9 1HD","la":"Thanet","era":"other","nn":0,"risk":24,"cat":"green"},{"name":"Bedford Inn","lat":51.33159,"lon":1.41301,"postcode":"CT11 9JP","la":"Thanet","era":"trad","nn":90,"risk":24,"cat":"green"},{"name":"Bell Inn","lat":51.35327,"lon":1.25386,"postcode":"CT7 0NT","la":"Thanet","era":"trad","nn":69,"risk":44,"cat":"amber"},{"name":"Belle Vue Tavern","lat":51.32727,"lon":1.39198,"postcode":"CT11 0NJ","la":"Thanet","era":"other","nn":0,"risk":44,"cat":"amber"},{"name":"Birchington Club","lat":51.3748,"lon":1.30577,"postcode":"CT7 9DJ","la":"Thanet","era":"other","nn":170,"risk":27,"cat":"green"},{"name":"Birchington United Services Club","lat":51.37609,"lon":1.30447,"postcode":"CT7 9RE","la":"Thanet","era":"other","nn":51,"risk":27,"cat":"green"},{"name":"Botany Bay Hotel","lat":51.38787,"lon":1.43584,"postcode":"CT10 3LG","la":"Thanet","era":"other","nn":785,"risk":47,"cat":"amber"},{"name":"Bradgate Social Club","lat":51.35888,"lon":1.37652,"postcode":"CT9 4LG","la":"Thanet","era":"mod","nn":1845,"risk":59,"cat":"amber"},{"name":"Bradstow Mill","lat":51.35961,"lon":1.43594,"postcode":"CT10 1NQ","la":"Thanet","era":"trad","nn":51,"risk":24,"cat":"green"},{"name":"Broadstairs & St Peters Comrades Clu","lat":51.36044,"lon":1.4311,"postcode":"CT10 2AG","la":"Thanet","era":"other","nn":47,"risk":24,"cat":"green"},{"name":"Camden Arms","lat":51.33481,"lon":1.42267,"postcode":"CT11 8HU","la":"Thanet","era":"trad","nn":116,"risk":25,"cat":"green"},{"name":"Christies","lat":51.3772,"lon":1.30227,"postcode":"CT7 9RD","la":"Thanet","era":"other","nn":183,"risk":28,"cat":"green"},{"name":"Churchill Tavern","lat":51.32935,"lon":1.41492,"postcode":"CT11 9JX","la":"Thanet","era":"other","nn":131,"risk":25,"cat":"green"},{"name":"Cinque Ports","lat":51.38657,"lon":1.37749,"postcode":"CT9 1XJ","la":"Thanet","era":"other","nn":0,"risk":24,"cat":"green"},{"name":"Coastal Bar Kent (Ltd)","lat":51.33307,"lon":1.42028,"postcode":"CT11 8HA","la":"Thanet","era":"mod","nn":25,"risk":24,"cat":"green"},{"name":"Conqueror Alehouse","lat":51.33165,"lon":1.40669,"postcode":"CT11 9LR","la":"Thanet","era":"other","nn":109,"risk":25,"cat":"green"},{"name":"Covells Tavern","lat":51.38592,"lon":1.38147,"postcode":"CT9 1JW","la":"Thanet","era":"other","nn":30,"risk":24,"cat":"green"},{"name":"Cramptons","lat":51.35993,"lon":1.43434,"postcode":"CT10 1NG","la":"Thanet","era":"trad","nn":117,"risk":25,"cat":"green"},{"name":"Crown","lat":51.33281,"lon":1.41927,"postcode":"CT11 9DS","la":"Thanet","era":"trad","nn":0,"risk":24,"cat":"green"},{"name":"Crown Inn","lat":51.33902,"lon":1.24157,"postcode":"CT7 0LF","la":"Thanet","era":"trad","nn":1799,"risk":59,"cat":"amber"},{"name":"East Kent Arms & Mambo's","lat":51.33808,"lon":1.41526,"postcode":"CT11 7QA","la":"Thanet","era":"trad","nn":192,"risk":25,"cat":"green"},{"name":"Ebbsfleet Golf Centre","lat":51.31444,"lon":1.35065,"postcode":"CT12 5DJ","la":"Thanet","era":"other","nn":1617,"risk":58,"cat":"amber"},{"name":"Elephant and Castle","lat":51.33816,"lon":1.42359,"postcode":"CT11 7DP","la":"Thanet","era":"other","nn":64,"risk":24,"cat":"green"},{"name":"Faith in Strangers","lat":51.3915,"lon":1.3931,"postcode":"CT9 2DY","la":"Thanet","era":"other","nn":31,"risk":24,"cat":"green"},{"name":"Fez","lat":51.38886,"lon":1.37992,"postcode":"CT9 1DS","la":"Thanet","era":"other","nn":13,"risk":24,"cat":"green"},{"name":"Gates Bar & Meze","lat":51.33225,"lon":1.42191,"postcode":"CT11 8LN","la":"Thanet","era":"mod","nn":9,"risk":24,"cat":"green"},{"name":"Ginger's","lat":51.38161,"lon":1.3379,"postcode":"CT8 8QY","la":"Thanet","era":"other","nn":100,"risk":24,"cat":"green"},{"name":"Hair Of The Dog","lat":51.33443,"lon":1.31482,"postcode":"CT12 4AB","la":"Thanet","era":"other","nn":53,"risk":42,"cat":"amber"},{"name":"Harbour Street Bar","lat":51.33301,"lon":1.41993,"postcode":"CT11 8HA","la":"Thanet","era":"other","nn":0,"risk":24,"cat":"green"},{"name":"Hare & Hounds","lat":51.35348,"lon":1.40163,"postcode":"CT12 6SG","la":"Thanet","era":"trad","nn":188,"risk":45,"cat":"amber"},{"name":"Harpers Wine Bar","lat":51.35972,"lon":1.44384,"postcode":"CT10 1ET","la":"Thanet","era":"other","nn":0,"risk":24,"cat":"green"},{"name":"Honeysuckle Inn","lat":51.34,"lon":1.42647,"postcode":"CT11 8AA","la":"Thanet","era":"trad","nn":243,"risk":25,"cat":"green"},{"name":"Horse And Groom Public House","lat":51.33308,"lon":1.41921,"postcode":"CT11 8HE","la":"Thanet","era":"trad","nn":30,"risk":24,"cat":"green"},{"name":"Houdini's Magic Bar Ltd","lat":51.35988,"lon":1.43653,"postcode":"CT10 1JB","la":"Thanet","era":"mod","nn":0,"risk":24,"cat":"green"},{"name":"Imperial Lounge","lat":51.38932,"lon":1.38008,"postcode":"CT9 1AT","la":"Thanet","era":"mod","nn":53,"risk":24,"cat":"green"},{"name":"King Street Arms","lat":51.33579,"lon":1.42209,"postcode":"CT11 8NZ","la":"Thanet","era":"trad","nn":116,"risk":25,"cat":"green"},{"name":"Lesters Pub & Restaurant","lat":51.37684,"lon":1.3857,"postcode":"CT9 4EZ","la":"Thanet","era":"other","nn":590,"risk":30,"cat":"green"},{"name":"Little Swift","lat":51.38876,"lon":1.37983,"postcode":"CT9 1DH","la":"Thanet","era":"other","nn":0,"risk":24,"cat":"green"},{"name":"Macies Bar","lat":51.33525,"lon":1.41736,"postcode":"CT11 9RJ","la":"Thanet","era":"other","nn":57,"risk":24,"cat":"green"},{"name":"Mae's Bar","lat":51.39081,"lon":1.38238,"postcode":"CT9 1HD","la":"Thanet","era":"other","nn":0,"risk":24,"cat":"green"},{"name":"Margate Leisure Centre","lat":51.39124,"lon":1.39325,"postcode":"CT9 2EQ","la":"Thanet","era":"other","nn":31,"risk":24,"cat":"green"},{"name":"Margate Premier Inn","lat":51.38539,"lon":1.3721,"postcode":"CT9 5AD","la":"Thanet","era":"trad","nn":339,"risk":26,"cat":"green"},{"name":"Margate Yacht Club","lat":51.39081,"lon":1.38238,"postcode":"CT9 1HD","la":"Thanet","era":"other","nn":0,"risk":24,"cat":"green"},{"name":"Mariners","lat":51.33281,"lon":1.41927,"postcode":"CT11 9DS","la":"Thanet","era":"other","nn":0,"risk":24,"cat":"green"},{"name":"Mind The Gap","lat":51.35988,"lon":1.43653,"postcode":"CT10 1JB","la":"Thanet","era":"other","nn":0,"risk":24,"cat":"green"},{"name":"Montefiore Arms","lat":51.33811,"lon":1.42451,"postcode":"CT11 7HJ","la":"Thanet","era":"trad","nn":64,"risk":24,"cat":"green"},{"name":"Neptunes Hall","lat":51.35972,"lon":1.44384,"postcode":"CT10 1ET","la":"Thanet","era":"other","nn":0,"risk":24,"cat":"green"},{"name":"Northdown Road Snooker Club","lat":51.38751,"lon":1.3979,"postcode":"CT9 2RP","la":"Thanet","era":"other","nn":39,"risk":24,"cat":"green"},{"name":"Northwood Club","lat":51.35445,"lon":1.40385,"postcode":"CT12 6RS","la":"Thanet","era":"other","nn":188,"risk":45,"cat":"amber"},{"name":"Picnic Deli","lat":51.38701,"lon":1.39913,"postcode":"CT9 2NR","la":"Thanet","era":"other","nn":1,"risk":24,"cat":"green"},{"name":"Pomus","lat":51.38719,"lon":1.38175,"postcode":"CT9 1JG","la":"Thanet","era":"other","nn":116,"risk":25,"cat":"green"},{"name":"Queen Charlotte","lat":51.33053,"lon":1.41471,"postcode":"CT11 9JJ","la":"Thanet","era":"trad","nn":0,"risk":24,"cat":"green"},{"name":"RAFA Club","lat":51.33392,"lon":1.42084,"postcode":"CT11 8HW","la":"Thanet","era":"other","nn":46,"risk":24,"cat":"green"},{"name":"Ramsgate Masonic Centre","lat":51.33888,"lon":1.42347,"postcode":"CT11 7LB","la":"Thanet","era":"trad","nn":80,"risk":24,"cat":"green"},{"name":"Ramsgate Music Hall","lat":51.3347,"lon":1.42049,"postcode":"CT11 8NJ","la":"Thanet","era":"trad","nn":9,"risk":24,"cat":"green"},{"name":"Ramsgate Small Boat Owners Assoc","lat":51.33425,"lon":1.41547,"postcode":"CT11 9AY","la":"Thanet","era":"trad","nn":172,"risk":25,"cat":"green"},{"name":"Red Arrows Club","lat":51.33883,"lon":1.40173,"postcode":"CT11 0QX","la":"Thanet","era":"other","nn":263,"risk":26,"cat":"green"},{"name":"Red Lion","lat":51.33377,"lon":1.42022,"postcode":"CT11 8NN","la":"Thanet","era":"trad","nn":46,"risk":24,"cat":"green"},{"name":"Reign Bar & Lounge","lat":51.3589,"lon":1.44205,"postcode":"CT10 1LU","la":"Thanet","era":"mod","nn":27,"risk":24,"cat":"green"},{"name":"Rokka","lat":51.33239,"lon":1.42152,"postcode":"CT11 8LN","la":"Thanet","era":"other","nn":22,"risk":24,"cat":"green"},{"name":"Ronnie's Cocktail & Lounge Bar","lat":51.33229,"lon":1.4218,"postcode":"CT11 8LN","la":"Thanet","era":"mod","nn":9,"risk":24,"cat":"green"},{"name":"Rose in June","lat":51.39097,"lon":1.38711,"postcode":"CT9 1HT","la":"Thanet","era":"trad","nn":201,"risk":25,"cat":"green"},{"name":"Rose of England","lat":51.33572,"lon":1.41655,"postcode":"CT11 9RH","la":"Thanet","era":"trad","nn":31,"risk":24,"cat":"green"},{"name":"Royal Naval Association","lat":51.33571,"lon":1.41699,"postcode":"CT11 8RA","la":"Thanet","era":"trad","nn":31,"risk":24,"cat":"green"},{"name":"Royal Victoria Pavilion","lat":51.33222,"lon":1.42319,"postcode":"CT11 8LP","la":"Thanet","era":"trad","nn":0,"risk":24,"cat":"green"},{"name":"Seaview Hotel","lat":51.37587,"lon":1.30382,"postcode":"CT7 9RA","la":"Thanet","era":"other","nn":0,"risk":26,"cat":"green"},{"name":"Sheldons","lat":51.38616,"lon":1.38168,"postcode":"CT9 1JT","la":"Thanet","era":"other","nn":30,"risk":24,"cat":"green"},{"name":"St Augustines Golf Club","lat":51.32852,"lon":1.35644,"postcode":"CT12 5JN","la":"Thanet","era":"other","nn":1617,"risk":58,"cat":"amber"},{"name":"St Lawrence Tavern","lat":51.33662,"lon":1.40036,"postcode":"CT11 0QP","la":"Thanet","era":"other","nn":185,"risk":25,"cat":"green"},{"name":"Sun Inn","lat":51.35371,"lon":1.25316,"postcode":"CT7 0NP","la":"Thanet","era":"trad","nn":69,"risk":44,"cat":"amber"},{"name":"Sundowners","lat":51.38787,"lon":1.38008,"postcode":"CT9 1UJ","la":"Thanet","era":"other","nn":20,"risk":24,"cat":"green"},{"name":"Thanet Society of Druids Social Club","lat":51.39111,"lon":1.39427,"postcode":"CT9 2DR","la":"Thanet","era":"mod","nn":72,"risk":24,"cat":"green"},{"name":"The 19th Hole","lat":51.38122,"lon":1.42712,"postcode":"CT10 3JX","la":"Thanet","era":"other","nn":580,"risk":30,"cat":"green"},{"name":"The Albion Inn","lat":51.36172,"lon":1.42861,"postcode":"CT10 2AP","la":"Thanet","era":"trad","nn":140,"risk":25,"cat":"green"},{"name":"The Albion Rooms","lat":51.39075,"lon":1.39823,"postcode":"CT9 2HL","la":"Thanet","era":"mod","nn":277,"risk":26,"cat":"green"},{"name":"The Bell Inn","lat":51.33113,"lon":1.31522,"postcode":"CT12 4BU","la":"Thanet","era":"trad","nn":368,"risk":44,"cat":"amber"},{"name":"The Belle Vue Tavern","lat":51.38775,"lon":1.39831,"postcode":"CT9 2PA","la":"Thanet","era":"other","nn":39,"risk":24,"cat":"green"},{"name":"The Bulls Head","lat":51.38946,"lon":1.38149,"postcode":"CT9 1ER","la":"Thanet","era":"trad","nn":30,"risk":24,"cat":"green"},{"name":"The Chapel","lat":51.35959,"lon":1.44305,"postcode":"CT10 1NE","la":"Thanet","era":"other","nn":0,"risk":24,"cat":"green"},{"name":"The Charles Dickens","lat":51.35765,"lon":1.44184,"postcode":"CT10 1QS","la":"Thanet","era":"other","nn":140,"risk":25,"cat":"green"},{"name":"The Cliff Bar","lat":51.39186,"lon":1.38963,"postcode":"CT9 1RU","la":"Thanet","era":"other","nn":201,"risk":25,"cat":"green"},{"name":"The Clockwork Cocktail Company Ltd","lat":51.38782,"lon":1.38036,"postcode":"CT9 1DT","la":"Thanet","era":"other","nn":20,"risk":24,"cat":"green"},{"name":"The Deal Cutter","lat":51.3347,"lon":1.42062,"postcode":"CT11 8NT","la":"Thanet","era":"other","nn":9,"risk":24,"cat":"green"},{"name":"The Dolphin/Le Vintage/Hangry Burger","lat":51.35979,"lon":1.44325,"postcode":"CT10 1NE","la":"Thanet","era":"other","nn":26,"risk":24,"cat":"green"},{"name":"The Falstaff","lat":51.33053,"lon":1.41471,"postcode":"CT11 9JJ","la":"Thanet","era":"other","nn":0,"risk":24,"cat":"green"},{"name":"The Flying Horse","lat":51.33806,"lon":1.40621,"postcode":"CT11 9TJ","la":"Thanet","era":"trad","nn":323,"risk":26,"cat":"green"},{"name":"The Four Candles Alehouse","lat":51.36291,"lon":1.42794,"postcode":"CT10 2AT","la":"Thanet","era":"other","nn":140,"risk":25,"cat":"green"},{"name":"The George Inn","lat":51.35959,"lon":1.44305,"postcode":"CT10 1NE","la":"Thanet","era":"trad","nn":0,"risk":24,"cat":"green"},{"name":"The Goose","lat":51.33301,"lon":1.41993,"postcode":"CT11 8HA","la":"Thanet","era":"other","nn":0,"risk":24,"cat":"green"},{"name":"The Harbour Arms","lat":51.39115,"lon":1.37861,"postcode":"CT9 1AP","la":"Thanet","era":"trad","nn":0,"risk":24,"cat":"green"},{"name":"The Hartsdown","lat":51.37969,"lon":1.37404,"postcode":"CT9 5QZ","la":"Thanet","era":"trad","nn":551,"risk":28,"cat":"green"},{"name":"The Hovelling Boat Inn","lat":51.33281,"lon":1.41927,"postcode":"CT11 9DS","la":"Thanet","era":"trad","nn":0,"risk":24,"cat":"green"},{"name":"The Hussar","lat":51.37962,"lon":1.35411,"postcode":"CT9 5JP","la":"Thanet","era":"other","nn":302,"risk":46,"cat":"amber"},{"name":"The Lanthorne","lat":51.36688,"lon":1.43094,"postcode":"CT10 3AE","la":"Thanet","era":"other","nn":488,"risk":27,"cat":"green"},{"name":"The Laughing Barrel","lat":51.38624,"lon":1.42483,"postcode":"CT9 3EZ","la":"Thanet","era":"other","nn":580,"risk":33,"cat":"amber"},{"name":"The Lifeboat Ale and Cider House","lat":51.38923,"lon":1.38127,"postcode":"CT9 1EU","la":"Thanet","era":"other","nn":30,"risk":24,"cat":"green"},{"name":"The Lighthouse Bar","lat":51.39115,"lon":1.37861,"postcode":"CT9 1AP","la":"Thanet","era":"mod","nn":0,"risk":24,"cat":"green"},{"name":"The Little Prince","lat":51.39081,"lon":1.38238,"postcode":"CT9 1HD","la":"Thanet","era":"trad","nn":0,"risk":24,"cat":"green"},{"name":"The London Tavern","lat":51.38594,"lon":1.38384,"postcode":"CT9 1PN","la":"Thanet","era":"other","nn":152,"risk":25,"cat":"green"},{"name":"The Lord Byron","lat":51.38368,"lon":1.39005,"postcode":"CT9 1TX","la":"Thanet","era":"other","nn":361,"risk":26,"cat":"green"},{"name":"The Mulberry Tree","lat":51.38749,"lon":1.38983,"postcode":"CT9 2AE","la":"Thanet","era":"other","nn":351,"risk":26,"cat":"green"},{"name":"The New Inn","lat":51.33471,"lon":1.31421,"postcode":"CT12 4AG","la":"Thanet","era":"trad","nn":53,"risk":42,"cat":"amber"},{"name":"The New Odds Club","lat":51.38876,"lon":1.38261,"postcode":"CT9 1PU","la":"Thanet","era":"other","nn":77,"risk":24,"cat":"green"},{"name":"The Odds","lat":51.33684,"lon":1.41334,"postcode":"CT11 9TT","la":"Thanet","era":"other","nn":192,"risk":25,"cat":"green"},{"name":"The Oxford","lat":51.38214,"lon":1.38546,"postcode":"CT9 1TF","la":"Thanet","era":"other","nn":308,"risk":26,"cat":"green"},{"name":"The Prince Albert","lat":51.35883,"lon":1.44104,"postcode":"CT10 1LH","la":"Thanet","era":"trad","nn":70,"risk":24,"cat":"green"},{"name":"The Princess of Wales","lat":51.38205,"lon":1.38103,"postcode":"CT9 5SE","la":"Thanet","era":"trad","nn":308,"risk":26,"cat":"green"},{"name":"The Queens Head","lat":51.33222,"lon":1.42319,"postcode":"CT11 8LP","la":"Thanet","era":"trad","nn":0,"risk":24,"cat":"green"},{"name":"The Racing Greyhound","lat":51.34541,"lon":1.42811,"postcode":"CT11 7EX","la":"Thanet","era":"trad","nn":611,"risk":31,"cat":"amber"},{"name":"The Red Lion","lat":51.36458,"lon":1.42012,"postcode":"CT10 2TQ","la":"Thanet","era":"trad","nn":574,"risk":28,"cat":"green"},{"name":"The Rodney","lat":51.37698,"lon":1.35516,"postcode":"CT9 5LR","la":"Thanet","era":"other","nn":302,"risk":46,"cat":"amber"},{"name":"The Royal","lat":51.33237,"lon":1.42023,"postcode":"CT11 8LJ","la":"Thanet","era":"trad","nn":74,"risk":24,"cat":"green"},{"name":"The Royal British Legion","lat":51.33233,"lon":1.41769,"postcode":"CT11 9HS","la":"Thanet","era":"trad","nn":123,"risk":25,"cat":"green"},{"name":"The Royston Micropub","lat":51.36028,"lon":1.43173,"postcode":"CT10 2AD","la":"Thanet","era":"other","nn":47,"risk":24,"cat":"green"},{"name":"The Sea Lounge","lat":51.35899,"lon":1.4424,"postcode":"CT10 1LU","la":"Thanet","era":"mod","nn":27,"risk":24,"cat":"green"},{"name":"The Sir Stanley Gray","lat":51.32727,"lon":1.39198,"postcode":"CT11 0NJ","la":"Thanet","era":"other","nn":0,"risk":44,"cat":"amber"},{"name":"The Swan by the Sea","lat":51.38271,"lon":1.33344,"postcode":"CT8 8QG","la":"Thanet","era":"trad","nn":232,"risk":25,"cat":"green"},{"name":"The Tap Room","lat":51.38702,"lon":1.39912,"postcode":"CT9 2NR","la":"Thanet","era":"mod","nn":1,"risk":24,"cat":"green"},{"name":"The Two Halves Margate","lat":51.38876,"lon":1.37983,"postcode":"CT9 1DH","la":"Thanet","era":"other","nn":0,"risk":24,"cat":"green"},{"name":"The Wheatsheaf","lat":51.38155,"lon":1.41283,"postcode":"CT9 3LN","la":"Thanet","era":"trad","nn":983,"risk":48,"cat":"amber"},{"name":"The Wheel Alehouse","lat":51.37587,"lon":1.30382,"postcode":"CT7 9RA","la":"Thanet","era":"other","nn":0,"risk":26,"cat":"green"},{"name":"The White Stag","lat":51.33775,"lon":1.28548,"postcode":"CT12 4JF","la":"Thanet","era":"trad","nn":2024,"risk":60,"cat":"amber"},{"name":"The Windmill Pub","lat":51.34293,"lon":1.3995,"postcode":"CT12 6EW","la":"Thanet","era":"trad","nn":482,"risk":30,"cat":"green"},{"name":"The York Arms","lat":51.33442,"lon":1.42087,"postcode":"CT11 8NP","la":"Thanet","era":"trad","nn":36,"risk":24,"cat":"green"},{"name":"Vale Tavern","lat":51.33253,"lon":1.40739,"postcode":"CT11 9LS","la":"Thanet","era":"other","nn":109,"risk":25,"cat":"green"},{"name":"Waterfront","lat":51.33222,"lon":1.42319,"postcode":"CT11 8LP","la":"Thanet","era":"other","nn":0,"risk":24,"cat":"green"},{"name":"Westgate on Sea Social Club","lat":51.38071,"lon":1.33797,"postcode":"CT8 8QT","la":"Thanet","era":"mod","nn":100,"risk":24,"cat":"green"},{"name":"Westgate United Services Club","lat":51.38211,"lon":1.33664,"postcode":"CT8 8RE","la":"Thanet","era":"other","nn":0,"risk":24,"cat":"green"},{"name":"Wetherspoons","lat":51.38657,"lon":1.37749,"postcode":"CT9 1XJ","la":"Thanet","era":"other","nn":0,"risk":24,"cat":"green"},{"name":"White Swan & Reading Street Burgers","lat":51.37431,"lon":1.43155,"postcode":"CT10 3AZ","la":"Thanet","era":"trad","nn":827,"risk":47,"cat":"amber"},{"name":"Wig and Pen","lat":51.38943,"lon":1.38232,"postcode":"CT9 1EN","la":"Thanet","era":"other","nn":58,"risk":24,"cat":"green"},{"name":"Wine Shed","lat":51.38958,"lon":1.38104,"postcode":"CT9 1EY","la":"Thanet","era":"other","nn":34,"risk":24,"cat":"green"},{"name":"Wrotham Arms","lat":51.35633,"lon":1.43906,"postcode":"CT10 1QQ","la":"Thanet","era":"trad","nn":243,"risk":25,"cat":"green"}]