[{"name":"Abadam Arms","lat":51.82258,"lon":-4.15061,"postcode":"SA32 8PL","la":"Carmarthenshire","era":"trad","nn":0,"risk":42,"cat":"amber"},{"name":"AJs Tavern","lat":51.68933,"lon":-4.12938,"postcode":"SA14 8LR","la":"Carmarthenshire","era":"other","nn":747,"risk":45,"cat":"amber"},{"name":"ALBION ARMS","lat":52.07312,"lon":-4.14954,"postcode":"SA40 9RN","la":"Carmarthenshire","era":"trad","nn":620,"risk":31,"cat":"amber"},{"name":"AMMAN UNITED RUGBY FOOTBALL CLUB","lat":51.80468,"lon":-3.91518,"postcode":"SA18 1DQ","la":"Carmarthenshire","era":"other","nn":365,"risk":42,"cat":"amber"},{"name":"AMMANFORD CRICKET CLUB","lat":51.80193,"lon":-3.93637,"postcode":"SA18 2AN","la":"Carmarthenshire","era":"other","nn":612,"risk":46,"cat":"amber"},{"name":"AMMANFORD R F C","lat":51.79235,"lon":-3.99534,"postcode":"SA18 3AP","la":"Carmarthenshire","era":"other","nn":315,"risk":24,"cat":"green"},{"name":"AMMANFORD SOCIAL CLUB AND INSTITUTE","lat":51.79075,"lon":-3.99156,"postcode":"SA18 3DT","la":"Carmarthenshire","era":"mod","nn":214,"risk":23,"cat":"green"},{"name":"ARGOS BINGO CLUB","lat":51.68248,"lon":-4.15957,"postcode":"SA15 3UW","la":"Carmarthenshire","era":"other","nn":170,"risk":23,"cat":"green"},{"name":"ASHBURNHAM GOLF CLUB","lat":51.68306,"lon":-4.26131,"postcode":"SA16 0HN","la":"Carmarthenshire","era":"other","nn":356,"risk":24,"cat":"green"},{"name":"BALTIC INN & RESTAURANT","lat":51.76395,"lon":-4.21089,"postcode":"SA15 5RE","la":"Carmarthenshire","era":"trad","nn":306,"risk":42,"cat":"amber"},{"name":"BEACH HOTEL","lat":51.74292,"lon":-4.55829,"postcode":"SA33 4NY","la":"Carmarthenshire","era":"other","nn":86,"risk":40,"cat":"amber"},{"name":"BEAR INN","lat":51.99419,"lon":-3.79696,"postcode":"SA20 0AB","la":"Carmarthenshire","era":"trad","nn":0,"risk":22,"cat":"green"},{"name":"BELLE VUE INN","lat":52.04681,"lon":-4.18446,"postcode":"SA40 9SQ","la":"Carmarthenshire","era":"trad","nn":3483,"risk":69,"cat":"red"},{"name":"BETWS R. F. C.","lat":51.78612,"lon":-3.98344,"postcode":"SA18 2HL","la":"Carmarthenshire","era":"other","nn":140,"risk":23,"cat":"green"},{"name":"BIDDULPH ARMS","lat":51.66866,"lon":-4.15168,"postcode":"SA15 2BS","la":"Carmarthenshire","era":"trad","nn":0,"risk":24,"cat":"green"},{"name":"BIRD IN HAND","lat":51.72285,"lon":-4.05727,"postcode":"SA4 0TU","la":"Carmarthenshire","era":"other","nn":1020,"risk":52,"cat":"amber"},{"name":"BLACK HORSE","lat":51.7158,"lon":-4.0478,"postcode":"SA4 0UN","la":"Carmarthenshire","era":"trad","nn":254,"risk":24,"cat":"green"},{"name":"BLACK HORSE INN","lat":52.02242,"lon":-4.3524,"postcode":"SA44 5AX","la":"Carmarthenshire","era":"trad","nn":0,"risk":42,"cat":"amber"},{"name":"BLACK LION","lat":51.81987,"lon":-4.49573,"postcode":"SA33 4AA","la":"Carmarthenshire","era":"trad","nn":162,"risk":41,"cat":"amber"},{"name":"BLACK LION Abergorlech","lat":51.98303,"lon":-4.06182,"postcode":"SA32 7SN","la":"Carmarthenshire","era":"trad","nn":6053,"risk":79,"cat":"red"},{"name":"BLACK LION HOTEL","lat":52.07462,"lon":-4.16101,"postcode":"SA40 9UE","la":"Carmarthenshire","era":"trad","nn":122,"risk":28,"cat":"green"},{"name":"BLACK OX","lat":51.8661,"lon":-4.26969,"postcode":"SA31 2JB","la":"Carmarthenshire","era":"other","nn":28,"risk":42,"cat":"amber"},{"name":"BLUE ANCHOR","lat":51.68701,"lon":-4.19918,"postcode":"SA15 4BG","la":"Carmarthenshire","era":"trad","nn":399,"risk":45,"cat":"amber"},{"name":"BOARS HEAD HOTEL","lat":51.85626,"lon":-4.30969,"postcode":"SA31 3AE","la":"Carmarthenshire","era":"trad","nn":0,"risk":22,"cat":"green"},{"name":"BRIDGEND INN","lat":51.81142,"lon":-3.86862,"postcode":"SA18 1SF","la":"Carmarthenshire","era":"trad","nn":349,"risk":29,"cat":"green"},{"name":"BRO MYRDDIN BOWLS","lat":51.85569,"lon":-4.31957,"postcode":"SA31 3BS","la":"Carmarthenshire","era":"other","nn":406,"risk":25,"cat":"green"},{"name":"BRONWYDD CRICKET CLUB","lat":51.89744,"lon":-4.30051,"postcode":"SA33 6BD","la":"Carmarthenshire","era":"other","nn":326,"risk":44,"cat":"amber"},{"name":"BRUNANT ARMS","lat":52.0411,"lon":-3.93335,"postcode":"SA19 8RD","la":"Carmarthenshire","era":"trad","nn":5551,"risk":79,"cat":"red"},{"name":"BRYN & TRALLWM SPORTS & SOCIAL CLUB","lat":51.68502,"lon":-4.11735,"postcode":"SA14 9AD","la":"Carmarthenshire","era":"mod","nn":299,"risk":29,"cat":"green"},{"name":"BURRY PORT READING ROOM & CLUB","lat":51.68346,"lon":-4.24891,"postcode":"SA16 0EP","la":"Carmarthenshire","era":"other","nn":133,"risk":23,"cat":"green"},{"name":"BURRY PORT RFC","lat":51.68496,"lon":-4.2439,"postcode":"SA16 0RT","la":"Carmarthenshire","era":"other","nn":140,"risk":23,"cat":"green"},{"name":"BURRY PORT YACHT CLUB","lat":51.68045,"lon":-4.25198,"postcode":"SA16 0ER","la":"Carmarthenshire","era":"other","nn":396,"risk":25,"cat":"green"},{"name":"BUTCHERS ARMS","lat":51.82881,"lon":-4.1754,"postcode":"SA32 8NS","la":"Carmarthenshire","era":"trad","nn":213,"risk":43,"cat":"amber"},{"name":"CAMBRIAN SPORTS BAR","lat":51.67273,"lon":-4.16556,"postcode":"SA15 2NP","la":"Carmarthenshire","era":"other","nn":353,"risk":24,"cat":"green"},{"name":"CARMARTHEN BOWLING CLUB","lat":51.85929,"lon":-4.30281,"postcode":"SA31 1QP","la":"Carmarthenshire","era":"other","nn":190,"risk":23,"cat":"green"},{"name":"CARMARTHEN QUINS RFC","lat":51.85554,"lon":-4.31367,"postcode":"SA31 3AX","la":"Carmarthenshire","era":"other","nn":155,"risk":23,"cat":"green"},{"name":"CARPENTERS ARMS","lat":51.76471,"lon":-4.47199,"postcode":"SA33 4NS","la":"Carmarthenshire","era":"trad","nn":759,"risk":45,"cat":"amber"},{"name":"CARWAY FOOTBALL AND CRICKET CLUB","lat":51.74204,"lon":-4.21714,"postcode":"SA17 4HU","la":"Carmarthenshire","era":"other","nn":1575,"risk":55,"cat":"amber"},{"name":"CASTLE INN","lat":51.77127,"lon":-4.39244,"postcode":"SA33 5JG","la":"Carmarthenshire","era":"trad","nn":0,"risk":42,"cat":"amber"},{"name":"CASTLE INN","lat":51.69471,"lon":-4.084,"postcode":"SA14 8TN","la":"Carmarthenshire","era":"trad","nn":0,"risk":27,"cat":"green"},{"name":"CAULFIELDS HOTEL","lat":51.68453,"lon":-4.2458,"postcode":"SA16 0LR","la":"Carmarthenshire","era":"other","nn":117,"risk":23,"cat":"green"},{"name":"CEFNEITHIN RUGBY FOOTBALL CLUB","lat":51.7998,"lon":-4.09307,"postcode":"SA14 6SU","la":"Carmarthenshire","era":"other","nn":179,"risk":41,"cat":"amber"},{"name":"CLWB GODRE MYNYDD DU","lat":51.80451,"lon":-3.9285,"postcode":"SA18 1EJ","la":"Carmarthenshire","era":"other","nn":612,"risk":44,"cat":"amber"},{"name":"COASTING PILOT","lat":51.68467,"lon":-4.24749,"postcode":"SA16 0NR","la":"Carmarthenshire","era":"other","nn":101,"risk":23,"cat":"green"},{"name":"COLLIERS ARMS","lat":51.68981,"lon":-4.16707,"postcode":"SA15 4HR","la":"Carmarthenshire","era":"trad","nn":102,"risk":23,"cat":"green"},{"name":"Coopers Arms","lat":52.03594,"lon":-4.46068,"postcode":"SA38 9BX","la":"Carmarthenshire","era":"trad","nn":552,"risk":26,"cat":"green"},{"name":"CORACLE TAVERN","lat":51.85777,"lon":-4.30711,"postcode":"SA31 1QG","la":"Carmarthenshire","era":"other","nn":103,"risk":23,"cat":"green"},{"name":"CORVUS INN","lat":51.82043,"lon":-4.49356,"postcode":"SA33 4BG","la":"Carmarthenshire","era":"trad","nn":162,"risk":41,"cat":"amber"},{"name":"COTTAGE INN","lat":51.79202,"lon":-3.98921,"postcode":"SA18 3DN","la":"Carmarthenshire","era":"trad","nn":0,"risk":22,"cat":"green"},{"name":"CRESSELLY ARMS","lat":51.87451,"lon":-4.16974,"postcode":"SA32 7NG","la":"Carmarthenshire","era":"trad","nn":1718,"risk":56,"cat":"amber"},{"name":"CROSS HANDS HOTEL","lat":52.07394,"lon":-4.15851,"postcode":"SA40 9TX","la":"Carmarthenshire","era":"trad","nn":103,"risk":28,"cat":"green"},{"name":"CROSS HANDS PUBLIC HALL","lat":51.7988,"lon":-4.09103,"postcode":"SA14 6SU","la":"Carmarthenshire","era":"trad","nn":179,"risk":41,"cat":"amber"},{"name":"CWRW","lat":51.85779,"lon":-4.30412,"postcode":"SA31 1BS","la":"Carmarthenshire","era":"other","nn":68,"risk":22,"cat":"green"},{"name":"DAIRIES SPORTS & SOCIAL CLUB LTD","lat":51.85825,"lon":-4.31254,"postcode":"SA31 1RG","la":"Carmarthenshire","era":"mod","nn":148,"risk":23,"cat":"green"},{"name":"DERLWYN ARMS","lat":51.81795,"lon":-3.86195,"postcode":"SA18 1AN","la":"Carmarthenshire","era":"trad","nn":639,"risk":44,"cat":"amber"},{"name":"DOUBLE DRAGON","lat":51.68052,"lon":-4.16076,"postcode":"SA15 1DJ","la":"Carmarthenshire","era":"trad","nn":70,"risk":22,"cat":"green"},{"name":"DREFACH CRICKET & FOOTBALL CLUB","lat":51.80305,"lon":-4.14089,"postcode":"SA14 7BB","la":"Carmarthenshire","era":"other","nn":1045,"risk":52,"cat":"amber"},{"name":"DROVERS ARMS","lat":52.08497,"lon":-3.97212,"postcode":"SA19 8LJ","la":"Carmarthenshire","era":"trad","nn":3617,"risk":70,"cat":"red"},{"name":"DROVERS ARMS HOTEL","lat":51.85631,"lon":-4.31177,"postcode":"SA31 3AP","la":"Carmarthenshire","era":"trad","nn":0,"risk":22,"cat":"green"},{"name":"Drovers Bed and Breakfast","lat":51.99417,"lon":-3.79674,"postcode":"SA20 0AB","la":"Carmarthenshire","era":"other","nn":15,"risk":22,"cat":"green"},{"name":"DUKE OF WELLINGTON","lat":51.67543,"lon":-4.15678,"postcode":"SA15 1BT","la":"Carmarthenshire","era":"trad","nn":245,"risk":24,"cat":"green"},{"name":"EAGLE INN","lat":52.03473,"lon":-4.25177,"postcode":"SA39 9HY","la":"Carmarthenshire","era":"trad","nn":3906,"risk":72,"cat":"red"},{"name":"FARMERS ARMS","lat":52.00073,"lon":-4.26616,"postcode":"SA39 9ES","la":"Carmarthenshire","era":"trad","nn":3906,"risk":72,"cat":"red"},{"name":"FARMERS ARMS","lat":51.80216,"lon":-4.24167,"postcode":"SA17 5BN","la":"Carmarthenshire","era":"trad","nn":3377,"risk":68,"cat":"red"},{"name":"FARMERS ARMS","lat":51.69471,"lon":-4.084,"postcode":"SA14 8TN","la":"Carmarthenshire","era":"trad","nn":0,"risk":27,"cat":"green"},{"name":"FERRYSIDE RUGBY AND SOCIAL CLUB","lat":51.77153,"lon":-4.36142,"postcode":"SA17 5TG","la":"Carmarthenshire","era":"mod","nn":641,"risk":46,"cat":"amber"},{"name":"FISHER ARMS","lat":51.81942,"lon":-4.60814,"postcode":"SA34 0HH","la":"Carmarthenshire","era":"trad","nn":414,"risk":27,"cat":"green"},{"name":"FISHERMANS ARMS","lat":51.7374,"lon":-4.30813,"postcode":"SA17 4UU","la":"Carmarthenshire","era":"trad","nn":153,"risk":25,"cat":"green"},{"name":"FOREST ARMS","lat":51.95078,"lon":-4.14891,"postcode":"SA32 7RA","la":"Carmarthenshire","era":"trad","nn":6962,"risk":79,"cat":"red"},{"name":"Fountain Inn","lat":51.76957,"lon":-4.46426,"postcode":"SA33 4ST","la":"Carmarthenshire","era":"trad","nn":195,"risk":28,"cat":"green"},{"name":"Fountain Inn","lat":51.85995,"lon":-4.48515,"postcode":"SA33 5QG","la":"Carmarthenshire","era":"trad","nn":4425,"risk":75,"cat":"red"},{"name":"FOX & HOUNDS","lat":51.83569,"lon":-4.43409,"postcode":"SA33 5ND","la":"Carmarthenshire","era":"trad","nn":4425,"risk":75,"cat":"red"},{"name":"FRIENDS ARMS","lat":51.85335,"lon":-4.32648,"postcode":"SA31 3HH","la":"Carmarthenshire","era":"trad","nn":182,"risk":28,"cat":"green"},{"name":"FURNACE UNITED RUGBY FOOTBALL CLUB","lat":51.69026,"lon":-4.16836,"postcode":"SA15 4HT","la":"Carmarthenshire","era":"other","nn":102,"risk":23,"cat":"green"},{"name":"GARNANT CONSTITUTIONAL CLUB","lat":51.80099,"lon":-3.90174,"postcode":"SA18 1ND","la":"Carmarthenshire","era":"other","nn":0,"risk":39,"cat":"amber"},{"name":"GLYN ABBEY GOLF CLUB","lat":51.73775,"lon":-4.23894,"postcode":"SA17 4LB","la":"Carmarthenshire","era":"trad","nn":1575,"risk":55,"cat":"amber"},{"name":"GLYNHIR GOLF CLUB","lat":51.82689,"lon":-3.9689,"postcode":"SA18 2TF","la":"Carmarthenshire","era":"other","nn":653,"risk":46,"cat":"amber"},{"name":"GOLDEN GROVE INN","lat":51.82057,"lon":-4.00671,"postcode":"SA18 3HX","la":"Carmarthenshire","era":"trad","nn":65,"risk":25,"cat":"green"},{"name":"GOLDEN LION HOTEL","lat":51.85631,"lon":-4.31177,"postcode":"SA31 3AP","la":"Carmarthenshire","era":"trad","nn":0,"risk":22,"cat":"green"},{"name":"GOOSE AND CUCKOO","lat":51.93832,"lon":-3.88295,"postcode":"SA19 9EE","la":"Carmarthenshire","era":"other","nn":89,"risk":43,"cat":"amber"},{"name":"GREAT MOUNTAIN WORKINGMENS CLUB","lat":51.78693,"lon":-4.1178,"postcode":"SA14 6ER","la":"Carmarthenshire","era":"trad","nn":780,"risk":47,"cat":"amber"},{"name":"GREAT WESTERN HOTEL","lat":51.79641,"lon":-3.99505,"postcode":"SA18 2DB","la":"Carmarthenshire","era":"other","nn":451,"risk":25,"cat":"green"},{"name":"GREEN BRIDGE INN (PUBLIC HOUSE)","lat":51.75302,"lon":-4.57793,"postcode":"SA33 4PL","la":"Carmarthenshire","era":"trad","nn":1627,"risk":56,"cat":"amber"},{"name":"GWENDRAETH SPORTS AND SOCIAL CLUB","lat":51.76176,"lon":-4.20821,"postcode":"SA15 5PY","la":"Carmarthenshire","era":"mod","nn":0,"risk":39,"cat":"amber"},{"name":"HALF MOON HOTEL","lat":52.03666,"lon":-4.31745,"postcode":"SA44 4AJ","la":"Carmarthenshire","era":"other","nn":471,"risk":43,"cat":"amber"},{"name":"HALF MOON INN (Garnant)","lat":51.80263,"lon":-3.91105,"postcode":"SA18 1LS","la":"Carmarthenshire","era":"trad","nn":365,"risk":29,"cat":"green"},{"name":"HARRY WATKINS","lat":51.69918,"lon":-4.14529,"postcode":"SA14 8HY","la":"Carmarthenshire","era":"other","nn":123,"risk":40,"cat":"amber"},{"name":"HENDY RUGBY CLUB","lat":51.71356,"lon":-4.05605,"postcode":"SA4 0TP","la":"Carmarthenshire","era":"other","nn":620,"risk":29,"cat":"green"},{"name":"HOLLYBROOK INN","lat":51.90003,"lon":-4.29826,"postcode":"SA33 6BE","la":"Carmarthenshire","era":"trad","nn":326,"risk":44,"cat":"amber"},{"name":"HOPE & ANCHOR","lat":51.68465,"lon":-4.24895,"postcode":"SA16 0BH","la":"Carmarthenshire","era":"trad","nn":0,"risk":22,"cat":"green"},{"name":"INCLINE INN","lat":51.76176,"lon":-4.20821,"postcode":"SA15 5PY","la":"Carmarthenshire","era":"trad","nn":0,"risk":39,"cat":"amber"},{"name":"Inn at the Sticks","lat":51.77127,"lon":-4.39244,"postcode":"SA33 5JG","la":"Carmarthenshire","era":"trad","nn":0,"risk":42,"cat":"amber"},{"name":"IVY BUSH INN","lat":51.82086,"lon":-4.0059,"postcode":"SA18 3HZ","la":"Carmarthenshire","era":"trad","nn":65,"risk":25,"cat":"green"},{"name":"JOINERS ARMS","lat":51.67846,"lon":-4.11761,"postcode":"SA14 9HR","la":"Carmarthenshire","era":"trad","nn":730,"risk":32,"cat":"amber"},{"name":"Jollies on the Hilltop","lat":51.68463,"lon":-4.12164,"postcode":"SA14 9AA","la":"Carmarthenshire","era":"other","nn":299,"risk":29,"cat":"green"},{"name":"KIDWELLY RUGBY CLUB","lat":51.73613,"lon":-4.30899,"postcode":"SA17 4UH","la":"Carmarthenshire","era":"other","nn":153,"risk":25,"cat":"green"},{"name":"KILKENNY CAT","lat":51.68415,"lon":-4.16471,"postcode":"SA15 3DN","la":"Carmarthenshire","era":"other","nn":290,"risk":24,"cat":"green"},{"name":"KINGS HEAD","lat":51.78442,"lon":-4.04463,"postcode":"SA18 3SF","la":"Carmarthenshire","era":"trad","nn":1929,"risk":58,"cat":"amber"},{"name":"KINGS HEAD HOTEL","lat":51.99419,"lon":-3.79696,"postcode":"SA20 0AB","la":"Carmarthenshire","era":"trad","nn":0,"risk":22,"cat":"green"},{"name":"LAMB INN","lat":51.91497,"lon":-4.56643,"postcode":"SA34 0JD","la":"Carmarthenshire","era":"trad","nn":5707,"risk":79,"cat":"red"},{"name":"Laser Station Ltd","lat":51.85325,"lon":-4.3061,"postcode":"SA31 2BE","la":"Carmarthenshire","era":"other","nn":282,"risk":24,"cat":"green"},{"name":"LEMON TREE","lat":51.68474,"lon":-4.15962,"postcode":"SA15 3PT","la":"Carmarthenshire","era":"other","nn":64,"risk":22,"cat":"green"},{"name":"LLANDEILO RFC (CLUB-LICENSED)","lat":51.88739,"lon":-4.00014,"postcode":"SA19 6RS","la":"Carmarthenshire","era":"other","nn":0,"risk":24,"cat":"green"},{"name":"Llandovery RFC - Gegin Y Porthmyn","lat":51.99169,"lon":-3.80625,"postcode":"SA20 0DT","la":"Carmarthenshire","era":"other","nn":694,"risk":27,"cat":"green"},{"name":"LLANDYBIE RUGBY CLUB","lat":51.81452,"lon":-4.00948,"postcode":"SA18 3UT","la":"Carmarthenshire","era":"other","nn":698,"risk":29,"cat":"green"},{"name":"LLANDYBIE SOCIAL & ATHLETIC CLUB","lat":51.82055,"lon":-4.00486,"postcode":"SA18 3UL","la":"Carmarthenshire","era":"mod","nn":79,"risk":25,"cat":"green"},{"name":"LLANELLI COUNTY LIBERAL CLUB","lat":51.68115,"lon":-4.16076,"postcode":"SA15 1BQ","la":"Carmarthenshire","era":"other","nn":62,"risk":22,"cat":"green"},{"name":"LLANELLI CRICKET CLUB","lat":51.68836,"lon":-4.17587,"postcode":"SA15 4BT","la":"Carmarthenshire","era":"other","nn":0,"risk":24,"cat":"green"},{"name":"LLANELLI TENNIS AND SQUASH CLUB","lat":51.68836,"lon":-4.17587,"postcode":"SA15 4BT","la":"Carmarthenshire","era":"other","nn":0,"risk":24,"cat":"green"},{"name":"LLANESCO SOCIAL CLUB","lat":51.6785,"lon":-4.16236,"postcode":"SA15 1AW","la":"Carmarthenshire","era":"mod","nn":65,"risk":22,"cat":"green"},{"name":"LLANGENNECH RUGBY SOCIAL CLUB","lat":51.69675,"lon":-4.08435,"postcode":"SA14 8UB","la":"Carmarthenshire","era":"mod","nn":228,"risk":29,"cat":"green"},{"name":"Lucifers","lat":51.85638,"lon":-4.30507,"postcode":"SA31 1JR","la":"Carmarthenshire","era":"other","nn":0,"risk":22,"cat":"green"},{"name":"MANSEL ARMS","lat":51.81222,"lon":-4.13758,"postcode":"SA32 8BS","la":"Carmarthenshire","era":"trad","nn":1045,"risk":52,"cat":"amber"},{"name":"Masons Arms","lat":51.68446,"lon":-4.16051,"postcode":"SA15 3JA","la":"Carmarthenshire","era":"trad","nn":22,"risk":22,"cat":"green"},{"name":"MEGANMO LTD/SHIP AGROUND INN","lat":51.68511,"lon":-4.26759,"postcode":"SA16 0TL","la":"Carmarthenshire","era":"trad","nn":489,"risk":43,"cat":"amber"},{"name":"MEINCIAU SPORTS CLUB GROUND","lat":51.77274,"lon":-4.22945,"postcode":"SA17 5LE","la":"Carmarthenshire","era":"other","nn":1609,"risk":56,"cat":"amber"},{"name":"MORFA SOCIAL & ATHLETIC CLUB","lat":51.66866,"lon":-4.15168,"postcode":"SA15 2BS","la":"Carmarthenshire","era":"mod","nn":0,"risk":24,"cat":"green"},{"name":"MOUNT PLEASANT INN","lat":51.68738,"lon":-4.15991,"postcode":"SA15 3JQ","la":"Carmarthenshire","era":"trad","nn":119,"risk":23,"cat":"green"},{"name":"Mynyddcerrig Workingmens Club and Institute","lat":51.80139,"lon":-4.16032,"postcode":"SA15 5BD","la":"Carmarthenshire","era":"trad","nn":1349,"risk":54,"cat":"amber"},{"name":"MYNYDDYGARREG R F C","lat":51.74381,"lon":-4.28971,"postcode":"SA17 4PR","la":"Carmarthenshire","era":"other","nn":1313,"risk":54,"cat":"amber"},{"name":"Nantgaredig Athletic Rugby Football Club","lat":51.86507,"lon":-4.18955,"postcode":"SA32 7LQ","la":"Carmarthenshire","era":"other","nn":1,"risk":42,"cat":"amber"},{"name":"NEW CROSS HOTEL","lat":51.89279,"lon":-4.10551,"postcode":"SA32 8SD","la":"Carmarthenshire","era":"trad","nn":3937,"risk":72,"cat":"red"},{"name":"NEW CROSSHANDS WORKING MENS CLUB","lat":51.79673,"lon":-4.08457,"postcode":"SA14 6RD","la":"Carmarthenshire","era":"trad","nn":500,"risk":43,"cat":"amber"},{"name":"NEW LODGE INN","lat":51.78331,"lon":-4.16608,"postcode":"SA15 5AG","la":"Carmarthenshire","era":"trad","nn":294,"risk":41,"cat":"amber"},{"name":"NEW STAGS HEAD","lat":51.85713,"lon":-4.3082,"postcode":"SA31 1QL","la":"Carmarthenshire","era":"trad","nn":100,"risk":23,"cat":"green"},{"name":"NEW THREE MARINERS","lat":51.7708,"lon":-4.46223,"postcode":"SA33 4SE","la":"Carmarthenshire","era":"other","nn":195,"risk":28,"cat":"green"},{"name":"No.1","lat":51.79202,"lon":-3.98921,"postcode":"SA18 3DN","la":"Carmarthenshire","era":"other","nn":0,"risk":22,"cat":"green"},{"name":"OLD CROSS","lat":51.79221,"lon":-3.98813,"postcode":"SA18 3DB","la":"Carmarthenshire","era":"trad","nn":77,"risk":22,"cat":"green"},{"name":"PANTYFFYNNON SOCIAL CLUB","lat":51.78161,"lon":-3.99713,"postcode":"SA18 3HL","la":"Carmarthenshire","era":"mod","nn":1001,"risk":51,"cat":"amber"},{"name":"PANTYRATHRO COUNTRY INN","lat":51.79676,"lon":-4.36533,"postcode":"SA33 5AJ","la":"Carmarthenshire","era":"trad","nn":2818,"risk":64,"cat":"red"},{"name":"Parkdean Holidays Ltd","lat":51.74349,"lon":-4.55913,"postcode":"SA33 4NZ","la":"Carmarthenshire","era":"other","nn":86,"risk":40,"cat":"amber"},{"name":"PEMBERTON ARMS","lat":51.6899,"lon":-4.24386,"postcode":"SA16 0RH","la":"Carmarthenshire","era":"trad","nn":549,"risk":26,"cat":"green"},{"name":"PENYBANC RFC","lat":51.78628,"lon":-4.00957,"postcode":"SA18 3QS","la":"Carmarthenshire","era":"other","nn":1001,"risk":51,"cat":"amber"},{"name":"PHOENIX TAVERN","lat":51.80432,"lon":-4.07264,"postcode":"SA14 7LA","la":"Carmarthenshire","era":"other","nn":1176,"risk":53,"cat":"amber"},{"name":"PICTON HOUSE B&B/Tapas Restaurant","lat":51.79963,"lon":-4.53181,"postcode":"SA33 4HJ","la":"Carmarthenshire","era":"mod","nn":2896,"risk":65,"cat":"red"},{"name":"PLAS PARKE INN","lat":52.02242,"lon":-4.3524,"postcode":"SA44 5AX","la":"Carmarthenshire","era":"trad","nn":0,"risk":42,"cat":"amber"},{"name":"PLASH INN","lat":51.84756,"lon":-4.6789,"postcode":"SA34 0UN","la":"Carmarthenshire","era":"trad","nn":3676,"risk":70,"cat":"red"},{"name":"PLOUGH & HARROW","lat":51.78707,"lon":-3.98477,"postcode":"SA18 2HE","la":"Carmarthenshire","era":"trad","nn":140,"risk":23,"cat":"green"},{"name":"PLOUGH & HARROW","lat":51.73687,"lon":-4.30513,"postcode":"SA17 4UD","la":"Carmarthenshire","era":"trad","nn":0,"risk":24,"cat":"green"},{"name":"PLOUGH HOTEL","lat":52.0369,"lon":-4.46987,"postcode":"SA38 9BG","la":"Carmarthenshire","era":"trad","nn":0,"risk":22,"cat":"green"},{"name":"PLUME OF FEATHERS","lat":51.85575,"lon":-4.30676,"postcode":"SA31 1TN","la":"Carmarthenshire","era":"other","nn":77,"risk":22,"cat":"green"},{"name":"PONTYBEREM RUGBY FOOTBALL CLUB","lat":51.77841,"lon":-4.1735,"postcode":"SA15 5EA","la":"Carmarthenshire","era":"other","nn":719,"risk":44,"cat":"amber"},{"name":"PONTYBEREM WORKINGMENS CLUB","lat":51.78101,"lon":-4.16394,"postcode":"SA15 5AE","la":"Carmarthenshire","era":"trad","nn":294,"risk":41,"cat":"amber"},{"name":"POPLARS INN","lat":51.85173,"lon":-4.32681,"postcode":"SA31 3HU","la":"Carmarthenshire","era":"trad","nn":182,"risk":28,"cat":"green"},{"name":"PORTOBELLO INN","lat":51.68465,"lon":-4.24895,"postcode":"SA16 0BH","la":"Carmarthenshire","era":"trad","nn":0,"risk":22,"cat":"green"},{"name":"Prince of Wales","lat":51.82258,"lon":-4.15061,"postcode":"SA32 8PL","la":"Carmarthenshire","era":"trad","nn":0,"risk":42,"cat":"amber"},{"name":"RAILWAY  HOTEL","lat":51.79115,"lon":-3.9865,"postcode":"SA18 3EN","la":"Carmarthenshire","era":"trad","nn":163,"risk":23,"cat":"green"},{"name":"RAILWAY HOTEL","lat":51.86508,"lon":-4.18956,"postcode":"SA32 7LQ","la":"Carmarthenshire","era":"trad","nn":1,"risk":42,"cat":"amber"},{"name":"Rainbows End","lat":51.85638,"lon":-4.30507,"postcode":"SA31 1JR","la":"Carmarthenshire","era":"other","nn":0,"risk":22,"cat":"green"},{"name":"Red Lion","lat":51.93898,"lon":-3.88369,"postcode":"SA19 9AA","la":"Carmarthenshire","era":"trad","nn":89,"risk":43,"cat":"amber"},{"name":"RED LION HOTEL","lat":51.82208,"lon":-4.00809,"postcode":"SA18 3JA","la":"Carmarthenshire","era":"trad","nn":193,"risk":26,"cat":"green"},{"name":"Red Lion Hotel","lat":52.02367,"lon":-4.39978,"postcode":"SA44 5UH","la":"Carmarthenshire","era":"trad","nn":606,"risk":46,"cat":"amber"},{"name":"ROSE & CROWN","lat":51.85626,"lon":-4.30969,"postcode":"SA31 3AE","la":"Carmarthenshire","era":"trad","nn":0,"risk":22,"cat":"green"},{"name":"ROYAL NAVAL ASSOCIATION 2004 LTD","lat":51.68424,"lon":-4.15455,"postcode":"SA15 3YT","la":"Carmarthenshire","era":"trad","nn":354,"risk":24,"cat":"green"},{"name":"ROYAL OAK","lat":51.69816,"lon":-4.14593,"postcode":"SA14 8LA","la":"Carmarthenshire","era":"trad","nn":123,"risk":40,"cat":"amber"},{"name":"Salutation Inn","lat":51.88405,"lon":-3.99542,"postcode":"SA19 6DF","la":"Carmarthenshire","era":"trad","nn":0,"risk":24,"cat":"green"},{"name":"SANTA CLARA","lat":51.81305,"lon":-4.49571,"postcode":"SA33 4EE","la":"Carmarthenshire","era":"other","nn":758,"risk":45,"cat":"amber"},{"name":"SAVANNAH'S","lat":51.85631,"lon":-4.31177,"postcode":"SA31 3AP","la":"Carmarthenshire","era":"other","nn":0,"risk":22,"cat":"green"},{"name":"SELWYN SAMUEL CENTRE","lat":51.68124,"lon":-4.16689,"postcode":"SA15 3AE","la":"Carmarthenshire","era":"other","nn":138,"risk":23,"cat":"green"},{"name":"SNOOKER WORLD","lat":51.79202,"lon":-3.98921,"postcode":"SA18 3DN","la":"Carmarthenshire","era":"other","nn":0,"risk":22,"cat":"green"},{"name":"SPRINGWELL INN","lat":51.74314,"lon":-4.56049,"postcode":"SA33 4PA","la":"Carmarthenshire","era":"trad","nn":101,"risk":40,"cat":"amber"},{"name":"SQUARE & COMPASS","lat":51.75669,"lon":-4.22135,"postcode":"SA15 5RT","la":"Carmarthenshire","era":"other","nn":1066,"risk":52,"cat":"amber"},{"name":"SQUARE & COMPASS INN","lat":51.82723,"lon":-3.95941,"postcode":"SA18 2UD","la":"Carmarthenshire","era":"trad","nn":653,"risk":46,"cat":"amber"},{"name":"STAG & PHEASANT","lat":51.81981,"lon":-4.04875,"postcode":"SA14 7SE","la":"Carmarthenshire","era":"trad","nn":2380,"risk":61,"cat":"red"},{"name":"STAG & PHEASANT","lat":51.85723,"lon":-4.30372,"postcode":"SA31 1LQ","la":"Carmarthenshire","era":"trad","nn":68,"risk":22,"cat":"green"},{"name":"STATION HOUSE HOTEL","lat":51.81844,"lon":-4.61395,"postcode":"SA34 0AP","la":"Carmarthenshire","era":"mod","nn":91,"risk":28,"cat":"green"},{"name":"Stebonheath Sports Bar","lat":51.68339,"lon":-4.14784,"postcode":"SA15 1EY","la":"Carmarthenshire","era":"other","nn":162,"risk":23,"cat":"green"},{"name":"TAFARN BECA","lat":51.94593,"lon":-4.50005,"postcode":"SA33 6RU","la":"Carmarthenshire","era":"other","nn":5707,"risk":79,"cat":"red"},{"name":"Tafarn Cwmdu Ltd","lat":51.95382,"lon":-3.98725,"postcode":"SA19 7DY","la":"Carmarthenshire","era":"other","nn":6053,"risk":79,"cat":"red"},{"name":"Tafarn Gem and Tearooms","lat":52.07454,"lon":-4.02225,"postcode":"SA48 8HF","la":"Carmarthenshire","era":"mod","nn":3617,"risk":70,"cat":"red"},{"name":"TAFARN JOHN Y GWAS","lat":52.01823,"lon":-4.39956,"postcode":"SA44 5XG","la":"Carmarthenshire","era":"other","nn":606,"risk":46,"cat":"amber"},{"name":"TAFARN MORLAIS","lat":51.70091,"lon":-4.07631,"postcode":"SA14 8YE","la":"Carmarthenshire","era":"other","nn":722,"risk":32,"cat":"amber"},{"name":"TAFARN TANERDY","lat":51.86499,"lon":-4.29133,"postcode":"SA31 2EY","la":"Carmarthenshire","era":"other","nn":1011,"risk":52,"cat":"amber"},{"name":"TAFARN Y CWM","lat":51.87382,"lon":-4.39471,"postcode":"SA33 6NF","la":"Carmarthenshire","era":"other","nn":5030,"risk":79,"cat":"red"},{"name":"TAFARN Y FELIN","lat":51.70369,"lon":-4.13764,"postcode":"SA14 8DT","la":"Carmarthenshire","era":"other","nn":727,"risk":45,"cat":"amber"},{"name":"Tafarn Y Pelican","lat":52.03851,"lon":-4.4678,"postcode":"SA38 9AP","la":"Carmarthenshire","era":"other","nn":33,"risk":22,"cat":"green"},{"name":"TAFARN YR AFON DUAD","lat":51.95503,"lon":-4.36444,"postcode":"SA33 6XJ","la":"Carmarthenshire","era":"other","nn":4198,"risk":74,"cat":"red"},{"name":"Tanygraig Hall - The Royal British Legion","lat":51.67569,"lon":-4.1079,"postcode":"SA14 9LH","la":"Carmarthenshire","era":"trad","nn":337,"risk":42,"cat":"amber"},{"name":"TANYGRAIG INN","lat":52.07475,"lon":-4.15924,"postcode":"SA40 9XS","la":"Carmarthenshire","era":"trad","nn":103,"risk":28,"cat":"green"},{"name":"TERRY GRIFFITHS SNOOKER CLUB","lat":51.68106,"lon":-4.16491,"postcode":"SA15 3AA","la":"Carmarthenshire","era":"other","nn":120,"risk":23,"cat":"green"},{"name":"THE ANTHONY'S HOTEL","lat":51.73456,"lon":-4.31462,"postcode":"SA17 4UN","la":"Carmarthenshire","era":"other","nn":425,"risk":27,"cat":"green"},{"name":"THE BELL","lat":51.67403,"lon":-4.10381,"postcode":"SA14 9LP","la":"Carmarthenshire","era":"other","nn":337,"risk":44,"cat":"amber"},{"name":"The Bexley","lat":51.68631,"lon":-4.15975,"postcode":"SA15 3RA","la":"Carmarthenshire","era":"other","nn":119,"risk":23,"cat":"green"},{"name":"THE BRITISH RAILWAY CLUB","lat":51.6779,"lon":-4.15908,"postcode":"SA15 1TE","la":"Carmarthenshire","era":"trad","nn":236,"risk":24,"cat":"green"},{"name":"THE BUNCH OF GRAPES","lat":52.0397,"lon":-4.46739,"postcode":"SA38 9DU","la":"Carmarthenshire","era":"other","nn":136,"risk":23,"cat":"green"},{"name":"The Caraway","lat":51.84594,"lon":-4.3094,"postcode":"SA31 2NG","la":"Carmarthenshire","era":"other","nn":843,"risk":48,"cat":"amber"},{"name":"The Clubhouse - Shoreline Caravan Park","lat":51.68043,"lon":-4.25838,"postcode":"SA16 0HD","la":"Carmarthenshire","era":"mod","nn":356,"risk":24,"cat":"green"},{"name":"THE COLLIERS ARMS","lat":51.68661,"lon":-4.20494,"postcode":"SA15 4BD","la":"Carmarthenshire","era":"trad","nn":399,"risk":45,"cat":"amber"},{"name":"THE CONSERVATIVE CLUB","lat":51.68114,"lon":-4.16166,"postcode":"SA15 1UU","la":"Carmarthenshire","era":"other","nn":62,"risk":22,"cat":"green"},{"name":"THE COTTAGE J&G Ltd","lat":51.89376,"lon":-4.03845,"postcode":"SA19 6SD","la":"Carmarthenshire","era":"other","nn":2722,"risk":63,"cat":"red"},{"name":"The Dog and Piano","lat":51.85721,"lon":-4.31118,"postcode":"SA31 1PY","la":"Carmarthenshire","era":"other","nn":94,"risk":23,"cat":"green"},{"name":"The Dylan Coastal Resort","lat":51.77343,"lon":-4.45538,"postcode":"SA33 4SG","la":"Carmarthenshire","era":"other","nn":555,"risk":43,"cat":"amber"},{"name":"THE EMLYN ARMS","lat":51.86033,"lon":-4.1284,"postcode":"SA32 8JE","la":"Carmarthenshire","era":"trad","nn":3247,"risk":67,"cat":"red"},{"name":"The Farmers Arms","lat":51.78677,"lon":-4.41212,"postcode":"SA33 5HQ","la":"Carmarthenshire","era":"trad","nn":2192,"risk":60,"cat":"amber"},{"name":"The Foresters Arms","lat":51.67448,"lon":-4.15999,"postcode":"SA15 1YS","la":"Carmarthenshire","era":"trad","nn":245,"risk":24,"cat":"green"},{"name":"The George Cwmtwrch LTD","lat":51.78832,"lon":-3.8073,"postcode":"SA9 2XH","la":"Neath Port Talbot","era":"trad","nn":305,"risk":48,"cat":"amber"},{"name":"THE GREMLIN CLUB","lat":51.85618,"lon":-4.30764,"postcode":"SA31 1PR","la":"Carmarthenshire","era":"other","nn":77,"risk":22,"cat":"green"},{"name":"The Lamb of Rhos","lat":51.99733,"lon":-4.36351,"postcode":"SA44 5EE","la":"Carmarthenshire","era":"other","nn":960,"risk":49,"cat":"amber"},{"name":"THE LORD NELSON","lat":51.73687,"lon":-4.30513,"postcode":"SA17 4UD","la":"Carmarthenshire","era":"trad","nn":0,"risk":24,"cat":"green"},{"name":"THE MANSEL ARMS","lat":51.85732,"lon":-4.30962,"postcode":"SA31 1QX","la":"Carmarthenshire","era":"trad","nn":44,"risk":22,"cat":"green"},{"name":"THE METROPOLITAN","lat":51.68031,"lon":-4.16321,"postcode":"SA15 1AF","la":"Carmarthenshire","era":"other","nn":65,"risk":22,"cat":"green"},{"name":"The New Cornish Arms","lat":51.67453,"lon":-4.16978,"postcode":"SA15 2PN","la":"Carmarthenshire","era":"trad","nn":353,"risk":24,"cat":"green"},{"name":"THE NEW DROVERS","lat":51.68466,"lon":-4.16054,"postcode":"SA15 3JA","la":"Carmarthenshire","era":"other","nn":22,"risk":22,"cat":"green"},{"name":"THE NEW ROLLING MILL","lat":51.67792,"lon":-4.16251,"postcode":"SA15 1AN","la":"Carmarthenshire","era":"trad","nn":0,"risk":22,"cat":"green"},{"name":"THE NEW WHITE LION","lat":51.99535,"lon":-3.79638,"postcode":"SA20 0BZ","la":"Carmarthenshire","era":"trad","nn":133,"risk":23,"cat":"green"},{"name":"THE PLOUGH RHOSMAEN","lat":51.8927,"lon":-3.98438,"postcode":"SA19 6NP","la":"Carmarthenshire","era":"trad","nn":1210,"risk":53,"cat":"amber"},{"name":"THE SOUTH STAR","lat":51.68194,"lon":-4.1477,"postcode":"SA15 1NB","la":"Carmarthenshire","era":"other","nn":162,"risk":23,"cat":"green"},{"name":"THE VINE INN","lat":51.67792,"lon":-4.16251,"postcode":"SA15 1AN","la":"Carmarthenshire","era":"trad","nn":0,"risk":22,"cat":"green"},{"name":"The Warren","lat":51.85696,"lon":-4.30988,"postcode":"SA31 1PX","la":"Carmarthenshire","era":"other","nn":44,"risk":22,"cat":"green"},{"name":"THOMAS ARMS HOTEL","lat":51.68562,"lon":-4.16124,"postcode":"SA15 3JF","la":"Carmarthenshire","era":"trad","nn":117,"risk":23,"cat":"green"},{"name":"THREE COMPASSES","lat":52.03821,"lon":-4.46786,"postcode":"SA38 9AJ","la":"Carmarthenshire","era":"other","nn":33,"risk":22,"cat":"green"},{"name":"THREE HORSE SHOES","lat":52.04475,"lon":-4.52594,"postcode":"SA38 9JL","la":"Carmarthenshire","era":"trad","nn":2,"risk":42,"cat":"amber"},{"name":"TOWY BRIDGE INN","lat":52.08171,"lon":-3.79732,"postcode":"SA20 0PE","la":"Carmarthenshire","era":"trad","nn":9603,"risk":79,"cat":"red"},{"name":"Tregyb Arms","lat":51.81231,"lon":-3.86375,"postcode":"SA18 1BY","la":"Carmarthenshire","era":"trad","nn":349,"risk":29,"cat":"green"},{"name":"TRIMSARAN RFC","lat":51.71731,"lon":-4.23809,"postcode":"SA17 4AG","la":"Carmarthenshire","era":"other","nn":774,"risk":47,"cat":"amber"},{"name":"TRIMSARAN SPORTS & SOCIAL CLUB","lat":51.72182,"lon":-4.24665,"postcode":"SA17 4DG","la":"Carmarthenshire","era":"mod","nn":774,"risk":47,"cat":"amber"},{"name":"TYCROES RUGBY FOOTBALL CLUB","lat":51.77563,"lon":-4.02046,"postcode":"SA18 3NY","la":"Carmarthenshire","era":"other","nn":1402,"risk":54,"cat":"amber"},{"name":"Uncle Bobs @ The Raven","lat":51.80099,"lon":-3.90174,"postcode":"SA18 1ND","la":"Carmarthenshire","era":"other","nn":0,"risk":39,"cat":"amber"},{"name":"UPPER TUMBLE SOCIAL CLUB (Clwb Top)","lat":51.78149,"lon":-4.11064,"postcode":"SA14 6BW","la":"Carmarthenshire","era":"mod","nn":780,"risk":47,"cat":"amber"},{"name":"Vine","lat":51.85678,"lon":-4.30561,"postcode":"SA31 1BD","la":"Carmarthenshire","era":"other","nn":58,"risk":22,"cat":"green"},{"name":"WHEATEN SHEAF","lat":51.86584,"lon":-4.26973,"postcode":"SA31 2JA","la":"Carmarthenshire","era":"trad","nn":28,"risk":42,"cat":"amber"},{"name":"WHITE HART","lat":52.04474,"lon":-4.52597,"postcode":"SA38 9JL","la":"Carmarthenshire","era":"trad","nn":2,"risk":42,"cat":"amber"},{"name":"WHITE HART INN","lat":51.88739,"lon":-4.00014,"postcode":"SA19 6RS","la":"Carmarthenshire","era":"trad","nn":0,"risk":24,"cat":"green"},{"name":"White Hart Inn","lat":51.8274,"lon":-4.17333,"postcode":"SA32 8NT","la":"Carmarthenshire","era":"trad","nn":213,"risk":43,"cat":"amber"},{"name":"WHITE HORSE INN","lat":51.88303,"lon":-3.9925,"postcode":"SA19 6EN","la":"Carmarthenshire","era":"trad","nn":230,"risk":26,"cat":"green"},{"name":"WHITE LION HOTEL","lat":51.76802,"lon":-4.3688,"postcode":"SA17 5RW","la":"Carmarthenshire","era":"trad","nn":641,"risk":46,"cat":"amber"},{"name":"WHITE MILL INN","lat":51.87053,"lon":-4.23316,"postcode":"SA32 7EN","la":"Carmarthenshire","era":"trad","nn":2556,"risk":62,"cat":"red"},{"name":"WHITEHALL HOTEL","lat":51.99392,"lon":-3.79441,"postcode":"SA20 0PU","la":"Carmarthenshire","era":"other","nn":162,"risk":23,"cat":"green"},{"name":"WHITLAND CRICKET CLUB","lat":51.82288,"lon":-4.59727,"postcode":"SA34 0HR","la":"Carmarthenshire","era":"other","nn":841,"risk":48,"cat":"amber"},{"name":"WHITLAND RUGBY CLUB","lat":51.81878,"lon":-4.61516,"postcode":"SA34 0AA","la":"Carmarthenshire","era":"other","nn":91,"risk":28,"cat":"green"},{"name":"WHITLAND SPORTS & SOCIAL CLUB","lat":51.81662,"lon":-4.61331,"postcode":"SA34 0QE","la":"Carmarthenshire","era":"mod","nn":207,"risk":28,"cat":"green"},{"name":"Whitstable Inn","lat":51.67045,"lon":-4.15681,"postcode":"SA15 2HH","la":"Carmarthenshire","era":"trad","nn":406,"risk":25,"cat":"green"},{"name":"Y POLYN","lat":51.85469,"lon":-4.18592,"postcode":"SA32 7LH","la":"Carmarthenshire","era":"other","nn":1181,"risk":53,"cat":"amber"},{"name":"Y Sgwar","lat":52.0369,"lon":-4.46987,"postcode":"SA38 9BG","la":"Carmarthenshire","era":"other","nn":0,"risk":22,"cat":"green"},{"name":"Y Stabal","lat":51.99205,"lon":-4.35242,"postcode":"SA44 5AF","la":"Carmarthenshire","era":"other","nn":960,"risk":49,"cat":"amber"},{"name":"YORK PALACE","lat":51.68089,"lon":-4.1632,"postcode":"SA15 3YA","la":"Carmarthenshire","era":"other","nn":65,"risk":22,"cat":"green"},{"name":"YR HEN VIC","lat":51.88405,"lon":-3.99542,"postcode":"SA19 6DF","la":"Carmarthenshire","era":"other","nn":0,"risk":24,"cat":"green"},{"name":"ABERAERON SPORTS CLUB","lat":52.24035,"lon":-4.25492,"postcode":"SA46 0DT","la":"Ceredigion","era":"other","nn":484,"risk":35,"cat":"amber"},{"name":"Aberaeron Yacht & Watersports Club","lat":52.24216,"lon":-4.26546,"postcode":"SA46 0BE","la":"Ceredigion","era":"other","nn":366,"risk":47,"cat":"amber"},{"name":"Black Lion Hotel","lat":52.2126,"lon":-4.35891,"postcode":"SA45 9PT","la":"Ceredigion","era":"trad","nn":113,"risk":28,"cat":"green"},{"name":"BROWNHILL CARAVAN PARK SOCIAL CLUB","lat":52.17254,"lon":-4.34344,"postcode":"SA44 6JZ","la":"Ceredigion","era":"mod","nn":3359,"risk":73,"cat":"red"},{"name":"Cardigan Bowls Club","lat":52.09396,"lon":-4.66018,"postcode":"SA43 1PH","la":"Ceredigion","era":"other","nn":676,"risk":52,"cat":"amber"},{"name":"CARDIGAN GOLF CLUB","lat":52.1172,"lon":-4.68298,"postcode":"SA43 1PR","la":"Ceredigion","era":"other","nn":527,"risk":51,"cat":"amber"},{"name":"CARDIGAN RUGBY FOOTBALL CLUB","lat":52.08864,"lon":-4.65537,"postcode":"SA43 1AE","la":"Ceredigion","era":"other","nn":467,"risk":30,"cat":"green"},{"name":"CILGWYN ARMS","lat":52.03907,"lon":-4.31179,"postcode":"SA44 4BA","la":"Ceredigion","era":"trad","nn":449,"risk":48,"cat":"amber"},{"name":"CLWB RYGBI ABERAERON RUGBY FOOTBALL CLUB","lat":52.24678,"lon":-4.24848,"postcode":"SA46 0JR","la":"Ceredigion","era":"other","nn":838,"risk":50,"cat":"amber"},{"name":"FFOSTRASOL ARMS","lat":52.10251,"lon":-4.37734,"postcode":"SA44 4SY","la":"Ceredigion","era":"trad","nn":6356,"risk":85,"cat":"red"},{"name":"Gilfach Holiday Park Club","lat":52.16803,"lon":-4.43368,"postcode":"SA44 6DQ","la":"Ceredigion","era":"other","nn":5950,"risk":85,"cat":"red"},{"name":"Gilfach Inn","lat":52.17491,"lon":-4.25813,"postcode":"SA48 7QY","la":"Ceredigion","era":"trad","nn":5823,"risk":85,"cat":"red"},{"name":"Helyg Fach Caravan Site","lat":52.13085,"lon":-4.53626,"postcode":"SA43 2EB","la":"Ceredigion","era":"other","nn":743,"risk":52,"cat":"amber"},{"name":"LAMB INN","lat":52.08281,"lon":-4.65768,"postcode":"SA43 1BS","la":"Ceredigion","era":"trad","nn":42,"risk":27,"cat":"green"},{"name":"LAMPETER BOWLING CLUB","lat":52.11348,"lon":-4.08303,"postcode":"SA48 7BJ","la":"Ceredigion","era":"other","nn":274,"risk":34,"cat":"amber"},{"name":"Lampeter Rugby Club","lat":52.11874,"lon":-4.07848,"postcode":"SA48 7JA","la":"Ceredigion","era":"other","nn":662,"risk":37,"cat":"amber"},{"name":"MOORLANDS CARAVAN PARK SOCIAL CLUB","lat":52.16619,"lon":-4.04646,"postcode":"SA48 8NN","la":"Ceredigion","era":"mod","nn":5711,"risk":85,"cat":"red"},{"name":"NEW QUAY BOWLING CLUB","lat":52.21053,"lon":-4.35931,"postcode":"SA45 9QL","la":"Ceredigion","era":"other","nn":105,"risk":28,"cat":"green"},{"name":"New Quay F. C. Sports Club","lat":52.21147,"lon":-4.35942,"postcode":"SA45 9QJ","la":"Ceredigion","era":"other","nn":46,"risk":27,"cat":"green"},{"name":"NEW QUAY YACHT CLUB","lat":52.2157,"lon":-4.35776,"postcode":"SA45 9NW","la":"Ceredigion","era":"other","nn":142,"risk":28,"cat":"green"},{"name":"Ocean Heights Country Club","lat":52.20006,"lon":-4.36378,"postcode":"SA45 9RL","la":"Ceredigion","era":"other","nn":1203,"risk":58,"cat":"amber"},{"name":"PENLLWYNDU INN","lat":52.08293,"lon":-4.56878,"postcode":"SA43 2LY","la":"Ceredigion","era":"trad","nn":4916,"risk":84,"cat":"red"},{"name":"Pilbach Holiday Park (Club House)","lat":52.10118,"lon":-4.47037,"postcode":"SA44 5RT","la":"Ceredigion","era":"other","nn":5579,"risk":85,"cat":"red"},{"name":"Quay Street Studios","lat":52.08195,"lon":-4.66177,"postcode":"SA43 1HU","la":"Ceredigion","era":"mod","nn":143,"risk":28,"cat":"green"},{"name":"Red Lion Inn","lat":52.08275,"lon":-4.65829,"postcode":"SA43 1DD","la":"Ceredigion","era":"trad","nn":42,"risk":27,"cat":"green"},{"name":"Sea Horse Inn","lat":52.21177,"lon":-4.35988,"postcode":"SA45 9QH","la":"Ceredigion","era":"trad","nn":46,"risk":27,"cat":"green"},{"name":"SHIP INN","lat":52.13376,"lon":-4.54606,"postcode":"SA43 2DB","la":"Ceredigion","era":"trad","nn":743,"risk":52,"cat":"amber"},{"name":"Tafarn Dyffryn Aeron/Vale of Aeron","lat":52.18044,"lon":-4.15252,"postcode":"SA48 8AE","la":"Ceredigion","era":"other","nn":7227,"risk":85,"cat":"red"},{"name":"Tafarn y Cadwgan","lat":52.24317,"lon":-4.26034,"postcode":"SA46 0AU","la":"Ceredigion","era":"other","nn":366,"risk":35,"cat":"amber"},{"name":"Teifi Boating Club","lat":52.11249,"lon":-4.68378,"postcode":"SA43 1PP","la":"Ceredigion","era":"other","nn":527,"risk":51,"cat":"amber"},{"name":"Teifi Lodge of Freemasons","lat":52.08449,"lon":-4.65636,"postcode":"SA43 1EH","la":"Ceredigion","era":"trad","nn":207,"risk":28,"cat":"green"},{"name":"The Do Lectures","lat":52.07112,"lon":-4.66009,"postcode":"SA43 3DR","la":"Ceredigion","era":"other","nn":1210,"risk":58,"cat":"amber"},{"name":"THE IVY BUSH INN","lat":52.1128,"lon":-4.07917,"postcode":"SA48 7BA","la":"Ceredigion","era":"trad","nn":119,"risk":33,"cat":"amber"},{"name":"The Kings Arms","lat":52.04255,"lon":-4.30844,"postcode":"SA44 4DL","la":"Ceredigion","era":"trad","nn":449,"risk":48,"cat":"amber"},{"name":"The Nags Head","lat":52.11236,"lon":-4.07759,"postcode":"SA48 7HG","la":"Ceredigion","era":"trad","nn":119,"risk":33,"cat":"amber"},{"name":"The Saddlers Arms","lat":52.08313,"lon":-4.66094,"postcode":"SA43 1JG","la":"Ceredigion","era":"trad","nn":143,"risk":28,"cat":"green"},{"name":"The Sup Shack","lat":52.21559,"lon":-4.35983,"postcode":"SA45 9NR","la":"Ceredigion","era":"other","nn":142,"risk":28,"cat":"green"},{"name":"8 Ballers Ltd","lat":51.59262,"lon":-3.78016,"postcode":"SA13 1JD","la":"Neath Port Talbot","era":"other","nn":97,"risk":26,"cat":"green"},{"name":"Aberavon & Port Talbot RFC","lat":51.59333,"lon":-3.7768,"postcode":"SA13 1AB","la":"Neath Port Talbot","era":"trad","nn":245,"risk":27,"cat":"green"},{"name":"Aberavon Green Stars RFC","lat":51.58636,"lon":-3.8031,"postcode":"SA12 6BP","la":"Neath Port Talbot","era":"other","nn":1010,"risk":55,"cat":"amber"},{"name":"Aberavon Harlequins RFC","lat":51.59695,"lon":-3.79653,"postcode":"SA12 6UP","la":"Neath Port Talbot","era":"other","nn":290,"risk":30,"cat":"green"},{"name":"Aberavon South Ward Liberal Cl","lat":51.59436,"lon":-3.79616,"postcode":"SA12 6NE","la":"Neath Port Talbot","era":"other","nn":290,"risk":30,"cat":"green"},{"name":"Afan Lido Football Club","lat":51.59361,"lon":-3.81489,"postcode":"SA12 6QP","la":"Neath Port Talbot","era":"other","nn":218,"risk":44,"cat":"amber"},{"name":"Afan Masonic Club","lat":51.59636,"lon":-3.78128,"postcode":"SA13 1US","la":"Neath Port Talbot","era":"trad","nn":40,"risk":26,"cat":"green"},{"name":"Afan Tavern","lat":51.61446,"lon":-3.76003,"postcode":"SA12 9AS","la":"Neath Port Talbot","era":"other","nn":192,"risk":27,"cat":"green"},{"name":"Allan Leonard Lewis VC (Amber Taverns Ltd)","lat":51.66314,"lon":-3.80373,"postcode":"SA11 1DT","la":"Neath Port Talbot","era":"other","nn":96,"risk":26,"cat":"green"},{"name":"B2M (Rumours Port Talbot Ltd t/a B2M)","lat":51.59321,"lon":-3.7812,"postcode":"SA13 1NN","la":"Neath Port Talbot","era":"trad","nn":10,"risk":26,"cat":"green"},{"name":"Baglan Rugby Football Club","lat":51.62609,"lon":-3.81749,"postcode":"SA12 8LH","la":"Neath Port Talbot","era":"other","nn":548,"risk":29,"cat":"green"},{"name":"Bagle Brook Beefeater","lat":51.61587,"lon":-3.80699,"postcode":"SA12 8ES","la":"Neath Port Talbot","era":"other","nn":468,"risk":49,"cat":"amber"},{"name":"Blue Scar Miners Welfare Club","lat":51.63723,"lon":-3.74812,"postcode":"SA12 9TP","la":"Neath Port Talbot","era":"other","nn":338,"risk":33,"cat":"amber"},{"name":"Britannia Inn","lat":51.6307,"lon":-3.82138,"postcode":"SA11 2HQ","la":"Neath Port Talbot","era":"trad","nn":161,"risk":27,"cat":"green"},{"name":"Briton Ferry Constitutional Club Inst. Ltd","lat":51.63289,"lon":-3.81678,"postcode":"SA11 2YY","la":"Neath Port Talbot","era":"other","nn":117,"risk":26,"cat":"green"},{"name":"Briton Ferry Llansawel AFC","lat":51.65343,"lon":-3.80865,"postcode":"SA11 2BS","la":"Neath Port Talbot","era":"other","nn":109,"risk":26,"cat":"green"},{"name":"Briton Ferry Rugby Social Club","lat":51.64121,"lon":-3.81285,"postcode":"SA11 2TL","la":"Neath Port Talbot","era":"mod","nn":470,"risk":31,"cat":"amber"},{"name":"Briton Ferry Workingmans Club","lat":51.63349,"lon":-3.81817,"postcode":"SA11 2BZ","la":"Neath Port Talbot","era":"trad","nn":75,"risk":26,"cat":"green"},{"name":"Bryn Rugby Sports & Social Club","lat":51.6179,"lon":-3.71328,"postcode":"SA13 2RS","la":"Neath Port Talbot","era":"mod","nn":558,"risk":49,"cat":"amber"},{"name":"Brynamman RFC","lat":51.80681,"lon":-3.87093,"postcode":"SA18 1SW","la":"Neath Port Talbot","era":"other","nn":537,"risk":47,"cat":"amber"},{"name":"Bryncoch Sports Club","lat":51.68793,"lon":-3.82942,"postcode":"SA10 7DQ","la":"Neath Port Talbot","era":"other","nn":736,"risk":48,"cat":"amber"},{"name":"Bryncoch Youth Club","lat":51.68612,"lon":-3.81914,"postcode":"SA10 7TT","la":"Neath Port Talbot","era":"other","nn":736,"risk":48,"cat":"amber"},{"name":"Bryndulais Hotel","lat":51.76474,"lon":-3.71695,"postcode":"SA10 9DT","la":"Neath Port Talbot","era":"other","nn":394,"risk":46,"cat":"amber"},{"name":"Castell Nedd","lat":51.66423,"lon":-3.80583,"postcode":"SA11 1RS","la":"Neath Port Talbot","era":"other","nn":95,"risk":26,"cat":"green"},{"name":"Castle Bingo","lat":51.65408,"lon":-3.80984,"postcode":"SA11 1AS","la":"Neath Port Talbot","era":"other","nn":109,"risk":26,"cat":"green"},{"name":"Celtic Lodge","lat":51.65627,"lon":-3.79832,"postcode":"SA11 1BZ","la":"Neath Port Talbot","era":"other","nn":451,"risk":29,"cat":"green"},{"name":"Cimla RFC","lat":51.65244,"lon":-3.79215,"postcode":"SA11 1JN","la":"Neath Port Talbot","era":"other","nn":602,"risk":47,"cat":"amber"},{"name":"Colliers Arms","lat":51.66092,"lon":-3.84358,"postcode":"SA10 6ET","la":"Neath Port Talbot","era":"trad","nn":121,"risk":26,"cat":"green"},{"name":"Colliers Arms","lat":51.70433,"lon":-3.87048,"postcode":"SA8 4BX","la":"Neath Port Talbot","era":"trad","nn":620,"risk":50,"cat":"amber"},{"name":"Colliers Arms","lat":51.64281,"lon":-3.75256,"postcode":"SA12 9TY","la":"Neath Port Talbot","era":"trad","nn":325,"risk":45,"cat":"amber"},{"name":"Croeserw Social Club","lat":51.64297,"lon":-3.64236,"postcode":"SA13 3RS","la":"Neath Port Talbot","era":"mod","nn":692,"risk":48,"cat":"amber"},{"name":"Crown & Sceptre","lat":51.6713,"lon":-3.80206,"postcode":"SA10 8AP","la":"Neath Port Talbot","era":"trad","nn":265,"risk":27,"cat":"green"},{"name":"Crynant R. F. Supporters Club","lat":51.73068,"lon":-3.74731,"postcode":"SA10 8NP","la":"Neath Port Talbot","era":"other","nn":648,"risk":50,"cat":"amber"},{"name":"Cwmafan Football Club","lat":51.61619,"lon":-3.75471,"postcode":"SA12 9DN","la":"Neath Port Talbot","era":"other","nn":151,"risk":27,"cat":"green"},{"name":"Cwmavon RFC","lat":51.61606,"lon":-3.75742,"postcode":"SA12 9DF","la":"Neath Port Talbot","era":"other","nn":188,"risk":27,"cat":"green"},{"name":"Cwmavon Social Club","lat":51.61754,"lon":-3.75457,"postcode":"SA12 9DW","la":"Neath Port Talbot","era":"mod","nn":151,"risk":27,"cat":"green"},{"name":"Cwmgors RFC","lat":51.79305,"lon":-3.87508,"postcode":"SA18 1UN","la":"Neath Port Talbot","era":"other","nn":1023,"risk":55,"cat":"amber"},{"name":"Cwmgwrach RFC","lat":51.73425,"lon":-3.63957,"postcode":"SA11 5TB","la":"Neath Port Talbot","era":"other","nn":1689,"risk":60,"cat":"amber"},{"name":"Cwmllynfell RFC","lat":51.79786,"lon":-3.81991,"postcode":"SA9 2FJ","la":"Neath Port Talbot","era":"other","nn":1370,"risk":58,"cat":"amber"},{"name":"Cymmer Youth Club","lat":51.65143,"lon":-3.64803,"postcode":"SA13 3EL","la":"Neath Port Talbot","era":"other","nn":1018,"risk":55,"cat":"amber"},{"name":"David Protheroe","lat":51.6617,"lon":-3.80635,"postcode":"SA11 1LS","la":"Neath Port Talbot","era":"other","nn":135,"risk":26,"cat":"green"},{"name":"Dillwyn Arms","lat":51.71989,"lon":-3.85151,"postcode":"SA8 4EB","la":"Neath Port Talbot","era":"trad","nn":1,"risk":25,"cat":"green"},{"name":"Doherty's","lat":51.74601,"lon":-3.62405,"postcode":"SA11 5BR","la":"Neath Port Talbot","era":"other","nn":301,"risk":45,"cat":"amber"},{"name":"Dyffryn Arms","lat":51.69328,"lon":-3.82202,"postcode":"SA10 7YF","la":"Neath Port Talbot","era":"trad","nn":783,"risk":48,"cat":"amber"},{"name":"Eden Wine Bar & Club","lat":51.66291,"lon":-3.80647,"postcode":"SA11 1PU","la":"Neath Port Talbot","era":"mod","nn":47,"risk":26,"cat":"green"},{"name":"Forge Tavern","lat":51.59604,"lon":-3.78154,"postcode":"SA13 1NU","la":"Neath Port Talbot","era":"trad","nn":40,"risk":26,"cat":"green"},{"name":"Fresh!","lat":51.59097,"lon":-3.77906,"postcode":"SA13 1HN","la":"Neath Port Talbot","era":"other","nn":0,"risk":25,"cat":"green"},{"name":"G2 Sports Bar & Restaurant","lat":51.65573,"lon":-3.60197,"postcode":"SA13 3TD","la":"Neath Port Talbot","era":"mod","nn":556,"risk":49,"cat":"amber"},{"name":"Glyncorrwg RFC","lat":51.6768,"lon":-3.62885,"postcode":"SA13 3DS","la":"Neath Port Talbot","era":"other","nn":237,"risk":47,"cat":"amber"},{"name":"Glynneath RFC Ltd 10685635","lat":51.74926,"lon":-3.61914,"postcode":"SA11 5BD","la":"Neath Port Talbot","era":"other","nn":352,"risk":45,"cat":"amber"},{"name":"Glynneath Youth Club","lat":51.74611,"lon":-3.61968,"postcode":"SA11 5DB","la":"Neath Port Talbot","era":"other","nn":301,"risk":45,"cat":"amber"},{"name":"Godre'r-graig Workingmens Club","lat":51.75658,"lon":-3.79378,"postcode":"SA9 2DE","la":"Neath Port Talbot","era":"trad","nn":526,"risk":34,"cat":"amber"},{"name":"Goytre United Football Club","lat":51.5951,"lon":-3.74736,"postcode":"SA13 2YP","la":"Neath Port Talbot","era":"other","nn":1919,"risk":61,"cat":"red"},{"name":"Green Dragon Public House","lat":51.67299,"lon":-3.79935,"postcode":"SA10 8AU","la":"Neath Port Talbot","era":"trad","nn":265,"risk":32,"cat":"amber"},{"name":"GWRSA Club","lat":51.59342,"lon":-3.78414,"postcode":"SA13 1RU","la":"Neath Port Talbot","era":"other","nn":161,"risk":27,"cat":"green"},{"name":"Gwyn Arms","lat":51.71414,"lon":-3.84593,"postcode":"SA8 3AJ","la":"Neath Port Talbot","era":"trad","nn":481,"risk":29,"cat":"green"},{"name":"Highlander Bar & Restaurant","lat":51.65657,"lon":-3.80483,"postcode":"SA11 1EQ","la":"Neath Port Talbot","era":"mod","nn":247,"risk":27,"cat":"green"},{"name":"Jimmy's Bar","lat":51.59326,"lon":-3.78132,"postcode":"SA13 1NN","la":"Neath Port Talbot","era":"other","nn":10,"risk":26,"cat":"green"},{"name":"Llandarcy Academy of Sports Cafe","lat":51.63991,"lon":-3.85838,"postcode":"SA10 6JD","la":"Neath Port Talbot","era":"other","nn":1310,"risk":57,"cat":"amber"},{"name":"Loyal Order of Moose","lat":51.66474,"lon":-3.80367,"postcode":"SA11 3LU","la":"Neath Port Talbot","era":"other","nn":38,"risk":26,"cat":"green"},{"name":"Merlins","lat":51.65911,"lon":-3.8059,"postcode":"SA11 1NS","la":"Neath Port Talbot","era":"other","nn":265,"risk":27,"cat":"green"},{"name":"Monkstone Cruising & Sailing Club","lat":51.63162,"lon":-3.83413,"postcode":"SA10 6NG","la":"Neath Port Talbot","era":"trad","nn":571,"risk":34,"cat":"amber"},{"name":"Murphy's Main Stage","lat":51.59356,"lon":-3.78069,"postcode":"SA13 1JB","la":"Neath Port Talbot","era":"trad","nn":52,"risk":26,"cat":"green"},{"name":"Naval Social Club","lat":51.60366,"lon":-3.83252,"postcode":"SA12 7PS","la":"Neath Port Talbot","era":"mod","nn":370,"risk":48,"cat":"amber"},{"name":"Neath Athletic R.F.C","lat":51.66489,"lon":-3.80742,"postcode":"SA11 1RP","la":"Neath Port Talbot","era":"other","nn":132,"risk":26,"cat":"green"},{"name":"Neath Cricket Club","lat":51.66245,"lon":-3.79768,"postcode":"SA11 3AW","la":"Neath Port Talbot","era":"other","nn":270,"risk":27,"cat":"green"},{"name":"Neath Golf Club","lat":51.68237,"lon":-3.79964,"postcode":"SA10 8AH","la":"Neath Port Talbot","era":"other","nn":1044,"risk":55,"cat":"amber"},{"name":"Oakwood Inn","lat":51.61341,"lon":-3.76223,"postcode":"SA12 9AP","la":"Neath Port Talbot","era":"trad","nn":192,"risk":27,"cat":"green"},{"name":"Onllwyn Football Club","lat":51.75949,"lon":-3.72273,"postcode":"SA10 9ER","la":"Neath Port Talbot","era":"other","nn":314,"risk":45,"cat":"amber"},{"name":"Onllwyn Welfare Hall","lat":51.77959,"lon":-3.67572,"postcode":"SA10 9HL","la":"Neath Port Talbot","era":"other","nn":2987,"risk":69,"cat":"red"},{"name":"Pennsylvania Public House","lat":51.65521,"lon":-3.80806,"postcode":"SA11 1AR","la":"Neath Port Talbot","era":"other","nn":34,"risk":26,"cat":"green"},{"name":"Pig Iron Tavern","lat":51.59417,"lon":-3.78132,"postcode":"SA13 1JS","la":"Neath Port Talbot","era":"other","nn":0,"risk":25,"cat":"green"},{"name":"Pontardawe Arts Centre","lat":51.71983,"lon":-3.84985,"postcode":"SA8 4ED","la":"Neath Port Talbot","era":"other","nn":61,"risk":26,"cat":"green"},{"name":"Pontardawe Golf Club","lat":51.72867,"lon":-3.85214,"postcode":"SA8 4SH","la":"Neath Port Talbot","era":"other","nn":867,"risk":34,"cat":"amber"},{"name":"Pontardawe Inn Y Gwachel","lat":51.71928,"lon":-3.84984,"postcode":"SA8 4ED","la":"Neath Port Talbot","era":"trad","nn":61,"risk":26,"cat":"green"},{"name":"Pontardawe Rugby Club","lat":51.71762,"lon":-3.85008,"postcode":"SA8 4EG","la":"Neath Port Talbot","era":"other","nn":0,"risk":25,"cat":"green"},{"name":"Pontrhydyfen RFC","lat":51.63508,"lon":-3.74466,"postcode":"SA12 9TH","la":"Neath Port Talbot","era":"other","nn":338,"risk":48,"cat":"amber"},{"name":"Princess Royal Theatre","lat":51.59785,"lon":-3.78398,"postcode":"SA13 1PJ","la":"Neath Port Talbot","era":"trad","nn":250,"risk":27,"cat":"green"},{"name":"Puddlers Arms","lat":51.63339,"lon":-3.82555,"postcode":"SA11 2PS","la":"Neath Port Talbot","era":"trad","nn":415,"risk":28,"cat":"green"},{"name":"Resolven AFC","lat":51.70867,"lon":-3.70343,"postcode":"SA11 4SR","la":"Neath Port Talbot","era":"other","nn":366,"risk":46,"cat":"amber"},{"name":"Resolven Bowls Club","lat":51.71021,"lon":-3.69873,"postcode":"SA11 4HW","la":"Neath Port Talbot","era":"other","nn":366,"risk":46,"cat":"amber"},{"name":"Resolven R.F.C.","lat":51.71079,"lon":-3.69348,"postcode":"SA11 4LY","la":"Neath Port Talbot","era":"other","nn":367,"risk":46,"cat":"amber"},{"name":"Royal British Legion Club","lat":51.59109,"lon":-3.77924,"postcode":"SA13 1HW","la":"Neath Port Talbot","era":"trad","nn":18,"risk":26,"cat":"green"},{"name":"Royal Oak Inn","lat":51.61449,"lon":-3.70736,"postcode":"SA13 2RW","la":"Neath Port Talbot","era":"trad","nn":558,"risk":49,"cat":"amber"},{"name":"Schooners Bar","lat":51.63092,"lon":-3.81907,"postcode":"SA11 2YR","la":"Neath Port Talbot","era":"other","nn":161,"risk":27,"cat":"green"},{"name":"Seaside Social & Labour Club","lat":51.59619,"lon":-3.81064,"postcode":"SA12 6SL","la":"Neath Port Talbot","era":"mod","nn":246,"risk":32,"cat":"amber"},{"name":"Seven Sisters R F C & Kiosk","lat":51.76193,"lon":-3.72043,"postcode":"SA10 9EL","la":"Neath Port Talbot","era":"other","nn":314,"risk":45,"cat":"amber"},{"name":"Shooters Sports Bar","lat":51.66361,"lon":-3.8049,"postcode":"SA11 1RT","la":"Neath Port Talbot","era":"other","nn":87,"risk":26,"cat":"green"},{"name":"Skewen Cricket Club","lat":51.6584,"lon":-3.84673,"postcode":"SA10 6DP","la":"Neath Port Talbot","era":"other","nn":355,"risk":28,"cat":"green"},{"name":"Skewen R F C Ltd","lat":51.65827,"lon":-3.85208,"postcode":"SA10 6HU","la":"Neath Port Talbot","era":"other","nn":0,"risk":25,"cat":"green"},{"name":"Skewen RFC Supporters Social Club","lat":51.65827,"lon":-3.85208,"postcode":"SA10 6HU","la":"Neath Port Talbot","era":"mod","nn":0,"risk":25,"cat":"green"},{"name":"Smiths Arms","lat":51.71105,"lon":-3.82525,"postcode":"SA8 3HB","la":"Neath Port Talbot","era":"trad","nn":1466,"risk":58,"cat":"amber"},{"name":"Smiths Arms","lat":51.66289,"lon":-3.82526,"postcode":"SA10 7DG","la":"Neath Port Talbot","era":"trad","nn":1163,"risk":56,"cat":"amber"},{"name":"Somerset Arms","lat":51.58426,"lon":-3.76897,"postcode":"SA13 1LP","la":"Neath Port Talbot","era":"trad","nn":159,"risk":32,"cat":"amber"},{"name":"Swansea Bay Golf Club","lat":51.62878,"lon":-3.84102,"postcode":"SA10 6JP","la":"Neath Port Talbot","era":"trad","nn":571,"risk":49,"cat":"amber"},{"name":"Taibach RFC","lat":51.58566,"lon":-3.77067,"postcode":"SA13 1LN","la":"Neath Port Talbot","era":"other","nn":48,"risk":26,"cat":"green"},{"name":"Taibach Youth Club","lat":51.58132,"lon":-3.76734,"postcode":"SA13 1NA","la":"Neath Port Talbot","era":"other","nn":345,"risk":33,"cat":"amber"},{"name":"Tairgwaith Workingmens Club","lat":51.7932,"lon":-3.85769,"postcode":"SA18 1YG","la":"Neath Port Talbot","era":"trad","nn":1196,"risk":56,"cat":"amber"},{"name":"Tata Steel Sports and Social Club","lat":51.56772,"lon":-3.74974,"postcode":"SA13 2NF","la":"Neath Port Talbot","era":"mod","nn":750,"risk":51,"cat":"amber"},{"name":"The Amazon","lat":51.60419,"lon":-3.82723,"postcode":"SA12 7TR","la":"Neath Port Talbot","era":"other","nn":370,"risk":48,"cat":"amber"},{"name":"The Arch Bar & Nightclub","lat":51.66263,"lon":-3.80789,"postcode":"SA11 1SB","la":"Neath Port Talbot","era":"mod","nn":103,"risk":26,"cat":"green"},{"name":"The Bell Inn","lat":51.58523,"lon":-3.77067,"postcode":"SA13 1LG","la":"Neath Port Talbot","era":"trad","nn":48,"risk":26,"cat":"green"},{"name":"The Bloom Inn","lat":51.66094,"lon":-3.84182,"postcode":"SA10 6EW","la":"Neath Port Talbot","era":"trad","nn":121,"risk":26,"cat":"green"},{"name":"The Borough Arms","lat":51.65726,"lon":-3.80832,"postcode":"SA11 1PH","la":"Neath Port Talbot","era":"trad","nn":197,"risk":27,"cat":"green"},{"name":"The Brit","lat":51.61192,"lon":-3.76541,"postcode":"SA12 9AH","la":"Neath Port Talbot","era":"other","nn":275,"risk":27,"cat":"green"},{"name":"The Bryncoch Inn","lat":51.67643,"lon":-3.81865,"postcode":"SA10 7EB","la":"Neath Port Talbot","era":"trad","nn":1079,"risk":55,"cat":"amber"},{"name":"The Castle Hotel","lat":51.72088,"lon":-3.85241,"postcode":"SA8 4HU","la":"Neath Port Talbot","era":"other","nn":125,"risk":26,"cat":"green"},{"name":"The Cross Keys","lat":51.66211,"lon":-3.80155,"postcode":"SA11 3AA","la":"Neath Port Talbot","era":"trad","nn":189,"risk":27,"cat":"green"},{"name":"The Crown Inn","lat":51.63791,"lon":-3.8171,"postcode":"SA11 2AX","la":"Neath Port Talbot","era":"trad","nn":436,"risk":28,"cat":"green"},{"name":"The Duke Of Wellington","lat":51.66444,"lon":-3.80341,"postcode":"SA11 3NA","la":"Neath Port Talbot","era":"trad","nn":38,"risk":26,"cat":"green"},{"name":"The Ferryman Inn","lat":51.63399,"lon":-3.81743,"postcode":"SA11 2AQ","la":"Neath Port Talbot","era":"trad","nn":75,"risk":26,"cat":"green"},{"name":"The Flying Pig","lat":51.76129,"lon":-3.79308,"postcode":"SA9 2BS","la":"Neath Port Talbot","era":"other","nn":423,"risk":33,"cat":"amber"},{"name":"The Gradon Pub And Restaurant","lat":51.73641,"lon":-3.74901,"postcode":"SA10 8PF","la":"Neath Port Talbot","era":"other","nn":648,"risk":50,"cat":"amber"},{"name":"The Guardsman","lat":51.78422,"lon":-3.87928,"postcode":"SA18 1PT","la":"Neath Port Talbot","era":"other","nn":1023,"risk":55,"cat":"amber"},{"name":"The Lord Caradoc","lat":51.59417,"lon":-3.78216,"postcode":"SA13 1NW","la":"Neath Port Talbot","era":"other","nn":58,"risk":26,"cat":"green"},{"name":"The Margam Deer","lat":51.60523,"lon":-3.80801,"postcode":"SA12 7BZ","la":"Neath Port Talbot","era":"other","nn":1021,"risk":55,"cat":"amber"},{"name":"The New Exeter","lat":51.6555,"lon":-3.80797,"postcode":"SA11 1AP","la":"Neath Port Talbot","era":"other","nn":34,"risk":26,"cat":"green"},{"name":"The New Swan Hotel","lat":51.76692,"lon":-3.78113,"postcode":"SA9 2HY","la":"Neath Port Talbot","era":"trad","nn":422,"risk":33,"cat":"amber"},{"name":"The Old Market Tavern","lat":51.66313,"lon":-3.8059,"postcode":"SA11 1PY","la":"Neath Port Talbot","era":"other","nn":47,"risk":26,"cat":"green"},{"name":"The Other Place","lat":51.71762,"lon":-3.85008,"postcode":"SA8 4EG","la":"Neath Port Talbot","era":"other","nn":0,"risk":25,"cat":"green"},{"name":"The Pink Geranium","lat":51.71989,"lon":-3.85153,"postcode":"SA8 4EB","la":"Neath Port Talbot","era":"other","nn":1,"risk":25,"cat":"green"},{"name":"The Red Dragon","lat":51.59412,"lon":-3.81184,"postcode":"SA12 6JZ","la":"Neath Port Talbot","era":"trad","nn":218,"risk":44,"cat":"amber"},{"name":"The Red Lion","lat":51.59097,"lon":-3.77906,"postcode":"SA13 1HN","la":"Neath Port Talbot","era":"trad","nn":0,"risk":25,"cat":"green"},{"name":"The Rock","lat":51.65858,"lon":-3.84123,"postcode":"SA10 6AD","la":"Neath Port Talbot","era":"other","nn":265,"risk":27,"cat":"green"},{"name":"The Rolling Mill","lat":51.61934,"lon":-3.75281,"postcode":"SA12 9EW","la":"Neath Port Talbot","era":"trad","nn":234,"risk":27,"cat":"green"},{"name":"The Towers Swansea Bay Ltd","lat":51.62833,"lon":-3.86188,"postcode":"SA10 6JL","la":"Neath Port Talbot","era":"trad","nn":1310,"risk":57,"cat":"amber"},{"name":"The Welcome to Town","lat":51.59417,"lon":-3.78132,"postcode":"SA13 1JS","la":"Neath Port Talbot","era":"other","nn":0,"risk":25,"cat":"green"},{"name":"Tonmawr RFC","lat":51.64573,"lon":-3.75232,"postcode":"SA12 9UB","la":"Neath Port Talbot","era":"other","nn":325,"risk":45,"cat":"amber"},{"name":"Tonna Rugby Football Club","lat":51.67388,"lon":-3.77351,"postcode":"SA11 3HX","la":"Neath Port Talbot","era":"other","nn":1058,"risk":55,"cat":"amber"},{"name":"Travellers Well","lat":51.66065,"lon":-3.85245,"postcode":"SA10 6RG","la":"Neath Port Talbot","era":"other","nn":267,"risk":27,"cat":"green"},{"name":"Travellers Well","lat":51.73701,"lon":-3.86606,"postcode":"SA8 4SS","la":"Neath Port Talbot","era":"other","nn":1333,"risk":57,"cat":"amber"},{"name":"Trebanos Rugby Limited","lat":51.70893,"lon":-3.86539,"postcode":"SA8 4BN","la":"Neath Port Talbot","era":"other","nn":620,"risk":50,"cat":"amber"},{"name":"Tunnel Hotel","lat":51.65975,"lon":-3.60677,"postcode":"SA13 3TY","la":"Neath Port Talbot","era":"other","nn":556,"risk":49,"cat":"amber"},{"name":"Twelve Knights","lat":51.57271,"lon":-3.75705,"postcode":"SA13 2DB","la":"Neath Port Talbot","era":"other","nn":750,"risk":51,"cat":"amber"},{"name":"Tyn y Twr Tavern","lat":51.61708,"lon":-3.8005,"postcode":"SA12 8YB","la":"Neath Port Talbot","era":"other","nn":468,"risk":49,"cat":"amber"},{"name":"Wernfawr Inn","lat":51.76404,"lon":-3.78884,"postcode":"SA9 2LX","la":"Neath Port Talbot","era":"trad","nn":388,"risk":31,"cat":"amber"},{"name":"Workingmens Institute & Memorial Hall","lat":51.6783,"lon":-3.6264,"postcode":"SA13 3AB","la":"Neath Port Talbot","era":"trad","nn":237,"risk":47,"cat":"amber"},{"name":"Ynysmeudwy AFC","lat":51.73885,"lon":-3.82346,"postcode":"SA8 4QL","la":"Neath Port Talbot","era":"other","nn":2276,"risk":64,"cat":"red"},{"name":"Ynysygerwn Cricket Club","lat":51.68309,"lon":-3.76969,"postcode":"SA10 8HG","la":"Neath Port Talbot","era":"other","nn":1058,"risk":55,"cat":"amber"},{"name":"Ystalyfera Rugby Football and Cricket Club","lat":51.76248,"lon":-3.7838,"postcode":"SA9 2ER","la":"Neath Port Talbot","era":"other","nn":388,"risk":28,"cat":"green"},{"name":"Alma Inn","lat":51.68739,"lon":-4.94616,"postcode":"SA72 6QS","la":"Pembrokeshire","era":"trad","nn":359,"risk":27,"cat":"green"},{"name":"Alpha Inn","lat":51.7821,"lon":-4.64115,"postcode":"SA34 0NL","la":"Pembrokeshire","era":"trad","nn":0,"risk":44,"cat":"amber"},{"name":"Amroth Arms","lat":51.73228,"lon":-4.65968,"postcode":"SA67 8NG","la":"Pembrokeshire","era":"trad","nn":3576,"risk":72,"cat":"red"},{"name":"Angel Inn","lat":51.79891,"lon":-4.7442,"postcode":"SA67 7AS","la":"Pembrokeshire","era":"trad","nn":0,"risk":24,"cat":"green"},{"name":"Angel Inn","lat":51.86221,"lon":-4.73035,"postcode":"SA66 7TG","la":"Pembrokeshire","era":"trad","nn":2415,"risk":64,"cat":"red"},{"name":"Artramont Arms","lat":51.92885,"lon":-5.15815,"postcode":"SA62 5JP","la":"Pembrokeshire","era":"trad","nn":2365,"risk":63,"cat":"red"},{"name":"Avondale","lat":51.71237,"lon":-5.04587,"postcode":"SA73 3LU","la":"Pembrokeshire","era":"other","nn":259,"risk":26,"cat":"green"},{"name":"Balfour Conservative Club","lat":51.8015,"lon":-4.96781,"postcode":"SA61 1BG","la":"Pembrokeshire","era":"other","nn":0,"risk":24,"cat":"green"},{"name":"Begelly Arms Hotel","lat":51.73027,"lon":-4.72805,"postcode":"SA68 0YF","la":"Pembrokeshire","era":"trad","nn":925,"risk":48,"cat":"amber"},{"name":"Bella Roma","lat":51.79833,"lon":-4.98234,"postcode":"SA61 1BS","la":"Pembrokeshire","era":"other","nn":528,"risk":28,"cat":"green"},{"name":"Bennetts Navy Tavern","lat":51.9928,"lon":-4.97862,"postcode":"SA65 9AR","la":"Pembrokeshire","era":"other","nn":0,"risk":24,"cat":"green"},{"name":"Billycan","lat":51.67103,"lon":-4.69984,"postcode":"SA70 7HS","la":"Pembrokeshire","era":"other","nn":24,"risk":24,"cat":"green"},{"name":"Bridge End Inn","lat":51.98009,"lon":-4.93228,"postcode":"SA65 9TB","la":"Pembrokeshire","era":"trad","nn":2991,"risk":68,"cat":"red"},{"name":"Bristol trader","lat":51.79928,"lon":-4.96626,"postcode":"SA61 1BE","la":"Pembrokeshire","era":"other","nn":269,"risk":26,"cat":"green"},{"name":"Bull Inn","lat":51.80663,"lon":-4.96574,"postcode":"SA61 2PP","la":"Pembrokeshire","era":"trad","nn":202,"risk":26,"cat":"green"},{"name":"Bush Tavern","lat":51.69183,"lon":-4.94079,"postcode":"SA72 6DE","la":"Pembrokeshire","era":"other","nn":92,"risk":25,"cat":"green"},{"name":"Cambrian Inn","lat":51.99361,"lon":-4.9746,"postcode":"SA65 9HL","la":"Pembrokeshire","era":"trad","nn":58,"risk":25,"cat":"green"},{"name":"Carew Inn","lat":51.69805,"lon":-4.82671,"postcode":"SA70 8SL","la":"Pembrokeshire","era":"trad","nn":959,"risk":51,"cat":"amber"},{"name":"Castle Hotel","lat":51.7736,"lon":-5.10687,"postcode":"SA62 3UG","la":"Pembrokeshire","era":"other","nn":942,"risk":51,"cat":"amber"},{"name":"Castle Inn","lat":52.01622,"lon":-4.8336,"postcode":"SA42 0TB","la":"Pembrokeshire","era":"trad","nn":87,"risk":27,"cat":"green"},{"name":"Castle Inn","lat":51.67579,"lon":-4.9171,"postcode":"SA71 4JS","la":"Pembrokeshire","era":"trad","nn":40,"risk":27,"cat":"green"},{"name":"Circles Night Club","lat":51.71304,"lon":-5.03955,"postcode":"SA73 3AB","la":"Pembrokeshire","era":"other","nn":70,"risk":25,"cat":"green"},{"name":"City Inn","lat":51.8841,"lon":-5.2615,"postcode":"SA62 6SU","la":"Pembrokeshire","era":"trad","nn":367,"risk":47,"cat":"amber"},{"name":"Club Martello","lat":51.69196,"lon":-4.9423,"postcode":"SA72 6AN","la":"Pembrokeshire","era":"other","nn":105,"risk":25,"cat":"green"},{"name":"Coach And Horses","lat":51.67213,"lon":-4.70125,"postcode":"SA70 7JD","la":"Pembrokeshire","era":"trad","nn":0,"risk":24,"cat":"green"},{"name":"Conservative Club","lat":51.67533,"lon":-4.91419,"postcode":"SA71 4HH","la":"Pembrokeshire","era":"other","nn":183,"risk":28,"cat":"green"},{"name":"Corner Piece Inn","lat":51.85759,"lon":-4.96743,"postcode":"SA62 5PG","la":"Pembrokeshire","era":"trad","nn":2369,"risk":63,"cat":"red"},{"name":"Cottage Inn","lat":51.74851,"lon":-4.91418,"postcode":"SA62 4HP","la":"Pembrokeshire","era":"trad","nn":3970,"risk":75,"cat":"red"},{"name":"Cresselly Arms","lat":51.72482,"lon":-4.82454,"postcode":"SA68 0TE","la":"Pembrokeshire","era":"trad","nn":2845,"risk":67,"cat":"red"},{"name":"Cross Inn","lat":51.65949,"lon":-4.72347,"postcode":"SA70 7PU","la":"Pembrokeshire","era":"trad","nn":105,"risk":43,"cat":"amber"},{"name":"Crown Inn (Tenby)","lat":51.67033,"lon":-4.69923,"postcode":"SA70 7HU","la":"Pembrokeshire","era":"trad","nn":88,"risk":25,"cat":"green"},{"name":"Dragon Inn","lat":51.7979,"lon":-4.74356,"postcode":"SA67 7AT","la":"Pembrokeshire","era":"trad","nn":0,"risk":24,"cat":"green"},{"name":"Duke of Edinburgh","lat":51.85884,"lon":-5.12562,"postcode":"SA62 6AS","la":"Pembrokeshire","era":"trad","nn":4636,"risk":79,"cat":"red"},{"name":"Dyffryn Arms","lat":51.96946,"lon":-4.86831,"postcode":"SA65 9SE","la":"Pembrokeshire","era":"trad","nn":4539,"risk":79,"cat":"red"},{"name":"Eagle Inn","lat":51.7979,"lon":-4.74356,"postcode":"SA67 7AT","la":"Pembrokeshire","era":"trad","nn":0,"risk":24,"cat":"green"},{"name":"Eddie Rocks","lat":51.80171,"lon":-4.96792,"postcode":"SA61 1BG","la":"Pembrokeshire","era":"other","nn":25,"risk":25,"cat":"green"},{"name":"Ex-Servicemans Club","lat":51.67131,"lon":-4.70104,"postcode":"SA70 7DL","la":"Pembrokeshire","era":"other","nn":73,"risk":25,"cat":"green"},{"name":"Fishguard & Goodwick Railwaymens Club","lat":51.99759,"lon":-4.98002,"postcode":"SA65 9NP","la":"Pembrokeshire","era":"trad","nn":470,"risk":28,"cat":"green"},{"name":"Fishguard Arms","lat":51.99411,"lon":-4.97435,"postcode":"SA65 9HJ","la":"Pembrokeshire","era":"trad","nn":58,"risk":25,"cat":"green"},{"name":"Freshwater Inn","lat":51.64963,"lon":-4.86127,"postcode":"SA71 5LE","la":"Pembrokeshire","era":"trad","nn":3552,"risk":72,"cat":"red"},{"name":"Galleon","lat":51.78141,"lon":-5.10155,"postcode":"SA62 3JW","la":"Pembrokeshire","era":"other","nn":942,"risk":51,"cat":"amber"},{"name":"Gate Inn","lat":51.96819,"lon":-4.99459,"postcode":"SA65 9QY","la":"Pembrokeshire","era":"trad","nn":2948,"risk":67,"cat":"red"},{"name":"Glendower Hotel","lat":52.00484,"lon":-4.99602,"postcode":"SA64 0DH","la":"Pembrokeshire","era":"other","nn":34,"risk":45,"cat":"amber"},{"name":"Golden Lion","lat":52.01654,"lon":-4.83074,"postcode":"SA42 0SY","la":"Pembrokeshire","era":"trad","nn":0,"risk":27,"cat":"green"},{"name":"Greyhound Hotel","lat":51.80192,"lon":-4.97285,"postcode":"SA61 2DT","la":"Pembrokeshire","era":"trad","nn":200,"risk":26,"cat":"green"},{"name":"Griffin Inn","lat":51.70729,"lon":-5.16915,"postcode":"SA62 3RB","la":"Pembrokeshire","era":"trad","nn":2861,"risk":67,"cat":"red"},{"name":"Grove Hotel","lat":51.88089,"lon":-5.26277,"postcode":"SA62 6SB","la":"Pembrokeshire","era":"other","nn":367,"risk":47,"cat":"amber"},{"name":"Gunning's Bar","lat":51.70687,"lon":-4.94805,"postcode":"SA73 1SH","la":"Pembrokeshire","era":"other","nn":99,"risk":43,"cat":"amber"},{"name":"Harbour Inn","lat":51.8743,"lon":-5.18833,"postcode":"SA62 6UT","la":"Pembrokeshire","era":"trad","nn":91,"risk":45,"cat":"amber"},{"name":"Harp Inn","lat":51.9246,"lon":-4.98823,"postcode":"SA62 5UA","la":"Pembrokeshire","era":"trad","nn":3417,"risk":71,"cat":"red"},{"name":"Hasguard Cross Caravan Site/Hasguard Bar","lat":51.75473,"lon":-5.11598,"postcode":"SA62 3SL","la":"Pembrokeshire","era":"trad","nn":2190,"risk":62,"cat":"red"},{"name":"Haverfordwest County AFC Ltd","lat":51.80739,"lon":-4.96842,"postcode":"SA61 2EX","la":"Pembrokeshire","era":"other","nn":202,"risk":26,"cat":"green"},{"name":"Haverfordwest Labour Club","lat":51.79842,"lon":-4.97466,"postcode":"SA61 1SY","la":"Pembrokeshire","era":"other","nn":143,"risk":25,"cat":"green"},{"name":"Hibernia Inn","lat":51.68456,"lon":-5.09061,"postcode":"SA71 5AT","la":"Pembrokeshire","era":"trad","nn":678,"risk":49,"cat":"amber"},{"name":"Hope & Anchor Inn","lat":51.67123,"lon":-4.69674,"postcode":"SA70 7AX","la":"Pembrokeshire","era":"trad","nn":59,"risk":25,"cat":"green"},{"name":"Hope and Anchor","lat":52.00469,"lon":-4.99559,"postcode":"SA64 0BP","la":"Pembrokeshire","era":"trad","nn":34,"risk":45,"cat":"amber"},{"name":"Horse & Jockey","lat":51.72972,"lon":-5.01651,"postcode":"SA73 1AP","la":"Pembrokeshire","era":"trad","nn":1505,"risk":57,"cat":"amber"},{"name":"Iron Duke Hotel","lat":51.8405,"lon":-4.73118,"postcode":"SA66 7NG","la":"Pembrokeshire","era":"trad","nn":2415,"risk":64,"cat":"red"},{"name":"Ivy Bush Inn","lat":51.79894,"lon":-4.74365,"postcode":"SA67 7AR","la":"Pembrokeshire","era":"trad","nn":38,"risk":25,"cat":"green"},{"name":"Jeffreyston Inn","lat":51.72496,"lon":-4.7687,"postcode":"SA68 0RE","la":"Pembrokeshire","era":"trad","nn":2677,"risk":66,"cat":"red"},{"name":"Johnston Country Club","lat":51.7513,"lon":-4.99712,"postcode":"SA62 3HE","la":"Pembrokeshire","era":"other","nn":695,"risk":49,"cat":"amber"},{"name":"Jolly Sailor","lat":51.70822,"lon":-4.92263,"postcode":"SA73 1NX","la":"Pembrokeshire","era":"other","nn":832,"risk":50,"cat":"amber"},{"name":"Kilgetty RAOB Club","lat":51.73152,"lon":-4.71477,"postcode":"SA68 0XR","la":"Pembrokeshire","era":"other","nn":0,"risk":42,"cat":"amber"},{"name":"Labyrinth","lat":51.8015,"lon":-4.96781,"postcode":"SA61 1BG","la":"Pembrokeshire","era":"other","nn":0,"risk":24,"cat":"green"},{"name":"Lawrenny Arms","lat":51.71916,"lon":-4.88136,"postcode":"SA68 0PR","la":"Pembrokeshire","era":"trad","nn":1410,"risk":57,"cat":"amber"},{"name":"Lawrenny Cricket Club","lat":51.72729,"lon":-4.86565,"postcode":"SA68 0PS","la":"Pembrokeshire","era":"other","nn":1410,"risk":57,"cat":"amber"},{"name":"Legends tavern","lat":51.76223,"lon":-4.99356,"postcode":"SA62 3NY","la":"Pembrokeshire","era":"other","nn":546,"risk":48,"cat":"amber"},{"name":"Lifeboat Tavern","lat":51.67125,"lon":-4.6976,"postcode":"SA70 7AS","la":"Pembrokeshire","era":"other","nn":0,"risk":24,"cat":"green"},{"name":"Llwyngwair Arms","lat":52.01654,"lon":-4.83074,"postcode":"SA42 0SY","la":"Pembrokeshire","era":"trad","nn":0,"risk":27,"cat":"green"},{"name":"Lobster Pot Inn","lat":51.73074,"lon":-5.19659,"postcode":"SA62 3AZ","la":"Pembrokeshire","era":"trad","nn":3221,"risk":69,"cat":"red"},{"name":"Lord Kitchener","lat":51.71336,"lon":-5.0373,"postcode":"SA73 2AA","la":"Pembrokeshire","era":"mod","nn":0,"risk":24,"cat":"green"},{"name":"Loyal Welsh Lodge 378","lat":51.69203,"lon":-4.94589,"postcode":"SA72 6DH","la":"Pembrokeshire","era":"other","nn":190,"risk":26,"cat":"green"},{"name":"Lydstep Tavern","lat":51.65128,"lon":-4.76919,"postcode":"SA70 7SG","la":"Pembrokeshire","era":"other","nn":1747,"risk":59,"cat":"amber"},{"name":"Market Tavern","lat":51.69155,"lon":-4.94853,"postcode":"SA72 6XH","la":"Pembrokeshire","era":"other","nn":0,"risk":24,"cat":"green"},{"name":"Masons Arms/The Gorge","lat":52.05407,"lon":-4.62325,"postcode":"SA43 2SR","la":"Pembrokeshire","era":"trad","nn":576,"risk":48,"cat":"amber"},{"name":"Milford Haven golf Club","lat":51.72435,"lon":-5.0618,"postcode":"SA73 3RX","la":"Pembrokeshire","era":"other","nn":1685,"risk":59,"cat":"amber"},{"name":"Milford United Sportsmans Club","lat":51.71921,"lon":-5.03029,"postcode":"SA73 2PE","la":"Pembrokeshire","era":"other","nn":592,"risk":28,"cat":"green"},{"name":"Mill-ford Arms","lat":51.80254,"lon":-4.96199,"postcode":"SA61 2LH","la":"Pembrokeshire","era":"trad","nn":417,"risk":27,"cat":"green"},{"name":"Milton Brewery","lat":51.69261,"lon":-4.83751,"postcode":"SA70 8PH","la":"Pembrokeshire","era":"other","nn":959,"risk":51,"cat":"amber"},{"name":"Mojo's","lat":51.71336,"lon":-5.0373,"postcode":"SA73 2AA","la":"Pembrokeshire","era":"other","nn":0,"risk":24,"cat":"green"},{"name":"Monkton swifts","lat":51.67447,"lon":-4.92274,"postcode":"SA71 4LP","la":"Pembrokeshire","era":"trad","nn":416,"risk":30,"cat":"green"},{"name":"Morgan\u2019s coffees cakes & cocktails","lat":51.67125,"lon":-4.6976,"postcode":"SA70 7AS","la":"Pembrokeshire","era":"other","nn":0,"risk":24,"cat":"green"},{"name":"Nags Head","lat":52.02951,"lon":-4.55156,"postcode":"SA37 0HJ","la":"Pembrokeshire","era":"trad","nn":508,"risk":48,"cat":"amber"},{"name":"Narberth RFC","lat":51.79999,"lon":-4.7414,"postcode":"SA67 7BT","la":"Pembrokeshire","era":"other","nn":194,"risk":26,"cat":"green"},{"name":"New Overlander","lat":51.65883,"lon":-4.72239,"postcode":"SA70 7PS","la":"Pembrokeshire","era":"other","nn":105,"risk":43,"cat":"amber"},{"name":"Newport Boat Club","lat":52.02044,"lon":-4.84037,"postcode":"SA42 0RP","la":"Pembrokeshire","era":"other","nn":616,"risk":31,"cat":"amber"},{"name":"Nos Da","lat":51.71315,"lon":-5.04055,"postcode":"SA73 3AB","la":"Pembrokeshire","era":"other","nn":70,"risk":25,"cat":"green"},{"name":"Oak Inn","lat":51.79793,"lon":-4.9714,"postcode":"SA61 1QT","la":"Pembrokeshire","era":"trad","nn":225,"risk":26,"cat":"green"},{"name":"Oakwood Theme Park Ltd","lat":51.78664,"lon":-4.79678,"postcode":"SA67 8DE","la":"Pembrokeshire","era":"trad","nn":1728,"risk":59,"cat":"amber"},{"name":"Old Cross Saws Inn","lat":51.67446,"lon":-4.91125,"postcode":"SA71 4DB","la":"Pembrokeshire","era":"trad","nn":224,"risk":28,"cat":"green"},{"name":"Old Point House","lat":51.68563,"lon":-5.08093,"postcode":"SA71 5AS","la":"Pembrokeshire","era":"other","nn":678,"risk":49,"cat":"amber"},{"name":"OUT PEMBROKE","lat":51.67599,"lon":-4.91662,"postcode":"SA71 4NP","la":"Pembrokeshire","era":"other","nn":40,"risk":27,"cat":"green"},{"name":"Parsonage Farm Inn","lat":51.67779,"lon":-4.77445,"postcode":"SA70 8LR","la":"Pembrokeshire","era":"trad","nn":125,"risk":45,"cat":"amber"},{"name":"Pelcomb Inn","lat":51.82173,"lon":-5.01916,"postcode":"SA62 6AA","la":"Pembrokeshire","era":"trad","nn":1357,"risk":56,"cat":"amber"},{"name":"Pembroke Haven Yacht Club Ltd","lat":51.69837,"lon":-4.94155,"postcode":"SA72 6TR","la":"Pembrokeshire","era":"other","nn":423,"risk":27,"cat":"green"},{"name":"Pembroke Yeoman","lat":51.79995,"lon":-4.9715,"postcode":"SA61 1QQ","la":"Pembrokeshire","era":"other","nn":92,"risk":25,"cat":"green"},{"name":"Pendre Inn","lat":52.05461,"lon":-4.63163,"postcode":"SA43 2SL","la":"Pembrokeshire","era":"trad","nn":576,"risk":48,"cat":"amber"},{"name":"Penrhiw Inn","lat":52.03406,"lon":-4.55227,"postcode":"SA37 0HA","la":"Pembrokeshire","era":"trad","nn":508,"risk":48,"cat":"amber"},{"name":"Penybryn Arms","lat":52.0543,"lon":-4.65952,"postcode":"SA43 3NJ","la":"Pembrokeshire","era":"trad","nn":1871,"risk":60,"cat":"amber"},{"name":"Prince Of Wales","lat":51.67213,"lon":-4.70125,"postcode":"SA70 7JD","la":"Pembrokeshire","era":"trad","nn":0,"risk":24,"cat":"green"},{"name":"Prince of Wales","lat":51.69241,"lon":-4.93984,"postcode":"SA72 6DJ","la":"Pembrokeshire","era":"trad","nn":92,"risk":25,"cat":"green"},{"name":"Priory Inn","lat":51.72462,"lon":-5.03734,"postcode":"SA73 3UA","la":"Pembrokeshire","era":"trad","nn":773,"risk":50,"cat":"amber"},{"name":"Queens Hall","lat":51.79891,"lon":-4.7442,"postcode":"SA67 7AS","la":"Pembrokeshire","era":"trad","nn":0,"risk":24,"cat":"green"},{"name":"R N A Club","lat":51.69155,"lon":-4.94853,"postcode":"SA72 6XH","la":"Pembrokeshire","era":"other","nn":0,"risk":24,"cat":"green"},{"name":"Railway Inn","lat":51.75747,"lon":-4.99547,"postcode":"SA62 3PJ","la":"Pembrokeshire","era":"trad","nn":546,"risk":46,"cat":"amber"},{"name":"RAOB Social Club","lat":51.79942,"lon":-4.74471,"postcode":"SA67 7AG","la":"Pembrokeshire","era":"mod","nn":66,"risk":25,"cat":"green"},{"name":"RED ROSE INN","lat":51.68818,"lon":-4.94112,"postcode":"SA72 6PE","la":"Pembrokeshire","era":"trad","nn":359,"risk":27,"cat":"green"},{"name":"Rose & Crown","lat":51.69404,"lon":-4.94345,"postcode":"SA72 6JE","la":"Pembrokeshire","era":"trad","nn":185,"risk":26,"cat":"green"},{"name":"Rose and Willow","lat":51.71437,"lon":-4.95402,"postcode":"SA73 1RG","la":"Pembrokeshire","era":"trad","nn":930,"risk":48,"cat":"amber"},{"name":"Rosebush Caravan & Camping Park","lat":51.92904,"lon":-4.80303,"postcode":"SA66 7QT","la":"Pembrokeshire","era":"other","nn":6342,"risk":82,"cat":"red"},{"name":"Royal British Legion Club","lat":51.7122,"lon":-5.03232,"postcode":"SA73 3JN","la":"Pembrokeshire","era":"trad","nn":67,"risk":25,"cat":"green"},{"name":"Royal Oak","lat":52.01607,"lon":-4.83485,"postcode":"SA42 0TA","la":"Pembrokeshire","era":"trad","nn":87,"risk":27,"cat":"green"},{"name":"Sands Discotheque","lat":51.71084,"lon":-4.70004,"postcode":"SA69 9EN","la":"Pembrokeshire","era":"other","nn":85,"risk":30,"cat":"green"},{"name":"Saundersfoot Sailing Club","lat":51.71026,"lon":-4.69922,"postcode":"SA69 9HE","la":"Pembrokeshire","era":"other","nn":0,"risk":29,"cat":"green"},{"name":"Shamrocks","lat":51.99362,"lon":-4.9763,"postcode":"SA65 9HA","la":"Pembrokeshire","era":"other","nn":47,"risk":25,"cat":"green"},{"name":"Ship Aground","lat":52.0137,"lon":-4.8986,"postcode":"SA42 0UY","la":"Pembrokeshire","era":"trad","nn":4054,"risk":75,"cat":"red"},{"name":"Ship Inn","lat":51.99549,"lon":-4.96809,"postcode":"SA65 9ND","la":"Pembrokeshire","era":"trad","nn":455,"risk":28,"cat":"green"},{"name":"Ship Inn","lat":51.94881,"lon":-5.14621,"postcode":"SA62 5AX","la":"Pembrokeshire","era":"trad","nn":1738,"risk":59,"cat":"amber"},{"name":"Sir Charles Whetham","lat":51.71111,"lon":-5.02432,"postcode":"SA73 2QB","la":"Pembrokeshire","era":"other","nn":439,"risk":27,"cat":"green"},{"name":"Sloop Inn","lat":51.94807,"lon":-5.1802,"postcode":"SA62 5BN","la":"Pembrokeshire","era":"trad","nn":2331,"risk":63,"cat":"red"},{"name":"Snooty Fox","lat":51.77204,"lon":-4.8054,"postcode":"SA67 8AD","la":"Pembrokeshire","era":"trad","nn":1728,"risk":59,"cat":"amber"},{"name":"South Carvan Holiday Park - Takeaway & Carvery","lat":51.7821,"lon":-4.64115,"postcode":"SA34 0NL","la":"Pembrokeshire","era":"other","nn":0,"risk":44,"cat":"amber"},{"name":"Speculation Inn","lat":51.65853,"lon":-4.96939,"postcode":"SA71 5RU","la":"Pembrokeshire","era":"trad","nn":1350,"risk":56,"cat":"amber"},{"name":"Square & Compass","lat":51.93839,"lon":-5.12731,"postcode":"SA62 5JJ","la":"Pembrokeshire","era":"other","nn":1738,"risk":59,"cat":"amber"},{"name":"Star Social Club","lat":51.69443,"lon":-4.9398,"postcode":"SA72 6DN","la":"Pembrokeshire","era":"mod","nn":169,"risk":26,"cat":"green"},{"name":"Stonemasons Arms Ltd","lat":51.79713,"lon":-4.97472,"postcode":"SA61 1PE","la":"Pembrokeshire","era":"trad","nn":143,"risk":25,"cat":"green"},{"name":"Sun Inn","lat":51.67667,"lon":-4.7746,"postcode":"SA70 8LS","la":"Pembrokeshire","era":"trad","nn":125,"risk":45,"cat":"amber"},{"name":"Swan Inn","lat":51.69397,"lon":-4.94614,"postcode":"SA72 6JH","la":"Pembrokeshire","era":"trad","nn":161,"risk":25,"cat":"green"},{"name":"Tafarn Crymych Arms","lat":51.97558,"lon":-4.64563,"postcode":"SA41 3RJ","la":"Pembrokeshire","era":"trad","nn":4455,"risk":78,"cat":"red"},{"name":"Tafarn Y Cross","lat":51.88549,"lon":-5.03275,"postcode":"SA62 5PR","la":"Pembrokeshire","era":"trad","nn":4432,"risk":78,"cat":"red"},{"name":"Tenby & County Club","lat":51.67509,"lon":-4.70251,"postcode":"SA70 8AP","la":"Pembrokeshire","era":"other","nn":340,"risk":27,"cat":"green"},{"name":"Tenby United RFC","lat":51.67213,"lon":-4.70125,"postcode":"SA70 7JD","la":"Pembrokeshire","era":"other","nn":0,"risk":24,"cat":"green"},{"name":"The Boars Head","lat":51.76913,"lon":-4.73983,"postcode":"SA67 8SD","la":"Pembrokeshire","era":"trad","nn":3203,"risk":69,"cat":"red"},{"name":"The Brook Inn","lat":51.72309,"lon":-5.13638,"postcode":"SA62 3TE","la":"Pembrokeshire","era":"trad","nn":2861,"risk":67,"cat":"red"},{"name":"THE BUILDERS REST","lat":51.71278,"lon":-5.03462,"postcode":"SA73 2HE","la":"Pembrokeshire","era":"other","nn":171,"risk":26,"cat":"green"},{"name":"The Bush Inn","lat":51.803,"lon":-4.79274,"postcode":"SA67 8EP","la":"Pembrokeshire","era":"trad","nn":1840,"risk":60,"cat":"amber"},{"name":"The Butchers Arms","lat":51.96962,"lon":-4.58132,"postcode":"SA35 0BL","la":"Pembrokeshire","era":"trad","nn":4455,"risk":78,"cat":"red"},{"name":"The Cambrian Inn","lat":51.8751,"lon":-5.18814,"postcode":"SA62 6UU","la":"Pembrokeshire","era":"trad","nn":91,"risk":45,"cat":"amber"},{"name":"The Captains Table","lat":51.71026,"lon":-4.69922,"postcode":"SA69 9HE","la":"Pembrokeshire","era":"other","nn":0,"risk":29,"cat":"green"},{"name":"The Castle Hotel","lat":51.80229,"lon":-4.96864,"postcode":"SA61 2AA","la":"Pembrokeshire","era":"other","nn":81,"risk":25,"cat":"green"},{"name":"The Cross Inn","lat":51.85253,"lon":-4.8792,"postcode":"SA63 4UL","la":"Pembrokeshire","era":"trad","nn":4611,"risk":79,"cat":"red"},{"name":"The Evergreen Inn","lat":51.67504,"lon":-4.70747,"postcode":"SA70 8EY","la":"Pembrokeshire","era":"trad","nn":342,"risk":27,"cat":"green"},{"name":"The Ferry Inn","lat":51.70391,"lon":-4.9325,"postcode":"SA72 6UD","la":"Pembrokeshire","era":"trad","nn":832,"risk":48,"cat":"amber"},{"name":"The Georges","lat":51.80065,"lon":-4.97079,"postcode":"SA61 1NH","la":"Pembrokeshire","era":"trad","nn":92,"risk":25,"cat":"green"},{"name":"The Heart Of Oak","lat":51.7111,"lon":-5.04271,"postcode":"SA73 3LR","la":"Pembrokeshire","era":"trad","nn":259,"risk":26,"cat":"green"},{"name":"The Highgate Inn","lat":51.66553,"lon":-4.95339,"postcode":"SA71 5RD","la":"Pembrokeshire","era":"trad","nn":1350,"risk":56,"cat":"amber"},{"name":"The Hunter's Moon","lat":51.69479,"lon":-4.70847,"postcode":"SA70 8TR","la":"Pembrokeshire","era":"other","nn":1835,"risk":60,"cat":"amber"},{"name":"The Imperial Dragon Hotel","lat":51.71561,"lon":-4.73288,"postcode":"SA69 9DY","la":"Pembrokeshire","era":"trad","nn":1664,"risk":58,"cat":"amber"},{"name":"The Kimberley Hotel","lat":51.71398,"lon":-5.02869,"postcode":"SA73 2LN","la":"Pembrokeshire","era":"other","nn":258,"risk":26,"cat":"green"},{"name":"The Legionnaire","lat":51.70713,"lon":-4.94667,"postcode":"SA73 1SL","la":"Pembrokeshire","era":"other","nn":99,"risk":43,"cat":"amber"},{"name":"The Lord Nelson","lat":51.71277,"lon":-5.03758,"postcode":"SA73 3AW","la":"Pembrokeshire","era":"trad","nn":68,"risk":25,"cat":"green"},{"name":"The Masons","lat":51.79021,"lon":-5.00915,"postcode":"SA62 3XH","la":"Pembrokeshire","era":"trad","nn":2052,"risk":61,"cat":"red"},{"name":"The Old Coach House","lat":51.9928,"lon":-4.97862,"postcode":"SA65 9AR","la":"Pembrokeshire","era":"trad","nn":0,"risk":24,"cat":"green"},{"name":"The Paddock Inn","lat":51.66662,"lon":-4.7251,"postcode":"SA70 7NR","la":"Pembrokeshire","era":"trad","nn":800,"risk":47,"cat":"amber"},{"name":"The Plough Inn","lat":51.69497,"lon":-4.81206,"postcode":"SA70 8SG","la":"Pembrokeshire","era":"trad","nn":1066,"risk":54,"cat":"amber"},{"name":"The Pump on the Green","lat":51.87037,"lon":-4.93982,"postcode":"SA62 5QT","la":"Pembrokeshire","era":"other","nn":2369,"risk":63,"cat":"red"},{"name":"the rising sun restaurant and grill","lat":51.81456,"lon":-5.00319,"postcode":"SA62 6EA","la":"Pembrokeshire","era":"other","nn":1357,"risk":56,"cat":"amber"},{"name":"The Royal Oak","lat":51.99404,"lon":-4.9763,"postcode":"SA65 9HA","la":"Pembrokeshire","era":"trad","nn":47,"risk":25,"cat":"green"},{"name":"The Shipwright Inn","lat":51.69541,"lon":-4.94618,"postcode":"SA72 6JX","la":"Pembrokeshire","era":"trad","nn":161,"risk":25,"cat":"green"},{"name":"The Snug Pub & Cafe","lat":51.7114,"lon":-4.69918,"postcode":"SA69 9ER","la":"Pembrokeshire","era":"other","nn":86,"risk":30,"cat":"green"},{"name":"The Star in Narberth","lat":51.79789,"lon":-4.74236,"postcode":"SA67 7AU","la":"Pembrokeshire","era":"other","nn":83,"risk":25,"cat":"green"},{"name":"The Swanlake Inn","lat":51.65593,"lon":-4.8108,"postcode":"SA70 8QE","la":"Pembrokeshire","era":"trad","nn":2048,"risk":61,"cat":"red"},{"name":"The Tavern / Five Arches Tavern","lat":51.67122,"lon":-4.7,"postcode":"SA70 7JB","la":"Pembrokeshire","era":"other","nn":24,"risk":24,"cat":"green"},{"name":"The Trafalgar","lat":51.71272,"lon":-5.03184,"postcode":"SA73 2HW","la":"Pembrokeshire","era":"other","nn":67,"risk":25,"cat":"green"},{"name":"The Welshmans Arms","lat":51.69535,"lon":-4.93783,"postcode":"SA72 6DS","la":"Pembrokeshire","era":"trad","nn":169,"risk":26,"cat":"green"},{"name":"The Wine & Sports Bar","lat":51.80302,"lon":-4.9687,"postcode":"SA61 2AL","la":"Pembrokeshire","era":"other","nn":81,"risk":25,"cat":"green"},{"name":"Three Crowns","lat":51.80155,"lon":-4.9688,"postcode":"SA61 2BN","la":"Pembrokeshire","era":"trad","nn":63,"risk":25,"cat":"green"},{"name":"Trefach Country Club & Holiday Park","lat":51.93269,"lon":-4.69804,"postcode":"SA66 7RU","la":"Pembrokeshire","era":"other","nn":5970,"risk":82,"cat":"red"},{"name":"Westival","lat":51.66398,"lon":-4.7841,"postcode":"SA70 8LE","la":"Pembrokeshire","era":"other","nn":1555,"risk":58,"cat":"amber"},{"name":"White Horse Inn","lat":51.73152,"lon":-4.71477,"postcode":"SA68 0XR","la":"Pembrokeshire","era":"trad","nn":0,"risk":42,"cat":"amber"},{"name":"Wolfe Inn (Haverfordwest)","lat":51.89591,"lon":-4.9704,"postcode":"SA62 5LS","la":"Pembrokeshire","era":"trad","nn":3417,"risk":71,"cat":"red"},{"name":"Y Can Cwrw","lat":51.88383,"lon":-5.30214,"postcode":"SA62 6PY","la":"Pembrokeshire","era":"other","nn":2722,"risk":66,"cat":"red"},{"name":"Ye Old Inn","lat":51.83867,"lon":-4.99245,"postcode":"SA62 6HY","la":"Pembrokeshire","era":"trad","nn":2630,"risk":65,"cat":"red"},{"name":"Abercrave Rugby Club","lat":51.79978,"lon":-3.72305,"postcode":"SA9 1XH","la":"Powys","era":"other","nn":395,"risk":45,"cat":"amber"},{"name":"Cafe Chameleon","lat":51.77236,"lon":-3.76065,"postcode":"SA9 1ES","la":"Powys","era":"other","nn":217,"risk":24,"cat":"green"},{"name":"Clwb Rygbi Ystradgynlais Ltd","lat":51.77224,"lon":-3.7638,"postcode":"SA9 1BH","la":"Powys","era":"other","nn":1,"risk":22,"cat":"green"},{"name":"Glanrhyd Coronation Club","lat":51.76745,"lon":-3.76582,"postcode":"SA9 1BG","la":"Powys","era":"other","nn":549,"risk":28,"cat":"green"},{"name":"Gough Constitutional Workingmens Clu","lat":51.77712,"lon":-3.75689,"postcode":"SA9 1NU","la":"Powys","era":"trad","nn":271,"risk":24,"cat":"green"},{"name":"New Tredegar Arms","lat":51.78654,"lon":-3.80394,"postcode":"SA9 2XG","la":"Powys","era":"trad","nn":305,"risk":44,"cat":"amber"},{"name":"Penrhos Social Club","lat":51.78634,"lon":-3.74343,"postcode":"SA9 1QX","la":"Powys","era":"mod","nn":1253,"risk":53,"cat":"amber"},{"name":"Penybont Inn","lat":51.78006,"lon":-3.75854,"postcode":"SA9 1JY","la":"Powys","era":"trad","nn":151,"risk":23,"cat":"green"},{"name":"Penycae Inn","lat":51.81129,"lon":-3.67759,"postcode":"SA9 1FA","la":"Powys","era":"trad","nn":768,"risk":47,"cat":"amber"},{"name":"Tafarn Twrch","lat":51.77688,"lon":-3.78715,"postcode":"SA9 2TD","la":"Powys","era":"other","nn":57,"risk":42,"cat":"amber"},{"name":"Tafarn-y-Garreg","lat":51.84151,"lon":-3.66819,"postcode":"SA9 1GS","la":"Powys","era":"other","nn":3422,"risk":69,"cat":"red"},{"name":"The Ancient Briton","lat":51.80589,"lon":-3.68454,"postcode":"SA9 1YY","la":"Powys","era":"other","nn":768,"risk":47,"cat":"amber"},{"name":"The Aubrey Arms","lat":51.76996,"lon":-3.77745,"postcode":"SA9 2LA","la":"Powys","era":"trad","nn":422,"risk":25,"cat":"green"},{"name":"The Crown Inn","lat":51.77685,"lon":-3.78798,"postcode":"SA9 2TD","la":"Powys","era":"trad","nn":57,"risk":42,"cat":"amber"},{"name":"The Old White Horse Inn","lat":51.75688,"lon":-3.59302,"postcode":"SA11 5NP","la":"Powys","era":"trad","nn":1659,"risk":56,"cat":"amber"},{"name":"The Rheolau Arms (Pub)","lat":51.7987,"lon":-3.72852,"postcode":"SA9 1TB","la":"Powys","era":"trad","nn":395,"risk":45,"cat":"amber"},{"name":"The Ynyscedwyn Arms Hotel","lat":51.77887,"lon":-3.75961,"postcode":"SA9 1LA","la":"Powys","era":"trad","nn":151,"risk":23,"cat":"green"},{"name":"Ystradgynlais Football Club","lat":51.77223,"lon":-3.76379,"postcode":"SA9 1BH","la":"Powys","era":"other","nn":1,"risk":22,"cat":"green"},{"name":"37 Bar & Lounge","lat":51.61795,"lon":-3.96597,"postcode":"SA2 0NP","la":"Swansea","era":"mod","nn":0,"risk":22,"cat":"green"},{"name":"47 Bar & Lounge","lat":51.61823,"lon":-3.98673,"postcode":"SA2 9BH","la":"Swansea","era":"mod","nn":73,"risk":28,"cat":"green"},{"name":"Armine Social Club","lat":51.64099,"lon":-3.97472,"postcode":"SA5 8DD","la":"Swansea","era":"mod","nn":192,"risk":28,"cat":"green"},{"name":"Badminton Hotel","lat":51.61475,"lon":-3.95385,"postcode":"SA1 3UT","la":"Swansea","era":"other","nn":128,"risk":23,"cat":"green"},{"name":"Bambu Beach Bar","lat":51.61917,"lon":-3.94006,"postcode":"SA1 1EJ","la":"Swansea","era":"other","nn":39,"risk":22,"cat":"green"},{"name":"Bar Heaven Swansea","lat":51.6199,"lon":-3.94094,"postcode":"SA1 1DW","la":"Swansea","era":"other","nn":16,"risk":22,"cat":"green"},{"name":"Bar St James","lat":51.61843,"lon":-3.96573,"postcode":"SA2 0PB","la":"Swansea","era":"mod","nn":48,"risk":22,"cat":"green"},{"name":"Bay View (pub part)","lat":51.61296,"lon":-3.95717,"postcode":"SA1 3UL","la":"Swansea","era":"other","nn":0,"risk":22,"cat":"green"},{"name":"Beaufort Arms","lat":51.58443,"lon":-4.05985,"postcode":"SA3 3JG","la":"Swansea","era":"trad","nn":540,"risk":43,"cat":"amber"},{"name":"Beechwood Club","lat":51.61987,"lon":-3.96692,"postcode":"SA2 0QT","la":"Swansea","era":"other","nn":162,"risk":23,"cat":"green"},{"name":"Birchgrove RFC","lat":51.66819,"lon":-3.88101,"postcode":"SA7 9LW","la":"Swansea","era":"other","nn":601,"risk":31,"cat":"amber"},{"name":"Black Boy","lat":51.61744,"lon":-4.01875,"postcode":"SA2 7AN","la":"Swansea","era":"other","nn":1,"risk":22,"cat":"green"},{"name":"Bluebell","lat":51.62252,"lon":-3.99116,"postcode":"SA2 9BQ","la":"Swansea","era":"other","nn":494,"risk":26,"cat":"green"},{"name":"Bonymaen Inn","lat":51.6408,"lon":-3.91119,"postcode":"SA1 7HD","la":"Swansea","era":"trad","nn":1330,"risk":54,"cat":"amber"},{"name":"Bowen Arms","lat":51.66069,"lon":-3.87312,"postcode":"SA7 9JR","la":"Swansea","era":"trad","nn":996,"risk":49,"cat":"amber"},{"name":"Britannia Inn","lat":51.61658,"lon":-4.2471,"postcode":"SA3 1DB","la":"Swansea","era":"trad","nn":2395,"risk":61,"cat":"red"},{"name":"Brunswick Arms","lat":51.6188,"lon":-3.95625,"postcode":"SA1 4HS","la":"Swansea","era":"trad","nn":69,"risk":23,"cat":"green"},{"name":"Bryn Lliw","lat":51.68791,"lon":-4.0395,"postcode":"SA4 4GT","la":"Swansea","era":"other","nn":206,"risk":44,"cat":"amber"},{"name":"Clase Social Club","lat":51.66409,"lon":-3.94781,"postcode":"SA6 7LW","la":"Swansea","era":"mod","nn":732,"risk":45,"cat":"amber"},{"name":"Clydach Cricket Club","lat":51.69868,"lon":-3.89181,"postcode":"SA6 5LT","la":"Swansea","era":"other","nn":308,"risk":24,"cat":"green"},{"name":"Coach House","lat":51.61931,"lon":-3.94072,"postcode":"SA1 1EG","la":"Swansea","era":"trad","nn":0,"risk":22,"cat":"green"},{"name":"Cockett Inn","lat":51.62988,"lon":-3.98496,"postcode":"SA2 0GB","la":"Swansea","era":"trad","nn":924,"risk":49,"cat":"amber"},{"name":"Colliers Arms","lat":51.65232,"lon":-3.906,"postcode":"SA1 7DW","la":"Swansea","era":"trad","nn":837,"risk":30,"cat":"green"},{"name":"Commercial Hotel","lat":51.64807,"lon":-4.03601,"postcode":"SA4 3AJ","la":"Swansea","era":"other","nn":313,"risk":29,"cat":"green"},{"name":"Commercial Inn","lat":51.63961,"lon":-3.94455,"postcode":"SA5 9LG","la":"Swansea","era":"trad","nn":311,"risk":24,"cat":"green"},{"name":"Commercial Inn","lat":51.64812,"lon":-3.93507,"postcode":"SA6 8JU","la":"Swansea","era":"trad","nn":0,"risk":22,"cat":"green"},{"name":"Coopers Arms","lat":51.64812,"lon":-3.93507,"postcode":"SA6 8JU","la":"Swansea","era":"trad","nn":0,"risk":22,"cat":"green"},{"name":"Coyote Ugly","lat":51.6189,"lon":-3.93892,"postcode":"SA1 1EE","la":"Swansea","era":"other","nn":0,"risk":22,"cat":"green"},{"name":"Crowleys Rock Bar","lat":51.62066,"lon":-3.94706,"postcode":"SA1 3EN","la":"Swansea","era":"other","nn":39,"risk":22,"cat":"green"},{"name":"Cu Mumbles","lat":51.57578,"lon":-4.00018,"postcode":"SA3 4AX","la":"Swansea","era":"other","nn":58,"risk":23,"cat":"green"},{"name":"Cwmfelin Social Club","lat":51.63609,"lon":-3.9487,"postcode":"SA5 9NR","la":"Swansea","era":"mod","nn":170,"risk":23,"cat":"green"},{"name":"Dorothys Showbar Swansea","lat":51.6196,"lon":-3.94035,"postcode":"SA1 1DF","la":"Swansea","era":"other","nn":0,"risk":22,"cat":"green"},{"name":"Dunvant RFC","lat":51.621,"lon":-4.03179,"postcode":"SA2 7RU","la":"Swansea","era":"other","nn":351,"risk":25,"cat":"green"},{"name":"Dunvant Workingmens Club","lat":51.62505,"lon":-4.03439,"postcode":"SA2 7TD","la":"Swansea","era":"trad","nn":423,"risk":43,"cat":"amber"},{"name":"Eli Jenkins","lat":51.61908,"lon":-3.94737,"postcode":"SA1 3AQ","la":"Swansea","era":"other","nn":38,"risk":22,"cat":"green"},{"name":"Elysium Bar","lat":51.62392,"lon":-3.9417,"postcode":"SA1 1PE","la":"Swansea","era":"other","nn":34,"risk":22,"cat":"green"},{"name":"Embassy Social Club","lat":51.64271,"lon":-3.97499,"postcode":"SA5 5AN","la":"Swansea","era":"mod","nn":192,"risk":28,"cat":"green"},{"name":"Fairwood Park Golf Ltd","lat":51.6031,"lon":-4.04244,"postcode":"SA2 7JN","la":"Swansea","era":"other","nn":938,"risk":49,"cat":"amber"},{"name":"Flickering Light","lat":51.61906,"lon":-3.93938,"postcode":"SA1 1EF","la":"Swansea","era":"other","nn":1,"risk":22,"cat":"green"},{"name":"Fords Sports and Social Club","lat":51.65562,"lon":-3.94919,"postcode":"SA5 9AX","la":"Swansea","era":"mod","nn":228,"risk":41,"cat":"amber"},{"name":"Fountain Inn","lat":51.7088,"lon":-4.02614,"postcode":"SA4 8JP","la":"Swansea","era":"trad","nn":727,"risk":45,"cat":"amber"},{"name":"Fountain Inn","lat":51.66569,"lon":-3.92506,"postcode":"SA6 8AQ","la":"Swansea","era":"trad","nn":154,"risk":23,"cat":"green"},{"name":"Full Moon","lat":51.62696,"lon":-3.94117,"postcode":"SA1 1NE","la":"Swansea","era":"other","nn":0,"risk":22,"cat":"green"},{"name":"GEC","lat":51.66797,"lon":-4.03505,"postcode":"SA4 4BX","la":"Swansea","era":"other","nn":0,"risk":22,"cat":"green"},{"name":"Globe Inn","lat":51.66317,"lon":-4.05669,"postcode":"SA4 6QD","la":"Swansea","era":"trad","nn":362,"risk":27,"cat":"green"},{"name":"Gower Inn","lat":51.58219,"lon":-4.09486,"postcode":"SA3 2EQ","la":"Swansea","era":"trad","nn":1092,"risk":52,"cat":"amber"},{"name":"Gowerton Cricket Club","lat":51.65353,"lon":-4.03978,"postcode":"SA4 3AB","la":"Swansea","era":"other","nn":0,"risk":22,"cat":"green"},{"name":"Hangar 18 Music Venue","lat":51.61875,"lon":-3.94746,"postcode":"SA1 3QQ","la":"Swansea","era":"other","nn":38,"risk":22,"cat":"green"},{"name":"Hippos","lat":51.62421,"lon":-3.94155,"postcode":"SA1 1PE","la":"Swansea","era":"other","nn":34,"risk":22,"cat":"green"},{"name":"Hogarths","lat":51.61955,"lon":-3.94135,"postcode":"SA1 3LH","la":"Swansea","era":"other","nn":10,"risk":22,"cat":"green"},{"name":"Ivorites Arms","lat":51.64749,"lon":-3.93893,"postcode":"SA6 8LG","la":"Swansea","era":"trad","nn":276,"risk":24,"cat":"green"},{"name":"Jack Murphys Uplands","lat":51.61795,"lon":-3.96597,"postcode":"SA2 0NP","la":"Swansea","era":"other","nn":0,"risk":22,"cat":"green"},{"name":"Joiners Arms","lat":51.5834,"lon":-4.05221,"postcode":"SA3 3EJ","la":"Swansea","era":"trad","nn":0,"risk":27,"cat":"green"},{"name":"Kingsbridge Inn","lat":51.66089,"lon":-4.03795,"postcode":"SA4 4AS","la":"Swansea","era":"trad","nn":0,"risk":22,"cat":"green"},{"name":"Kon-Tiki","lat":51.61999,"lon":-3.94004,"postcode":"SA1 2AE","la":"Swansea","era":"other","nn":27,"risk":22,"cat":"green"},{"name":"Landore Social Club","lat":51.63703,"lon":-3.93639,"postcode":"SA1 2LE","la":"Swansea","era":"mod","nn":468,"risk":25,"cat":"green"},{"name":"Langland Bay Golf Club","lat":51.5681,"lon":-4.01579,"postcode":"SA3 4QR","la":"Swansea","era":"other","nn":782,"risk":48,"cat":"amber"},{"name":"Level 256","lat":51.6198,"lon":-3.94194,"postcode":"SA1 3PP","la":"Swansea","era":"other","nn":1,"risk":22,"cat":"green"},{"name":"Llwchwr Workingmens Club","lat":51.66797,"lon":-4.03505,"postcode":"SA4 4BX","la":"Swansea","era":"trad","nn":0,"risk":22,"cat":"green"},{"name":"Loughor and District Workingmens Club","lat":51.66728,"lon":-4.05765,"postcode":"SA4 6RS","la":"Swansea","era":"trad","nn":106,"risk":25,"cat":"green"},{"name":"Loughor RFC","lat":51.66471,"lon":-4.05206,"postcode":"SA4 6RF","la":"Swansea","era":"other","nn":362,"risk":25,"cat":"green"},{"name":"Maggie Dicks","lat":51.63621,"lon":-3.94407,"postcode":"SA5 9LE","la":"Swansea","era":"other","nn":320,"risk":24,"cat":"green"},{"name":"Main Stage Swansea Ltd","lat":51.62092,"lon":-3.94175,"postcode":"SA1 1HZ","la":"Swansea","era":"trad","nn":94,"risk":23,"cat":"green"},{"name":"Mansel Workingmen's Club","lat":51.64719,"lon":-4.04031,"postcode":"SA4 3DA","la":"Swansea","era":"trad","nn":313,"risk":29,"cat":"green"},{"name":"Manselton Hotel","lat":51.64353,"lon":-3.95113,"postcode":"SA5 9HX","la":"Swansea","era":"other","nn":477,"risk":25,"cat":"green"},{"name":"Manselton Social Club","lat":51.63762,"lon":-3.94874,"postcode":"SA5 9NN","la":"Swansea","era":"mod","nn":170,"risk":23,"cat":"green"},{"name":"Mardy Inn","lat":51.66921,"lon":-4.03843,"postcode":"SA4 4BR","la":"Swansea","era":"trad","nn":128,"risk":23,"cat":"green"},{"name":"Marquis Arms","lat":51.64112,"lon":-3.978,"postcode":"SA5 4AA","la":"Swansea","era":"trad","nn":226,"risk":41,"cat":"amber"},{"name":"Mary Dillwyn","lat":51.65349,"lon":-3.9908,"postcode":"SA5 4BE","la":"Swansea","era":"other","nn":1620,"risk":56,"cat":"amber"},{"name":"Masons Arms","lat":51.70343,"lon":-3.93172,"postcode":"SA6 6PB","la":"Swansea","era":"trad","nn":1250,"risk":53,"cat":"amber"},{"name":"Mile End Inn","lat":51.62149,"lon":-3.90868,"postcode":"SA1 8PA","la":"Swansea","era":"trad","nn":594,"risk":44,"cat":"amber"},{"name":"Miller & Carter Steakhouse","lat":51.62006,"lon":-4.00288,"postcode":"SA2 7AA","la":"Swansea","era":"trad","nn":470,"risk":43,"cat":"amber"},{"name":"Millers Arms","lat":51.6855,"lon":-3.90726,"postcode":"SA6 5AY","la":"Swansea","era":"trad","nn":387,"risk":45,"cat":"amber"},{"name":"Morris Arms","lat":51.64325,"lon":-3.94424,"postcode":"SA5 9LN","la":"Swansea","era":"trad","nn":204,"risk":24,"cat":"green"},{"name":"Morriston RFC","lat":51.67446,"lon":-3.92521,"postcode":"SA6 6JS","la":"Swansea","era":"other","nn":485,"risk":28,"cat":"green"},{"name":"Morriston Town Football Club","lat":51.67234,"lon":-3.91908,"postcode":"SA6 6QH","la":"Swansea","era":"other","nn":406,"risk":25,"cat":"green"},{"name":"Morriston Workingmens Club","lat":51.66431,"lon":-3.92522,"postcode":"SA6 8AA","la":"Swansea","era":"trad","nn":154,"risk":23,"cat":"green"},{"name":"Mumbles RFC","lat":51.57315,"lon":-3.99565,"postcode":"SA3 4DL","la":"Swansea","era":"other","nn":42,"risk":22,"cat":"green"},{"name":"New Inn","lat":51.70595,"lon":-3.90604,"postcode":"SA6 5SU","la":"Swansea","era":"trad","nn":495,"risk":43,"cat":"amber"},{"name":"New Lodge Independent Social Club","lat":51.66797,"lon":-4.05178,"postcode":"SA4 4PE","la":"Swansea","era":"mod","nn":363,"risk":25,"cat":"green"},{"name":"Newton Inn","lat":51.57512,"lon":-4.01521,"postcode":"SA3 4SR","la":"Swansea","era":"trad","nn":782,"risk":45,"cat":"amber"},{"name":"No Sign Wine Bar","lat":51.61931,"lon":-3.94072,"postcode":"SA1 1EG","la":"Swansea","era":"other","nn":0,"risk":22,"cat":"green"},{"name":"Noahs Yard","lat":51.6183,"lon":-3.9665,"postcode":"SA2 0PG","la":"Swansea","era":"mod","nn":30,"risk":22,"cat":"green"},{"name":"Old Bond Street","lat":51.61434,"lon":-3.95618,"postcode":"SA1 3TU","la":"Swansea","era":"other","nn":96,"risk":23,"cat":"green"},{"name":"Old Duke Inn","lat":51.62696,"lon":-3.94117,"postcode":"SA1 1NE","la":"Swansea","era":"trad","nn":0,"risk":22,"cat":"green"},{"name":"One Eyed Jacks","lat":51.61938,"lon":-3.93916,"postcode":"SA1 1DY","la":"Swansea","era":"other","nn":39,"risk":22,"cat":"green"},{"name":"Overdraft","lat":51.69523,"lon":-3.89537,"postcode":"SA6 5LQ","la":"Swansea","era":"other","nn":98,"risk":23,"cat":"green"},{"name":"Oyster House","lat":51.57461,"lon":-3.99727,"postcode":"SA3 4DN","la":"Swansea","era":"other","nn":122,"risk":23,"cat":"green"},{"name":"Park Inn","lat":51.57379,"lon":-3.99844,"postcode":"SA3 4DA","la":"Swansea","era":"trad","nn":87,"risk":23,"cat":"green"},{"name":"Pearl Thai Limited","lat":51.61296,"lon":-3.95717,"postcode":"SA1 3UL","la":"Swansea","era":"other","nn":0,"risk":22,"cat":"green"},{"name":"Penclawdd RFC","lat":51.64092,"lon":-4.11163,"postcode":"SA4 3LE","la":"Swansea","era":"other","nn":246,"risk":44,"cat":"amber"},{"name":"Pengelli Sports and Social Club","lat":51.68657,"lon":-4.03743,"postcode":"SA4 4WG","la":"Swansea","era":"mod","nn":206,"risk":44,"cat":"amber"},{"name":"Penlan Social Club","lat":51.64826,"lon":-3.95943,"postcode":"SA5 7BT","la":"Swansea","era":"mod","nn":511,"risk":43,"cat":"amber"},{"name":"Penllergaer Sports and Social Club","lat":51.67106,"lon":-4.01485,"postcode":"SA4 9BW","la":"Swansea","era":"mod","nn":1434,"risk":55,"cat":"amber"},{"name":"Pennard Golf Club","lat":51.5724,"lon":-4.09366,"postcode":"SA3 2BT","la":"Swansea","era":"other","nn":0,"risk":40,"cat":"amber"},{"name":"Peppermint inc. Chicken N Bun, Detroit Dough, JFC, SoBe Burgers","lat":51.6196,"lon":-3.94034,"postcode":"SA1 1DF","la":"Swansea","era":"other","nn":0,"risk":22,"cat":"green"},{"name":"Pilot Inn","lat":51.57139,"lon":-3.98774,"postcode":"SA3 4EL","la":"Swansea","era":"trad","nn":343,"risk":25,"cat":"green"},{"name":"PlanB","lat":51.62061,"lon":-3.94761,"postcode":"SA1 4EH","la":"Swansea","era":"other","nn":39,"risk":22,"cat":"green"},{"name":"Plough & Harrow","lat":51.67137,"lon":-3.95808,"postcode":"SA5 7JA","la":"Swansea","era":"trad","nn":1076,"risk":52,"cat":"amber"},{"name":"Plough and Harrow","lat":51.58084,"lon":-4.0441,"postcode":"SA3 3DJ","la":"Swansea","era":"trad","nn":629,"risk":44,"cat":"amber"},{"name":"Plough and Harrow","lat":51.66354,"lon":-3.90092,"postcode":"SA7 9RL","la":"Swansea","era":"trad","nn":322,"risk":29,"cat":"green"},{"name":"Pontarddulais Cricket Club","lat":51.71928,"lon":-4.039,"postcode":"SA4 8RZ","la":"Swansea","era":"other","nn":502,"risk":26,"cat":"green"},{"name":"Pontarddulais RFC","lat":51.7128,"lon":-4.03449,"postcode":"SA4 8LW","la":"Swansea","era":"other","nn":262,"risk":24,"cat":"green"},{"name":"Pontardulais Conservative Club","lat":51.71521,"lon":-4.04216,"postcode":"SA4 8TE","la":"Swansea","era":"other","nn":74,"risk":23,"cat":"green"},{"name":"Pontardulais Workingmens Club","lat":51.71596,"lon":-4.04412,"postcode":"SA4 8TH","la":"Swansea","era":"trad","nn":116,"risk":23,"cat":"green"},{"name":"Popworld","lat":51.61977,"lon":-3.94082,"postcode":"SA1 1DE","la":"Swansea","era":"other","nn":16,"risk":22,"cat":"green"},{"name":"Poundffald Inn","lat":51.63081,"lon":-4.07352,"postcode":"SA4 3PB","la":"Swansea","era":"trad","nn":1822,"risk":57,"cat":"amber"},{"name":"Prohibition","lat":51.61976,"lon":-3.9402,"postcode":"SA1 1DG","la":"Swansea","era":"other","nn":20,"risk":22,"cat":"green"},{"name":"Pub on the Pond","lat":51.60728,"lon":-3.98246,"postcode":"SA2 8PY","la":"Swansea","era":"other","nn":290,"risk":44,"cat":"amber"},{"name":"Pump House","lat":51.61671,"lon":-3.9368,"postcode":"SA1 1TT","la":"Swansea","era":"other","nn":62,"risk":23,"cat":"green"},{"name":"Queens Hotel","lat":51.61724,"lon":-3.93709,"postcode":"SA1 1TY","la":"Swansea","era":"trad","nn":62,"risk":23,"cat":"green"},{"name":"Railmens Club","lat":51.6189,"lon":-3.93892,"postcode":"SA1 1EE","la":"Swansea","era":"other","nn":0,"risk":22,"cat":"green"},{"name":"Railway Inn","lat":51.64426,"lon":-3.93845,"postcode":"SA1 2NT","la":"Swansea","era":"trad","nn":244,"risk":24,"cat":"green"},{"name":"Red Lion","lat":51.6693,"lon":-3.92235,"postcode":"SA6 6JA","la":"Swansea","era":"trad","nn":406,"risk":25,"cat":"green"},{"name":"Riverbank Restaurant","lat":51.69494,"lon":-3.89809,"postcode":"SA6 5LG","la":"Swansea","era":"other","nn":75,"risk":23,"cat":"green"},{"name":"Rock And Fountain","lat":51.70896,"lon":-3.91593,"postcode":"SA6 5RA","la":"Swansea","era":"other","nn":759,"risk":47,"cat":"amber"},{"name":"Samlet Social Club","lat":51.66101,"lon":-3.90454,"postcode":"SA7 9AF","la":"Swansea","era":"mod","nn":204,"risk":26,"cat":"green"},{"name":"Savana","lat":51.6195,"lon":-3.94107,"postcode":"SA1 1EQ","la":"Swansea","era":"other","nn":16,"risk":22,"cat":"green"},{"name":"Schooner Bar and Cafe","lat":51.61908,"lon":-3.93701,"postcode":"SA1 1QP","la":"Swansea","era":"mod","nn":131,"risk":23,"cat":"green"},{"name":"Shepherds Country Inn","lat":51.70836,"lon":-3.97143,"postcode":"SA5 7ND","la":"Swansea","era":"trad","nn":2791,"risk":64,"cat":"red"},{"name":"Sherwoods","lat":51.66195,"lon":-3.92422,"postcode":"SA6 8BU","la":"Swansea","era":"other","nn":0,"risk":25,"cat":"green"},{"name":"Sin City","lat":51.61896,"lon":-3.95009,"postcode":"SA1 4AQ","la":"Swansea","era":"other","nn":67,"risk":23,"cat":"green"},{"name":"Sketty Park Sports and Social Club","lat":51.61594,"lon":-4.00431,"postcode":"SA2 8NP","la":"Swansea","era":"mod","nn":470,"risk":43,"cat":"amber"},{"name":"Slug & Lettuce/Loco Loco/El Rodeo Mexicano/Burrito Bandits","lat":51.6198,"lon":-3.94195,"postcode":"SA1 3PP","la":"Swansea","era":"other","nn":1,"risk":22,"cat":"green"},{"name":"South Gower Sports Club","lat":51.5671,"lon":-4.21874,"postcode":"SA3 1AY","la":"Swansea","era":"other","nn":5106,"risk":80,"cat":"red"},{"name":"Southgate County Club (Bar only)","lat":51.5724,"lon":-4.09366,"postcode":"SA3 2BT","la":"Swansea","era":"mod","nn":0,"risk":40,"cat":"amber"},{"name":"Southgate County Club Restaurant","lat":51.5724,"lon":-4.09366,"postcode":"SA3 2BT","la":"Swansea","era":"other","nn":0,"risk":40,"cat":"amber"},{"name":"St George Hotel","lat":51.61937,"lon":-3.95588,"postcode":"SA1 5NN","la":"Swansea","era":"trad","nn":69,"risk":23,"cat":"green"},{"name":"Station Hotel","lat":51.66797,"lon":-4.03505,"postcode":"SA4 4BX","la":"Swansea","era":"other","nn":0,"risk":22,"cat":"green"},{"name":"Station Inn","lat":51.64232,"lon":-3.94009,"postcode":"SA1 2QJ","la":"Swansea","era":"trad","nn":64,"risk":23,"cat":"green"},{"name":"Student's Union Bars","lat":51.60963,"lon":-3.98063,"postcode":"SA2 8PP","la":"Swansea","era":"other","nn":290,"risk":42,"cat":"amber"},{"name":"Sunnybank Workmens Club","lat":51.70265,"lon":-3.90122,"postcode":"SA6 5JB","la":"Swansea","era":"other","nn":495,"risk":26,"cat":"green"},{"name":"Superbowl UK Swansea","lat":51.61826,"lon":-3.93905,"postcode":"SA1 3LZ","la":"Swansea","era":"trad","nn":72,"risk":23,"cat":"green"},{"name":"Swansea Bridge Club","lat":51.61995,"lon":-3.96199,"postcode":"SA1 6DY","la":"Swansea","era":"trad","nn":309,"risk":24,"cat":"green"},{"name":"Swansea Dockers Club","lat":51.62272,"lon":-3.93143,"postcode":"SA1 8BT","la":"Swansea","era":"trad","nn":160,"risk":23,"cat":"green"},{"name":"Swansea Labour Club and Institute","lat":51.61905,"lon":-3.93938,"postcode":"SA1 1EF","la":"Swansea","era":"trad","nn":1,"risk":22,"cat":"green"},{"name":"Swansea Masonic Hall Co Ltd","lat":51.618,"lon":-3.95394,"postcode":"SA1 4DF","la":"Swansea","era":"trad","nn":183,"risk":23,"cat":"green"},{"name":"Swansea Uplands RFC","lat":51.61143,"lon":-4.04462,"postcode":"SA2 7HP","la":"Swansea","era":"trad","nn":938,"risk":49,"cat":"amber"},{"name":"Swansea Yacht and Sub Aqua Club","lat":51.61838,"lon":-3.93549,"postcode":"SA1 1RE","la":"Swansea","era":"trad","nn":131,"risk":23,"cat":"green"},{"name":"Tafarn Y Trap","lat":51.66089,"lon":-4.03795,"postcode":"SA4 4AS","la":"Swansea","era":"other","nn":0,"risk":22,"cat":"green"},{"name":"The Alma Inn Swansea Ltd","lat":51.64209,"lon":-3.94094,"postcode":"SA1 2QH","la":"Swansea","era":"trad","nn":64,"risk":23,"cat":"green"},{"name":"The Bank Statement","lat":51.61921,"lon":-3.94062,"postcode":"SA1 1EP","la":"Swansea","era":"other","nn":13,"risk":22,"cat":"green"},{"name":"The Beaufort Arms","lat":51.57934,"lon":-4.00465,"postcode":"SA3 5TF","la":"Swansea","era":"trad","nn":503,"risk":26,"cat":"green"},{"name":"The Bookshop","lat":51.61808,"lon":-3.9653,"postcode":"SA2 0NX","la":"Swansea","era":"other","nn":48,"risk":22,"cat":"green"},{"name":"The Bridge End Inn Public House LTD","lat":51.67024,"lon":-3.87296,"postcode":"SA7 9NA","la":"Swansea","era":"other","nn":286,"risk":42,"cat":"amber"},{"name":"The Brynymor Hotel","lat":51.61643,"lon":-3.95816,"postcode":"SA1 4JQ","la":"Swansea","era":"other","nn":53,"risk":22,"cat":"green"},{"name":"The Builders","lat":51.61836,"lon":-3.94998,"postcode":"SA1 3HT","la":"Swansea","era":"other","nn":67,"risk":23,"cat":"green"},{"name":"The Bunkhouse Swansea","lat":51.6204,"lon":-3.94546,"postcode":"SA1 3DJ","la":"Swansea","era":"other","nn":84,"risk":23,"cat":"green"},{"name":"The Commercial Inn","lat":51.61745,"lon":-4.01876,"postcode":"SA2 7AN","la":"Swansea","era":"trad","nn":1,"risk":22,"cat":"green"},{"name":"The Copper Pot","lat":51.66068,"lon":-3.90164,"postcode":"SA7 9AQ","la":"Swansea","era":"other","nn":204,"risk":26,"cat":"green"},{"name":"The Coracle","lat":51.64407,"lon":-3.96248,"postcode":"SA5 7BA","la":"Swansea","era":"other","nn":511,"risk":26,"cat":"green"},{"name":"The Crofty Inn","lat":51.63387,"lon":-4.13019,"postcode":"SA4 3SW","la":"Swansea","era":"trad","nn":1502,"risk":55,"cat":"amber"},{"name":"The Crown Inn","lat":51.6727,"lon":-3.87418,"postcode":"SA7 9NA","la":"Swansea","era":"trad","nn":286,"risk":42,"cat":"amber"},{"name":"The Deers Leap","lat":51.67919,"lon":-3.92749,"postcode":"SA6 6SG","la":"Swansea","era":"other","nn":549,"risk":43,"cat":"amber"},{"name":"The Dunvant","lat":51.62354,"lon":-4.02876,"postcode":"SA2 7SS","la":"Swansea","era":"other","nn":351,"risk":25,"cat":"green"},{"name":"The Eagle Inn","lat":51.65763,"lon":-3.9498,"postcode":"SA5 9AU","la":"Swansea","era":"trad","nn":228,"risk":41,"cat":"amber"},{"name":"The Farmers Arms","lat":51.71315,"lon":-4.03825,"postcode":"SA4 8RA","la":"Swansea","era":"trad","nn":262,"risk":24,"cat":"green"},{"name":"The farmers Arms","lat":51.64157,"lon":-4.02268,"postcode":"SA5 4SL","la":"Swansea","era":"trad","nn":666,"risk":47,"cat":"amber"},{"name":"The Farmers Arms","lat":51.62649,"lon":-3.94773,"postcode":"SA1 6XS","la":"Swansea","era":"trad","nn":456,"risk":25,"cat":"green"},{"name":"The Fendrod","lat":51.66065,"lon":-3.90884,"postcode":"SA7 9DG","la":"Swansea","era":"other","nn":299,"risk":27,"cat":"green"},{"name":"The Gate House Hotel","lat":51.6347,"lon":-3.95092,"postcode":"SA5 8NJ","la":"Swansea","era":"mod","nn":135,"risk":23,"cat":"green"},{"name":"The Globe Inn","lat":51.68841,"lon":-3.87733,"postcode":"SA7 9EN","la":"Swansea","era":"trad","nn":74,"risk":43,"cat":"amber"},{"name":"The Globe Inn","lat":51.64196,"lon":-3.94212,"postcode":"SA1 2QD","la":"Swansea","era":"trad","nn":83,"risk":23,"cat":"green"},{"name":"The Griffin inc K-Town Chik Box and Locked and Loaded","lat":51.61963,"lon":-3.94154,"postcode":"SA1 1DW","la":"Swansea","era":"trad","nn":16,"risk":22,"cat":"green"},{"name":"The Grove Club (Private Club)","lat":51.66195,"lon":-3.92422,"postcode":"SA6 8BU","la":"Swansea","era":"other","nn":0,"risk":25,"cat":"green"},{"name":"The Hafod Inn","lat":51.63293,"lon":-3.93845,"postcode":"SA1 2HL","la":"Swansea","era":"trad","nn":29,"risk":22,"cat":"green"},{"name":"The Halfway","lat":51.65021,"lon":-3.89435,"postcode":"SA1 7LD","la":"Swansea","era":"other","nn":837,"risk":48,"cat":"amber"},{"name":"The Hanbury","lat":51.62094,"lon":-3.9446,"postcode":"SA1 5HG","la":"Swansea","era":"other","nn":84,"risk":23,"cat":"green"},{"name":"The Kings Club Ltd","lat":51.65353,"lon":-4.03978,"postcode":"SA4 3AB","la":"Swansea","era":"trad","nn":0,"risk":22,"cat":"green"},{"name":"The Kingshead Hotel","lat":51.6003,"lon":-4.2698,"postcode":"SA3 1HX","la":"Swansea","era":"trad","nn":2395,"risk":61,"cat":"red"},{"name":"The Maltsters Arms","lat":51.63702,"lon":-3.95329,"postcode":"SA5 8BA","la":"Swansea","era":"trad","nn":176,"risk":23,"cat":"green"},{"name":"The Mill","lat":51.61631,"lon":-3.95958,"postcode":"SA1 4JJ","la":"Swansea","era":"trad","nn":99,"risk":23,"cat":"green"},{"name":"The Music Fable Hotel","lat":51.61301,"lon":-3.95698,"postcode":"SA1 3UL","la":"Swansea","era":"other","nn":14,"risk":22,"cat":"green"},{"name":"The New Wyndham","lat":51.61825,"lon":-3.95125,"postcode":"SA1 3HZ","la":"Swansea","era":"other","nn":88,"risk":23,"cat":"green"},{"name":"The Old Glais Inn","lat":51.68898,"lon":-3.8779,"postcode":"SA7 9EN","la":"Swansea","era":"trad","nn":74,"risk":43,"cat":"amber"},{"name":"The Olde Cross Keys","lat":51.61936,"lon":-3.94198,"postcode":"SA1 3LH","la":"Swansea","era":"trad","nn":43,"risk":22,"cat":"green"},{"name":"The Perch Swansea","lat":51.61961,"lon":-3.94123,"postcode":"SA1 1EQ","la":"Swansea","era":"trad","nn":10,"risk":22,"cat":"green"},{"name":"The Potters Wheel","lat":51.61958,"lon":-3.94877,"postcode":"SA1 5JE","la":"Swansea","era":"other","nn":112,"risk":23,"cat":"green"},{"name":"The Railway Inn","lat":51.61301,"lon":-4.02676,"postcode":"SA2 7DS","la":"Swansea","era":"trad","nn":741,"risk":30,"cat":"green"},{"name":"The Rake and Riddle","lat":51.64693,"lon":-4.07825,"postcode":"SA4 3RB","la":"Swansea","era":"other","nn":1822,"risk":57,"cat":"amber"},{"name":"The Reverend James","lat":51.6679,"lon":-4.05882,"postcode":"SA4 6RT","la":"Swansea","era":"other","nn":106,"risk":25,"cat":"green"},{"name":"The Royal Oak","lat":51.64251,"lon":-4.10915,"postcode":"SA4 3YN","la":"Swansea","era":"trad","nn":246,"risk":44,"cat":"amber"},{"name":"The Ship Inn","lat":51.62309,"lon":-3.93366,"postcode":"SA1 8DJ","la":"Swansea","era":"trad","nn":160,"risk":23,"cat":"green"},{"name":"The Sketty Club","lat":51.61828,"lon":-3.98424,"postcode":"SA2 9DE","la":"Swansea","era":"other","nn":172,"risk":26,"cat":"green"},{"name":"The Smiths Arms","lat":51.63309,"lon":-3.93878,"postcode":"SA1 2HR","la":"Swansea","era":"trad","nn":29,"risk":22,"cat":"green"},{"name":"The Storyteller","lat":51.62122,"lon":-3.94301,"postcode":"SA1 5HE","la":"Swansea","era":"other","nn":94,"risk":23,"cat":"green"},{"name":"The Valley","lat":51.5834,"lon":-4.05221,"postcode":"SA3 3EJ","la":"Swansea","era":"other","nn":0,"risk":27,"cat":"green"},{"name":"The Victoria Inn","lat":51.5735,"lon":-3.99961,"postcode":"SA3 4DB","la":"Swansea","era":"trad","nn":87,"risk":23,"cat":"green"},{"name":"The Village Tavern","lat":51.69594,"lon":-3.89245,"postcode":"SA6 5LN","la":"Swansea","era":"other","nn":217,"risk":24,"cat":"green"},{"name":"The Waterfront Beefeater","lat":51.62006,"lon":-3.91967,"postcode":"SA1 8RB","la":"Swansea","era":"other","nn":207,"risk":29,"cat":"green"},{"name":"The West Cross Inn","lat":51.58487,"lon":-4.00127,"postcode":"SA3 5AB","la":"Swansea","era":"trad","nn":657,"risk":47,"cat":"amber"},{"name":"The White Rose","lat":51.57556,"lon":-3.99942,"postcode":"SA3 4AR","la":"Swansea","era":"other","nn":58,"risk":23,"cat":"green"},{"name":"The Woodman","lat":51.59693,"lon":-3.99564,"postcode":"SA3 5AS","la":"Swansea","era":"other","nn":1397,"risk":54,"cat":"amber"},{"name":"Three Compasses","lat":51.69451,"lon":-3.89892,"postcode":"SA6 5EJ","la":"Swansea","era":"other","nn":75,"risk":23,"cat":"green"},{"name":"Three Sisters (Bar)","lat":51.63556,"lon":-3.9523,"postcode":"SA5 8NN","la":"Swansea","era":"other","nn":135,"risk":23,"cat":"green"},{"name":"Toby Carvery","lat":51.66891,"lon":-4.03565,"postcode":"SA4 4DJ","la":"Swansea","era":"other","nn":113,"risk":23,"cat":"green"},{"name":"Travellers Well Inn","lat":51.63564,"lon":-3.96176,"postcode":"SA5 8LA","la":"Swansea","era":"trad","nn":605,"risk":26,"cat":"green"},{"name":"Tredegar Arms","lat":51.61386,"lon":-3.95503,"postcode":"SA1 3UB","la":"Swansea","era":"trad","nn":96,"risk":23,"cat":"green"},{"name":"Ty Cwrw","lat":51.57254,"lon":-3.99236,"postcode":"SA3 4EA","la":"Swansea","era":"other","nn":207,"risk":24,"cat":"green"},{"name":"Union Inn","lat":51.62117,"lon":-3.91727,"postcode":"SA1 8JU","la":"Swansea","era":"trad","nn":207,"risk":29,"cat":"green"},{"name":"Uplands Tavern","lat":51.61842,"lon":-3.9669,"postcode":"SA2 0PG","la":"Swansea","era":"other","nn":30,"risk":22,"cat":"green"},{"name":"Vardre RFC","lat":51.69488,"lon":-3.89668,"postcode":"SA6 5LF","la":"Swansea","era":"other","nn":97,"risk":23,"cat":"green"},{"name":"Village Bar Cafe","lat":51.61807,"lon":-4.01821,"postcode":"SA2 7BA","la":"Swansea","era":"mod","nn":79,"risk":23,"cat":"green"},{"name":"Villiers Arms","lat":51.631,"lon":-3.93963,"postcode":"SA1 2HE","la":"Swansea","era":"trad","nn":229,"risk":24,"cat":"green"},{"name":"Vivian Arms","lat":51.61877,"lon":-3.98731,"postcode":"SA2 9BT","la":"Swansea","era":"trad","nn":73,"risk":28,"cat":"green"},{"name":"Waterloo Stores","lat":51.57284,"lon":-3.99531,"postcode":"SA3 4DX","la":"Swansea","era":"other","nn":42,"risk":22,"cat":"green"},{"name":"Waunarlwydd RFC","lat":51.64191,"lon":-4.01305,"postcode":"SA5 4ST","la":"Swansea","era":"other","nn":666,"risk":47,"cat":"amber"},{"name":"Westbourne Hotel","lat":51.61632,"lon":-3.95742,"postcode":"SA1 4JQ","la":"Swansea","era":"other","nn":53,"risk":22,"cat":"green"},{"name":"Wheatsheaf Hotel","lat":51.71509,"lon":-4.04321,"postcode":"SA4 8SZ","la":"Swansea","era":"trad","nn":74,"risk":23,"cat":"green"},{"name":"Wig & Pen","lat":51.61547,"lon":-3.95783,"postcode":"SA1 4BL","la":"Swansea","era":"other","nn":99,"risk":23,"cat":"green"},{"name":"Willo's Bar & Diner","lat":51.66855,"lon":-4.03995,"postcode":"SA4 4AD","la":"Swansea","era":"mod","nn":128,"risk":23,"cat":"green"},{"name":"Ynystawe Cricket Club","lat":51.68211,"lon":-3.90596,"postcode":"SA6 5AP","la":"Swansea","era":"other","nn":387,"risk":45,"cat":"amber"}]