[{"name":"Aber Bay Holiday Park","lat":52.43645,"lon":-4.06712,"postcode":"SY23 3DT","la":"Ceredigion","era":"other","nn":421,"risk":50,"cat":"amber"},{"name":"ABERYSTWYTH TOWN FOOTBALL CLUB","lat":52.4113,"lon":-4.08054,"postcode":"SY23 1PG","la":"Ceredigion","era":"other","nn":204,"risk":28,"cat":"green"},{"name":"Asteroid Club","lat":52.40761,"lon":-4.07874,"postcode":"SY23 1TH","la":"Ceredigion","era":"other","nn":427,"risk":30,"cat":"green"},{"name":"Bar 46","lat":52.41235,"lon":-4.08515,"postcode":"SY23 1QB","la":"Ceredigion","era":"mod","nn":60,"risk":27,"cat":"green"},{"name":"BORTH & YNYSLAS GOLF CLUB","lat":52.49602,"lon":-4.05153,"postcode":"SY24 5JS","la":"Ceredigion","era":"other","nn":899,"risk":53,"cat":"amber"},{"name":"Bottle & Barrel","lat":52.41456,"lon":-4.08293,"postcode":"SY23 1NT","la":"Ceredigion","era":"other","nn":63,"risk":27,"cat":"green"},{"name":"Clwb Bowlio Tregaron","lat":52.2214,"lon":-3.93505,"postcode":"SY25 6HX","la":"Ceredigion","era":"other","nn":146,"risk":46,"cat":"amber"},{"name":"COMMODORE CINEMA","lat":52.41702,"lon":-4.083,"postcode":"SY23 2NN","la":"Ceredigion","era":"other","nn":113,"risk":28,"cat":"green"},{"name":"DOWNIES VAULTS","lat":52.41525,"lon":-4.08554,"postcode":"SY23 2AR","la":"Ceredigion","era":"other","nn":56,"risk":27,"cat":"green"},{"name":"FRIENDSHIP INN (Public House)","lat":52.48795,"lon":-4.0508,"postcode":"SY24 5JA","la":"Ceredigion","era":"trad","nn":208,"risk":46,"cat":"amber"},{"name":"GOGERDDAN ARMS","lat":52.40825,"lon":-4.05979,"postcode":"SY23 3RA","la":"Ceredigion","era":"trad","nn":1261,"risk":58,"cat":"amber"},{"name":"GREEN VALLEY LEISURE LTD","lat":52.36874,"lon":-4.00492,"postcode":"SY23 4JT","la":"Ceredigion","era":"other","nn":5759,"risk":85,"cat":"red"},{"name":"HENDREWEN SOCIAL CLUB","lat":52.21266,"lon":-3.99653,"postcode":"SY25 6QU","la":"Ceredigion","era":"mod","nn":1851,"risk":62,"cat":"red"},{"name":"Irie's","lat":52.41586,"lon":-4.07987,"postcode":"SY23 2JW","la":"Ceredigion","era":"other","nn":192,"risk":28,"cat":"green"},{"name":"KANE'S BAR","lat":52.4161,"lon":-4.08486,"postcode":"SY23 2BT","la":"Ceredigion","era":"other","nn":55,"risk":27,"cat":"green"},{"name":"London Midland Railway Club Association","lat":52.41304,"lon":-4.07958,"postcode":"SY23 1LL","la":"Ceredigion","era":"trad","nn":176,"risk":28,"cat":"green"},{"name":"MASONIC SOCIAL CLUB","lat":52.41476,"lon":-4.08535,"postcode":"SY23 1DL","la":"Ceredigion","era":"other","nn":56,"risk":27,"cat":"green"},{"name":"New Inn","lat":52.1791,"lon":-3.959,"postcode":"SY25 6RS","la":"Ceredigion","era":"trad","nn":4525,"risk":81,"cat":"red"},{"name":"PLAS CRUG BOWLING CLUB","lat":52.41344,"lon":-4.07632,"postcode":"SY23 1NE","la":"Ceredigion","era":"other","nn":226,"risk":29,"cat":"green"},{"name":"QUEENS ROAD BOWLING CLUB","lat":52.41831,"lon":-4.08298,"postcode":"SY23 2HP","la":"Ceredigion","era":"trad","nn":144,"risk":28,"cat":"green"},{"name":"Rhos Yr Hafod Inn","lat":52.25638,"lon":-4.13538,"postcode":"SY23 5NB","la":"Ceredigion","era":"trad","nn":3939,"risk":77,"cat":"red"},{"name":"Rummers Bar","lat":52.41185,"lon":-4.08549,"postcode":"SY23 1QD","la":"Ceredigion","era":"other","nn":60,"risk":27,"cat":"green"},{"name":"Sunny Hill","lat":52.22007,"lon":-3.93488,"postcode":"SY25 6HU","la":"Ceredigion","era":"other","nn":78,"risk":45,"cat":"amber"},{"name":"THE ANGEL INN","lat":52.41394,"lon":-4.08687,"postcode":"SY23 1DW","la":"Ceredigion","era":"trad","nn":76,"risk":28,"cat":"green"},{"name":"The Bank Vault","lat":52.41462,"lon":-4.08704,"postcode":"SY23 2AT","la":"Ceredigion","era":"other","nn":76,"risk":28,"cat":"green"},{"name":"The Barn at Pengarreg Caravan Park","lat":52.30667,"lon":-4.15757,"postcode":"SY23 5DJ","la":"Ceredigion","era":"other","nn":3004,"risk":71,"cat":"red"},{"name":"The Libertine (Aberystwyth)","lat":52.41653,"lon":-4.08446,"postcode":"SY23 2AJ","la":"Ceredigion","era":"other","nn":55,"risk":27,"cat":"green"},{"name":"THE MILL INN","lat":52.41316,"lon":-4.08345,"postcode":"SY23 1HZ","la":"Ceredigion","era":"trad","nn":146,"risk":28,"cat":"green"},{"name":"The Railway Inn","lat":52.48609,"lon":-4.05112,"postcode":"SY24 5JE","la":"Ceredigion","era":"trad","nn":208,"risk":48,"cat":"amber"},{"name":"THE SHIP & CASTLE","lat":52.4128,"lon":-4.0863,"postcode":"SY23 1JG","la":"Ceredigion","era":"trad","nn":73,"risk":28,"cat":"green"},{"name":"THE SHOWBOAT - CLARACH BAY HOLIDAY VILLAGE","lat":52.43319,"lon":-4.07027,"postcode":"SY23 3DT","la":"Ceredigion","era":"other","nn":421,"risk":50,"cat":"amber"},{"name":"The View","lat":52.47579,"lon":-4.05425,"postcode":"SY24 5NR","la":"Ceredigion","era":"other","nn":1165,"risk":58,"cat":"amber"},{"name":"The White Horse","lat":52.41587,"lon":-4.08402,"postcode":"SY23 2DT","la":"Ceredigion","era":"trad","nn":62,"risk":27,"cat":"green"},{"name":"The Wildfowler","lat":52.51198,"lon":-3.97608,"postcode":"SY20 8PN","la":"Ceredigion","era":"other","nn":3057,"risk":71,"cat":"red"},{"name":"THREE HORSESHOE INN","lat":52.21883,"lon":-4.02177,"postcode":"SY25 6TW","la":"Ceredigion","era":"trad","nn":1851,"risk":62,"cat":"red"},{"name":"Vale of Rheidol","lat":52.41476,"lon":-4.08206,"postcode":"SY23 1NY","la":"Ceredigion","era":"other","nn":63,"risk":27,"cat":"green"},{"name":"Wetherspoons","lat":52.41401,"lon":-4.08163,"postcode":"SY23 1LH","la":"Ceredigion","era":"other","nn":88,"risk":28,"cat":"green"},{"name":"White Lion","lat":52.48477,"lon":-3.98253,"postcode":"SY24 5ER","la":"Ceredigion","era":"trad","nn":3057,"risk":71,"cat":"red"},{"name":"White Swan Inn","lat":52.28196,"lon":-4.17543,"postcode":"SY23 5HY","la":"Ceredigion","era":"trad","nn":3004,"risk":71,"cat":"red"},{"name":"Y Llew Coch","lat":52.22033,"lon":-3.93382,"postcode":"SY25 6HH","la":"Ceredigion","era":"other","nn":78,"risk":45,"cat":"amber"},{"name":"Yr Hen Llew Du","lat":52.41341,"lon":-4.08592,"postcode":"SY23 1PZ","la":"Ceredigion","era":"other","nn":73,"risk":28,"cat":"green"},{"name":"Cholmondeley Arms","lat":53.04982,"lon":-2.66875,"postcode":"SY14 8HN","la":"Cheshire East","era":"trad","nn":1989,"risk":58,"cat":"amber"},{"name":"Combermere Arms","lat":52.98012,"lon":-2.58775,"postcode":"SY13 4AT","la":"Cheshire East","era":"trad","nn":4576,"risk":76,"cat":"red"},{"name":"The Swan","lat":53.00749,"lon":-2.65423,"postcode":"SY13 4LS","la":"Cheshire East","era":"trad","nn":3602,"risk":69,"cat":"red"},{"name":"Cholmondeley Working Mens Club","lat":53.03643,"lon":-2.68846,"postcode":"SY13 4JG","la":"Cheshire West and Chester","era":"trad","nn":1989,"risk":60,"cat":"amber"},{"name":"The Crown Hotel","lat":53.0191,"lon":-2.7648,"postcode":"SY14 8NE","la":"Cheshire West and Chester","era":"trad","nn":5260,"risk":81,"cat":"red"},{"name":"Ekici Holding LTD","lat":52.72079,"lon":-3.6909,"postcode":"SY20 9JA","la":"Gwynedd","era":"other","nn":11309,"risk":83,"cat":"red"},{"name":"Slaters Arms","lat":52.65454,"lon":-3.84225,"postcode":"SY20 9SP","la":"Gwynedd","era":"trad","nn":1996,"risk":62,"cat":"red"},{"name":"Sun Inn","lat":52.35939,"lon":-2.87347,"postcode":"SY7 0LP","la":"Herefordshire, County of","era":"trad","nn":4895,"risk":82,"cat":"red"},{"name":"The Boot Inn","lat":52.30002,"lon":-2.7457,"postcode":"SY8 4HN","la":"Herefordshire, County of","era":"trad","nn":593,"risk":49,"cat":"amber"},{"name":"The Maidenhead","lat":52.30178,"lon":-2.75394,"postcode":"SY8 4JB","la":"Herefordshire, County of","era":"trad","nn":593,"risk":49,"cat":"amber"},{"name":"The Royal George","lat":52.29962,"lon":-2.93418,"postcode":"SY7 0DY","la":"Herefordshire, County of","era":"trad","nn":5280,"risk":83,"cat":"red"},{"name":"23 Social","lat":52.51631,"lon":-3.3164,"postcode":"SY16 2NA","la":"Powys","era":"mod","nn":0,"risk":22,"cat":"green"},{"name":"Abermule Inn","lat":52.54389,"lon":-3.23751,"postcode":"SY15 6ND","la":"Powys","era":"trad","nn":4739,"risk":78,"cat":"red"},{"name":"Aleppo Merchant Inn","lat":52.55581,"lon":-3.53061,"postcode":"SY17 5LL","la":"Powys","era":"trad","nn":510,"risk":46,"cat":"amber"},{"name":"Angel Inn","lat":52.4475,"lon":-3.53822,"postcode":"SY18 6BY","la":"Powys","era":"trad","nn":94,"risk":23,"cat":"green"},{"name":"Argae Hall","lat":52.57604,"lon":-3.19029,"postcode":"SY15 6RX","la":"Powys","era":"other","nn":756,"risk":47,"cat":"amber"},{"name":"Beehive Inn","lat":52.61252,"lon":-3.31029,"postcode":"SY21 8BL","la":"Powys","era":"trad","nn":2867,"risk":65,"cat":"red"},{"name":"Black Lion Hotel","lat":52.40631,"lon":-3.60604,"postcode":"SY18 6SG","la":"Powys","era":"trad","nn":0,"risk":42,"cat":"amber"},{"name":"Black Lion Inn","lat":52.57489,"lon":-3.88667,"postcode":"SY20 8TN","la":"Powys","era":"trad","nn":2901,"risk":65,"cat":"red"},{"name":"Blue Bell Inn","lat":52.40631,"lon":-3.60604,"postcode":"SY18 6SG","la":"Powys","era":"trad","nn":0,"risk":42,"cat":"amber"},{"name":"Bowling Club","lat":52.51582,"lon":-3.31721,"postcode":"SY16 2NH","la":"Powys","era":"other","nn":77,"risk":23,"cat":"green"},{"name":"Bowling Club","lat":52.44309,"lon":-3.54498,"postcode":"SY18 6EX","la":"Powys","era":"other","nn":529,"risk":26,"cat":"green"},{"name":"Buck Hotel","lat":52.5164,"lon":-3.4286,"postcode":"SY17 5EL","la":"Powys","era":"other","nn":0,"risk":27,"cat":"green"},{"name":"Buck Inn","lat":52.5148,"lon":-3.31623,"postcode":"SY16 2NP","la":"Powys","era":"trad","nn":82,"risk":23,"cat":"green"},{"name":"Caersws Football Club","lat":52.51579,"lon":-3.42846,"postcode":"SY17 5DT","la":"Powys","era":"other","nn":68,"risk":28,"cat":"green"},{"name":"Castle Vaults","lat":52.5157,"lon":-3.31509,"postcode":"SY16 2AU","la":"Powys","era":"other","nn":56,"risk":22,"cat":"green"},{"name":"Cedewain Masonic Lodge","lat":52.51746,"lon":-3.31943,"postcode":"SY16 2DZ","la":"Powys","era":"trad","nn":198,"risk":23,"cat":"green"},{"name":"Cefn Coch Inn","lat":52.61517,"lon":-3.40589,"postcode":"SY21 0AE","la":"Powys","era":"trad","nn":3633,"risk":70,"cat":"red"},{"name":"Coach & Horses B & B","lat":52.4472,"lon":-3.54104,"postcode":"SY18 6EJ","la":"Powys","era":"trad","nn":0,"risk":22,"cat":"green"},{"name":"Cobra Rugby Club","lat":52.68831,"lon":-3.28556,"postcode":"SY22 6HS","la":"Powys","era":"other","nn":2980,"risk":65,"cat":"red"},{"name":"Crown & Anchor Inn","lat":52.44955,"lon":-3.53962,"postcode":"SY18 6EF","la":"Powys","era":"trad","nn":39,"risk":22,"cat":"green"},{"name":"Crown Inn","lat":52.56001,"lon":-3.14771,"postcode":"SY15 6PW","la":"Powys","era":"trad","nn":2408,"risk":61,"cat":"red"},{"name":"Dolau Inn","lat":52.49479,"lon":-3.3525,"postcode":"SY16 4JL","la":"Powys","era":"trad","nn":2810,"risk":64,"cat":"red"},{"name":"Dolfor Inn","lat":52.47705,"lon":-3.3175,"postcode":"SY16 4AA","la":"Powys","era":"trad","nn":3083,"risk":66,"cat":"red"},{"name":"Dovey Valley Hotel","lat":52.62443,"lon":-3.74453,"postcode":"SY20 8JZ","la":"Powys","era":"other","nn":6334,"risk":80,"cat":"red"},{"name":"Dyfi Forester Inn","lat":52.59275,"lon":-3.85437,"postcode":"SY20 8BQ","la":"Powys","era":"trad","nn":202,"risk":28,"cat":"green"},{"name":"Exchange Newtown","lat":52.51631,"lon":-3.3164,"postcode":"SY16 2NA","la":"Powys","era":"other","nn":0,"risk":22,"cat":"green"},{"name":"Football Club Refreshment Hut","lat":52.51206,"lon":-3.3222,"postcode":"SY16 1EN","la":"Powys","era":"other","nn":0,"risk":22,"cat":"green"},{"name":"Goat Inn","lat":52.74271,"lon":-3.36333,"postcode":"SY22 5JD","la":"Powys","era":"trad","nn":5111,"risk":80,"cat":"red"},{"name":"Grapes Inn","lat":52.66304,"lon":-3.13855,"postcode":"SY21 7EZ","la":"Powys","era":"trad","nn":395,"risk":25,"cat":"green"},{"name":"Green Dragon","lat":52.6605,"lon":-3.15336,"postcode":"SY21 7LW","la":"Powys","era":"trad","nn":176,"risk":23,"cat":"green"},{"name":"Gwernydd Arms","lat":52.61053,"lon":-3.35263,"postcode":"SY16 3NW","la":"Powys","era":"trad","nn":2867,"risk":65,"cat":"red"},{"name":"Herbert Arms","lat":52.50128,"lon":-3.25938,"postcode":"SY16 4NU","la":"Powys","era":"trad","nn":2661,"risk":63,"cat":"red"},{"name":"Hogs Inn The Breidden","lat":52.70565,"lon":-3.03477,"postcode":"SY21 8EL","la":"Powys","era":"trad","nn":2720,"risk":64,"cat":"red"},{"name":"Kings Head","lat":52.71056,"lon":-3.25286,"postcode":"SY22 6BY","la":"Powys","era":"trad","nn":3313,"risk":68,"cat":"red"},{"name":"Lion Hotel","lat":52.57396,"lon":-3.17495,"postcode":"SY15 6HF","la":"Powys","era":"trad","nn":1062,"risk":52,"cat":"amber"},{"name":"Little India","lat":52.82499,"lon":-3.30414,"postcode":"SY10 0JR","la":"Powys","era":"other","nn":8693,"risk":80,"cat":"red"},{"name":"Llanymynech Golf Club","lat":52.78086,"lon":-3.08875,"postcode":"SY10 8LB","la":"Shropshire","era":"other","nn":60,"risk":36,"cat":"amber"},{"name":"Masonic Hall","lat":52.6573,"lon":-3.14665,"postcode":"SY21 7SS","la":"Powys","era":"trad","nn":44,"risk":22,"cat":"green"},{"name":"Molto Nightclub","lat":52.65904,"lon":-3.14742,"postcode":"SY21 7SQ","la":"Powys","era":"other","nn":0,"risk":22,"cat":"green"},{"name":"Monty Club","lat":52.5155,"lon":-3.31585,"postcode":"SY16 2LU","la":"Powys","era":"other","nn":56,"risk":22,"cat":"green"},{"name":"Newtown AFC Ltd","lat":52.51206,"lon":-3.3222,"postcode":"SY16 1EN","la":"Powys","era":"other","nn":0,"risk":22,"cat":"green"},{"name":"Old Hand & Diamond","lat":52.72739,"lon":-2.9785,"postcode":"SY5 9AR","la":"Powys","era":"other","nn":2763,"risk":64,"cat":"red"},{"name":"Pheasant","lat":52.51436,"lon":-3.31466,"postcode":"SY16 2PQ","la":"Powys","era":"other","nn":51,"risk":22,"cat":"green"},{"name":"Pheasant Inn","lat":52.66073,"lon":-3.14912,"postcode":"SY21 7JQ","la":"Powys","era":"trad","nn":15,"risk":22,"cat":"green"},{"name":"Pinewood Tavern","lat":52.66046,"lon":-3.14801,"postcode":"SY21 7RZ","la":"Powys","era":"other","nn":66,"risk":23,"cat":"green"},{"name":"Plas yn Dinas Inn","lat":52.77578,"lon":-3.20365,"postcode":"SY22 6UJ","la":"Powys","era":"trad","nn":4299,"risk":75,"cat":"red"},{"name":"Railway Inn","lat":52.59694,"lon":-3.15345,"postcode":"SY21 8NN","la":"Powys","era":"trad","nn":2939,"risk":65,"cat":"red"},{"name":"Railway Inn","lat":52.32698,"lon":-3.43953,"postcode":"SY10 0NU","la":"Powys","era":"trad","nn":0,"risk":25,"cat":"green"},{"name":"Railway Tavern","lat":52.51208,"lon":-3.29446,"postcode":"SY16 1BP","la":"Powys","era":"trad","nn":834,"risk":45,"cat":"amber"},{"name":"Red Lion","lat":52.6484,"lon":-3.32421,"postcode":"SY21 0RP","la":"Powys","era":"trad","nn":4099,"risk":73,"cat":"red"},{"name":"Red Lion","lat":52.64094,"lon":-3.2381,"postcode":"SY21 9AL","la":"Powys","era":"trad","nn":1841,"risk":57,"cat":"amber"},{"name":"Red Lion","lat":52.5164,"lon":-3.4286,"postcode":"SY17 5EL","la":"Powys","era":"trad","nn":0,"risk":27,"cat":"green"},{"name":"Red Lion","lat":52.50522,"lon":-3.51801,"postcode":"SY17 5PH","la":"Powys","era":"trad","nn":5690,"risk":80,"cat":"red"},{"name":"Red Lion Hotel","lat":52.44946,"lon":-3.54018,"postcode":"SY18 6EE","la":"Powys","era":"trad","nn":0,"risk":22,"cat":"green"},{"name":"Royal Oak","lat":52.70478,"lon":-3.32045,"postcode":"SY22 6HY","la":"Powys","era":"trad","nn":2980,"risk":65,"cat":"red"},{"name":"Rugby Club","lat":52.4472,"lon":-3.54104,"postcode":"SY18 6EJ","la":"Powys","era":"other","nn":0,"risk":22,"cat":"green"},{"name":"Skinners Arms","lat":52.59121,"lon":-3.8528,"postcode":"SY20 8AJ","la":"Powys","era":"trad","nn":54,"risk":27,"cat":"green"},{"name":"St Giles Golf Club","lat":52.51958,"lon":-3.29504,"postcode":"SY16 3AJ","la":"Powys","era":"other","nn":834,"risk":45,"cat":"amber"},{"name":"Stumble Inn","lat":52.32698,"lon":-3.43953,"postcode":"SY22 5LL","la":"Powys","era":"trad","nn":0,"risk":25,"cat":"green"},{"name":"Tafarn Dwynant","lat":52.63698,"lon":-3.83608,"postcode":"SY20 9HA","la":"Powys","era":"other","nn":1996,"risk":59,"cat":"amber"},{"name":"Talbot Hotel","lat":52.59887,"lon":-3.20717,"postcode":"SY21 8PJ","la":"Powys","era":"trad","nn":2083,"risk":59,"cat":"amber"},{"name":"Talbot Inn","lat":52.66055,"lon":-3.15076,"postcode":"SY21 7JP","la":"Powys","era":"trad","nn":112,"risk":23,"cat":"green"},{"name":"Tanat Valley Inn","lat":52.65449,"lon":-2.7337,"postcode":"SY10 0EX","la":"Powys","era":"trad","nn":0,"risk":42,"cat":"amber"},{"name":"The Admiral Rodney Inn","lat":52.72874,"lon":-3.02147,"postcode":"SY5 9AU","la":"Powys","era":"trad","nn":2720,"risk":64,"cat":"red"},{"name":"The Angel","lat":52.65904,"lon":-3.14742,"postcode":"SY21 7SQ","la":"Powys","era":"trad","nn":0,"risk":22,"cat":"green"},{"name":"The Green Inn","lat":52.65449,"lon":-2.7337,"postcode":"SY10 9JW","la":"Powys","era":"trad","nn":0,"risk":42,"cat":"amber"},{"name":"The Grill","lat":52.6606,"lon":-3.14907,"postcode":"SY21 7JH","la":"Powys","era":"other","nn":15,"risk":22,"cat":"green"},{"name":"The Horseshoe Inn","lat":52.73929,"lon":-3.09604,"postcode":"SY22 6PU","la":"Powys","era":"trad","nn":3186,"risk":67,"cat":"red"},{"name":"The Kings Head","lat":52.69623,"lon":-3.15677,"postcode":"SY21 9NJ","la":"Powys","era":"trad","nn":3652,"risk":70,"cat":"red"},{"name":"The Lion","lat":52.51482,"lon":-3.31478,"postcode":"SY16 2LR","la":"Powys","era":"trad","nn":47,"risk":22,"cat":"green"},{"name":"The Nags Head","lat":52.58281,"lon":-3.19127,"postcode":"SY15 6RS","la":"Powys","era":"trad","nn":756,"risk":47,"cat":"amber"},{"name":"The New Punch Bowl Tavern","lat":52.74923,"lon":-3.05165,"postcode":"SY22 6SG","la":"Powys","era":"other","nn":3053,"risk":66,"cat":"red"},{"name":"The Old Bakehouse","lat":52.6605,"lon":-3.14703,"postcode":"SY21 7DP","la":"Powys","era":"other","nn":66,"risk":23,"cat":"green"},{"name":"The Powis Arms Hotel","lat":52.69497,"lon":-3.10263,"postcode":"SY21 9JS","la":"Powys","era":"trad","nn":3652,"risk":70,"cat":"red"},{"name":"The Queens Head","lat":52.44946,"lon":-3.54018,"postcode":"SY18 6EE","la":"Powys","era":"trad","nn":0,"risk":22,"cat":"green"},{"name":"The Raven","lat":52.65983,"lon":-3.15766,"postcode":"SY21 7LT","la":"Powys","era":"other","nn":299,"risk":24,"cat":"green"},{"name":"The Red Lion (Y Llew Coch)","lat":52.59074,"lon":-3.85257,"postcode":"SY20 8EB","la":"Powys","era":"trad","nn":54,"risk":27,"cat":"green"},{"name":"The Sarn","lat":52.51024,"lon":-3.14609,"postcode":"SY16 4EN","la":"Powys","era":"other","nn":5535,"risk":80,"cat":"red"},{"name":"The Smithfield Bell","lat":52.65955,"lon":-3.13964,"postcode":"SY21 7BL","la":"Powys","era":"other","nn":337,"risk":24,"cat":"green"},{"name":"The Sportsman Inn","lat":52.51535,"lon":-3.31441,"postcode":"SY16 2AQ","la":"Powys","era":"trad","nn":53,"risk":22,"cat":"green"},{"name":"The Square and Compass","lat":52.62731,"lon":-3.14025,"postcode":"SY21 8RU","la":"Powys","era":"other","nn":3227,"risk":67,"cat":"red"},{"name":"The Stag Inn","lat":52.4483,"lon":-3.53865,"postcode":"SY18 6BU","la":"Powys","era":"trad","nn":94,"risk":23,"cat":"green"},{"name":"The Steam Mill","lat":52.51666,"lon":-3.31683,"postcode":"SY16 2NA","la":"Powys","era":"trad","nn":48,"risk":22,"cat":"green"},{"name":"The Whistling Badger","lat":52.44877,"lon":-3.54136,"postcode":"SY18 6AD","la":"Powys","era":"other","nn":111,"risk":23,"cat":"green"},{"name":"Training for Hire Ltd","lat":52.80691,"lon":-3.16575,"postcode":"SY10 9JQ","la":"Shropshire","era":"other","nn":4299,"risk":70,"cat":"red"},{"name":"Ty Brith","lat":52.55907,"lon":-3.53592,"postcode":"SY17 5LH","la":"Powys","era":"other","nn":510,"risk":46,"cat":"amber"},{"name":"uStrike Ltd","lat":52.51291,"lon":-3.31017,"postcode":"SY16 1BS","la":"Powys","era":"other","nn":344,"risk":24,"cat":"green"},{"name":"Victoria Vaults","lat":52.51518,"lon":-3.31514,"postcode":"SY16 2ND","la":"Powys","era":"trad","nn":47,"risk":22,"cat":"green"},{"name":"Village Club","lat":52.5164,"lon":-3.4286,"postcode":"SY17 5EL","la":"Powys","era":"other","nn":0,"risk":27,"cat":"green"},{"name":"Waggon and Horses","lat":52.51614,"lon":-3.3073,"postcode":"SY16 2JB","la":"Powys","era":"trad","nn":408,"risk":25,"cat":"green"},{"name":"Welshpool Golf Club","lat":52.65581,"lon":-3.22609,"postcode":"SY21 9AQ","la":"Powys","era":"other","nn":1841,"risk":57,"cat":"amber"},{"name":"Welshpool Rugby Club","lat":52.65626,"lon":-3.14353,"postcode":"SY21 7AT","la":"Powys","era":"other","nn":207,"risk":24,"cat":"green"},{"name":"Welshpool Town Bowling Club","lat":52.65736,"lon":-3.146,"postcode":"SY21 7AH","la":"Powys","era":"other","nn":44,"risk":22,"cat":"green"},{"name":"Westwood Park Hotel","lat":52.66104,"lon":-3.144,"postcode":"SY21 7EA","la":"Powys","era":"other","nn":213,"risk":24,"cat":"green"},{"name":"Wetherspoons","lat":52.51636,"lon":-3.31587,"postcode":"SY16 2BQ","la":"Powys","era":"other","nn":36,"risk":22,"cat":"green"},{"name":"White Horse Hotel","lat":52.59042,"lon":-3.85127,"postcode":"SY20 8DT","la":"Powys","era":"trad","nn":95,"risk":28,"cat":"green"},{"name":"56","lat":52.86037,"lon":-3.05375,"postcode":"SY11 2NL","la":"Shropshire","era":"other","nn":36,"risk":18,"cat":"green"},{"name":"Abel's Harp","lat":52.60685,"lon":-3.00085,"postcode":"SY5 0EA","la":"Shropshire","era":"other","nn":1557,"risk":51,"cat":"amber"},{"name":"Admiral Benbow","lat":52.70696,"lon":-2.75568,"postcode":"SY1 1NF","la":"Shropshire","era":"other","nn":66,"risk":18,"cat":"green"},{"name":"Albert & Co Frankville","lat":52.71102,"lon":-2.75861,"postcode":"SY3 8JX","la":"Shropshire","era":"other","nn":29,"risk":18,"cat":"green"},{"name":"Alberts Shed","lat":52.7081,"lon":-2.75746,"postcode":"SY1 1QJ","la":"Shropshire","era":"other","nn":76,"risk":18,"cat":"green"},{"name":"Anchor Inn","lat":52.71113,"lon":-2.75823,"postcode":"SY3 8JX","la":"Shropshire","era":"trad","nn":29,"risk":18,"cat":"green"},{"name":"Archibald Worthington Club","lat":52.96857,"lon":-2.68478,"postcode":"SY13 1BQ","la":"Shropshire","era":"other","nn":72,"risk":18,"cat":"green"},{"name":"Ashleys Wine Bar","lat":52.70755,"lon":-2.75549,"postcode":"SY1 1HF","la":"Shropshire","era":"other","nn":13,"risk":18,"cat":"green"},{"name":"Atcham Malthouse Bowling Club","lat":52.67911,"lon":-2.67898,"postcode":"SY5 6QE","la":"Shropshire","era":"mod","nn":1861,"risk":53,"cat":"amber"},{"name":"Bagley Sports And Social Club","lat":52.71609,"lon":-2.7514,"postcode":"SY1 2RP","la":"Shropshire","era":"mod","nn":156,"risk":19,"cat":"green"},{"name":"Bar Fever","lat":52.70921,"lon":-2.75702,"postcode":"SY1 1QU","la":"Shropshire","era":"mod","nn":25,"risk":18,"cat":"green"},{"name":"Bar@Shrewsbury Freemasons Hall","lat":52.71859,"lon":-2.74492,"postcode":"SY1 2HQ","la":"Shropshire","era":"trad","nn":160,"risk":19,"cat":"green"},{"name":"Barley Mow Inn","lat":52.83506,"lon":-3.10038,"postcode":"SY10 9DX","la":"Shropshire","era":"trad","nn":1402,"risk":50,"cat":"amber"},{"name":"Beaten Track Harvester","lat":52.70354,"lon":-2.74055,"postcode":"SY3 7ET","la":"Shropshire","era":"trad","nn":331,"risk":20,"cat":"green"},{"name":"Beeches Bayston Hill","lat":52.67374,"lon":-2.77388,"postcode":"SY3 0NT","la":"Shropshire","era":"other","nn":888,"risk":42,"cat":"amber"},{"name":"Belle Vue Tavern","lat":52.69943,"lon":-2.74861,"postcode":"SY3 7NJ","la":"Shropshire","era":"other","nn":193,"risk":19,"cat":"green"},{"name":"Black Lion Hotel","lat":52.85671,"lon":-3.05095,"postcode":"SY11 2RJ","la":"Shropshire","era":"trad","nn":327,"risk":20,"cat":"green"},{"name":"Blind Tiger","lat":52.70902,"lon":-2.75682,"postcode":"SY1 1QU","la":"Shropshire","era":"other","nn":25,"risk":18,"cat":"green"},{"name":"Blue Boar Inn","lat":52.36662,"lon":-2.72099,"postcode":"SY8 1BB","la":"Shropshire","era":"trad","nn":107,"risk":19,"cat":"green"},{"name":"Boujee Lounge","lat":52.71216,"lon":-2.75042,"postcode":"SY1 2DJ","la":"Shropshire","era":"mod","nn":9,"risk":18,"cat":"green"},{"name":"Bricklayers Arms","lat":52.71066,"lon":-2.76605,"postcode":"SY3 8NL","la":"Shropshire","era":"trad","nn":239,"risk":20,"cat":"green"},{"name":"Bridgewater Arms","lat":52.79424,"lon":-2.75691,"postcode":"SY4 3DS","la":"Shropshire","era":"trad","nn":2848,"risk":60,"cat":"amber"},{"name":"Bulls Head","lat":52.7113,"lon":-2.75047,"postcode":"SY1 2AB","la":"Shropshire","era":"trad","nn":8,"risk":18,"cat":"green"},{"name":"Bulls Head","lat":52.9679,"lon":-2.68315,"postcode":"SY13 1DP","la":"Shropshire","era":"trad","nn":10,"risk":18,"cat":"green"},{"name":"Butchers Arms","lat":52.86061,"lon":-3.05723,"postcode":"SY11 1AD","la":"Shropshire","era":"trad","nn":39,"risk":18,"cat":"green"},{"name":"Camlad Barns","lat":52.50847,"lon":-3.03169,"postcode":"SY9 5JL","la":"Shropshire","era":"other","nn":2805,"risk":60,"cat":"amber"},{"name":"Castle Hotel","lat":52.85587,"lon":-2.72368,"postcode":"SY4 5AA","la":"Shropshire","era":"other","nn":66,"risk":18,"cat":"green"},{"name":"Church Inn","lat":52.36788,"lon":-2.71916,"postcode":"SY8 1AW","la":"Shropshire","era":"trad","nn":36,"risk":18,"cat":"green"},{"name":"Clive Community Hub","lat":52.81234,"lon":-2.72376,"postcode":"SY4 3LA","la":"Shropshire","era":"mod","nn":3003,"risk":61,"cat":"red"},{"name":"Coleham Tap","lat":52.70337,"lon":-2.75071,"postcode":"SY3 7DX","la":"Shropshire","era":"mod","nn":256,"risk":20,"cat":"green"},{"name":"Compasses","lat":52.67406,"lon":-2.76072,"postcode":"SY3 0DZ","la":"Shropshire","era":"other","nn":232,"risk":37,"cat":"amber"},{"name":"Compasses Inn","lat":52.37017,"lon":-2.71899,"postcode":"SY8 1DA","la":"Shropshire","era":"trad","nn":195,"risk":19,"cat":"green"},{"name":"Cross Foxes","lat":52.89446,"lon":-3.0373,"postcode":"SY11 3JR","la":"Shropshire","era":"trad","nn":1999,"risk":54,"cat":"amber"},{"name":"Cross Guns Inn","lat":52.79116,"lon":-3.0813,"postcode":"SY10 9QR","la":"Shropshire","era":"trad","nn":1194,"risk":49,"cat":"amber"},{"name":"Crown And Anchor Vaults","lat":52.49372,"lon":-2.99769,"postcode":"SY9 5BQ","la":"Shropshire","era":"trad","nn":107,"risk":24,"cat":"green"},{"name":"Crown And Sceptre","lat":52.6394,"lon":-2.92517,"postcode":"SY5 0BA","la":"Shropshire","era":"trad","nn":2518,"risk":58,"cat":"amber"},{"name":"Crown Country Inn","lat":52.48378,"lon":-2.70485,"postcode":"SY7 9ET","la":"Shropshire","era":"trad","nn":1347,"risk":50,"cat":"amber"},{"name":"Crown Inn","lat":52.42449,"lon":-2.97855,"postcode":"SY7 0HU","la":"Shropshire","era":"trad","nn":2616,"risk":59,"cat":"amber"},{"name":"Dog And Pheasant","lat":52.71299,"lon":-2.74509,"postcode":"SY1 2JA","la":"Shropshire","era":"other","nn":281,"risk":20,"cat":"green"},{"name":"Dun Cow","lat":52.70652,"lon":-2.74033,"postcode":"SY2 6AL","la":"Shropshire","era":"other","nn":218,"risk":19,"cat":"green"},{"name":"Elephant And Castle","lat":52.78793,"lon":-2.6537,"postcode":"SY4 4HP","la":"Shropshire","era":"other","nn":397,"risk":41,"cat":"amber"},{"name":"Ellesmere Comrades Sports And Social Club","lat":52.90698,"lon":-2.89656,"postcode":"SY12 0AB","la":"Shropshire","era":"mod","nn":81,"risk":18,"cat":"green"},{"name":"Family And Junior Ranks Bar","lat":52.79722,"lon":-2.663,"postcode":"SY4 4DZ","la":"Shropshire","era":"other","nn":1207,"risk":49,"cat":"amber"},{"name":"Gindifferent","lat":52.70777,"lon":-2.75635,"postcode":"SY1 1HQ","la":"Shropshire","era":"other","nn":1,"risk":18,"cat":"green"},{"name":"Glou Glou","lat":52.71099,"lon":-2.75054,"postcode":"SY1 2AB","la":"Shropshire","era":"other","nn":21,"risk":18,"cat":"green"},{"name":"Golden Cross Inn","lat":52.37438,"lon":-2.59866,"postcode":"SY8 3LZ","la":"Shropshire","era":"trad","nn":4451,"risk":72,"cat":"red"},{"name":"Greenfields And District Bowling Club","lat":52.72013,"lon":-2.74835,"postcode":"SY1 2QN","la":"Shropshire","era":"other","nn":288,"risk":20,"cat":"green"},{"name":"Harlescott Social Club","lat":52.73314,"lon":-2.72727,"postcode":"SY1 4HW","la":"Shropshire","era":"mod","nn":621,"risk":27,"cat":"green"},{"name":"Hawkestone Arms","lat":52.85939,"lon":-2.72257,"postcode":"SY4 5AF","la":"Shropshire","era":"trad","nn":387,"risk":21,"cat":"green"},{"name":"Horse And Jockey Community Pub Limited","lat":52.89464,"lon":-2.79738,"postcode":"SY4 5NN","la":"Shropshire","era":"trad","nn":3349,"risk":64,"cat":"red"},{"name":"Horse And Jockey Inn","lat":52.98355,"lon":-2.71294,"postcode":"SY13 4QJ","la":"Shropshire","era":"trad","nn":2409,"risk":57,"cat":"amber"},{"name":"House Of Grain","lat":52.70604,"lon":-2.74926,"postcode":"SY1 1XJ","la":"Shropshire","era":"mod","nn":0,"risk":18,"cat":"green"},{"name":"Hundred House","lat":52.42151,"lon":-2.94028,"postcode":"SY7 0HJ","la":"Shropshire","era":"other","nn":2616,"risk":59,"cat":"amber"},{"name":"Hungry Highwayman@A458 Layby","lat":52.69805,"lon":-2.97924,"postcode":"SY5 9DG","la":"Shropshire","era":"other","nn":2866,"risk":60,"cat":"amber"},{"name":"Ifton Miners Welfare Institute","lat":52.92387,"lon":-3.00798,"postcode":"SY11 3AY","la":"Shropshire","era":"other","nn":466,"risk":41,"cat":"amber"},{"name":"Inn On The Green","lat":52.6963,"lon":-2.77509,"postcode":"SY3 6DU","la":"Shropshire","era":"trad","nn":1049,"risk":48,"cat":"amber"},{"name":"Inn On The Green","lat":52.53407,"lon":-2.91349,"postcode":"SY9 5EF","la":"Shropshire","era":"trad","nn":644,"risk":42,"cat":"amber"},{"name":"Kangaroo Inn","lat":52.42969,"lon":-2.89483,"postcode":"SY7 8EW","la":"Shropshire","era":"trad","nn":1082,"risk":48,"cat":"amber"},{"name":"Kings Arms","lat":52.53681,"lon":-2.80853,"postcode":"SY6 6BY","la":"Shropshire","era":"trad","nn":130,"risk":39,"cat":"amber"},{"name":"Kings Head Inn","lat":52.49224,"lon":-2.9977,"postcode":"SY9 5AE","la":"Shropshire","era":"trad","nn":165,"risk":24,"cat":"green"},{"name":"Lion And Pheasant Hotel","lat":52.70604,"lon":-2.74926,"postcode":"SY1 1XJ","la":"Shropshire","era":"trad","nn":0,"risk":18,"cat":"green"},{"name":"Lion Inn","lat":52.67814,"lon":-2.95223,"postcode":"SY5 9QP","la":"Shropshire","era":"trad","nn":2504,"risk":58,"cat":"amber"},{"name":"Loggerheads","lat":52.70812,"lon":-2.75195,"postcode":"SY1 1UG","la":"Shropshire","era":"trad","nn":74,"risk":18,"cat":"green"},{"name":"Lowfield Inn","lat":52.62114,"lon":-3.04335,"postcode":"SY21 8JX","la":"Shropshire","era":"trad","nn":1115,"risk":48,"cat":"amber"},{"name":"Ludlow Town Football Club","lat":52.38382,"lon":-2.73408,"postcode":"SY8 2BN","la":"Shropshire","era":"other","nn":1473,"risk":51,"cat":"amber"},{"name":"Masonic Arms","lat":52.70196,"lon":-2.74666,"postcode":"SY3 7LN","la":"Shropshire","era":"trad","nn":144,"risk":19,"cat":"green"},{"name":"Members Pavilion (Berwick Bar)","lat":52.71611,"lon":-2.76247,"postcode":"SY1 2PF","la":"Shropshire","era":"trad","nn":521,"risk":21,"cat":"green"},{"name":"Monkmoor Hotel","lat":52.71638,"lon":-2.72822,"postcode":"SY2 5BQ","la":"Shropshire","era":"trad","nn":751,"risk":43,"cat":"amber"},{"name":"Montgomery's Tower","lat":52.70948,"lon":-2.75833,"postcode":"SY1 1RT","la":"Shropshire","era":"other","nn":22,"risk":18,"cat":"green"},{"name":"Morda Social Club","lat":52.84354,"lon":-3.05546,"postcode":"SY10 9ET","la":"Shropshire","era":"mod","nn":188,"risk":37,"cat":"amber"},{"name":"Nags Head","lat":52.70645,"lon":-2.75033,"postcode":"SY1 1XB","la":"Shropshire","era":"trad","nn":1,"risk":18,"cat":"green"},{"name":"Narrow Boat Inn","lat":52.88667,"lon":-2.96253,"postcode":"SY11 4NU","la":"Shropshire","era":"trad","nn":3055,"risk":62,"cat":"red"},{"name":"Navigation Inn","lat":52.81885,"lon":-3.02012,"postcode":"SY10 8JB","la":"Shropshire","era":"trad","nn":3015,"risk":61,"cat":"red"},{"name":"New Inn","lat":52.67707,"lon":-2.79243,"postcode":"SY5 8BE","la":"Shropshire","era":"trad","nn":1304,"risk":49,"cat":"amber"},{"name":"New Inn Baschurch","lat":52.79212,"lon":-2.85738,"postcode":"SY4 2EF","la":"Shropshire","era":"trad","nn":2977,"risk":61,"cat":"red"},{"name":"Oil","lat":52.70962,"lon":-2.75111,"postcode":"SY1 2BQ","la":"Shropshire","era":"other","nn":87,"risk":18,"cat":"green"},{"name":"Old Bell","lat":52.70585,"lon":-2.7362,"postcode":"SY2 6BA","la":"Shropshire","era":"other","nn":71,"risk":18,"cat":"green"},{"name":"Old Eagles","lat":52.96807,"lon":-2.68359,"postcode":"SY13 1DP","la":"Shropshire","era":"trad","nn":25,"risk":18,"cat":"green"},{"name":"Old Street Tavern","lat":52.36722,"lon":-2.71691,"postcode":"SY8 1NP","la":"Shropshire","era":"other","nn":99,"risk":19,"cat":"green"},{"name":"Oswestry Cricket Club","lat":52.85374,"lon":-3.05878,"postcode":"SY11 2AY","la":"Shropshire","era":"other","nn":552,"risk":22,"cat":"green"},{"name":"Pengwern Boat Club","lat":52.70506,"lon":-2.76336,"postcode":"SY3 7BD","la":"Shropshire","era":"other","nn":512,"risk":21,"cat":"green"},{"name":"Percy's Cafe Bar","lat":52.96857,"lon":-2.68345,"postcode":"SY13 1DW","la":"Shropshire","era":"other","nn":50,"risk":18,"cat":"green"},{"name":"Petit Glou","lat":52.70777,"lon":-2.75633,"postcode":"SY1 1HQ","la":"Shropshire","era":"other","nn":1,"risk":18,"cat":"green"},{"name":"Plough Inn","lat":52.64796,"lon":-2.88647,"postcode":"SY5 0RJ","la":"Shropshire","era":"trad","nn":453,"risk":41,"cat":"amber"},{"name":"Railway Inn","lat":52.86262,"lon":-3.05141,"postcode":"SY11 1HL","la":"Shropshire","era":"trad","nn":94,"risk":19,"cat":"green"},{"name":"Raven Hotel","lat":52.9403,"lon":-2.66076,"postcode":"SY13 2AF","la":"Shropshire","era":"other","nn":1639,"risk":52,"cat":"amber"},{"name":"Red Barn","lat":52.69796,"lon":-2.75978,"postcode":"SY3 7HS","la":"Shropshire","era":"other","nn":666,"risk":23,"cat":"green"},{"name":"Red Cow Inn","lat":52.96925,"lon":-2.68474,"postcode":"SY13 1BG","la":"Shropshire","era":"trad","nn":0,"risk":18,"cat":"green"},{"name":"Red Lion","lat":52.74227,"lon":-2.72077,"postcode":"SY1 4AB","la":"Shropshire","era":"trad","nn":0,"risk":35,"cat":"amber"},{"name":"Red Lion Hotel","lat":52.90825,"lon":-2.88994,"postcode":"SY12 0HD","la":"Shropshire","era":"trad","nn":235,"risk":19,"cat":"green"},{"name":"Red Lion Inn","lat":52.77144,"lon":-2.78066,"postcode":"SY4 3PD","la":"Shropshire","era":"trad","nn":2997,"risk":61,"cat":"red"},{"name":"Reuben's Bar & BBQ","lat":52.96925,"lon":-2.68474,"postcode":"SY13 1BG","la":"Shropshire","era":"mod","nn":0,"risk":18,"cat":"green"},{"name":"Ro-Loz Bar & Nightclub","lat":52.85979,"lon":-3.05545,"postcode":"SY11 1PY","la":"Shropshire","era":"mod","nn":43,"risk":18,"cat":"green"},{"name":"Rose And Crown","lat":52.36776,"lon":-2.71965,"postcode":"SY8 1AP","la":"Shropshire","era":"trad","nn":33,"risk":18,"cat":"green"},{"name":"Saddlers Pub","lat":52.69504,"lon":-2.73941,"postcode":"SY3 7TJ","la":"Shropshire","era":"other","nn":538,"risk":22,"cat":"green"},{"name":"Salwey Arms","lat":52.31295,"lon":-2.70694,"postcode":"SY8 4AL","la":"Shropshire","era":"trad","nn":3001,"risk":61,"cat":"red"},{"name":"Sentinel Cricket Club","lat":52.72834,"lon":-2.73202,"postcode":"SY1 4JD","la":"Shropshire","era":"other","nn":188,"risk":19,"cat":"green"},{"name":"Shelton Cricket Club","lat":52.71165,"lon":-2.80105,"postcode":"SY3 5FU","la":"Shropshire","era":"other","nn":651,"risk":42,"cat":"amber"},{"name":"Shrewsbury Hotel","lat":52.70907,"lon":-2.75628,"postcode":"SY1 1PU","la":"Shropshire","era":"other","nn":36,"risk":18,"cat":"green"},{"name":"Sitwell Arms","lat":52.36015,"lon":-2.94755,"postcode":"SY7 0AA","la":"Shropshire","era":"trad","nn":5032,"risk":75,"cat":"red"},{"name":"Six Bells","lat":52.49075,"lon":-2.99803,"postcode":"SY9 5AA","la":"Shropshire","era":"other","nn":167,"risk":24,"cat":"green"},{"name":"Sports Lounge","lat":52.85945,"lon":-3.05408,"postcode":"SY11 2NG","la":"Shropshire","era":"mod","nn":66,"risk":18,"cat":"green"},{"name":"Stables Inn","lat":52.60956,"lon":-2.97823,"postcode":"SY5 0EP","la":"Shropshire","era":"trad","nn":1557,"risk":51,"cat":"amber"},{"name":"Station Inn","lat":52.50238,"lon":-2.82375,"postcode":"SY6 6QE","la":"Shropshire","era":"trad","nn":2052,"risk":55,"cat":"amber"},{"name":"Stiperstones Inn","lat":52.59729,"lon":-2.94404,"postcode":"SY5 0LZ","la":"Shropshire","era":"trad","nn":2681,"risk":59,"cat":"amber"},{"name":"Stokesay Arms Limited","lat":52.43865,"lon":-2.8328,"postcode":"SY7 9PE","la":"Shropshire","era":"trad","nn":156,"risk":39,"cat":"amber"},{"name":"Stonehouse Beer & BBQ","lat":52.8414,"lon":-3.04505,"postcode":"SY10 9ES","la":"Shropshire","era":"mod","nn":739,"risk":41,"cat":"amber"},{"name":"Sun Inn","lat":52.42152,"lon":-3.02753,"postcode":"SY7 8JB","la":"Shropshire","era":"trad","nn":169,"risk":39,"cat":"amber"},{"name":"Sun Inn","lat":52.61436,"lon":-3.05552,"postcode":"SY21 8JP","la":"Shropshire","era":"trad","nn":1115,"risk":48,"cat":"amber"},{"name":"Swan Hotel","lat":52.90802,"lon":-2.89345,"postcode":"SY12 0AW","la":"Shropshire","era":"trad","nn":73,"risk":18,"cat":"green"},{"name":"Swan Inn","lat":52.47659,"lon":-2.72085,"postcode":"SY7 9ER","la":"Shropshire","era":"trad","nn":1347,"risk":50,"cat":"amber"},{"name":"Tankerville Arms","lat":52.65189,"lon":-2.82582,"postcode":"SY5 8EX","la":"Shropshire","era":"trad","nn":1925,"risk":54,"cat":"amber"},{"name":"Tap And Can","lat":52.71136,"lon":-2.7504,"postcode":"SY1 2AB","la":"Shropshire","era":"other","nn":8,"risk":18,"cat":"green"},{"name":"Ten And Six","lat":52.70876,"lon":-2.75586,"postcode":"SY1 1PY","la":"Shropshire","era":"other","nn":45,"risk":18,"cat":"green"},{"name":"The Abbey","lat":52.71172,"lon":-2.7363,"postcode":"SY2 5AZ","la":"Shropshire","era":"trad","nn":609,"risk":22,"cat":"green"},{"name":"The Albert Lounge Bar","lat":52.71131,"lon":-2.75178,"postcode":"SY1 1PB","la":"Shropshire","era":"mod","nn":62,"risk":18,"cat":"green"},{"name":"The Apple Tree","lat":52.4093,"lon":-2.80238,"postcode":"SY7 9AW","la":"Shropshire","era":"other","nn":3861,"risk":67,"cat":"red"},{"name":"The Armoury","lat":52.70967,"lon":-2.75842,"postcode":"SY1 1HH","la":"Shropshire","era":"other","nn":22,"risk":18,"cat":"green"},{"name":"The Bailey Head","lat":52.86065,"lon":-3.05427,"postcode":"SY11 1PZ","la":"Shropshire","era":"trad","nn":11,"risk":18,"cat":"green"},{"name":"The Beacon","lat":52.709,"lon":-2.77846,"postcode":"SY3 8LP","la":"Shropshire","era":"other","nn":828,"risk":41,"cat":"amber"},{"name":"The Bell Inn","lat":52.66251,"lon":-2.6825,"postcode":"SY5 6JJ","la":"Shropshire","era":"trad","nn":1861,"risk":53,"cat":"amber"},{"name":"The Bird In Hand","lat":52.71391,"lon":-2.75225,"postcode":"SY1 2DP","la":"Shropshire","era":"other","nn":212,"risk":19,"cat":"green"},{"name":"The Black Bear","lat":52.97018,"lon":-2.68464,"postcode":"SY13 1AZ","la":"Shropshire","era":"other","nn":103,"risk":19,"cat":"green"},{"name":"The Blood Bay","lat":52.3675,"lon":-2.7194,"postcode":"SY8 1BS","la":"Shropshire","era":"other","nn":33,"risk":18,"cat":"green"},{"name":"The Blue Bar","lat":52.70644,"lon":-2.75032,"postcode":"SY1 1XB","la":"Shropshire","era":"other","nn":1,"risk":18,"cat":"green"},{"name":"The Boars Head","lat":52.70319,"lon":-2.746,"postcode":"SY3 7LL","la":"Shropshire","era":"trad","nn":144,"risk":19,"cat":"green"},{"name":"The Boathouse","lat":52.70989,"lon":-2.76274,"postcode":"SY3 8JQ","la":"Shropshire","era":"other","nn":228,"risk":19,"cat":"green"},{"name":"The Bradford Arms Hotel","lat":52.78027,"lon":-3.0881,"postcode":"SY22 6EJ","la":"Shropshire","era":"trad","nn":79,"risk":36,"cat":"amber"},{"name":"The Bricklayer Arms","lat":52.70611,"lon":-2.73717,"postcode":"SY2 6BD","la":"Shropshire","era":"trad","nn":71,"risk":18,"cat":"green"},{"name":"The Bridge Inn","lat":52.37388,"lon":-2.71972,"postcode":"SY8 1DX","la":"Shropshire","era":"trad","nn":415,"risk":21,"cat":"green"},{"name":"The Brooklands","lat":52.69191,"lon":-2.75794,"postcode":"SY3 9JT","la":"Shropshire","era":"other","nn":685,"risk":40,"cat":"amber"},{"name":"The Bucks Head","lat":52.53795,"lon":-2.80816,"postcode":"SY6 6BX","la":"Shropshire","era":"trad","nn":130,"risk":39,"cat":"amber"},{"name":"The Bull Hotel","lat":52.36855,"lon":-2.71787,"postcode":"SY8 1AD","la":"Shropshire","era":"trad","nn":63,"risk":18,"cat":"green"},{"name":"The Bull In The Barne","lat":52.71271,"lon":-2.7678,"postcode":"SY3 8PW","la":"Shropshire","era":"trad","nn":256,"risk":20,"cat":"green"},{"name":"The Bull Inn","lat":52.70814,"lon":-2.75304,"postcode":"SY1 1UW","la":"Shropshire","era":"trad","nn":0,"risk":18,"cat":"green"},{"name":"The Burlton Inn","lat":52.83562,"lon":-2.81182,"postcode":"SY4 5TB","la":"Shropshire","era":"trad","nn":2927,"risk":61,"cat":"red"},{"name":"The Butchers Arms","lat":52.90711,"lon":-3.07303,"postcode":"SY10 7LH","la":"Shropshire","era":"trad","nn":863,"risk":41,"cat":"amber"},{"name":"The Buttermarket","lat":52.71227,"lon":-2.74909,"postcode":"SY1 2LF","la":"Shropshire","era":"other","nn":91,"risk":18,"cat":"green"},{"name":"The Charles Darwin","lat":52.69202,"lon":-2.73317,"postcode":"SY2 6HN","la":"Shropshire","era":"other","nn":538,"risk":39,"cat":"amber"},{"name":"The Charlton Arms","lat":52.36268,"lon":-2.71702,"postcode":"SY8 1PJ","la":"Shropshire","era":"trad","nn":235,"risk":19,"cat":"green"},{"name":"The Coach Inn","lat":52.72254,"lon":-2.73987,"postcode":"SY1 4BG","la":"Shropshire","era":"trad","nn":347,"risk":20,"cat":"green"},{"name":"The Cock Inn","lat":52.68104,"lon":-2.82884,"postcode":"SY5 8LJ","la":"Shropshire","era":"trad","nn":2494,"risk":58,"cat":"amber"},{"name":"The Compass Inn","lat":52.72566,"lon":-2.73968,"postcode":"SY1 4DE","la":"Shropshire","era":"trad","nn":347,"risk":20,"cat":"green"},{"name":"The Coracle Inn","lat":52.72746,"lon":-2.7263,"postcode":"SY1 4RR","la":"Shropshire","era":"trad","nn":397,"risk":23,"cat":"green"},{"name":"The Corbet Arms","lat":52.71949,"lon":-2.69957,"postcode":"SY4 4SN","la":"Shropshire","era":"trad","nn":1961,"risk":54,"cat":"amber"},{"name":"The Crafty Dragon","lat":52.96801,"lon":-2.68422,"postcode":"SY13 1SE","la":"Shropshire","era":"other","nn":42,"risk":18,"cat":"green"},{"name":"The Cross Keys","lat":52.78256,"lon":-2.98479,"postcode":"SY10 8DB","la":"Shropshire","era":"trad","nn":3828,"risk":67,"cat":"red"},{"name":"The Cross Keys","lat":52.7814,"lon":-3.08871,"postcode":"SY22 6EA","la":"Shropshire","era":"trad","nn":60,"risk":36,"cat":"amber"},{"name":"The Crown","lat":52.70785,"lon":-2.7444,"postcode":"SY2 6BT","la":"Shropshire","era":"trad","nn":312,"risk":20,"cat":"green"},{"name":"The Crown Inn","lat":52.52893,"lon":-2.90908,"postcode":"SY9 5EE","la":"Shropshire","era":"trad","nn":644,"risk":42,"cat":"amber"},{"name":"The Dickin Arms","lat":52.85748,"lon":-2.78456,"postcode":"SY4 5SR","la":"Shropshire","era":"trad","nn":3043,"risk":62,"cat":"red"},{"name":"The Dickin Arms","lat":52.85595,"lon":-2.72778,"postcode":"SY4 5DT","la":"Shropshire","era":"trad","nn":276,"risk":20,"cat":"green"},{"name":"The Docks","lat":52.8985,"lon":-3.0903,"postcode":"SY10 7DH","la":"Shropshire","era":"other","nn":1503,"risk":51,"cat":"amber"},{"name":"The Dog","lat":52.7937,"lon":-2.90157,"postcode":"SY4 1LA","la":"Shropshire","era":"other","nn":2977,"risk":61,"cat":"red"},{"name":"The Dolphin Inn","lat":52.71736,"lon":-2.74614,"postcode":"SY1 2EZ","la":"Shropshire","era":"trad","nn":160,"risk":19,"cat":"green"},{"name":"The Ellesmere Hotel Ltd","lat":52.90738,"lon":-2.89315,"postcode":"SY12 0ES","la":"Shropshire","era":"other","nn":27,"risk":18,"cat":"green"},{"name":"The Exchange","lat":52.7075,"lon":-2.75692,"postcode":"SY1 1HU","la":"Shropshire","era":"other","nn":0,"risk":18,"cat":"green"},{"name":"The Featherbed","lat":52.74228,"lon":-2.72078,"postcode":"SY1 4AB","la":"Shropshire","era":"other","nn":0,"risk":35,"cat":"amber"},{"name":"The Fox & Hounds","lat":52.7865,"lon":-2.64829,"postcode":"SY4 4JG","la":"Shropshire","era":"trad","nn":397,"risk":41,"cat":"amber"},{"name":"The Fox Inn","lat":52.85526,"lon":-2.73176,"postcode":"SY4 5TT","la":"Shropshire","era":"trad","nn":278,"risk":20,"cat":"green"},{"name":"The Fox Inn","lat":52.85842,"lon":-3.05608,"postcode":"SY11 2SU","la":"Shropshire","era":"trad","nn":30,"risk":18,"cat":"green"},{"name":"The Gates At Ford","lat":52.71404,"lon":-2.87555,"postcode":"SY5 9LH","la":"Shropshire","era":"other","nn":2998,"risk":61,"cat":"red"},{"name":"The George","lat":52.85948,"lon":-3.05506,"postcode":"SY11 1PX","la":"Shropshire","era":"trad","nn":43,"risk":18,"cat":"green"},{"name":"The George Inn","lat":52.36758,"lon":-2.72087,"postcode":"SY8 1AT","la":"Shropshire","era":"trad","nn":85,"risk":18,"cat":"green"},{"name":"The Green Dragon","lat":52.5208,"lon":-2.82199,"postcode":"SY6 6RE","la":"Shropshire","era":"trad","nn":339,"risk":40,"cat":"amber"},{"name":"The Greyhound Inn","lat":52.93806,"lon":-2.98982,"postcode":"SY11 3HD","la":"Shropshire","era":"trad","nn":1993,"risk":54,"cat":"amber"},{"name":"The Griffin Inn","lat":52.86057,"lon":-3.05416,"postcode":"SY11 1QA","la":"Shropshire","era":"trad","nn":11,"risk":18,"cat":"green"},{"name":"The Grove","lat":52.69787,"lon":-2.74989,"postcode":"SY3 7NN","la":"Shropshire","era":"other","nn":193,"risk":19,"cat":"green"},{"name":"The Harry Hotspur","lat":52.74135,"lon":-2.73563,"postcode":"SY1 3AT","la":"Shropshire","era":"other","nn":1005,"risk":47,"cat":"amber"},{"name":"The Haughmond","lat":52.70839,"lon":-2.66101,"postcode":"SY4 4TZ","la":"Shropshire","era":"other","nn":2876,"risk":60,"cat":"amber"},{"name":"The Heathgates","lat":52.72754,"lon":-2.73448,"postcode":"SY1 4DW","la":"Shropshire","era":"other","nn":188,"risk":19,"cat":"green"},{"name":"The Highwayman","lat":52.85247,"lon":-3.04307,"postcode":"SY11 2RT","la":"Shropshire","era":"other","nn":709,"risk":43,"cat":"amber"},{"name":"The Hole In The Wall","lat":52.70761,"lon":-2.75533,"postcode":"SY1 1HF","la":"Shropshire","era":"other","nn":13,"risk":18,"cat":"green"},{"name":"The Hop And Friar","lat":52.70552,"lon":-2.74934,"postcode":"SY1 1XL","la":"Shropshire","era":"other","nn":58,"risk":18,"cat":"green"},{"name":"The Horseshoe Inn","lat":52.65004,"lon":-2.89223,"postcode":"SY5 0QJ","la":"Shropshire","era":"trad","nn":453,"risk":41,"cat":"amber"},{"name":"The Horseshoe Inn At The Bridges","lat":52.56115,"lon":-2.89734,"postcode":"SY5 0ST","la":"Shropshire","era":"trad","nn":3203,"risk":63,"cat":"red"},{"name":"The Horseshoes","lat":52.68321,"lon":-2.62878,"postcode":"SY4 4UL","la":"Shropshire","era":"trad","nn":3415,"risk":64,"cat":"red"},{"name":"The Horseshoes Inn","lat":52.62094,"lon":-2.77122,"postcode":"SY5 7JD","la":"Shropshire","era":"trad","nn":4096,"risk":69,"cat":"red"},{"name":"The Horseshoes Inn","lat":52.93472,"lon":-2.6834,"postcode":"SY13 3NR","la":"Shropshire","era":"trad","nn":1639,"risk":52,"cat":"amber"},{"name":"The Keys","lat":52.92077,"lon":-3.01267,"postcode":"SY11 3AR","la":"Shropshire","era":"other","nn":466,"risk":41,"cat":"amber"},{"name":"The Kings Head","lat":52.85876,"lon":-3.05606,"postcode":"SY11 2SP","la":"Shropshire","era":"trad","nn":38,"risk":18,"cat":"green"},{"name":"The Last Inn","lat":52.89989,"lon":-3.0657,"postcode":"SY10 7EU","la":"Shropshire","era":"trad","nn":941,"risk":44,"cat":"amber"},{"name":"The Libertine","lat":52.70814,"lon":-2.75304,"postcode":"SY1 1UW","la":"Shropshire","era":"other","nn":0,"risk":18,"cat":"green"},{"name":"The Lodge","lat":52.91382,"lon":-3.06655,"postcode":"SY10 7RG","la":"Shropshire","era":"other","nn":863,"risk":44,"cat":"amber"},{"name":"The Loopy Shrew","lat":52.7075,"lon":-2.75692,"postcode":"SY1 1HU","la":"Shropshire","era":"other","nn":0,"risk":18,"cat":"green"},{"name":"The Ludlow Club","lat":52.36812,"lon":-2.71658,"postcode":"SY8 1RL","la":"Shropshire","era":"other","nn":66,"risk":18,"cat":"green"},{"name":"The Market","lat":52.90685,"lon":-2.89537,"postcode":"SY12 0EG","la":"Shropshire","era":"other","nn":81,"risk":18,"cat":"green"},{"name":"The Mill At Leighton","lat":52.64547,"lon":-2.57564,"postcode":"SY5 6RN","la":"Shropshire","era":"trad","nn":3953,"risk":68,"cat":"red"},{"name":"The Miners Arms","lat":52.84391,"lon":-3.05819,"postcode":"SY10 9NY","la":"Shropshire","era":"trad","nn":188,"risk":37,"cat":"amber"},{"name":"The Miners Arms","lat":52.5707,"lon":-3.04307,"postcode":"SY15 6DF","la":"Shropshire","era":"trad","nn":4927,"risk":75,"cat":"red"},{"name":"The Nelson Inn","lat":52.3777,"lon":-2.6996,"postcode":"SY8 2DS","la":"Shropshire","era":"trad","nn":1431,"risk":50,"cat":"amber"},{"name":"The New Inn","lat":52.77078,"lon":-2.7118,"postcode":"SY4 4AE","la":"Shropshire","era":"trad","nn":2564,"risk":58,"cat":"amber"},{"name":"The Old Post Office","lat":52.70668,"lon":-2.75245,"postcode":"SY1 1SZ","la":"Shropshire","era":"other","nn":53,"risk":18,"cat":"green"},{"name":"The Old Three Pigeons","lat":52.7672,"lon":-2.91649,"postcode":"SY4 1DB","la":"Shropshire","era":"other","nn":3113,"risk":62,"cat":"red"},{"name":"The Old Town Hall Vaults","lat":52.96957,"lon":-2.68307,"postcode":"SY13 1QU","la":"Shropshire","era":"other","nn":84,"risk":18,"cat":"green"},{"name":"The Old Vaults","lat":52.85852,"lon":-3.05649,"postcode":"SY11 2SP","la":"Shropshire","era":"other","nn":30,"risk":18,"cat":"green"},{"name":"The Olde Jack Inn","lat":52.9328,"lon":-2.5948,"postcode":"SY13 4PA","la":"Shropshire","era":"trad","nn":3685,"risk":66,"cat":"red"},{"name":"The Oxon Priory","lat":52.71478,"lon":-2.79289,"postcode":"SY3 8DL","la":"Shropshire","era":"other","nn":651,"risk":42,"cat":"amber"},{"name":"The Peacock","lat":52.70057,"lon":-2.73047,"postcode":"SY2 6JS","la":"Shropshire","era":"other","nn":297,"risk":20,"cat":"green"},{"name":"The Plough","lat":52.8609,"lon":-3.05315,"postcode":"SY11 1QE","la":"Shropshire","era":"trad","nn":72,"risk":18,"cat":"green"},{"name":"The Pound Inn","lat":52.58417,"lon":-2.7749,"postcode":"SY6 6ND","la":"Shropshire","era":"trad","nn":3701,"risk":66,"cat":"red"},{"name":"The Powis Arms","lat":52.46869,"lon":-2.95754,"postcode":"SY7 8AU","la":"Shropshire","era":"trad","nn":3680,"risk":66,"cat":"red"},{"name":"The Prince Of Wales","lat":52.70141,"lon":-2.74404,"postcode":"SY3 7NZ","la":"Shropshire","era":"trad","nn":187,"risk":19,"cat":"green"},{"name":"The Punch Bowl Inn","lat":52.82352,"lon":-2.97096,"postcode":"SY11 4EH","la":"Shropshire","era":"trad","nn":1496,"risk":51,"cat":"amber"},{"name":"The Queens","lat":52.36805,"lon":-2.71509,"postcode":"SY8 1RU","la":"Shropshire","era":"trad","nn":101,"risk":19,"cat":"green"},{"name":"The Queens Head","lat":52.83502,"lon":-2.9825,"postcode":"SY11 4EB","la":"Shropshire","era":"trad","nn":1496,"risk":51,"cat":"amber"},{"name":"The Ragleth Inn","lat":52.52372,"lon":-2.82056,"postcode":"SY6 6RB","la":"Shropshire","era":"trad","nn":339,"risk":40,"cat":"amber"},{"name":"The Red Lion","lat":52.8097,"lon":-2.7907,"postcode":"SY4 3RP","la":"Shropshire","era":"trad","nn":2848,"risk":60,"cat":"amber"},{"name":"The Red Lion","lat":52.63497,"lon":-2.83181,"postcode":"SY5 8AE","la":"Shropshire","era":"trad","nn":1925,"risk":54,"cat":"amber"},{"name":"The Riverside Inn","lat":52.64019,"lon":-2.63443,"postcode":"SY5 6AF","la":"Shropshire","era":"trad","nn":4010,"risk":68,"cat":"red"},{"name":"The Royal Hill","lat":52.75057,"lon":-2.96372,"postcode":"SY10 8ES","la":"Shropshire","era":"trad","nn":2763,"risk":60,"cat":"amber"},{"name":"The Royal Oak","lat":52.55223,"lon":-2.73072,"postcode":"SY6 7JZ","la":"Shropshire","era":"trad","nn":4485,"risk":72,"cat":"red"},{"name":"The Royal Oak","lat":52.71563,"lon":-2.75359,"postcode":"SY1 2DZ","la":"Shropshire","era":"trad","nn":1,"risk":18,"cat":"green"},{"name":"The Royal Oak","lat":52.82246,"lon":-3.0994,"postcode":"SY10 9HE","la":"Shropshire","era":"trad","nn":1402,"risk":50,"cat":"amber"},{"name":"The Salopian","lat":52.70973,"lon":-2.75595,"postcode":"SY1 1PW","la":"Shropshire","era":"other","nn":76,"risk":18,"cat":"green"},{"name":"The Squirrel","lat":52.36393,"lon":-2.69539,"postcode":"SY8 1LS","la":"Shropshire","era":"other","nn":1414,"risk":50,"cat":"amber"},{"name":"The Stables","lat":52.43975,"lon":-2.83425,"postcode":"SY7 9PB","la":"Shropshire","era":"other","nn":156,"risk":39,"cat":"amber"},{"name":"The Stanton Arms","lat":52.81177,"lon":-2.64059,"postcode":"SY4 4LR","la":"Shropshire","era":"trad","nn":2210,"risk":56,"cat":"amber"},{"name":"The Steam Wagon Inn","lat":52.73081,"lon":-2.74249,"postcode":"SY1 3EP","la":"Shropshire","era":"trad","nn":602,"risk":25,"cat":"green"},{"name":"The Sun Inn","lat":52.90951,"lon":-2.84081,"postcode":"SY12 0PH","la":"Shropshire","era":"trad","nn":3298,"risk":63,"cat":"red"},{"name":"The Tally Ho","lat":52.46214,"lon":-2.67003,"postcode":"SY7 9DP","la":"Shropshire","era":"other","nn":3369,"risk":64,"cat":"red"},{"name":"The Tankard","lat":52.85831,"lon":-3.05505,"postcode":"SY11 2PA","la":"Shropshire","era":"other","nn":70,"risk":18,"cat":"green"},{"name":"The Terrace","lat":52.71144,"lon":-2.75268,"postcode":"SY1 1PF","la":"Shropshire","era":"other","nn":62,"risk":18,"cat":"green"},{"name":"The Three Tuns Inn","lat":52.49461,"lon":-2.99708,"postcode":"SY9 5BW","la":"Shropshire","era":"trad","nn":107,"risk":24,"cat":"green"},{"name":"The Tumbledown Hotel And Albion Inn","lat":52.71209,"lon":-2.75047,"postcode":"SY1 2DJ","la":"Shropshire","era":"trad","nn":9,"risk":18,"cat":"green"},{"name":"The Vaults","lat":52.71114,"lon":-2.75035,"postcode":"SY1 2AB","la":"Shropshire","era":"other","nn":19,"risk":18,"cat":"green"},{"name":"The Vaults","lat":52.90714,"lon":-2.89316,"postcode":"SY12 0EP","la":"Shropshire","era":"other","nn":27,"risk":18,"cat":"green"},{"name":"The Wheatsheaf","lat":52.70699,"lon":-2.75305,"postcode":"SY1 1ST","la":"Shropshire","era":"trad","nn":53,"risk":18,"cat":"green"},{"name":"The Wheatsheaf Hotel","lat":52.96933,"lon":-2.68181,"postcode":"SY13 1AD","la":"Shropshire","era":"trad","nn":88,"risk":18,"cat":"green"},{"name":"The White Bear","lat":52.96896,"lon":-2.68382,"postcode":"SY13 1AR","la":"Shropshire","era":"other","nn":50,"risk":18,"cat":"green"},{"name":"The White Horse Inn","lat":52.42127,"lon":-3.02999,"postcode":"SY7 8JA","la":"Shropshire","era":"trad","nn":169,"risk":39,"cat":"amber"},{"name":"The White Horse Inn","lat":52.61676,"lon":-2.8504,"postcode":"SY5 8DS","la":"Shropshire","era":"trad","nn":2381,"risk":57,"cat":"amber"},{"name":"The White Lion","lat":52.805,"lon":-3.06852,"postcode":"SY10 8LJ","la":"Shropshire","era":"trad","nn":1763,"risk":53,"cat":"amber"},{"name":"The White Lion Hotel","lat":52.87291,"lon":-3.00194,"postcode":"SY11 4DF","la":"Shropshire","era":"trad","nn":0,"risk":38,"cat":"amber"},{"name":"The Wilfred Owen","lat":52.85921,"lon":-3.05636,"postcode":"SY11 1AF","la":"Shropshire","era":"other","nn":54,"risk":18,"cat":"green"},{"name":"The Wing Field Arms","lat":52.7313,"lon":-2.84135,"postcode":"SY4 1EB","la":"Shropshire","era":"trad","nn":2998,"risk":61,"cat":"red"},{"name":"The Woodcock Inn","lat":52.85525,"lon":-2.84086,"postcode":"SY12 0JQ","la":"Shropshire","era":"trad","nn":2927,"risk":61,"cat":"red"},{"name":"The Yockleton Arms","lat":52.68244,"lon":-2.91577,"postcode":"SY5 9PG","la":"Shropshire","era":"trad","nn":2504,"risk":58,"cat":"amber"},{"name":"The Yorkshire House","lat":52.7089,"lon":-2.75163,"postcode":"SY1 1DX","la":"Shropshire","era":"other","nn":87,"risk":18,"cat":"green"},{"name":"Theatre Severn","lat":52.71073,"lon":-2.75769,"postcode":"SY3 8FT","la":"Shropshire","era":"other","nn":58,"risk":18,"cat":"green"},{"name":"Three Fishes","lat":52.70761,"lon":-2.75284,"postcode":"SY1 1UR","la":"Shropshire","era":"other","nn":60,"risk":18,"cat":"green"},{"name":"Three Fishes","lat":52.67608,"lon":-2.75983,"postcode":"SY3 0DB","la":"Shropshire","era":"other","nn":232,"risk":37,"cat":"amber"},{"name":"Three Pigeons","lat":52.86236,"lon":-3.05274,"postcode":"SY11 1NF","la":"Shropshire","era":"other","nn":94,"risk":19,"cat":"green"},{"name":"Townhouse","lat":52.86038,"lon":-3.05767,"postcode":"SY11 1AQ","la":"Shropshire","era":"other","nn":39,"risk":18,"cat":"green"},{"name":"Two Henrys","lat":52.74799,"lon":-2.71761,"postcode":"SY4 3EQ","la":"Shropshire","era":"other","nn":670,"risk":40,"cat":"amber"},{"name":"United Services (Wem) Club Ltd","lat":52.85477,"lon":-2.72365,"postcode":"SY4 5EP","la":"Shropshire","era":"other","nn":122,"risk":19,"cat":"green"},{"name":"Watergate","lat":52.96794,"lon":-2.68328,"postcode":"SY13 1DW","la":"Shropshire","era":"other","nn":10,"risk":18,"cat":"green"},{"name":"Wayside Camping","lat":52.43168,"lon":-2.87921,"postcode":"SY7 8EF","la":"Shropshire","era":"other","nn":1082,"risk":48,"cat":"amber"},{"name":"Wheatsheaf Inn","lat":52.71088,"lon":-2.75978,"postcode":"SY3 8JY","la":"Shropshire","era":"trad","nn":80,"risk":18,"cat":"green"},{"name":"Wheatsheaf Inn","lat":52.36478,"lon":-2.71739,"postcode":"SY8 1PQ","la":"Shropshire","era":"trad","nn":235,"risk":19,"cat":"green"},{"name":"Whitchurch Rugby And Hockey Club","lat":52.96321,"lon":-2.67693,"postcode":"SY13 4NH","la":"Shropshire","era":"other","nn":668,"risk":23,"cat":"green"},{"name":"White Horse Inn","lat":52.70318,"lon":-2.73142,"postcode":"SY2 6JJ","la":"Shropshire","era":"trad","nn":297,"risk":20,"cat":"green"},{"name":"White Lion","lat":52.95272,"lon":-2.63874,"postcode":"SY13 4DR","la":"Shropshire","era":"trad","nn":2021,"risk":54,"cat":"amber"},{"name":"White Lion Inn","lat":52.85591,"lon":-2.7227,"postcode":"SY4 5AA","la":"Shropshire","era":"trad","nn":66,"risk":18,"cat":"green"},{"name":"Woodman Inn","lat":52.71564,"lon":-2.7536,"postcode":"SY1 2DZ","la":"Shropshire","era":"trad","nn":1,"risk":18,"cat":"green"},{"name":"Ye Olde Boote Inn","lat":52.87291,"lon":-3.00194,"postcode":"SY11 4DF","la":"Shropshire","era":"trad","nn":0,"risk":38,"cat":"amber"},{"name":"Ye Olde Bull Ring Tavern","lat":52.36802,"lon":-2.71753,"postcode":"SY8 1AB","la":"Shropshire","era":"trad","nn":63,"risk":18,"cat":"green"},{"name":"Ye Olde White Lion","lat":52.86312,"lon":-3.06053,"postcode":"SY11 1BH","la":"Shropshire","era":"trad","nn":356,"risk":20,"cat":"green"},{"name":"Yew Tree Inn","lat":52.55373,"lon":-2.79702,"postcode":"SY6 6HG","la":"Shropshire","era":"trad","nn":1909,"risk":54,"cat":"amber"},{"name":"The Bull","lat":52.72557,"lon":-2.61039,"postcode":"SY4 4QS","la":"Telford and Wrekin","era":"trad","nn":2931,"risk":69,"cat":"red"}]