[{"name":"Angel Inn","lat":53.4468,"lon":-0.96278,"postcode":"DN10 6EB","la":"Bassetlaw","era":"trad","nn":96,"risk":46,"cat":"amber"},{"name":"Babworth Road Sports & Social Club","lat":53.32093,"lon":-0.95723,"postcode":"DN22 7NJ","la":"Bassetlaw","era":"mod","nn":513,"risk":29,"cat":"green"},{"name":"Bassetlaw Disability Association","lat":53.32371,"lon":-0.94063,"postcode":"DN22 6PJ","la":"Bassetlaw","era":"other","nn":44,"risk":26,"cat":"green"},{"name":"Beer Under The Clock","lat":53.32245,"lon":-0.94295,"postcode":"DN22 6DU","la":"Bassetlaw","era":"other","nn":127,"risk":27,"cat":"green"},{"name":"Black Boy","lat":53.32581,"lon":-0.93983,"postcode":"DN22 6RH","la":"Bassetlaw","era":"other","nn":195,"risk":27,"cat":"green"},{"name":"Blacksmiths Arms","lat":53.41393,"lon":-0.96272,"postcode":"DN10 5BQ","la":"Bassetlaw","era":"trad","nn":531,"risk":49,"cat":"amber"},{"name":"Blue Bell Inn","lat":53.40806,"lon":-0.89258,"postcode":"DN10 4RF","la":"Bassetlaw","era":"trad","nn":3042,"risk":70,"cat":"red"},{"name":"Brick & Tile Inn","lat":53.32729,"lon":-0.93826,"postcode":"DN22 6RS","la":"Bassetlaw","era":"trad","nn":195,"risk":27,"cat":"green"},{"name":"Clumber Inn","lat":53.30984,"lon":-0.94946,"postcode":"DN22 7RJ","la":"Bassetlaw","era":"trad","nn":1025,"risk":55,"cat":"amber"},{"name":"Cobwell Sports and Social Club","lat":53.31937,"lon":-0.94996,"postcode":"DN22 7BN","la":"Bassetlaw","era":"mod","nn":440,"risk":29,"cat":"green"},{"name":"Comrades Club","lat":53.41714,"lon":-1.06526,"postcode":"DN11 8JW","la":"Bassetlaw","era":"other","nn":247,"risk":30,"cat":"green"},{"name":"Dominie Cross","lat":53.32245,"lon":-0.94104,"postcode":"DN22 6JR","la":"Bassetlaw","era":"trad","nn":37,"risk":26,"cat":"green"},{"name":"Eyre Arms","lat":53.2969,"lon":-0.80073,"postcode":"DN22 0HR","la":"Bassetlaw","era":"trad","nn":2071,"risk":63,"cat":"red"},{"name":"Fox & Hounds Inn","lat":53.42257,"lon":-0.84054,"postcode":"DN10 4JD","la":"Bassetlaw","era":"trad","nn":2555,"risk":66,"cat":"red"},{"name":"Galway Arms","lat":53.32442,"lon":-0.94626,"postcode":"DN22 7UZ","la":"Bassetlaw","era":"trad","nn":172,"risk":27,"cat":"green"},{"name":"Grove Mill Snooker Hall","lat":53.3226,"lon":-0.9342,"postcode":"DN22 6LN","la":"Bassetlaw","era":"trad","nn":0,"risk":26,"cat":"green"},{"name":"Haxey Gate Inn","lat":53.45727,"lon":-0.8491,"postcode":"DN10 4BA","la":"Bassetlaw","era":"trad","nn":1386,"risk":58,"cat":"amber"},{"name":"King & Miller Inn","lat":53.33103,"lon":-0.96224,"postcode":"DN22 7XW","la":"Bassetlaw","era":"trad","nn":950,"risk":52,"cat":"amber"},{"name":"Liberal Club","lat":53.32212,"lon":-0.94102,"postcode":"DN22 6JX","la":"Bassetlaw","era":"other","nn":37,"risk":26,"cat":"green"},{"name":"Moth & Lantern Hotel","lat":53.30882,"lon":-0.77679,"postcode":"DN22 0EU","la":"Bassetlaw","era":"other","nn":2071,"risk":63,"cat":"red"},{"name":"R2 Distillers Limited","lat":53.41168,"lon":-1.06556,"postcode":"DN11 8SP","la":"Bassetlaw","era":"other","nn":607,"risk":35,"cat":"amber"},{"name":"Reindeer Inn","lat":53.34643,"lon":-0.81758,"postcode":"DN22 9HQ","la":"Bassetlaw","era":"trad","nn":1745,"risk":60,"cat":"amber"},{"name":"Retford & Worksop Boat Club","lat":53.38118,"lon":-0.90113,"postcode":"DN22 9AJ","la":"Bassetlaw","era":"mod","nn":3027,"risk":69,"cat":"red"},{"name":"Retford Bowling Green Ltd","lat":53.32824,"lon":-0.94872,"postcode":"DN22 7LB","la":"Bassetlaw","era":"other","nn":283,"risk":28,"cat":"green"},{"name":"Retford Cricket & Sports Club","lat":53.32584,"lon":-0.94734,"postcode":"DN22 7LA","la":"Bassetlaw","era":"other","nn":172,"risk":27,"cat":"green"},{"name":"Retford Snooker","lat":53.3226,"lon":-0.9342,"postcode":"DN22 6LN","la":"Bassetlaw","era":"other","nn":0,"risk":26,"cat":"green"},{"name":"Retford Tennis Club","lat":53.3237,"lon":-0.95057,"postcode":"DN22 7BD","la":"Bassetlaw","era":"other","nn":297,"risk":28,"cat":"green"},{"name":"Retford United FC","lat":53.32432,"lon":-0.91799,"postcode":"DN22 0DR","la":"Bassetlaw","era":"other","nn":692,"risk":51,"cat":"amber"},{"name":"Secrets Retford Limited","lat":53.32389,"lon":-0.94293,"postcode":"DN22 6PA","la":"Bassetlaw","era":"other","nn":106,"risk":27,"cat":"green"},{"name":"Serlby Park Golf Club","lat":53.39725,"lon":-1.0408,"postcode":"DN10 6BA","la":"Bassetlaw","era":"other","nn":1727,"risk":60,"cat":"amber"},{"name":"Styrrup Hall Golf and Country Club","lat":53.40753,"lon":-1.09005,"postcode":"DN11 8NB","la":"Bassetlaw","era":"other","nn":1352,"risk":58,"cat":"amber"},{"name":"Sun Inn","lat":53.4103,"lon":-0.95751,"postcode":"DN10 5BW","la":"Bassetlaw","era":"trad","nn":531,"risk":49,"cat":"amber"},{"name":"The Albertos","lat":53.31839,"lon":-0.94205,"postcode":"DN22 6JB","la":"Bassetlaw","era":"other","nn":93,"risk":26,"cat":"green"},{"name":"The Blacksmiths Arms","lat":53.4171,"lon":-1.07746,"postcode":"DN11 8LB","la":"Bassetlaw","era":"trad","nn":809,"risk":36,"cat":"amber"},{"name":"The Blue Bell","lat":53.38441,"lon":-1.01462,"postcode":"DN22 8NJ","la":"Bassetlaw","era":"other","nn":2248,"risk":64,"cat":"red"},{"name":"The Blue Bell Inn and Stables Restaurant","lat":53.26869,"lon":-0.83411,"postcode":"DN22 0LN","la":"Bassetlaw","era":"trad","nn":3536,"risk":73,"cat":"red"},{"name":"The Boat Inn","lat":53.35424,"lon":-0.9076,"postcode":"DN22 9LF","la":"Bassetlaw","era":"trad","nn":1006,"risk":55,"cat":"amber"},{"name":"The Brass Lamp","lat":53.41697,"lon":-1.06155,"postcode":"DN11 8JN","la":"Bassetlaw","era":"other","nn":247,"risk":33,"cat":"amber"},{"name":"The Brew Shed","lat":53.31887,"lon":-0.94056,"postcode":"DN22 6AS","la":"Bassetlaw","era":"other","nn":113,"risk":27,"cat":"green"},{"name":"The Chequers Inn","lat":53.32027,"lon":-1.02483,"postcode":"DN22 8HT","la":"Bassetlaw","era":"trad","nn":3820,"risk":75,"cat":"red"},{"name":"The Ferry Boat Inn","lat":53.27978,"lon":-0.78029,"postcode":"DN22 0NQ","la":"Bassetlaw","era":"trad","nn":2053,"risk":63,"cat":"red"},{"name":"The Gamecock","lat":53.42214,"lon":-1.06562,"postcode":"DN11 8NT","la":"Bassetlaw","era":"other","nn":557,"risk":35,"cat":"amber"},{"name":"The Hop Pole of Retford","lat":53.328,"lon":-0.92638,"postcode":"DN22 6UG","la":"Bassetlaw","era":"other","nn":692,"risk":31,"cat":"amber"},{"name":"The Kings Arms","lat":53.34544,"lon":-0.90407,"postcode":"DN22 9LN","la":"Bassetlaw","era":"trad","nn":1006,"risk":55,"cat":"amber"},{"name":"The Majestic Theatre","lat":53.3213,"lon":-0.94318,"postcode":"DN22 6DX","la":"Bassetlaw","era":"other","nn":129,"risk":27,"cat":"green"},{"name":"The Packet Inn","lat":53.32112,"lon":-0.93694,"postcode":"DN22 6LJ","la":"Bassetlaw","era":"trad","nn":216,"risk":27,"cat":"green"},{"name":"The Pilgrim Fathers.","lat":53.40757,"lon":-1.02135,"postcode":"DN10 6AT","la":"Bassetlaw","era":"other","nn":1727,"risk":60,"cat":"amber"},{"name":"The Plough Inn","lat":53.3203,"lon":-0.8229,"postcode":"DN22 0BT","la":"Bassetlaw","era":"trad","nn":1181,"risk":57,"cat":"amber"},{"name":"The Red Hart","lat":53.44482,"lon":-0.85016,"postcode":"DN10 4AH","la":"Bassetlaw","era":"trad","nn":1386,"risk":58,"cat":"amber"},{"name":"The Royal Oak","lat":53.33084,"lon":-0.8206,"postcode":"DN22 0AD","la":"Bassetlaw","era":"trad","nn":1181,"risk":57,"cat":"amber"},{"name":"The Ship","lat":53.31978,"lon":-0.9429,"postcode":"DN22 6EN","la":"Bassetlaw","era":"trad","nn":51,"risk":26,"cat":"green"},{"name":"The Sun Inn","lat":53.31767,"lon":-0.94134,"postcode":"DN22 6HS","la":"Bassetlaw","era":"trad","nn":93,"risk":26,"cat":"green"},{"name":"The Waterfront Inn","lat":53.44321,"lon":-0.81583,"postcode":"DN10 4ET","la":"Bassetlaw","era":"trad","nn":224,"risk":45,"cat":"amber"},{"name":"The White Horse Inn","lat":53.35231,"lon":-1.00403,"postcode":"DN22 8QS","la":"Bassetlaw","era":"trad","nn":3639,"risk":74,"cat":"red"},{"name":"Turks Head","lat":53.32249,"lon":-0.93925,"postcode":"DN22 6LA","la":"Bassetlaw","era":"trad","nn":119,"risk":27,"cat":"green"},{"name":"Vine Inn","lat":53.32439,"lon":-0.94158,"postcode":"DN22 6PA","la":"Bassetlaw","era":"trad","nn":80,"risk":26,"cat":"green"},{"name":"White Hart Inn","lat":53.44351,"lon":-0.8117,"postcode":"DN10 4EY","la":"Bassetlaw","era":"trad","nn":171,"risk":44,"cat":"amber"},{"name":"White Horse Inn","lat":53.44594,"lon":-0.96286,"postcode":"DN10 6ED","la":"Bassetlaw","era":"trad","nn":96,"risk":46,"cat":"amber"},{"name":"White Lion","lat":53.3201,"lon":-0.94345,"postcode":"DN22 6ES","la":"Bassetlaw","era":"trad","nn":51,"risk":26,"cat":"green"},{"name":"Whitehouses @ Retford","lat":53.30679,"lon":-0.93158,"postcode":"DN22 7JF","la":"Bassetlaw","era":"other","nn":1235,"risk":57,"cat":"amber"},{"name":"Ye Olde Sun Inn","lat":53.32369,"lon":-0.94129,"postcode":"DN22 6PJ","la":"Bassetlaw","era":"trad","nn":44,"risk":26,"cat":"green"},{"name":"1903 Hooton Pagnell","lat":53.5669,"lon":-1.2682,"postcode":"DN5 7BW","la":"Doncaster","era":"other","nn":2963,"risk":64,"cat":"red"},{"name":"Alma Inn","lat":53.48147,"lon":-1.23066,"postcode":"DN12 3JH","la":"Doncaster","era":"trad","nn":79,"risk":21,"cat":"green"},{"name":"Angel and Royal","lat":53.52239,"lon":-1.13305,"postcode":"DN1 3EF","la":"Doncaster","era":"trad","nn":0,"risk":21,"cat":"green"},{"name":"Anne Arms","lat":53.60652,"lon":-1.17206,"postcode":"DN6 9JX","la":"Doncaster","era":"trad","nn":1049,"risk":51,"cat":"amber"},{"name":"Armthorpe Coronation Community Club","lat":53.53403,"lon":-1.05166,"postcode":"DN3 3BS","la":"Doncaster","era":"other","nn":233,"risk":22,"cat":"green"},{"name":"Armthorpe Social Club And Institute","lat":53.53734,"lon":-1.06086,"postcode":"DN3 3AD","la":"Doncaster","era":"mod","nn":264,"risk":23,"cat":"green"},{"name":"Askern Miners Welfare Club","lat":53.60892,"lon":-1.15669,"postcode":"DN6 0AJ","la":"Doncaster","era":"other","nn":672,"risk":25,"cat":"green"},{"name":"Balby Bridge Working Mens Club","lat":53.51498,"lon":-1.14106,"postcode":"DN4 0JW","la":"Doncaster","era":"trad","nn":586,"risk":25,"cat":"green"},{"name":"Balby Rhino","lat":53.51017,"lon":-1.1447,"postcode":"DN4 0RE","la":"Doncaster","era":"other","nn":318,"risk":23,"cat":"green"},{"name":"Ballers","lat":53.52308,"lon":-1.13155,"postcode":"DN1 1HQ","la":"Doncaster","era":"other","nn":0,"risk":21,"cat":"green"},{"name":"Banditos","lat":53.52239,"lon":-1.13305,"postcode":"DN1 3EF","la":"Doncaster","era":"other","nn":0,"risk":21,"cat":"green"},{"name":"Bar at Alexander House","lat":53.61442,"lon":-1.15215,"postcode":"DN6 0AB","la":"Doncaster","era":"mod","nn":10,"risk":21,"cat":"green"},{"name":"Barnburgh Working Mens Club","lat":53.52275,"lon":-1.26964,"postcode":"DN5 7ET","la":"Doncaster","era":"trad","nn":162,"risk":27,"cat":"green"},{"name":"Barnby Dun Social Club","lat":53.57525,"lon":-1.06871,"postcode":"DN3 1DS","la":"Doncaster","era":"mod","nn":231,"risk":40,"cat":"amber"},{"name":"Bawtry's Bar & Brasserie/Little Bawtry's","lat":53.43077,"lon":-1.02005,"postcode":"DN10 6JA","la":"Doncaster","era":"mod","nn":39,"risk":21,"cat":"green"},{"name":"Bay Horse Hotel","lat":53.54604,"lon":-1.14736,"postcode":"DN5 0DE","la":"Doncaster","era":"trad","nn":134,"risk":22,"cat":"green"},{"name":"Bentley North End Sports&Social Pub","lat":53.55344,"lon":-1.1478,"postcode":"DN5 0EP","la":"Doncaster","era":"mod","nn":582,"risk":27,"cat":"green"},{"name":"Bentley WMC","lat":53.54564,"lon":-1.1435,"postcode":"DN5 0DF","la":"Doncaster","era":"other","nn":200,"risk":25,"cat":"green"},{"name":"Bentleys","lat":53.52214,"lon":-1.12962,"postcode":"DN1 3NR","la":"Doncaster","era":"other","nn":54,"risk":21,"cat":"green"},{"name":"Beverley Inn","lat":53.5531,"lon":-1.06766,"postcode":"DN3 2JE","la":"Doncaster","era":"trad","nn":132,"risk":22,"cat":"green"},{"name":"Bone Idle Lounge","lat":53.52408,"lon":-1.13092,"postcode":"DN1 1HT","la":"Doncaster","era":"mod","nn":0,"risk":21,"cat":"green"},{"name":"Boogie Bar","lat":53.52275,"lon":-1.13152,"postcode":"DN1 3LU","la":"Doncaster","era":"other","nn":1,"risk":21,"cat":"green"},{"name":"British Sub-Aqua Club","lat":53.52629,"lon":-1.13733,"postcode":"DN1 1QN","la":"Doncaster","era":"other","nn":236,"risk":22,"cat":"green"},{"name":"Broadway Hotel","lat":53.53758,"lon":-1.10195,"postcode":"DN7 4HB","la":"Doncaster","era":"other","nn":0,"risk":21,"cat":"green"},{"name":"Brodsworth Welfare Community Hub","lat":53.5624,"lon":-1.19368,"postcode":"DN6 7HR","la":"Doncaster","era":"mod","nn":0,"risk":23,"cat":"green"},{"name":"Bullcroft Main Colliery Officials","lat":53.58203,"lon":-1.18472,"postcode":"DN6 8HJ","la":"Doncaster","era":"trad","nn":177,"risk":27,"cat":"green"},{"name":"Bullcroft Sports And Pastimes Club","lat":53.58916,"lon":-1.18136,"postcode":"DN6 8EE","la":"Doncaster","era":"trad","nn":714,"risk":31,"cat":"amber"},{"name":"Carcroft Village Social Club Ltd","lat":53.58339,"lon":-1.18611,"postcode":"DN6 8AG","la":"Doncaster","era":"mod","nn":177,"risk":27,"cat":"green"},{"name":"Carpenters Arms","lat":53.42994,"lon":-1.11248,"postcode":"DN11 9NE","la":"Doncaster","era":"trad","nn":247,"risk":27,"cat":"green"},{"name":"Carter's Bar","lat":53.52112,"lon":-1.13403,"postcode":"DN1 3DS","la":"Doncaster","era":"other","nn":65,"risk":21,"cat":"green"},{"name":"Clayton And Frickley Club","lat":53.56442,"lon":-1.31573,"postcode":"DN5 7BZ","la":"Doncaster","era":"other","nn":2059,"risk":58,"cat":"amber"},{"name":"Clucking Swine","lat":53.48222,"lon":-1.23081,"postcode":"DN12 3HR","la":"Doncaster","era":"trad","nn":5,"risk":21,"cat":"green"},{"name":"Coach & Horses","lat":53.52362,"lon":-1.13346,"postcode":"DN1 1EW","la":"Doncaster","era":"trad","nn":47,"risk":21,"cat":"green"},{"name":"Coach & Horses","lat":53.52421,"lon":-1.26963,"postcode":"DN5 7EP","la":"Doncaster","era":"trad","nn":162,"risk":27,"cat":"green"},{"name":"Coco","lat":53.52308,"lon":-1.13155,"postcode":"DN1 1HQ","la":"Doncaster","era":"other","nn":0,"risk":21,"cat":"green"},{"name":"Comrades Club","lat":53.62856,"lon":-0.95116,"postcode":"DN8 4SB","la":"Doncaster","era":"other","nn":140,"risk":42,"cat":"amber"},{"name":"Conisbrough Castle Bar","lat":53.48024,"lon":-1.22966,"postcode":"DN12 2BW","la":"Doncaster","era":"other","nn":152,"risk":22,"cat":"green"},{"name":"Conisbrough Cricket and Bowling Club","lat":53.47785,"lon":-1.23285,"postcode":"DN12 2ER","la":"Doncaster","era":"other","nn":306,"risk":23,"cat":"green"},{"name":"Coppa Bar and Eatery","lat":53.49048,"lon":-1.13975,"postcode":"DN4 8RT","la":"Doncaster","era":"mod","nn":159,"risk":42,"cat":"amber"},{"name":"Cricket Ground","lat":53.55565,"lon":-1.13982,"postcode":"DN5 0PS","la":"Doncaster","era":"other","nn":582,"risk":30,"cat":"green"},{"name":"Cromwells","lat":53.48217,"lon":-1.23083,"postcode":"DN12 3HR","la":"Doncaster","era":"other","nn":5,"risk":21,"cat":"green"},{"name":"Crookhill Park Golf Club","lat":53.46828,"lon":-1.20869,"postcode":"DN12 2AH","la":"Doncaster","era":"other","nn":1721,"risk":55,"cat":"amber"},{"name":"Crown Inn","lat":53.52105,"lon":-1.26561,"postcode":"DN5 7EF","la":"Doncaster","era":"trad","nn":326,"risk":28,"cat":"green"},{"name":"Cumberland Hotel","lat":53.53196,"lon":-1.11002,"postcode":"DN2 5AA","la":"Doncaster","era":"other","nn":793,"risk":26,"cat":"green"},{"name":"Denaby And Cadeby Miners Welfare","lat":53.48806,"lon":-1.24976,"postcode":"DN12 4AW","la":"Doncaster","era":"other","nn":257,"risk":40,"cat":"amber"},{"name":"Denaby Main Institute","lat":53.48816,"lon":-1.25364,"postcode":"DN12 4DA","la":"Doncaster","era":"other","nn":257,"risk":43,"cat":"amber"},{"name":"Don Valley Brewery Tap #2","lat":53.52519,"lon":-1.13167,"postcode":"DN1 1NG","la":"Doncaster","era":"mod","nn":27,"risk":21,"cat":"green"},{"name":"Don Valley Tap","lat":53.5254,"lon":-1.13146,"postcode":"DN1 1NG","la":"Doncaster","era":"mod","nn":0,"risk":21,"cat":"green"},{"name":"Doncaster Catholic Club","lat":53.51932,"lon":-1.13434,"postcode":"DN1 3BY","la":"Doncaster","era":"other","nn":153,"risk":22,"cat":"green"},{"name":"Doncaster Conservative Club","lat":53.52149,"lon":-1.12571,"postcode":"DN1 2DJ","la":"Doncaster","era":"other","nn":77,"risk":21,"cat":"green"},{"name":"Doncaster Contract Bridge","lat":53.52021,"lon":-1.12121,"postcode":"DN2 6AA","la":"Doncaster","era":"other","nn":244,"risk":22,"cat":"green"},{"name":"Doncaster Culture & Leisure Trust","lat":53.53971,"lon":-1.06105,"postcode":"DN3 2BZ","la":"Doncaster","era":"other","nn":264,"risk":23,"cat":"green"},{"name":"Doncaster Jazz Cafe","lat":53.52238,"lon":-1.13575,"postcode":"DN1 1TJ","la":"Doncaster","era":"other","nn":37,"risk":21,"cat":"green"},{"name":"Doncaster Rugby Union Football Club","lat":53.53275,"lon":-1.08014,"postcode":"DN2 5QB","la":"Doncaster","era":"other","nn":0,"risk":38,"cat":"amber"},{"name":"Doncaster Tenpin","lat":53.51293,"lon":-1.10527,"postcode":"DN4 7NW","la":"Doncaster","era":"other","nn":82,"risk":24,"cat":"green"},{"name":"Doncaster Ukranian Centre","lat":53.53029,"lon":-1.12291,"postcode":"DN2 4AD","la":"Doncaster","era":"other","nn":222,"risk":22,"cat":"green"},{"name":"Donny Drinks","lat":53.52275,"lon":-1.13151,"postcode":"DN1 3LU","la":"Doncaster","era":"other","nn":1,"risk":21,"cat":"green"},{"name":"Dunscroft Social Club","lat":53.58279,"lon":-1.01558,"postcode":"DN7 4JR","la":"Doncaster","era":"mod","nn":761,"risk":46,"cat":"amber"},{"name":"Dunscroft Welfare Club Ltd","lat":53.57642,"lon":-1.01981,"postcode":"DN7 4HD","la":"Doncaster","era":"other","nn":761,"risk":44,"cat":"amber"},{"name":"Eden Arms","lat":53.5562,"lon":-1.06123,"postcode":"DN3 2QR","la":"Doncaster","era":"trad","nn":363,"risk":23,"cat":"green"},{"name":"Edlington Ex-Services Social Club","lat":53.48386,"lon":-1.18874,"postcode":"DN12 1AB","la":"Doncaster","era":"mod","nn":431,"risk":26,"cat":"green"},{"name":"Ex-Servicemans Club","lat":53.47914,"lon":-1.07976,"postcode":"DN11 0TN","la":"Doncaster","era":"other","nn":159,"risk":22,"cat":"green"},{"name":"Fishlake Cricket And Bowls Club","lat":53.61341,"lon":-1.01126,"postcode":"DN7 5JT","la":"Doncaster","era":"other","nn":305,"risk":40,"cat":"amber"},{"name":"Flarepath Hotel","lat":53.56345,"lon":-1.02248,"postcode":"DN7 4BS","la":"Doncaster","era":"other","nn":1163,"risk":51,"cat":"amber"},{"name":"Flares - Reflex","lat":53.52276,"lon":-1.13158,"postcode":"DN1 3LU","la":"Doncaster","era":"other","nn":4,"risk":21,"cat":"green"},{"name":"Flat","lat":53.63146,"lon":-1.18115,"postcode":"DN6 9DH","la":"Doncaster","era":"other","nn":0,"risk":41,"cat":"amber"},{"name":"Foresters Arms","lat":53.57182,"lon":-1.18582,"postcode":"DN6 7AA","la":"Doncaster","era":"trad","nn":1083,"risk":51,"cat":"amber"},{"name":"Frank & Stein","lat":53.52308,"lon":-1.13155,"postcode":"DN1 1HQ","la":"Doncaster","era":"other","nn":0,"risk":21,"cat":"green"},{"name":"Fuzion","lat":53.61167,"lon":-0.96211,"postcode":"DN8 5BD","la":"Doncaster","era":"other","nn":65,"risk":21,"cat":"green"},{"name":"Green Tree Inn","lat":53.57969,"lon":-0.96983,"postcode":"DN7 6NL","la":"Doncaster","era":"trad","nn":1317,"risk":52,"cat":"amber"},{"name":"Grove Inn","lat":53.53318,"lon":-1.15486,"postcode":"DN5 8HL","la":"Doncaster","era":"trad","nn":230,"risk":22,"cat":"green"},{"name":"Grove Social Club","lat":53.47672,"lon":-1.24504,"postcode":"DN12 2LQ","la":"Doncaster","era":"mod","nn":59,"risk":21,"cat":"green"},{"name":"Hallcross","lat":53.52235,"lon":-1.12859,"postcode":"DN1 3NL","la":"Doncaster","era":"trad","nn":72,"risk":21,"cat":"green"},{"name":"Hare and Hounds","lat":53.61074,"lon":-1.0102,"postcode":"DN7 5JN","la":"Doncaster","era":"trad","nn":243,"risk":40,"cat":"amber"},{"name":"Harlington Inn","lat":53.51746,"lon":-1.27803,"postcode":"DN5 7HT","la":"Doncaster","era":"trad","nn":808,"risk":31,"cat":"amber"},{"name":"Hatfield Main Club","lat":53.59041,"lon":-1.02447,"postcode":"DN7 5HF","la":"Doncaster","era":"other","nn":260,"risk":43,"cat":"amber"},{"name":"Hatfield Woodhouse Working Mens Club","lat":53.5698,"lon":-0.98081,"postcode":"DN7 6NE","la":"Doncaster","era":"other","nn":1317,"risk":52,"cat":"amber"},{"name":"Hawthorn Social Club","lat":53.50686,"lon":-1.07624,"postcode":"DN4 6BT","la":"Doncaster","era":"other","nn":1072,"risk":51,"cat":"amber"},{"name":"Hilltop Hotel","lat":53.47234,"lon":-1.25413,"postcode":"DN12 2AY","la":"Doncaster","era":"other","nn":752,"risk":44,"cat":"amber"},{"name":"Horse And Groom","lat":53.52916,"lon":-1.04679,"postcode":"DN3 3JU","la":"Doncaster","era":"trad","nn":629,"risk":30,"cat":"green"},{"name":"Hyde Park Working Mens Club","lat":53.5145,"lon":-1.12839,"postcode":"DN4 5AD","la":"Doncaster","era":"trad","nn":642,"risk":25,"cat":"green"},{"name":"Ingram Arms","lat":53.57815,"lon":-0.99659,"postcode":"DN7 6RS","la":"Doncaster","era":"trad","nn":0,"risk":38,"cat":"amber"},{"name":"Intake Social Club","lat":53.52486,"lon":-1.10884,"postcode":"DN2 5EG","la":"Doncaster","era":"mod","nn":793,"risk":31,"cat":"amber"},{"name":"Ivanhoe Working Mens Club","lat":53.48394,"lon":-1.23728,"postcode":"DN12 3JT","la":"Doncaster","era":"trad","nn":349,"risk":23,"cat":"green"},{"name":"J D Weatherspoon","lat":53.52251,"lon":-1.13447,"postcode":"DN1 1TS","la":"Doncaster","era":"other","nn":0,"risk":21,"cat":"green"},{"name":"Jacques","lat":53.52285,"lon":-1.12962,"postcode":"DN1 3NF","la":"Doncaster","era":"other","nn":0,"risk":21,"cat":"green"},{"name":"Kooky Nightclub","lat":53.52308,"lon":-1.13155,"postcode":"DN1 1HQ","la":"Doncaster","era":"other","nn":0,"risk":21,"cat":"green"},{"name":"La Barraca","lat":53.52408,"lon":-1.13092,"postcode":"DN1 1HT","la":"Doncaster","era":"other","nn":0,"risk":21,"cat":"green"},{"name":"Lakeside Suite Sports Bar","lat":53.50978,"lon":-1.11297,"postcode":"DN4 5JW","la":"Doncaster","era":"other","nn":351,"risk":28,"cat":"green"},{"name":"Lenny's Micro Bar","lat":53.47621,"lon":-1.24481,"postcode":"DN12 2LG","la":"Doncaster","era":"other","nn":59,"risk":21,"cat":"green"},{"name":"Liquor Lab","lat":53.5254,"lon":-1.13146,"postcode":"DN1 1NG","la":"Doncaster","era":"other","nn":0,"risk":21,"cat":"green"},{"name":"Luxx Lounge","lat":53.52251,"lon":-1.13447,"postcode":"DN1 1TS","la":"Doncaster","era":"mod","nn":0,"risk":21,"cat":"green"},{"name":"Maltings Bar","lat":53.51406,"lon":-1.15329,"postcode":"DN4 0HH","la":"Doncaster","era":"other","nn":705,"risk":28,"cat":"green"},{"name":"Mambo","lat":53.52308,"lon":-1.13155,"postcode":"DN1 1HQ","la":"Doncaster","era":"other","nn":0,"risk":21,"cat":"green"},{"name":"Manana Manana","lat":53.52285,"lon":-1.12962,"postcode":"DN1 3NF","la":"Doncaster","era":"other","nn":0,"risk":21,"cat":"green"},{"name":"Maple Tree","lat":53.49175,"lon":-1.14085,"postcode":"DN4 8RZ","la":"Doncaster","era":"other","nn":159,"risk":42,"cat":"amber"},{"name":"Market Place Ale House and Deli","lat":53.52494,"lon":-1.13166,"postcode":"DN1 1ND","la":"Doncaster","era":"mod","nn":0,"risk":21,"cat":"green"},{"name":"Markham Main Officials Club","lat":53.53632,"lon":-1.0714,"postcode":"DN3 2FE","la":"Doncaster","era":"other","nn":700,"risk":26,"cat":"green"},{"name":"Marr Lodge","lat":53.54146,"lon":-1.22271,"postcode":"DN5 7AT","la":"Doncaster","era":"other","nn":2495,"risk":61,"cat":"red"},{"name":"Masonic Hall","lat":53.52246,"lon":-1.13521,"postcode":"DN1 1BZ","la":"Doncaster","era":"trad","nn":37,"risk":21,"cat":"green"},{"name":"Mavericks","lat":53.52429,"lon":-1.13004,"postcode":"DN1 1JG","la":"Doncaster","era":"other","nn":63,"risk":21,"cat":"green"},{"name":"Mayflower Restaurant","lat":53.45108,"lon":-1.00573,"postcode":"DN10 6QU","la":"Doncaster","era":"other","nn":2449,"risk":60,"cat":"amber"},{"name":"Miller & Carter Bessacarr","lat":53.51411,"lon":-1.09676,"postcode":"DN4 7PD","la":"Doncaster","era":"trad","nn":555,"risk":42,"cat":"amber"},{"name":"Moorends Hotel","lat":53.6298,"lon":-0.9516,"postcode":"DN8 4SU","la":"Doncaster","era":"other","nn":140,"risk":42,"cat":"amber"},{"name":"Murphy's Sports Bar","lat":53.53213,"lon":-1.15787,"postcode":"DN5 8PT","la":"Doncaster","era":"other","nn":0,"risk":21,"cat":"green"},{"name":"Newton Arms","lat":53.52474,"lon":-1.15765,"postcode":"DN5 8BP","la":"Doncaster","era":"trad","nn":822,"risk":29,"cat":"green"},{"name":"No 9 Bar & Eatery","lat":53.42911,"lon":-1.02185,"postcode":"DN10 6LS","la":"Doncaster","era":"mod","nn":84,"risk":21,"cat":"green"},{"name":"Number 15","lat":53.5231,"lon":-1.13304,"postcode":"DN1 1DW","la":"Doncaster","era":"other","nn":35,"risk":21,"cat":"green"},{"name":"O'Donegans","lat":53.52255,"lon":-1.13002,"postcode":"DN1 3NG","la":"Doncaster","era":"other","nn":17,"risk":21,"cat":"green"},{"name":"Old Anchor Inn","lat":53.61056,"lon":-1.01388,"postcode":"DN7 5JH","la":"Doncaster","era":"trad","nn":243,"risk":40,"cat":"amber"},{"name":"Old Bulls Head","lat":53.52168,"lon":-1.13722,"postcode":"DN1 1SD","la":"Doncaster","era":"trad","nn":23,"risk":21,"cat":"green"},{"name":"Olde Castle","lat":53.52499,"lon":-1.13332,"postcode":"DN1 1LQ","la":"Doncaster","era":"other","nn":0,"risk":21,"cat":"green"},{"name":"Owston Hall Hotel","lat":53.59462,"lon":-1.17006,"postcode":"DN6 9JF","la":"Doncaster","era":"other","nn":962,"risk":47,"cat":"amber"},{"name":"Pangea","lat":53.43042,"lon":-1.02012,"postcode":"DN10 6JA","la":"Doncaster","era":"other","nn":39,"risk":21,"cat":"green"},{"name":"Parklands Sport and Social Club","lat":53.53861,"lon":-1.12008,"postcode":"DN2 4LT","la":"Doncaster","era":"mod","nn":721,"risk":28,"cat":"green"},{"name":"Pilkington Club","lat":53.5609,"lon":-1.07238,"postcode":"DN3 1HP","la":"Doncaster","era":"trad","nn":0,"risk":23,"cat":"green"},{"name":"Pinchos Gin & Cocktail Bar","lat":53.5232,"lon":-1.13354,"postcode":"DN1 1DW","la":"Doncaster","era":"other","nn":35,"risk":21,"cat":"green"},{"name":"Plough Inn","lat":53.50682,"lon":-1.15134,"postcode":"DN4 0PL","la":"Doncaster","era":"trad","nn":258,"risk":25,"cat":"green"},{"name":"Railway Hotel","lat":53.61628,"lon":-1.1479,"postcode":"DN6 0JS","la":"Doncaster","era":"trad","nn":167,"risk":22,"cat":"green"},{"name":"Red Lion","lat":53.52384,"lon":-1.13244,"postcode":"DN1 1NH","la":"Doncaster","era":"trad","nn":72,"risk":21,"cat":"green"},{"name":"Red Lion Hotel","lat":53.47846,"lon":-1.22833,"postcode":"DN12 2BY","la":"Doncaster","era":"trad","nn":217,"risk":22,"cat":"green"},{"name":"Rhinos","lat":53.54681,"lon":-1.1458,"postcode":"DN5 0AP","la":"Doncaster","era":"other","nn":134,"risk":24,"cat":"green"},{"name":"Ridgewood Hotel","lat":53.55103,"lon":-1.07125,"postcode":"DN3 2JD","la":"Doncaster","era":"other","nn":331,"risk":23,"cat":"green"},{"name":"Rock a Hula Tiki Bar","lat":53.52285,"lon":-1.12962,"postcode":"DN1 3NF","la":"Doncaster","era":"other","nn":0,"risk":21,"cat":"green"},{"name":"Rossington Club And Institute","lat":53.47832,"lon":-1.07779,"postcode":"DN11 0TS","la":"Doncaster","era":"other","nn":159,"risk":22,"cat":"green"},{"name":"Rossington Colliery Officials Club","lat":53.47496,"lon":-1.08323,"postcode":"DN11 0LH","la":"Doncaster","era":"other","nn":270,"risk":23,"cat":"green"},{"name":"Rossington Labour Club","lat":53.47215,"lon":-1.0703,"postcode":"DN11 0NR","la":"Doncaster","era":"other","nn":689,"risk":26,"cat":"green"},{"name":"Rossington Miners Welfare","lat":53.47834,"lon":-1.06993,"postcode":"DN11 0DU","la":"Doncaster","era":"other","nn":504,"risk":24,"cat":"green"},{"name":"Royal Hotel","lat":53.63146,"lon":-1.18115,"postcode":"DN6 9DH","la":"Doncaster","era":"trad","nn":0,"risk":41,"cat":"amber"},{"name":"Saddle and Shot","lat":53.52308,"lon":-1.13155,"postcode":"DN1 1HQ","la":"Doncaster","era":"other","nn":0,"risk":21,"cat":"green"},{"name":"Saracens","lat":53.5217,"lon":-1.13403,"postcode":"DN1 3DZ","la":"Doncaster","era":"other","nn":42,"risk":21,"cat":"green"},{"name":"Scawsby Mill","lat":53.53961,"lon":-1.18508,"postcode":"DN5 7UB","la":"Doncaster","era":"trad","nn":1284,"risk":52,"cat":"amber"},{"name":"Scawthorpe Social Club","lat":53.54365,"lon":-1.1614,"postcode":"DN5 9NT","la":"Doncaster","era":"mod","nn":765,"risk":29,"cat":"green"},{"name":"Ship Inn Bawtry","lat":53.42773,"lon":-1.01879,"postcode":"DN10 6HT","la":"Doncaster","era":"trad","nn":150,"risk":22,"cat":"green"},{"name":"Skellow Social Club Ltd","lat":53.5864,"lon":-1.19703,"postcode":"DN6 8JL","la":"Doncaster","era":"mod","nn":795,"risk":44,"cat":"amber"},{"name":"Slug and Lettuce","lat":53.52237,"lon":-1.13116,"postcode":"DN1 3PB","la":"Doncaster","era":"other","nn":24,"risk":21,"cat":"green"},{"name":"Social","lat":53.52285,"lon":-1.12962,"postcode":"DN1 3NF","la":"Doncaster","era":"mod","nn":0,"risk":21,"cat":"green"},{"name":"Sprotbrough Country Club","lat":53.51075,"lon":-1.19607,"postcode":"DN5 7SD","la":"Doncaster","era":"other","nn":537,"risk":42,"cat":"amber"},{"name":"St Leger Tavern","lat":53.52308,"lon":-1.13155,"postcode":"DN1 1HQ","la":"Doncaster","era":"other","nn":0,"risk":21,"cat":"green"},{"name":"Stainforth Central Club","lat":53.6007,"lon":-1.02999,"postcode":"DN7 5AJ","la":"Doncaster","era":"other","nn":131,"risk":39,"cat":"amber"},{"name":"Stonegate Club","lat":53.61028,"lon":-0.96227,"postcode":"DN8 5EE","la":"Doncaster","era":"other","nn":0,"risk":21,"cat":"green"},{"name":"Subterranea","lat":53.52285,"lon":-1.12962,"postcode":"DN1 3NF","la":"Doncaster","era":"other","nn":0,"risk":21,"cat":"green"},{"name":"Taste Peru","lat":53.5254,"lon":-1.13146,"postcode":"DN1 1NG","la":"Doncaster","era":"other","nn":0,"risk":21,"cat":"green"},{"name":"The Barge Inn","lat":53.61175,"lon":-0.97375,"postcode":"DN8 5EP","la":"Doncaster","era":"trad","nn":203,"risk":22,"cat":"green"},{"name":"The Baxter Arms","lat":53.63948,"lon":-1.10332,"postcode":"DN6 0HA","la":"Doncaster","era":"trad","nn":3750,"risk":70,"cat":"red"},{"name":"The Bay Horse","lat":53.57815,"lon":-0.99659,"postcode":"DN7 6RS","la":"Doncaster","era":"trad","nn":0,"risk":38,"cat":"amber"},{"name":"The Black Bull","lat":53.52499,"lon":-1.13332,"postcode":"DN1 1LQ","la":"Doncaster","era":"trad","nn":0,"risk":21,"cat":"green"},{"name":"The Blue Bell","lat":53.57648,"lon":-1.00094,"postcode":"DN7 6SA","la":"Doncaster","era":"other","nn":342,"risk":28,"cat":"green"},{"name":"The Blue Bell","lat":53.49623,"lon":-0.98856,"postcode":"DN9 3AL","la":"Doncaster","era":"other","nn":777,"risk":46,"cat":"amber"},{"name":"The Boat Inn","lat":53.50646,"lon":-1.19233,"postcode":"DN5 7NB","la":"Doncaster","era":"trad","nn":537,"risk":45,"cat":"amber"},{"name":"The Burghwallis","lat":53.60006,"lon":-1.19819,"postcode":"DN6 9JT","la":"Doncaster","era":"other","nn":1521,"risk":54,"cat":"amber"},{"name":"The Cadeby Pub & Restaurant","lat":53.49818,"lon":-1.22449,"postcode":"DN5 7SW","la":"Doncaster","era":"other","nn":1795,"risk":56,"cat":"amber"},{"name":"The Canal Tavern","lat":53.60904,"lon":-0.96366,"postcode":"DN8 5DZ","la":"Doncaster","era":"other","nn":166,"risk":22,"cat":"green"},{"name":"The Cheswold","lat":53.51232,"lon":-1.10459,"postcode":"DN4 7NW","la":"Doncaster","era":"other","nn":82,"risk":24,"cat":"green"},{"name":"The Clubhouse","lat":53.53546,"lon":-1.05701,"postcode":"DN3 3AG","la":"Doncaster","era":"other","nn":191,"risk":22,"cat":"green"},{"name":"The Comrades Club","lat":53.51923,"lon":-1.11791,"postcode":"DN2 6AD","la":"Doncaster","era":"other","nn":244,"risk":22,"cat":"green"},{"name":"The Courtyard","lat":53.52898,"lon":-1.17711,"postcode":"DN5 7TU","la":"Doncaster","era":"mod","nn":536,"risk":45,"cat":"amber"},{"name":"The Crown Hotel","lat":53.61433,"lon":-1.15217,"postcode":"DN6 0AB","la":"Doncaster","era":"trad","nn":0,"risk":21,"cat":"green"},{"name":"The Democratic Club","lat":53.60867,"lon":-0.95762,"postcode":"DN8 5NS","la":"Doncaster","era":"other","nn":268,"risk":23,"cat":"green"},{"name":"The Eagle and Child","lat":53.50371,"lon":-1.0234,"postcode":"DN9 3HS","la":"Doncaster","era":"trad","nn":919,"risk":47,"cat":"amber"},{"name":"The Fair Green Hotel","lat":53.61028,"lon":-0.96227,"postcode":"DN8 5EE","la":"Doncaster","era":"other","nn":0,"risk":21,"cat":"green"},{"name":"The Flying Childers","lat":53.50024,"lon":-1.08802,"postcode":"DN4 7JA","la":"Doncaster","era":"other","nn":1072,"risk":51,"cat":"amber"},{"name":"The Glasshouse","lat":53.5609,"lon":-1.07238,"postcode":"DN3 1HP","la":"Doncaster","era":"other","nn":0,"risk":23,"cat":"green"},{"name":"The Hart of Barnby Dun","lat":53.57732,"lon":-1.06836,"postcode":"DN3 1DA","la":"Doncaster","era":"trad","nn":231,"risk":40,"cat":"amber"},{"name":"The Harvey Arms","lat":53.48344,"lon":-0.99221,"postcode":"DN9 3BY","la":"Doncaster","era":"trad","nn":666,"risk":45,"cat":"amber"},{"name":"The Hatfield Chace - Chik Box & K Town Chicken","lat":53.5709,"lon":-1.01012,"postcode":"DN7 6AD","la":"Doncaster","era":"other","nn":868,"risk":44,"cat":"amber"},{"name":"The Highwayman","lat":53.55817,"lon":-1.1822,"postcode":"DN6 7HU","la":"Doncaster","era":"other","nn":600,"risk":27,"cat":"green"},{"name":"The Holly Bush Hotel","lat":53.55403,"lon":-1.06641,"postcode":"DN3 2NJ","la":"Doncaster","era":"trad","nn":132,"risk":22,"cat":"green"},{"name":"The House Martin","lat":53.54153,"lon":-1.10666,"postcode":"DN2 4BG","la":"Doncaster","era":"mod","nn":539,"risk":25,"cat":"green"},{"name":"The Ivanhoe","lat":53.51483,"lon":-1.18334,"postcode":"DN5 7NS","la":"Doncaster","era":"other","nn":956,"risk":47,"cat":"amber"},{"name":"The Kings Chamber","lat":53.61753,"lon":-0.97425,"postcode":"DN8 4JE","la":"Doncaster","era":"trad","nn":607,"risk":25,"cat":"green"},{"name":"The Lakeside Beefeater","lat":53.50666,"lon":-1.1122,"postcode":"DN4 5PJ","la":"Doncaster","era":"other","nn":351,"risk":28,"cat":"green"},{"name":"The Leopard Hotel","lat":53.52077,"lon":-1.13784,"postcode":"DN1 3AA","la":"Doncaster","era":"other","nn":0,"risk":21,"cat":"green"},{"name":"The Lockwood","lat":53.52228,"lon":-1.13072,"postcode":"DN1 3PB","la":"Doncaster","era":"other","nn":31,"risk":21,"cat":"green"},{"name":"The Lofthouse","lat":53.43284,"lon":-1.10449,"postcode":"DN11 9QJ","la":"Doncaster","era":"other","nn":483,"risk":29,"cat":"green"},{"name":"The Lord Conyers","lat":53.48193,"lon":-1.23323,"postcode":"DN12 3ND","la":"Doncaster","era":"other","nn":147,"risk":22,"cat":"green"},{"name":"The Lord Nelson","lat":53.52192,"lon":-1.13456,"postcode":"DN1 1TR","la":"Doncaster","era":"trad","nn":42,"risk":21,"cat":"green"},{"name":"The Mallard","lat":53.52406,"lon":-1.13861,"postcode":"DN1 1LB","la":"Doncaster","era":"other","nn":162,"risk":22,"cat":"green"},{"name":"The Mallard","lat":53.53177,"lon":-1.17049,"postcode":"DN5 8JN","la":"Doncaster","era":"other","nn":536,"risk":25,"cat":"green"},{"name":"The Masons Arms","lat":53.52494,"lon":-1.13166,"postcode":"DN1 1ND","la":"Doncaster","era":"trad","nn":0,"risk":21,"cat":"green"},{"name":"The Mayfair Doncaster Ltd","lat":53.51981,"lon":-1.13218,"postcode":"DN1 3BU","la":"Doncaster","era":"other","nn":153,"risk":22,"cat":"green"},{"name":"The New Inn","lat":53.6015,"lon":-1.03146,"postcode":"DN7 5AW","la":"Doncaster","era":"trad","nn":131,"risk":39,"cat":"amber"},{"name":"The New Yorkshire Main Off Club","lat":53.48706,"lon":-1.18504,"postcode":"DN12 1BZ","la":"Doncaster","era":"other","nn":0,"risk":23,"cat":"green"},{"name":"The Old Club","lat":53.60079,"lon":-1.0335,"postcode":"DN7 5JD","la":"Doncaster","era":"other","nn":156,"risk":39,"cat":"amber"},{"name":"The Old George","lat":53.52437,"lon":-1.13178,"postcode":"DN1 1NE","la":"Doncaster","era":"trad","nn":48,"risk":21,"cat":"green"},{"name":"The Old George","lat":53.64554,"lon":-1.04736,"postcode":"DN14 9AU","la":"Doncaster","era":"trad","nn":2735,"risk":62,"cat":"red"},{"name":"The Olive Bar and Grill","lat":53.57238,"lon":-1.06687,"postcode":"DN3 1HA","la":"Doncaster","era":"mod","nn":342,"risk":41,"cat":"amber"},{"name":"The Park Social Club","lat":53.55294,"lon":-1.06129,"postcode":"DN3 2LP","la":"Doncaster","era":"mod","nn":360,"risk":26,"cat":"green"},{"name":"The Plough","lat":53.52188,"lon":-1.13733,"postcode":"DN1 1SF","la":"Doncaster","era":"trad","nn":0,"risk":21,"cat":"green"},{"name":"The Plough Inn","lat":53.55584,"lon":-1.1284,"postcode":"DN5 0SF","la":"Doncaster","era":"trad","nn":256,"risk":40,"cat":"amber"},{"name":"The Punch Bowl Inn","lat":53.53758,"lon":-1.10195,"postcode":"DN8 4BE","la":"Doncaster","era":"trad","nn":0,"risk":21,"cat":"green"},{"name":"The Queen Crafthouse & Kitchen","lat":53.52479,"lon":-1.13154,"postcode":"DN1 1LY","la":"Doncaster","era":"other","nn":19,"risk":21,"cat":"green"},{"name":"The Railway","lat":53.52077,"lon":-1.13784,"postcode":"DN1 3AA","la":"Doncaster","era":"trad","nn":0,"risk":21,"cat":"green"},{"name":"The Red Bear","lat":53.61182,"lon":-0.96306,"postcode":"DN8 5AT","la":"Doncaster","era":"other","nn":65,"risk":21,"cat":"green"},{"name":"The Red Lion","lat":53.61433,"lon":-1.15217,"postcode":"DN6 0AB","la":"Doncaster","era":"trad","nn":0,"risk":21,"cat":"green"},{"name":"The Royal Oak","lat":53.53758,"lon":-1.10195,"postcode":"DN11 9HZ","la":"Doncaster","era":"trad","nn":0,"risk":21,"cat":"green"},{"name":"The Rugby Club House","lat":53.61214,"lon":-0.95509,"postcode":"DN8 5BU","la":"Doncaster","era":"other","nn":408,"risk":24,"cat":"green"},{"name":"The Salutation","lat":53.52135,"lon":-1.12686,"postcode":"DN1 2DR","la":"Doncaster","era":"other","nn":77,"risk":21,"cat":"green"},{"name":"The Spinney","lat":53.49646,"lon":-1.16507,"postcode":"DN4 9HH","la":"Doncaster","era":"trad","nn":572,"risk":45,"cat":"amber"},{"name":"The Sportsman","lat":53.53275,"lon":-1.08014,"postcode":"DN2 5QB","la":"Doncaster","era":"other","nn":0,"risk":38,"cat":"amber"},{"name":"The Staff Of Life","lat":53.53758,"lon":-1.10195,"postcode":"DN1 3EN","la":"Doncaster","era":"other","nn":0,"risk":21,"cat":"green"},{"name":"The Station Restaurant and Bar","lat":53.48938,"lon":-0.99092,"postcode":"DN9 3AA","la":"Doncaster","era":"other","nn":666,"risk":43,"cat":"amber"},{"name":"The Styrrup","lat":53.47846,"lon":-1.06231,"postcode":"DN11 0XY","la":"Doncaster","era":"other","nn":504,"risk":42,"cat":"amber"},{"name":"The Sun Inn Pub","lat":53.53735,"lon":-1.16603,"postcode":"DN5 8RN","la":"Doncaster","era":"trad","nn":279,"risk":23,"cat":"green"},{"name":"The Tavern Community Hub","lat":53.43548,"lon":-1.11027,"postcode":"DN11 9HZ","la":"Doncaster","era":"mod","nn":483,"risk":29,"cat":"green"},{"name":"The Terminus Micro Pub","lat":53.48079,"lon":-1.22673,"postcode":"DN12 3HA","la":"Doncaster","era":"other","nn":203,"risk":22,"cat":"green"},{"name":"The Three Horse Shoes","lat":53.52916,"lon":-1.14473,"postcode":"DN5 9AG","la":"Doncaster","era":"trad","nn":298,"risk":23,"cat":"green"},{"name":"The Travellers Rest","lat":53.4297,"lon":-1.11619,"postcode":"DN11 9NQ","la":"Doncaster","era":"other","nn":247,"risk":27,"cat":"green"},{"name":"The Tumbler","lat":53.47952,"lon":-1.19081,"postcode":"DN12 1LH","la":"Doncaster","era":"other","nn":502,"risk":29,"cat":"green"},{"name":"The Turnpike","lat":53.42948,"lon":-1.02075,"postcode":"DN10 6JE","la":"Doncaster","era":"other","nn":84,"risk":21,"cat":"green"},{"name":"The Victoria Club","lat":53.55506,"lon":-1.12475,"postcode":"DN5 0SZ","la":"Doncaster","era":"trad","nn":256,"risk":40,"cat":"amber"},{"name":"The Warehouse","lat":53.52712,"lon":-1.1418,"postcode":"DN5 9AD","la":"Doncaster","era":"other","nn":298,"risk":23,"cat":"green"},{"name":"The Wheatsheaf","lat":53.53552,"lon":-1.05413,"postcode":"DN3 3AE","la":"Doncaster","era":"trad","nn":191,"risk":22,"cat":"green"},{"name":"The White Hart","lat":53.4287,"lon":-1.02038,"postcode":"DN10 6JQ","la":"Doncaster","era":"trad","nn":91,"risk":21,"cat":"green"},{"name":"The White Hart","lat":53.61433,"lon":-1.15217,"postcode":"DN6 0AB","la":"Doncaster","era":"trad","nn":0,"risk":21,"cat":"green"},{"name":"The White Hart Hotel","lat":53.61074,"lon":-0.96158,"postcode":"DN8 5DP","la":"Doncaster","era":"trad","nn":68,"risk":21,"cat":"green"},{"name":"The White Lady","lat":53.48241,"lon":-1.23115,"postcode":"DN12 3HQ","la":"Doncaster","era":"other","nn":31,"risk":21,"cat":"green"},{"name":"The White Rose","lat":53.47271,"lon":-1.0817,"postcode":"DN11 0QZ","la":"Doncaster","era":"other","nn":270,"risk":23,"cat":"green"},{"name":"The White Swan","lat":53.52428,"lon":-1.1362,"postcode":"DN1 1QQ","la":"Doncaster","era":"trad","nn":162,"risk":22,"cat":"green"},{"name":"The Windmill","lat":53.61226,"lon":-0.9657,"postcode":"DN8 5AA","la":"Doncaster","era":"trad","nn":180,"risk":22,"cat":"green"},{"name":"The Winning Post Hotel","lat":53.50033,"lon":-1.17077,"postcode":"DN4 0TR","la":"Doncaster","era":"trad","nn":572,"risk":45,"cat":"amber"},{"name":"The Wood Pit","lat":53.59072,"lon":-1.02838,"postcode":"DN7 5QA","la":"Doncaster","era":"other","nn":260,"risk":43,"cat":"amber"},{"name":"The Yorkshire Grey","lat":53.52255,"lon":-1.13027,"postcode":"DN1 3NA","la":"Doncaster","era":"other","nn":0,"risk":21,"cat":"green"},{"name":"Thorne Golf Club","lat":53.60548,"lon":-0.97215,"postcode":"DN8 5RJ","la":"Doncaster","era":"other","nn":630,"risk":25,"cat":"green"},{"name":"Thorne Sea Cadets","lat":53.61073,"lon":-0.96856,"postcode":"DN8 5EL","la":"Doncaster","era":"other","nn":246,"risk":22,"cat":"green"},{"name":"Thorne Snooker Centre","lat":53.61245,"lon":-0.97091,"postcode":"DN8 5ET","la":"Doncaster","era":"other","nn":203,"risk":22,"cat":"green"},{"name":"Three Horse Shoes","lat":53.5083,"lon":-1.03495,"postcode":"DN3 3NL","la":"Doncaster","era":"trad","nn":919,"risk":47,"cat":"amber"},{"name":"Toby Carvery Edenthorpe","lat":53.54771,"lon":-1.07515,"postcode":"DN3 2QT","la":"Doncaster","era":"other","nn":451,"risk":29,"cat":"green"},{"name":"Toll Bar ARLFC","lat":53.5652,"lon":-1.15147,"postcode":"DN5 0QP","la":"Doncaster","era":"mod","nn":1312,"risk":52,"cat":"amber"},{"name":"Tut N Shive","lat":53.52188,"lon":-1.13733,"postcode":"DN1 1SF","la":"Doncaster","era":"other","nn":0,"risk":21,"cat":"green"},{"name":"West End Working Mens Club","lat":53.539,"lon":-1.14936,"postcode":"DN5 9RF","la":"Doncaster","era":"trad","nn":743,"risk":26,"cat":"green"},{"name":"Wheatley Hills RUFC","lat":53.53213,"lon":-1.15787,"postcode":"DN5 8PT","la":"Doncaster","era":"other","nn":0,"risk":21,"cat":"green"},{"name":"Wheatley Hotel","lat":53.54177,"lon":-1.09588,"postcode":"DN2 5DR","la":"Doncaster","era":"other","nn":615,"risk":25,"cat":"green"},{"name":"Wheatley Working Mens Club","lat":53.53224,"lon":-1.12219,"postcode":"DN1 2TN","la":"Doncaster","era":"trad","nn":222,"risk":22,"cat":"green"},{"name":"White Hart","lat":53.46787,"lon":-1.14257,"postcode":"DN11 9AZ","la":"Doncaster","era":"trad","nn":2521,"risk":61,"cat":"red"},{"name":"White Swan Hotel","lat":53.5084,"lon":-1.14848,"postcode":"DN4 0QQ","la":"Doncaster","era":"trad","nn":258,"risk":23,"cat":"green"},{"name":"Willa Spoons","lat":53.61037,"lon":-0.9605,"postcode":"DN8 5DT","la":"Doncaster","era":"other","nn":82,"risk":21,"cat":"green"},{"name":"Woodfield Farm Pub Restaurant","lat":53.49788,"lon":-1.11983,"postcode":"DN4 8SJ","la":"Doncaster","era":"other","nn":1100,"risk":51,"cat":"amber"},{"name":"Woodfield Social Club","lat":53.50216,"lon":-1.14714,"postcode":"DN4 8HL","la":"Doncaster","era":"mod","nn":588,"risk":30,"cat":"green"},{"name":"Woodlands Park Working Mens Club","lat":53.55913,"lon":-1.19113,"postcode":"DN6 7RA","la":"Doncaster","era":"trad","nn":401,"risk":26,"cat":"green"},{"name":"Woodlands Rhinos Club","lat":53.56277,"lon":-1.19188,"postcode":"DN6 7LX","la":"Doncaster","era":"other","nn":126,"risk":24,"cat":"green"},{"name":"Woodlands Snooker Club","lat":53.5624,"lon":-1.19368,"postcode":"DN6 7HR","la":"Doncaster","era":"other","nn":0,"risk":23,"cat":"green"},{"name":"Woodshack","lat":53.61618,"lon":-1.15042,"postcode":"DN6 0JA","la":"Doncaster","era":"other","nn":167,"risk":22,"cat":"green"},{"name":"Yates / Mighty Value / 88th Street / locked & Loaded / Chik Box /K Town Chicken / Sin City Burger","lat":53.52245,"lon":-1.1315,"postcode":"DN1 3PB","la":"Doncaster","era":"other","nn":24,"risk":21,"cat":"green"},{"name":"York Bar WMC & Institute","lat":53.53586,"lon":-1.16264,"postcode":"DN5 8JH","la":"Doncaster","era":"mod","nn":279,"risk":23,"cat":"green"},{"name":"Yorkshire Grey","lat":53.52255,"lon":-1.13027,"postcode":"DN1 3NA","la":"Doncaster","era":"other","nn":0,"risk":21,"cat":"green"},{"name":"Yorkshire Main  Working Mens Club","lat":53.48706,"lon":-1.18504,"postcode":"DN12 1BZ","la":"Doncaster","era":"trad","nn":0,"risk":23,"cat":"green"},{"name":"Yorkshire Main Sports & Social Club","lat":53.48986,"lon":-1.18217,"postcode":"DN12 1DA","la":"Doncaster","era":"mod","nn":365,"risk":28,"cat":"green"},{"name":"Holton Le Clay Cricket Club","lat":53.50651,"lon":-0.05253,"postcode":"DN36 5AS","la":"East Lindsey","era":"other","nn":490,"risk":41,"cat":"amber"},{"name":"The Crown & Anchor","lat":53.49959,"lon":0.02125,"postcode":"DN36 5UW","la":"East Lindsey","era":"trad","nn":3295,"risk":65,"cat":"red"},{"name":"The Holt","lat":53.50503,"lon":-0.0595,"postcode":"DN36 5DH","la":"East Lindsey","era":"other","nn":226,"risk":26,"cat":"green"},{"name":"The Jug & Bottle","lat":53.49907,"lon":-0.06571,"postcode":"DN36 5YN","la":"East Lindsey","era":"other","nn":780,"risk":43,"cat":"amber"},{"name":"The Livesey Arms","lat":53.441,"lon":-0.0513,"postcode":"DN36 5SF","la":"East Lindsey","era":"trad","nn":2914,"risk":63,"cat":"red"},{"name":"The New Inn","lat":53.46803,"lon":-0.04165,"postcode":"DN36 5QS","la":"East Lindsey","era":"trad","nn":1361,"risk":52,"cat":"amber"},{"name":"The Outback","lat":53.47249,"lon":0.04693,"postcode":"DN36 5SX","la":"East Lindsey","era":"other","nn":167,"risk":41,"cat":"amber"},{"name":"The Royal Oak","lat":53.50597,"lon":-0.06252,"postcode":"DN36 5AB","la":"East Lindsey","era":"trad","nn":226,"risk":26,"cat":"green"},{"name":"The White Horse","lat":53.47389,"lon":0.04601,"postcode":"DN36 5SX","la":"East Lindsey","era":"trad","nn":167,"risk":41,"cat":"amber"},{"name":"Venney's And Co","lat":53.46641,"lon":-0.06204,"postcode":"DN36 5PL","la":"East Lindsey","era":"other","nn":1361,"risk":52,"cat":"amber"},{"name":"Bell & Crown","lat":53.69167,"lon":-1.02948,"postcode":"DN14 9HE","la":"East Riding of Yorkshire","era":"trad","nn":0,"risk":16,"cat":"green"},{"name":"Bishop's Bar and Bistro","lat":53.74583,"lon":-0.86686,"postcode":"DN14 7BP","la":"East Riding of Yorkshire","era":"other","nn":64,"risk":17,"cat":"green"},{"name":"Black Lion","lat":53.69198,"lon":-1.02831,"postcode":"DN14 9HT","la":"East Riding of Yorkshire","era":"trad","nn":0,"risk":16,"cat":"green"},{"name":"Boothferry Golf Club","lat":53.77877,"lon":-0.85764,"postcode":"DN14 7NG","la":"East Riding of Yorkshire","era":"other","nn":3582,"risk":64,"cat":"red"},{"name":"Brewers Arms","lat":53.69075,"lon":-1.03014,"postcode":"DN14 9JS","la":"East Riding of Yorkshire","era":"trad","nn":111,"risk":17,"cat":"green"},{"name":"Brewers Fayre Aire and Calder","lat":53.70498,"lon":-0.91434,"postcode":"DN14 8JS","la":"East Riding of Yorkshire","era":"other","nn":1358,"risk":48,"cat":"amber"},{"name":"Bricklayers Arms","lat":53.72021,"lon":-0.80322,"postcode":"DN14 7TS","la":"East Riding of Yorkshire","era":"trad","nn":2514,"risk":57,"cat":"amber"},{"name":"Coffee and Wine by Tommy Ltd","lat":53.74684,"lon":-0.86486,"postcode":"DN14 7AB","la":"East Riding of Yorkshire","era":"other","nn":0,"risk":16,"cat":"green"},{"name":"Goole Town Cricket Club","lat":53.71629,"lon":-0.86612,"postcode":"DN14 6NF","la":"East Riding of Yorkshire","era":"other","nn":250,"risk":36,"cat":"amber"},{"name":"Half Moon Inn","lat":53.69832,"lon":-0.79361,"postcode":"DN14 8ET","la":"East Riding of Yorkshire","era":"trad","nn":2514,"risk":57,"cat":"amber"},{"name":"Howden Social Club","lat":53.74684,"lon":-0.86486,"postcode":"DN14 7AB","la":"East Riding of Yorkshire","era":"mod","nn":0,"risk":16,"cat":"green"},{"name":"Jemmy Hirst At The Rose And Crown","lat":53.70027,"lon":-0.96699,"postcode":"DN14 8RN","la":"East Riding of Yorkshire","era":"trad","nn":282,"risk":38,"cat":"amber"},{"name":"Masonic Hall","lat":53.70373,"lon":-0.87381,"postcode":"DN14 5BU","la":"East Riding of Yorkshire","era":"trad","nn":178,"risk":18,"cat":"green"},{"name":"Murphys Pool and Snooker Club Ltd","lat":53.70346,"lon":-0.86941,"postcode":"DN14 5DZ","la":"East Riding of Yorkshire","era":"other","nn":71,"risk":17,"cat":"green"},{"name":"North Star Marina Club","lat":53.69513,"lon":-0.88635,"postcode":"DN14 5TB","la":"East Riding of Yorkshire","era":"other","nn":867,"risk":43,"cat":"amber"},{"name":"Old Goole Working Mens Club","lat":53.69371,"lon":-0.86724,"postcode":"DN14 5UN","la":"East Riding of Yorkshire","era":"trad","nn":530,"risk":23,"cat":"green"},{"name":"Percy Arms","lat":53.71605,"lon":-0.90563,"postcode":"DN14 8LD","la":"East Riding of Yorkshire","era":"trad","nn":1214,"risk":47,"cat":"amber"},{"name":"Railway Club","lat":53.70433,"lon":-0.87897,"postcode":"DN14 6SL","la":"East Riding of Yorkshire","era":"trad","nn":295,"risk":19,"cat":"green"},{"name":"Rawcliffe Bridge Club","lat":53.68489,"lon":-0.9413,"postcode":"DN14 8SJ","la":"East Riding of Yorkshire","era":"other","nn":300,"risk":39,"cat":"amber"},{"name":"Rawcliffe Bridge Hotel","lat":53.68289,"lon":-0.94437,"postcode":"DN14 8PQ","la":"East Riding of Yorkshire","era":"other","nn":300,"risk":39,"cat":"amber"},{"name":"Royal Hotel","lat":53.70157,"lon":-0.87,"postcode":"DN14 5QW","la":"East Riding of Yorkshire","era":"trad","nn":112,"risk":17,"cat":"green"},{"name":"Shapla","lat":53.68465,"lon":-0.99662,"postcode":"DN14 9DA","la":"East Riding of Yorkshire","era":"other","nn":1517,"risk":50,"cat":"amber"},{"name":"Ship Inn","lat":53.68677,"lon":-1.01937,"postcode":"DN14 9EB","la":"East Riding of Yorkshire","era":"trad","nn":757,"risk":22,"cat":"green"},{"name":"Shire Hall","lat":53.74589,"lon":-0.86589,"postcode":"DN14 7BJ","la":"East Riding of Yorkshire","era":"other","nn":0,"risk":16,"cat":"green"},{"name":"Sotheron Arms and The Stables","lat":53.72152,"lon":-0.84813,"postcode":"DN14 5PQ","la":"East Riding of Yorkshire","era":"trad","nn":318,"risk":39,"cat":"amber"},{"name":"Swinefleet Social Club","lat":53.69035,"lon":-0.83705,"postcode":"DN14 8AQ","la":"East Riding of Yorkshire","era":"mod","nn":25,"risk":37,"cat":"amber"},{"name":"Tesco Express","lat":53.71423,"lon":-0.86765,"postcode":"DN14 6LX","la":"East Riding of Yorkshire","era":"other","nn":250,"risk":36,"cat":"amber"},{"name":"The Black Swan","lat":53.7596,"lon":-0.79304,"postcode":"DN14 7PR","la":"East Riding of Yorkshire","era":"trad","nn":3191,"risk":61,"cat":"red"},{"name":"The Black Swan","lat":53.74449,"lon":-0.91467,"postcode":"DN14 7HE","la":"East Riding of Yorkshire","era":"trad","nn":3093,"risk":61,"cat":"red"},{"name":"The Blacksmith Arms","lat":53.71875,"lon":-0.84692,"postcode":"DN14 5NY","la":"East Riding of Yorkshire","era":"trad","nn":318,"risk":39,"cat":"amber"},{"name":"The City & County","lat":53.70373,"lon":-0.87038,"postcode":"DN14 5DR","la":"East Riding of Yorkshire","era":"other","nn":71,"risk":17,"cat":"green"},{"name":"The Counting House","lat":53.7026,"lon":-0.8709,"postcode":"DN14 5QE","la":"East Riding of Yorkshire","era":"other","nn":18,"risk":17,"cat":"green"},{"name":"The Dog House","lat":53.69198,"lon":-1.02831,"postcode":"DN14 9HT","la":"East Riding of Yorkshire","era":"other","nn":0,"risk":16,"cat":"green"},{"name":"The Downe Arms","lat":53.69167,"lon":-1.02948,"postcode":"DN14 9HE","la":"East Riding of Yorkshire","era":"trad","nn":0,"risk":16,"cat":"green"},{"name":"The Green Inn","lat":53.69959,"lon":-0.96286,"postcode":"DN14 8QW","la":"East Riding of Yorkshire","era":"trad","nn":282,"risk":38,"cat":"amber"},{"name":"The Howden Arms","lat":53.74589,"lon":-0.86589,"postcode":"DN14 7BJ","la":"East Riding of Yorkshire","era":"trad","nn":0,"risk":16,"cat":"green"},{"name":"The Howden Brewing Company Ltd t/a The Tailor's Chalk","lat":53.74598,"lon":-0.86576,"postcode":"DN14 7BJ","la":"East Riding of Yorkshire","era":"other","nn":14,"risk":17,"cat":"green"},{"name":"The Kings Head","lat":53.66794,"lon":-1.06449,"postcode":"DN14 0DN","la":"East Riding of Yorkshire","era":"trad","nn":2735,"risk":58,"cat":"amber"},{"name":"The Mulberry","lat":53.70244,"lon":-0.87084,"postcode":"DN14 5QE","la":"East Riding of Yorkshire","era":"other","nn":18,"risk":17,"cat":"green"},{"name":"The Old George","lat":53.70325,"lon":-0.87123,"postcode":"DN14 5AU","la":"East Riding of Yorkshire","era":"trad","nn":76,"risk":17,"cat":"green"},{"name":"The Peacock","lat":53.70219,"lon":-0.86708,"postcode":"DN14 5RB","la":"East Riding of Yorkshire","era":"other","nn":205,"risk":18,"cat":"green"},{"name":"The Plough Inn","lat":53.69107,"lon":-1.02828,"postcode":"DN14 9JJ","la":"East Riding of Yorkshire","era":"trad","nn":101,"risk":17,"cat":"green"},{"name":"The Ship Inn","lat":53.69052,"lon":-0.8373,"postcode":"DN14 8AQ","la":"East Riding of Yorkshire","era":"trad","nn":25,"risk":37,"cat":"amber"},{"name":"The Steam Packet","lat":53.70979,"lon":-0.86587,"postcode":"DN14 6HT","la":"East Riding of Yorkshire","era":"other","nn":507,"risk":20,"cat":"green"},{"name":"The Vermuyden Hotel","lat":53.69673,"lon":-0.87346,"postcode":"DN14 5TD","la":"East Riding of Yorkshire","era":"other","nn":530,"risk":20,"cat":"green"},{"name":"The Viking","lat":53.71335,"lon":-0.88776,"postcode":"DN14 6RG","la":"East Riding of Yorkshire","era":"trad","nn":1158,"risk":47,"cat":"amber"},{"name":"The Wellington Hotel","lat":53.74621,"lon":-0.86773,"postcode":"DN14 7JG","la":"East Riding of Yorkshire","era":"trad","nn":71,"risk":17,"cat":"green"},{"name":"Tom Pudding Micropub","lat":53.70567,"lon":-0.87511,"postcode":"DN14 6EZ","la":"East Riding of Yorkshire","era":"other","nn":232,"risk":18,"cat":"green"},{"name":"Victoria Hotel","lat":53.70381,"lon":-0.86517,"postcode":"DN14 5JB","la":"East Riding of Yorkshire","era":"trad","nn":220,"risk":18,"cat":"green"},{"name":"Zolsha","lat":53.74684,"lon":-0.86486,"postcode":"DN14 7AB","la":"East Riding of Yorkshire","era":"other","nn":0,"risk":16,"cat":"green"},{"name":"0 degrees North","lat":53.56054,"lon":-0.03177,"postcode":"DN35 8JN","la":"North East Lincolnshire","era":"other","nn":0,"risk":25,"cat":"green"},{"name":"Abby's","lat":53.56391,"lon":-0.08575,"postcode":"DN31 1JY","la":"North East Lincolnshire","era":"other","nn":107,"risk":26,"cat":"green"},{"name":"Blossom Way Sports & Social Club","lat":53.61186,"lon":-0.21833,"postcode":"DN40 1PH","la":"North East Lincolnshire","era":"mod","nn":243,"risk":32,"cat":"amber"},{"name":"Bluestone Inn","lat":53.61379,"lon":-0.22455,"postcode":"DN40 2DU","la":"North East Lincolnshire","era":"trad","nn":463,"risk":34,"cat":"amber"},{"name":"Bradley Football Development Centre","lat":53.54646,"lon":-0.12278,"postcode":"DN37 0AG","la":"North East Lincolnshire","era":"other","nn":1319,"risk":57,"cat":"amber"},{"name":"Buzz Bingo","lat":53.56573,"lon":-0.07722,"postcode":"DN32 9AB","la":"North East Lincolnshire","era":"other","nn":297,"risk":27,"cat":"green"},{"name":"Carr Lane Social Club","lat":53.56102,"lon":-0.05504,"postcode":"DN32 8JP","la":"North East Lincolnshire","era":"mod","nn":396,"risk":28,"cat":"green"},{"name":"Cartergate Social Club","lat":53.56312,"lon":-0.09129,"postcode":"DN31 1QZ","la":"North East Lincolnshire","era":"mod","nn":165,"risk":27,"cat":"green"},{"name":"Casablanca Club","lat":53.57193,"lon":-0.06787,"postcode":"DN32 7QH","la":"North East Lincolnshire","era":"other","nn":274,"risk":27,"cat":"green"},{"name":"Clee Hotel","lat":53.56055,"lon":-0.03625,"postcode":"DN35 8AD","la":"North East Lincolnshire","era":"other","nn":72,"risk":26,"cat":"green"},{"name":"Cleethorpes Bowling Club Ltd","lat":53.55873,"lon":-0.03272,"postcode":"DN35 8HN","la":"North East Lincolnshire","era":"other","nn":129,"risk":26,"cat":"green"},{"name":"Cleethorpes Cricket Club","lat":53.54722,"lon":-0.0195,"postcode":"DN35 0HZ","la":"North East Lincolnshire","era":"other","nn":269,"risk":30,"cat":"green"},{"name":"Cleethorpes Golf Club","lat":53.53938,"lon":-0.00817,"postcode":"DN35 0PN","la":"North East Lincolnshire","era":"other","nn":250,"risk":45,"cat":"amber"},{"name":"Cleethorpes Royal Air Force Association Club Ltd","lat":53.55802,"lon":-0.02532,"postcode":"DN35 8LQ","la":"North East Lincolnshire","era":"trad","nn":0,"risk":25,"cat":"green"},{"name":"Cleethorpes Ten Pin Bowl","lat":53.54735,"lon":-0.01544,"postcode":"DN35 0AQ","la":"North East Lincolnshire","era":"other","nn":269,"risk":32,"cat":"amber"},{"name":"Cleethorpes Working Mens Club","lat":53.55984,"lon":-0.0322,"postcode":"DN35 8HL","la":"North East Lincolnshire","era":"trad","nn":82,"risk":26,"cat":"green"},{"name":"Corporation Arms","lat":53.57118,"lon":-0.07375,"postcode":"DN32 7AG","la":"North East Lincolnshire","era":"trad","nn":101,"risk":26,"cat":"green"},{"name":"Cromwell Social Club","lat":53.56513,"lon":-0.10009,"postcode":"DN31 2BA","la":"North East Lincolnshire","era":"mod","nn":597,"risk":30,"cat":"green"},{"name":"Crows Nest Hotel","lat":53.55153,"lon":-0.0477,"postcode":"DN35 9ND","la":"North East Lincolnshire","era":"other","nn":556,"risk":34,"cat":"amber"},{"name":"Cue World","lat":53.57084,"lon":-0.08147,"postcode":"DN31 1PS","la":"North East Lincolnshire","era":"other","nn":326,"risk":28,"cat":"green"},{"name":"Dry Dock","lat":53.56632,"lon":-0.08175,"postcode":"DN31 1BG","la":"North East Lincolnshire","era":"other","nn":0,"risk":25,"cat":"green"},{"name":"Escapologist","lat":53.561,"lon":-0.03547,"postcode":"DN35 8AJ","la":"North East Lincolnshire","era":"other","nn":72,"risk":26,"cat":"green"},{"name":"Folk Wine Kitchen","lat":53.55738,"lon":-0.0267,"postcode":"DN35 8HD","la":"North East Lincolnshire","era":"mod","nn":46,"risk":26,"cat":"green"},{"name":"Freemans Arms","lat":53.56968,"lon":-0.07416,"postcode":"DN32 7AJ","la":"North East Lincolnshire","era":"trad","nn":69,"risk":26,"cat":"green"},{"name":"Grimsby & Cleethorpes Yacht Club","lat":53.57554,"lon":-0.0773,"postcode":"DN31 3LS","la":"North East Lincolnshire","era":"other","nn":202,"risk":27,"cat":"green"},{"name":"Grimsby Auditorium","lat":53.56784,"lon":-0.1088,"postcode":"DN31 2BH","la":"North East Lincolnshire","era":"other","nn":650,"risk":47,"cat":"amber"},{"name":"Grimsby Rugby Union Football Club","lat":53.5365,"lon":-0.09463,"postcode":"DN33 3JF","la":"North East Lincolnshire","era":"other","nn":199,"risk":32,"cat":"amber"},{"name":"Grimsby Town Cricket Club","lat":53.55976,"lon":-0.09991,"postcode":"DN34 4TX","la":"North East Lincolnshire","era":"other","nn":597,"risk":30,"cat":"green"},{"name":"Habrough Bowls Club","lat":53.60126,"lon":-0.26621,"postcode":"DN40 3AA","la":"North East Lincolnshire","era":"other","nn":638,"risk":50,"cat":"amber"},{"name":"Hainton Recreational Club","lat":53.56651,"lon":-0.07292,"postcode":"DN32 9JG","la":"North East Lincolnshire","era":"other","nn":297,"risk":27,"cat":"green"},{"name":"Haven Brewers Fayre","lat":53.57951,"lon":-0.10771,"postcode":"DN31 2UT","la":"North East Lincolnshire","era":"other","nn":1300,"risk":57,"cat":"amber"},{"name":"Healing and District Mens Social Club","lat":53.57749,"lon":-0.16795,"postcode":"DN41 7PS","la":"North East Lincolnshire","era":"mod","nn":1484,"risk":58,"cat":"amber"},{"name":"Honest Lawyer","lat":53.56036,"lon":-0.0666,"postcode":"DN32 9SQ","la":"North East Lincolnshire","era":"other","nn":407,"risk":28,"cat":"green"},{"name":"Humber Cruising Association","lat":53.57723,"lon":-0.06508,"postcode":"DN31 3SD","la":"North East Lincolnshire","era":"other","nn":350,"risk":28,"cat":"green"},{"name":"Humber Mouth Yacht Club","lat":53.53237,"lon":0.0096,"postcode":"DN36 4EU","la":"North East Lincolnshire","era":"other","nn":405,"risk":48,"cat":"amber"},{"name":"Immingham Seafarers Centre","lat":53.62902,"lon":-0.18896,"postcode":"DN40 2NN","la":"North East Lincolnshire","era":"other","nn":2019,"risk":62,"cat":"red"},{"name":"Jack O Clubs","lat":53.5727,"lon":-0.06042,"postcode":"DN31 3BP","la":"North East Lincolnshire","era":"other","nn":131,"risk":26,"cat":"green"},{"name":"JDP Lounge","lat":53.57378,"lon":-0.07806,"postcode":"DN31 3LA","la":"North East Lincolnshire","era":"mod","nn":140,"risk":26,"cat":"green"},{"name":"Jubilee Inn","lat":53.56487,"lon":-0.13779,"postcode":"DN37 9SF","la":"North East Lincolnshire","era":"trad","nn":785,"risk":51,"cat":"amber"},{"name":"Kings Head","lat":53.51627,"lon":-0.10222,"postcode":"DN37 0LL","la":"North East Lincolnshire","era":"trad","nn":434,"risk":48,"cat":"amber"},{"name":"Kings Royal Hotel","lat":53.55504,"lon":-0.02169,"postcode":"DN35 8QL","la":"North East Lincolnshire","era":"trad","nn":122,"risk":26,"cat":"green"},{"name":"Kingsway Club","lat":53.55598,"lon":-0.02263,"postcode":"DN35 8QU","la":"North East Lincolnshire","era":"trad","nn":117,"risk":26,"cat":"green"},{"name":"Linden Homes Club","lat":53.55553,"lon":-0.05274,"postcode":"DN32 8QL","la":"North East Lincolnshire","era":"other","nn":228,"risk":27,"cat":"green"},{"name":"Mariner's Trust Bars","lat":53.57059,"lon":-0.04835,"postcode":"DN35 7PT","la":"North East Lincolnshire","era":"other","nn":153,"risk":29,"cat":"green"},{"name":"Masonic Hall","lat":53.55803,"lon":-0.11835,"postcode":"DN34 5SZ","la":"North East Lincolnshire","era":"trad","nn":494,"risk":49,"cat":"amber"},{"name":"Message in a Bottle","lat":53.55739,"lon":-0.02779,"postcode":"DN35 8HD","la":"North East Lincolnshire","era":"other","nn":72,"risk":26,"cat":"green"},{"name":"New Clee Constitutional Club Limited","lat":53.56946,"lon":-0.04967,"postcode":"DN35 7DJ","la":"North East Lincolnshire","era":"other","nn":153,"risk":26,"cat":"green"},{"name":"New Imperial Club","lat":53.56857,"lon":-0.04677,"postcode":"DN35 7HE","la":"North East Lincolnshire","era":"other","nn":216,"risk":32,"cat":"amber"},{"name":"New Standard Club & Institute","lat":53.56948,"lon":-0.09182,"postcode":"DN31 1XE","la":"North East Lincolnshire","era":"other","nn":578,"risk":29,"cat":"green"},{"name":"No 2 Refreshment Rooms","lat":53.56201,"lon":-0.02954,"postcode":"DN35 8AX","la":"North East Lincolnshire","era":"mod","nn":93,"risk":26,"cat":"green"},{"name":"Old Clee Club","lat":53.5572,"lon":-0.05047,"postcode":"DN32 8LS","la":"North East Lincolnshire","era":"other","nn":158,"risk":27,"cat":"green"},{"name":"Old Lloyds Arms","lat":53.56632,"lon":-0.08175,"postcode":"DN31 1BL","la":"North East Lincolnshire","era":"trad","nn":0,"risk":25,"cat":"green"},{"name":"Pelham Hotel","lat":53.61664,"lon":-0.21135,"postcode":"DN40 2HL","la":"North East Lincolnshire","era":"other","nn":517,"risk":34,"cat":"amber"},{"name":"People Bar and Kitchen","lat":53.55698,"lon":-0.02655,"postcode":"DN35 8HB","la":"North East Lincolnshire","era":"mod","nn":46,"risk":26,"cat":"green"},{"name":"R N A Club Clee","lat":53.55802,"lon":-0.02532,"postcode":"DN35 8LQ","la":"North East Lincolnshire","era":"other","nn":0,"risk":25,"cat":"green"},{"name":"Racks Pool and Sports Bar","lat":53.56475,"lon":-0.08724,"postcode":"DN31 1JE","la":"North East Lincolnshire","era":"other","nn":52,"risk":26,"cat":"green"},{"name":"Ray Edmonds Snooker Club","lat":53.57297,"lon":-0.07355,"postcode":"DN32 7AG","la":"North East Lincolnshire","era":"other","nn":80,"risk":26,"cat":"green"},{"name":"Rift","lat":53.56054,"lon":-0.03177,"postcode":"DN35 8JN","la":"North East Lincolnshire","era":"other","nn":0,"risk":25,"cat":"green"},{"name":"Rose And Crown","lat":53.536,"lon":-0.0894,"postcode":"DN33 2HR","la":"North East Lincolnshire","era":"trad","nn":334,"risk":45,"cat":"amber"},{"name":"Royal British Legion (Laceby and District)","lat":53.54368,"lon":-0.16782,"postcode":"DN37 7BJ","la":"North East Lincolnshire","era":"trad","nn":2992,"risk":69,"cat":"red"},{"name":"Rutland Arms","lat":53.57275,"lon":-0.05843,"postcode":"DN31 3AF","la":"North East Lincolnshire","era":"trad","nn":131,"risk":26,"cat":"green"},{"name":"Scartho Bowling Club","lat":53.53805,"lon":-0.09311,"postcode":"DN33 2ND","la":"North East Lincolnshire","era":"other","nn":199,"risk":44,"cat":"amber"},{"name":"Schooners","lat":53.56067,"lon":-0.02883,"postcode":"DN35 8LG","la":"North East Lincolnshire","era":"other","nn":138,"risk":26,"cat":"green"},{"name":"Seven Seas Pub Ltd","lat":53.52822,"lon":-0.1004,"postcode":"DN33 3EL","la":"North East Lincolnshire","era":"other","nn":996,"risk":52,"cat":"amber"},{"name":"Shalom Youth Centre","lat":53.56636,"lon":-0.06224,"postcode":"DN32 7LT","la":"North East Lincolnshire","era":"other","nn":520,"risk":29,"cat":"green"},{"name":"Society Cafe Bar","lat":53.56054,"lon":-0.03177,"postcode":"DN35 8JN","la":"North East Lincolnshire","era":"mod","nn":0,"risk":25,"cat":"green"},{"name":"Spiders Web","lat":53.55758,"lon":-0.05278,"postcode":"DN32 8LN","la":"North East Lincolnshire","era":"other","nn":158,"risk":27,"cat":"green"},{"name":"St James Tennis Club","lat":53.55326,"lon":-0.0978,"postcode":"DN34 5BL","la":"North East Lincolnshire","era":"other","nn":736,"risk":51,"cat":"amber"},{"name":"Sunnyside Social Club","lat":53.56159,"lon":-0.03075,"postcode":"DN35 8AT","la":"North East Lincolnshire","era":"mod","nn":0,"risk":25,"cat":"green"},{"name":"Swashbuckle / Barracuda","lat":53.56159,"lon":-0.03075,"postcode":"DN35 8AT","la":"North East Lincolnshire","era":"other","nn":0,"risk":25,"cat":"green"},{"name":"The Bank and Vault","lat":53.56382,"lon":-0.08801,"postcode":"DN31 1JN","la":"North East Lincolnshire","era":"other","nn":49,"risk":26,"cat":"green"},{"name":"The Barge Inn","lat":53.56792,"lon":-0.08171,"postcode":"DN31 1NH","la":"North East Lincolnshire","era":"trad","nn":178,"risk":27,"cat":"green"},{"name":"The Barn","lat":53.53316,"lon":0.00362,"postcode":"DN35 0PW","la":"North East Lincolnshire","era":"other","nn":405,"risk":46,"cat":"amber"},{"name":"The Bobbin","lat":53.56087,"lon":-0.0309,"postcode":"DN35 8JN","la":"North East Lincolnshire","era":"other","nn":41,"risk":26,"cat":"green"},{"name":"The Coach House","lat":53.5339,"lon":-0.0218,"postcode":"DN36 4UJ","la":"North East Lincolnshire","era":"trad","nn":112,"risk":46,"cat":"amber"},{"name":"The Counting House","lat":53.55748,"lon":-0.02534,"postcode":"DN35 8EU","la":"North East Lincolnshire","era":"other","nn":28,"risk":26,"cat":"green"},{"name":"The Countryman","lat":53.53479,"lon":-0.02102,"postcode":"DN36 4UN","la":"North East Lincolnshire","era":"other","nn":112,"risk":31,"cat":"amber"},{"name":"The County Hotel","lat":53.56255,"lon":-0.08897,"postcode":"DN32 0QX","la":"North East Lincolnshire","era":"other","nn":0,"risk":25,"cat":"green"},{"name":"The Empire","lat":53.56176,"lon":-0.06091,"postcode":"DN32 8HL","la":"North East Lincolnshire","era":"other","nn":396,"risk":28,"cat":"green"},{"name":"The Farmhouse","lat":53.52299,"lon":-0.06888,"postcode":"DN36 4PF","la":"North East Lincolnshire","era":"other","nn":1938,"risk":61,"cat":"red"},{"name":"The Foundry","lat":53.56159,"lon":-0.03075,"postcode":"DN35 8AT","la":"North East Lincolnshire","era":"mod","nn":0,"risk":25,"cat":"green"},{"name":"The Friary","lat":53.57434,"lon":-0.07996,"postcode":"DN31 1PQ","la":"North East Lincolnshire","era":"other","nn":140,"risk":26,"cat":"green"},{"name":"The Green Man","lat":53.5881,"lon":-0.1816,"postcode":"DN41 8AP","la":"North East Lincolnshire","era":"other","nn":1484,"risk":58,"cat":"amber"},{"name":"The Market Tavern","lat":53.56007,"lon":-0.03084,"postcode":"DN35 8LY","la":"North East Lincolnshire","era":"other","nn":0,"risk":25,"cat":"green"},{"name":"The Matrix Rock Club","lat":53.56403,"lon":-0.08736,"postcode":"DN31 1JN","la":"North East Lincolnshire","era":"other","nn":28,"risk":26,"cat":"green"},{"name":"The Mayflower","lat":53.61247,"lon":-0.21479,"postcode":"DN40 1JY","la":"North East Lincolnshire","era":"other","nn":243,"risk":32,"cat":"amber"},{"name":"The Nottingham House","lat":53.55763,"lon":-0.025,"postcode":"DN35 8EU","la":"North East Lincolnshire","era":"other","nn":28,"risk":26,"cat":"green"},{"name":"The Old Exchange","lat":53.57414,"lon":-0.06602,"postcode":"DN31 3HW","la":"North East Lincolnshire","era":"other","nn":274,"risk":27,"cat":"green"},{"name":"The Olde Farmhouse Inn","lat":53.58937,"lon":-0.20711,"postcode":"DN41 8BL","la":"North East Lincolnshire","era":"other","nn":1690,"risk":60,"cat":"amber"},{"name":"The Parity","lat":53.5645,"lon":-0.08839,"postcode":"DN31 1EW","la":"North East Lincolnshire","era":"other","nn":33,"risk":26,"cat":"green"},{"name":"The Punchbowl & Lacey's","lat":53.56398,"lon":-0.03082,"postcode":"DN35 8SJ","la":"North East Lincolnshire","era":"other","nn":235,"risk":27,"cat":"green"},{"name":"The Scratching Post","lat":53.56056,"lon":-0.03191,"postcode":"DN35 8JN","la":"North East Lincolnshire","era":"other","nn":9,"risk":25,"cat":"green"},{"name":"The Side-by-Side","lat":53.55865,"lon":-0.02665,"postcode":"DN35 8LG","la":"North East Lincolnshire","era":"other","nn":112,"risk":26,"cat":"green"},{"name":"The Signal Box Inn","lat":53.55093,"lon":-0.01702,"postcode":"DN35 0AG","la":"North East Lincolnshire","era":"trad","nn":412,"risk":28,"cat":"green"},{"name":"The Smugglers","lat":53.55684,"lon":-0.02364,"postcode":"DN35 8RQ","la":"North East Lincolnshire","era":"other","nn":117,"risk":26,"cat":"green"},{"name":"The Station Inn (Habrough) Ltd","lat":53.60689,"lon":-0.26805,"postcode":"DN40 3AP","la":"North East Lincolnshire","era":"trad","nn":638,"risk":50,"cat":"amber"},{"name":"The Studio","lat":53.56007,"lon":-0.03084,"postcode":"DN35 8LY","la":"North East Lincolnshire","era":"mod","nn":0,"risk":25,"cat":"green"},{"name":"The Trawl","lat":53.56241,"lon":-0.11718,"postcode":"DN34 4ES","la":"North East Lincolnshire","era":"other","nn":494,"risk":46,"cat":"amber"},{"name":"The Valiant","lat":53.56937,"lon":-0.12864,"postcode":"DN37 9DP","la":"North East Lincolnshire","era":"other","nn":785,"risk":51,"cat":"amber"},{"name":"The Winepipe","lat":53.57029,"lon":-0.074,"postcode":"DN32 7AT","la":"North East Lincolnshire","era":"other","nn":69,"risk":26,"cat":"green"},{"name":"Tipsy Terrace","lat":53.56084,"lon":-0.03151,"postcode":"DN35 8JN","la":"North East Lincolnshire","era":"other","nn":38,"risk":26,"cat":"green"},{"name":"Tivoli Tavern","lat":53.56441,"lon":-0.08791,"postcode":"DN31 1DT","la":"North East Lincolnshire","era":"other","nn":33,"risk":26,"cat":"green"},{"name":"Trawlerman","lat":53.53717,"lon":-0.00743,"postcode":"DN35 0PP","la":"North East Lincolnshire","era":"other","nn":250,"risk":32,"cat":"amber"},{"name":"Vittles & Co","lat":53.56255,"lon":-0.08897,"postcode":"DN32 0QX","la":"North East Lincolnshire","era":"other","nn":0,"risk":25,"cat":"green"},{"name":"Walters Bar","lat":53.56477,"lon":-0.08814,"postcode":"DN31 1EW","la":"North East Lincolnshire","era":"other","nn":34,"risk":26,"cat":"green"},{"name":"Waltham Tea Garden Limited","lat":53.51502,"lon":-0.096,"postcode":"DN37 0EU","la":"North East Lincolnshire","era":"other","nn":434,"risk":48,"cat":"amber"},{"name":"Westlands Club","lat":53.55398,"lon":-0.06942,"postcode":"DN32 9RF","la":"North East Lincolnshire","era":"other","nn":734,"risk":51,"cat":"amber"},{"name":"Yarborough Hotel","lat":53.56428,"lon":-0.08725,"postcode":"DN31 1JN","la":"North East Lincolnshire","era":"other","nn":28,"risk":26,"cat":"green"},{"name":"Yardbirds Rockclub Ltd","lat":53.57353,"lon":-0.07431,"postcode":"DN32 7DD","la":"North East Lincolnshire","era":"mod","nn":80,"risk":26,"cat":"green"},{"name":"Alkborough Coronation Club","lat":53.6843,"lon":-0.66777,"postcode":"DN15 9JN","la":"North Lincolnshire","era":"other","nn":2733,"risk":67,"cat":"red"},{"name":"Appleby Frodingham Works Athletic Club","lat":53.57831,"lon":-0.6443,"postcode":"DN16 1NU","la":"North Lincolnshire","era":"mod","nn":629,"risk":30,"cat":"green"},{"name":"Ashby Lodge","lat":53.56631,"lon":-0.61326,"postcode":"DN16 3RL","la":"North Lincolnshire","era":"other","nn":286,"risk":47,"cat":"amber"},{"name":"Ashby Mill Road Club","lat":53.56725,"lon":-0.64897,"postcode":"DN16 2SH","la":"North Lincolnshire","era":"trad","nn":99,"risk":26,"cat":"green"},{"name":"Ashdown Social Club","lat":53.59617,"lon":-0.66447,"postcode":"DN15 8HB","la":"North Lincolnshire","era":"mod","nn":338,"risk":28,"cat":"green"},{"name":"Barrow Sports & Fitness","lat":53.67867,"lon":-0.37944,"postcode":"DN19 7AW","la":"North Lincolnshire","era":"other","nn":423,"risk":48,"cat":"amber"},{"name":"Barton Corn Exchange Club","lat":53.68304,"lon":-0.43878,"postcode":"DN18 5DA","la":"North Lincolnshire","era":"other","nn":65,"risk":26,"cat":"green"},{"name":"Barton Town Football Club","lat":53.68915,"lon":-0.4361,"postcode":"DN18 5JD","la":"North Lincolnshire","era":"other","nn":535,"risk":29,"cat":"green"},{"name":"Bay Horse Inn","lat":53.68891,"lon":-0.59573,"postcode":"DN15 9NS","la":"North Lincolnshire","era":"trad","nn":2418,"risk":65,"cat":"red"},{"name":"Beacon Hotel","lat":53.56643,"lon":-0.66268,"postcode":"DN17 2DE","la":"North Lincolnshire","era":"other","nn":614,"risk":32,"cat":"amber"},{"name":"Bird in the Barley","lat":53.53958,"lon":-0.65429,"postcode":"DN17 3SQ","la":"North Lincolnshire","era":"other","nn":1065,"risk":55,"cat":"amber"},{"name":"Black Beauty","lat":53.55696,"lon":-0.6593,"postcode":"DN17 2QU","la":"North Lincolnshire","era":"other","nn":515,"risk":46,"cat":"amber"},{"name":"Black Bull","lat":53.5522,"lon":-0.49171,"postcode":"DN20 8JH","la":"North Lincolnshire","era":"trad","nn":51,"risk":26,"cat":"green"},{"name":"Black Bull Inn","lat":53.65971,"lon":-0.27712,"postcode":"DN40 3NL","la":"North Lincolnshire","era":"trad","nn":4687,"risk":81,"cat":"red"},{"name":"Boston Brothers","lat":53.59111,"lon":-0.65477,"postcode":"DN15 7RB","la":"North Lincolnshire","era":"other","nn":55,"risk":26,"cat":"green"},{"name":"Bottesford Town Football Club & Snack Shack","lat":53.55607,"lon":-0.6727,"postcode":"DN17 2TQ","la":"North Lincolnshire","era":"other","nn":891,"risk":51,"cat":"amber"},{"name":"Brigg Ex Servicemans Club","lat":53.55256,"lon":-0.49252,"postcode":"DN20 8EX","la":"North Lincolnshire","era":"other","nn":40,"risk":25,"cat":"green"},{"name":"Britannia Inn","lat":53.55212,"lon":-0.48771,"postcode":"DN20 8BS","la":"North Lincolnshire","era":"trad","nn":158,"risk":26,"cat":"green"},{"name":"Broughton Working Mens Club","lat":53.56734,"lon":-0.54568,"postcode":"DN20 0JA","la":"North Lincolnshire","era":"trad","nn":0,"risk":45,"cat":"amber"},{"name":"Brumby Hall Events","lat":53.58249,"lon":-0.65737,"postcode":"DN16 1AA","la":"North Lincolnshire","era":"other","nn":437,"risk":28,"cat":"green"},{"name":"Butchers Arms","lat":53.67812,"lon":-0.62761,"postcode":"DN15 9AZ","la":"North Lincolnshire","era":"trad","nn":2418,"risk":65,"cat":"red"},{"name":"Butlers Club","lat":53.56792,"lon":-0.65372,"postcode":"DN16 2RS","la":"North Lincolnshire","era":"other","nn":241,"risk":27,"cat":"green"},{"name":"Cafe INDIEpendent","lat":53.59099,"lon":-0.65102,"postcode":"DN15 6LN","la":"North Lincolnshire","era":"other","nn":63,"risk":26,"cat":"green"},{"name":"Charlies Bar","lat":53.68803,"lon":-0.444,"postcode":"DN18 5QD","la":"North Lincolnshire","era":"other","nn":0,"risk":25,"cat":"green"},{"name":"Class 6 Bar","lat":53.591,"lon":-0.65571,"postcode":"DN15 7RB","la":"North Lincolnshire","era":"other","nn":43,"risk":26,"cat":"green"},{"name":"Cocked Hat","lat":53.59759,"lon":-0.66899,"postcode":"DN15 8LQ","la":"North Lincolnshire","era":"other","nn":244,"risk":27,"cat":"green"},{"name":"Cole Street Sports & Social Club","lat":53.58896,"lon":-0.64541,"postcode":"DN15 6QT","la":"North Lincolnshire","era":"mod","nn":356,"risk":28,"cat":"green"},{"name":"Comet Hotel","lat":53.57695,"lon":-0.6338,"postcode":"DN16 1HL","la":"North Lincolnshire","era":"other","nn":709,"risk":50,"cat":"amber"},{"name":"Cross Keys Inn","lat":53.52303,"lon":-0.92595,"postcode":"DN9 2BT","la":"North Lincolnshire","era":"trad","nn":5101,"risk":83,"cat":"red"},{"name":"Crowle Liberal Sports and Social Club","lat":53.60788,"lon":-0.83224,"postcode":"DN17 4HL","la":"North Lincolnshire","era":"mod","nn":165,"risk":44,"cat":"amber"},{"name":"Crown Hotel","lat":53.56693,"lon":-0.64667,"postcode":"DN16 2JP","la":"North Lincolnshire","era":"trad","nn":156,"risk":26,"cat":"green"},{"name":"Crown Inn","lat":53.54697,"lon":-0.8203,"postcode":"DN9 1PA","la":"North Lincolnshire","era":"trad","nn":1629,"risk":59,"cat":"amber"},{"name":"Dog & Gun","lat":53.54122,"lon":-0.73795,"postcode":"DN17 3AJ","la":"North Lincolnshire","era":"other","nn":588,"risk":49,"cat":"amber"},{"name":"Duke William","lat":53.49018,"lon":-0.84671,"postcode":"DN9 2HY","la":"North Lincolnshire","era":"trad","nn":63,"risk":46,"cat":"amber"},{"name":"Dying Gladiator","lat":53.55158,"lon":-0.49082,"postcode":"DN20 8EF","la":"North Lincolnshire","era":"other","nn":57,"risk":26,"cat":"green"},{"name":"Epworth Leisure Centre","lat":53.51966,"lon":-0.82418,"postcode":"DN9 1BZ","la":"North Lincolnshire","era":"other","nn":560,"risk":32,"cat":"amber"},{"name":"Epworth Tap","lat":53.52525,"lon":-0.81994,"postcode":"DN9 1EU","la":"North Lincolnshire","era":"mod","nn":51,"risk":26,"cat":"green"},{"name":"Fedora's Club","lat":53.59861,"lon":-0.65729,"postcode":"DN15 8QG","la":"North Lincolnshire","era":"other","nn":361,"risk":28,"cat":"green"},{"name":"Ferry House Inn","lat":53.65377,"lon":-0.69089,"postcode":"DN15 9DJ","la":"North Lincolnshire","era":"other","nn":629,"risk":47,"cat":"amber"},{"name":"Foxhills Institute","lat":53.59976,"lon":-0.66843,"postcode":"DN15 8LH","la":"North Lincolnshire","era":"trad","nn":244,"risk":27,"cat":"green"},{"name":"Frodingham Road Club","lat":53.59563,"lon":-0.65512,"postcode":"DN15 7NN","la":"North Lincolnshire","era":"other","nn":253,"risk":27,"cat":"green"},{"name":"Gatsbys Bar & Grill","lat":53.68338,"lon":-0.44114,"postcode":"DN18 5PS","la":"North Lincolnshire","era":"mod","nn":0,"risk":25,"cat":"green"},{"name":"George Hogg","lat":53.65474,"lon":-0.59757,"postcode":"DN15 9PT","la":"North Lincolnshire","era":"trad","nn":86,"risk":31,"cat":"amber"},{"name":"Glanford Boat Club","lat":53.5527,"lon":-0.50091,"postcode":"DN20 8PD","la":"North Lincolnshire","era":"other","nn":396,"risk":28,"cat":"green"},{"name":"Glenny's Bar","lat":53.58439,"lon":-0.64274,"postcode":"DN16 1UB","la":"North Lincolnshire","era":"other","nn":104,"risk":26,"cat":"green"},{"name":"Harry's Bar","lat":53.56678,"lon":-0.63346,"postcode":"DN16 2NN","la":"North Lincolnshire","era":"other","nn":202,"risk":32,"cat":"amber"},{"name":"Henry\u2019s Sports Bar","lat":53.55179,"lon":-0.49003,"postcode":"DN20 8EJ","la":"North Lincolnshire","era":"other","nn":57,"risk":26,"cat":"green"},{"name":"Heslam Park Club","lat":53.5768,"lon":-0.65364,"postcode":"DN16 2AG","la":"North Lincolnshire","era":"other","nn":92,"risk":26,"cat":"green"},{"name":"Hibaldstow War Memorial Club","lat":53.50989,"lon":-0.53117,"postcode":"DN20 9NY","la":"North Lincolnshire","era":"other","nn":3003,"risk":69,"cat":"red"},{"name":"Highfield House","lat":53.58953,"lon":-0.65071,"postcode":"DN15 6NU","la":"North Lincolnshire","era":"other","nn":164,"risk":26,"cat":"green"},{"name":"Honest Lawyer","lat":53.58819,"lon":-0.65336,"postcode":"DN15 7PG","la":"North Lincolnshire","era":"other","nn":231,"risk":27,"cat":"green"},{"name":"Ingleby Arms","lat":53.6176,"lon":-0.70505,"postcode":"DN17 4AJ","la":"North Lincolnshire","era":"trad","nn":2643,"risk":66,"cat":"red"},{"name":"Ironstone Wharf Inn","lat":53.58742,"lon":-0.72927,"postcode":"DN15 8SX","la":"North Lincolnshire","era":"trad","nn":201,"risk":44,"cat":"amber"},{"name":"Jolly Miller / Millers Barn","lat":53.56359,"lon":-0.46506,"postcode":"DN20 8RH","la":"North Lincolnshire","era":"trad","nn":1966,"risk":61,"cat":"red"},{"name":"Jolly Sailor","lat":53.58913,"lon":-0.7283,"postcode":"DN15 8SU","la":"North Lincolnshire","era":"other","nn":201,"risk":44,"cat":"amber"},{"name":"Keadby & Althorpe WMC","lat":53.58899,"lon":-0.73761,"postcode":"DN17 3BN","la":"North Lincolnshire","era":"other","nn":577,"risk":47,"cat":"amber"},{"name":"Lolas","lat":53.59061,"lon":-0.65572,"postcode":"DN15 7RA","la":"North Lincolnshire","era":"other","nn":43,"risk":26,"cat":"green"},{"name":"Marrowbone & Cleaver","lat":53.58767,"lon":-0.33489,"postcode":"DN39 6YZ","la":"North Lincolnshire","era":"other","nn":3266,"risk":71,"cat":"red"},{"name":"Marshland Alpacas Campsite","lat":53.70006,"lon":-0.35458,"postcode":"DN19 7EL","la":"North Lincolnshire","era":"other","nn":2887,"risk":68,"cat":"red"},{"name":"Mary Rose","lat":53.59166,"lon":-0.65399,"postcode":"DN15 7JN","la":"North Lincolnshire","era":"other","nn":43,"risk":26,"cat":"green"},{"name":"Masonic Hall","lat":53.59496,"lon":-0.64948,"postcode":"DN15 6AJ","la":"North Lincolnshire","era":"trad","nn":122,"risk":26,"cat":"green"},{"name":"Mulligans","lat":53.59395,"lon":-0.64875,"postcode":"DN15 6AD","la":"North Lincolnshire","era":"other","nn":122,"risk":26,"cat":"green"},{"name":"Nelthorpe Arms","lat":53.67507,"lon":-0.50792,"postcode":"DN18 6HW","la":"North Lincolnshire","era":"trad","nn":4373,"risk":78,"cat":"red"},{"name":"Old School Inn","lat":53.52825,"lon":-0.83095,"postcode":"DN9 1JT","la":"North Lincolnshire","era":"trad","nn":517,"risk":31,"cat":"amber"},{"name":"Orgullo Wine & Tapas Bar","lat":53.60618,"lon":-0.83292,"postcode":"DN17 4LB","la":"North Lincolnshire","era":"mod","nn":30,"risk":43,"cat":"amber"},{"name":"Penny Bank","lat":53.59137,"lon":-0.65174,"postcode":"DN15 6EN","la":"North Lincolnshire","era":"other","nn":63,"risk":26,"cat":"green"},{"name":"Pig & Whistle","lat":53.59634,"lon":-0.64221,"postcode":"DN15 0DH","la":"North Lincolnshire","era":"other","nn":504,"risk":29,"cat":"green"},{"name":"Pooley's","lat":53.52797,"lon":-0.65393,"postcode":"DN17 3NT","la":"North Lincolnshire","era":"other","nn":140,"risk":44,"cat":"amber"},{"name":"Priory Hotel","lat":53.57091,"lon":-0.65536,"postcode":"DN16 2AB","la":"North Lincolnshire","era":"other","nn":349,"risk":28,"cat":"green"},{"name":"Queen Bess","lat":53.5656,"lon":-0.63115,"postcode":"DN16 2PE","la":"North Lincolnshire","era":"trad","nn":202,"risk":44,"cat":"amber"},{"name":"Queens Head","lat":53.52408,"lon":-0.82011,"postcode":"DN9 1HG","la":"North Lincolnshire","era":"trad","nn":99,"risk":26,"cat":"green"},{"name":"Rangers Cafe Bar and Function Room","lat":53.65657,"lon":-0.59808,"postcode":"DN15 9QF","la":"North Lincolnshire","era":"mod","nn":176,"risk":31,"cat":"amber"},{"name":"RAOB Club","lat":53.56343,"lon":-0.64636,"postcode":"DN16 3HF","la":"North Lincolnshire","era":"other","nn":390,"risk":28,"cat":"green"},{"name":"Red Lion","lat":53.52488,"lon":-0.81949,"postcode":"DN9 1EU","la":"North Lincolnshire","era":"trad","nn":51,"risk":26,"cat":"green"},{"name":"Reindeer Inn","lat":53.56471,"lon":-0.88132,"postcode":"DN8 5SZ","la":"North Lincolnshire","era":"trad","nn":3061,"risk":69,"cat":"red"},{"name":"Retro","lat":53.59078,"lon":-0.65321,"postcode":"DN15 6LQ","la":"North Lincolnshire","era":"other","nn":47,"risk":26,"cat":"green"},{"name":"River Don Tavern & Lodge","lat":53.63533,"lon":-0.78641,"postcode":"DN17 4PQ","la":"North Lincolnshire","era":"other","nn":4295,"risk":78,"cat":"red"},{"name":"Robert Holme Hall","lat":53.58599,"lon":-0.65434,"postcode":"DN15 7AA","la":"North Lincolnshire","era":"other","nn":253,"risk":27,"cat":"green"},{"name":"Royal Oak / Kays Kitchen","lat":53.67495,"lon":-0.38078,"postcode":"DN19 7DB","la":"North Lincolnshire","era":"other","nn":423,"risk":48,"cat":"amber"},{"name":"Schnapps Bar","lat":53.5916,"lon":-0.65465,"postcode":"DN15 7JU","la":"North Lincolnshire","era":"other","nn":43,"risk":26,"cat":"green"},{"name":"Scunthorpe Polish Social Centre","lat":53.5934,"lon":-0.65442,"postcode":"DN15 7JP","la":"North Lincolnshire","era":"mod","nn":196,"risk":27,"cat":"green"},{"name":"Sheffield Arms","lat":53.64968,"lon":-0.68428,"postcode":"DN15 9BP","la":"North Lincolnshire","era":"trad","nn":141,"risk":44,"cat":"amber"},{"name":"Showmans Sports Bar","lat":53.59058,"lon":-0.65673,"postcode":"DN15 7RD","la":"North Lincolnshire","era":"other","nn":67,"risk":26,"cat":"green"},{"name":"St Matthew Benevolent Fund","lat":53.6354,"lon":-0.44697,"postcode":"DN18 6EJ","la":"North Lincolnshire","era":"other","nn":5226,"risk":83,"cat":"red"},{"name":"Sutton Arms","lat":53.53661,"lon":-0.54127,"postcode":"DN20 9AN","la":"North Lincolnshire","era":"trad","nn":3045,"risk":69,"cat":"red"},{"name":"Take A Gander","lat":53.57585,"lon":-0.73633,"postcode":"DN17 3NA","la":"North Lincolnshire","era":"other","nn":1368,"risk":57,"cat":"amber"},{"name":"Talbot Inn","lat":53.58396,"lon":-0.64414,"postcode":"DN16 1EE","la":"North Lincolnshire","era":"trad","nn":104,"risk":26,"cat":"green"},{"name":"Tavern","lat":53.59116,"lon":-0.64975,"postcode":"DN15 6LP","la":"North Lincolnshire","era":"other","nn":86,"risk":26,"cat":"green"},{"name":"Thatch Inn","lat":53.56734,"lon":-0.54568,"postcode":"DN20 0JA","la":"North Lincolnshire","era":"trad","nn":0,"risk":45,"cat":"amber"},{"name":"The Anchor","lat":53.5648,"lon":-0.61677,"postcode":"DN16 3UA","la":"North Lincolnshire","era":"trad","nn":286,"risk":45,"cat":"amber"},{"name":"The Beckwood","lat":53.55432,"lon":-0.64069,"postcode":"DN16 3PZ","la":"North Lincolnshire","era":"other","nn":864,"risk":51,"cat":"amber"},{"name":"The Black Door at Britannia House","lat":53.59117,"lon":-0.6535,"postcode":"DN15 6EA","la":"North Lincolnshire","era":"trad","nn":47,"risk":26,"cat":"green"},{"name":"The Blue Bell Inn","lat":53.59035,"lon":-0.65461,"postcode":"DN15 7PU","la":"North Lincolnshire","era":"trad","nn":0,"risk":25,"cat":"green"},{"name":"The Butchers Arms","lat":53.65516,"lon":-0.59971,"postcode":"DN15 9PU","la":"North Lincolnshire","era":"trad","nn":148,"risk":31,"cat":"amber"},{"name":"The Chancel","lat":53.55835,"lon":-0.65187,"postcode":"DN16 3LG","la":"North Lincolnshire","era":"other","nn":515,"risk":31,"cat":"amber"},{"name":"The Crown","lat":53.53,"lon":-0.65458,"postcode":"DN17 3RS","la":"North Lincolnshire","era":"trad","nn":97,"risk":43,"cat":"amber"},{"name":"The Fox Inn","lat":53.61671,"lon":-0.32749,"postcode":"DN39 6SY","la":"North Lincolnshire","era":"trad","nn":1973,"risk":62,"cat":"red"},{"name":"The Green Tree","lat":53.52923,"lon":-0.6539,"postcode":"DN17 3RX","la":"North Lincolnshire","era":"other","nn":97,"risk":43,"cat":"amber"},{"name":"The Hop Inn","lat":53.5522,"lon":-0.49248,"postcode":"DN20 8ES","la":"North Lincolnshire","era":"trad","nn":40,"risk":25,"cat":"green"},{"name":"The Light","lat":53.59035,"lon":-0.65461,"postcode":"DN15 7PU","la":"North Lincolnshire","era":"other","nn":0,"risk":25,"cat":"green"},{"name":"The Loco Just Pizza & B&B","lat":53.49005,"lon":-0.84578,"postcode":"DN9 2HY","la":"North Lincolnshire","era":"other","nn":63,"risk":46,"cat":"amber"},{"name":"The Nags Head","lat":53.63048,"lon":-0.35197,"postcode":"DN39 6SJ","la":"North Lincolnshire","era":"trad","nn":1730,"risk":60,"cat":"amber"},{"name":"The Old Farmhouse","lat":53.59088,"lon":-0.56885,"postcode":"DN15 8TE","la":"North Lincolnshire","era":"other","nn":3032,"risk":69,"cat":"red"},{"name":"The Old Mill","lat":53.68249,"lon":-0.43848,"postcode":"DN18 5DE","la":"North Lincolnshire","era":"trad","nn":63,"risk":26,"cat":"green"},{"name":"The Paint Shop","lat":53.56701,"lon":-0.65042,"postcode":"DN16 2SD","la":"North Lincolnshire","era":"other","nn":99,"risk":26,"cat":"green"},{"name":"The Queensway","lat":53.57749,"lon":-0.65441,"postcode":"DN16 2AG","la":"North Lincolnshire","era":"trad","nn":92,"risk":26,"cat":"green"},{"name":"The Red Lion","lat":53.68533,"lon":-0.44215,"postcode":"DN18 5PG","la":"North Lincolnshire","era":"trad","nn":107,"risk":26,"cat":"green"},{"name":"The Shires","lat":53.50032,"lon":-0.57362,"postcode":"DN21 4JL","la":"North Lincolnshire","era":"other","nn":3003,"risk":69,"cat":"red"},{"name":"The Sloop Inn","lat":53.69295,"lon":-0.44385,"postcode":"DN18 5BA","la":"North Lincolnshire","era":"trad","nn":547,"risk":29,"cat":"green"},{"name":"The Wheatsheaf","lat":53.55811,"lon":-0.83633,"postcode":"DN9 1QB","la":"North Lincolnshire","era":"trad","nn":1629,"risk":59,"cat":"amber"},{"name":"The White Bear","lat":53.52631,"lon":-0.82383,"postcode":"DN9 1JL","la":"North Lincolnshire","era":"other","nn":283,"risk":27,"cat":"green"},{"name":"The White Swan","lat":53.68803,"lon":-0.444,"postcode":"DN18 5QD","la":"North Lincolnshire","era":"trad","nn":0,"risk":25,"cat":"green"},{"name":"The Yarborough Hunt","lat":53.55168,"lon":-0.49517,"postcode":"DN20 8NS","la":"North Lincolnshire","era":"other","nn":122,"risk":26,"cat":"green"},{"name":"Thornton Hunt Inn","lat":53.64581,"lon":-0.35641,"postcode":"DN39 6XW","la":"North Lincolnshire","era":"trad","nn":1730,"risk":60,"cat":"amber"},{"name":"Three Horse Shoes","lat":53.54624,"lon":-0.74077,"postcode":"DN17 3JR","la":"North Lincolnshire","era":"trad","nn":588,"risk":49,"cat":"amber"},{"name":"Victory Club","lat":53.68516,"lon":-0.44374,"postcode":"DN18 5PW","la":"North Lincolnshire","era":"other","nn":107,"risk":26,"cat":"green"},{"name":"Volunteer Arms","lat":53.68209,"lon":-0.4378,"postcode":"DN18 5DF","la":"North Lincolnshire","era":"trad","nn":63,"risk":26,"cat":"green"},{"name":"Warren Lodge","lat":53.59928,"lon":-0.67952,"postcode":"DN15 8LP","la":"North Lincolnshire","era":"other","nn":720,"risk":48,"cat":"amber"},{"name":"West End Club","lat":53.58998,"lon":-0.65569,"postcode":"DN15 7QA","la":"North Lincolnshire","era":"other","nn":70,"risk":26,"cat":"green"},{"name":"Westlands Club","lat":53.64844,"lon":-0.68465,"postcode":"DN15 9DG","la":"North Lincolnshire","era":"other","nn":141,"risk":44,"cat":"amber"},{"name":"Wheatsheaf","lat":53.68338,"lon":-0.44114,"postcode":"DN18 5PS","la":"North Lincolnshire","era":"trad","nn":0,"risk":25,"cat":"green"},{"name":"Whistle & Flute","lat":53.57544,"lon":-0.41023,"postcode":"DN38 6DG","la":"North Lincolnshire","era":"other","nn":3853,"risk":75,"cat":"red"},{"name":"White Hart","lat":53.49248,"lon":-0.77295,"postcode":"DN9 1RT","la":"North Lincolnshire","era":"trad","nn":4454,"risk":79,"cat":"red"},{"name":"White Hart","lat":53.60645,"lon":-0.8329,"postcode":"DN17 4LB","la":"North Lincolnshire","era":"trad","nn":30,"risk":43,"cat":"amber"},{"name":"Winterton Jubilee  Club","lat":53.65525,"lon":-0.59659,"postcode":"DN15 9TU","la":"North Lincolnshire","era":"other","nn":86,"risk":31,"cat":"amber"},{"name":"Woolpack","lat":53.55223,"lon":-0.49357,"postcode":"DN20 8HA","la":"North Lincolnshire","era":"trad","nn":72,"risk":26,"cat":"green"},{"name":"Yarborough Arms","lat":53.6194,"lon":-0.29793,"postcode":"DN39 6TZ","la":"North Lincolnshire","era":"trad","nn":1973,"risk":62,"cat":"red"},{"name":"Little Black Dog Tap Room","lat":53.70791,"lon":-1.02041,"postcode":"DN14 9LU","la":"North Yorkshire","era":"mod","nn":1846,"risk":50,"cat":"amber"},{"name":"The Red Lion","lat":53.71905,"lon":-1.16727,"postcode":"DN14 0NX","la":"North Yorkshire","era":"trad","nn":4730,"risk":70,"cat":"red"},{"name":"Beast Burger Ltd","lat":53.57323,"lon":-0.24516,"postcode":"DN41 8EH","la":"West Lindsey","era":"other","nn":106,"risk":49,"cat":"amber"},{"name":"Black Horse Inn","lat":53.44487,"lon":-0.71187,"postcode":"DN21 3JX","la":"West Lindsey","era":"trad","nn":202,"risk":47,"cat":"amber"},{"name":"Blues club","lat":53.40196,"lon":-0.77551,"postcode":"DN21 2HU","la":"West Lindsey","era":"other","nn":137,"risk":29,"cat":"green"},{"name":"Elm Cottage","lat":53.40384,"lon":-0.77649,"postcode":"DN21 2JU","la":"West Lindsey","era":"trad","nn":220,"risk":30,"cat":"green"},{"name":"Ferry House Inn","lat":53.44215,"lon":-0.81294,"postcode":"DN21 3DJ","la":"West Lindsey","era":"other","nn":171,"risk":47,"cat":"amber"},{"name":"Gainsborough & District United Services Club","lat":53.39302,"lon":-0.77602,"postcode":"DN21 1LP","la":"West Lindsey","era":"other","nn":428,"risk":32,"cat":"amber"},{"name":"Gainsborough Sport & Social Club","lat":53.39625,"lon":-0.77253,"postcode":"DN21 2AL","la":"West Lindsey","era":"mod","nn":85,"risk":29,"cat":"green"},{"name":"Gainsborough Theatre Company","lat":53.4001,"lon":-0.77162,"postcode":"DN21 2AY","la":"West Lindsey","era":"other","nn":254,"risk":30,"cat":"green"},{"name":"Gainsborough Trinity Foundation","lat":53.40946,"lon":-0.78858,"postcode":"DN21 2TU","la":"West Lindsey","era":"other","nn":473,"risk":37,"cat":"amber"},{"name":"Gamekeeper Inn","lat":53.49837,"lon":-0.66776,"postcode":"DN21 3TW","la":"West Lindsey","era":"trad","nn":147,"risk":47,"cat":"amber"},{"name":"Half Moon Inn","lat":53.35124,"lon":-0.68577,"postcode":"DN21 5JZ","la":"West Lindsey","era":"trad","nn":565,"risk":52,"cat":"amber"},{"name":"Horse And Jockey Public House","lat":53.40073,"lon":-0.7753,"postcode":"DN21 2JH","la":"West Lindsey","era":"trad","nn":137,"risk":29,"cat":"green"},{"name":"Lincolnshire Otter","lat":53.39848,"lon":-0.74853,"postcode":"DN21 1QT","la":"West Lindsey","era":"other","nn":1541,"risk":62,"cat":"red"},{"name":"Masonic Hall","lat":53.40884,"lon":-0.78153,"postcode":"DN21 2RR","la":"West Lindsey","era":"trad","nn":148,"risk":30,"cat":"green"},{"name":"Melrose Sports and Social Club","lat":53.408,"lon":-0.77979,"postcode":"DN21 2SA","la":"West Lindsey","era":"other","nn":148,"risk":30,"cat":"green"},{"name":"Nags Head","lat":53.57418,"lon":-0.24518,"postcode":"DN41 8EF","la":"West Lindsey","era":"trad","nn":106,"risk":49,"cat":"amber"},{"name":"Sun & Anchor","lat":53.49744,"lon":-0.66619,"postcode":"DN21 3RX","la":"West Lindsey","era":"trad","nn":114,"risk":47,"cat":"amber"},{"name":"The Canute","lat":53.39886,"lon":-0.77686,"postcode":"DN21 2DP","la":"West Lindsey","era":"other","nn":42,"risk":29,"cat":"green"},{"name":"The Cross Keys Inn","lat":53.53027,"lon":-0.35797,"postcode":"DN38 6AQ","la":"West Lindsey","era":"trad","nn":4704,"risk":84,"cat":"red"},{"name":"The Eight Jolly Brewers","lat":53.3989,"lon":-0.77748,"postcode":"DN21 2DW","la":"West Lindsey","era":"other","nn":42,"risk":29,"cat":"green"},{"name":"The Fox & Hounds Country Inn","lat":53.35511,"lon":-0.69128,"postcode":"DN21 5JX","la":"West Lindsey","era":"trad","nn":565,"risk":52,"cat":"amber"},{"name":"The Ingram Arms","lat":53.46515,"lon":-0.72376,"postcode":"DN21 3PR","la":"West Lindsey","era":"trad","nn":2275,"risk":67,"cat":"red"},{"name":"The New Inn","lat":53.56236,"lon":-0.29114,"postcode":"DN37 8JL","la":"West Lindsey","era":"trad","nn":3268,"risk":74,"cat":"red"},{"name":"The Rose And Crown","lat":53.37004,"lon":-0.69678,"postcode":"DN21 5NQ","la":"West Lindsey","era":"trad","nn":1699,"risk":63,"cat":"red"},{"name":"The Royal Oak Inn","lat":53.44117,"lon":-0.52056,"postcode":"DN21 4TP","la":"West Lindsey","era":"trad","nn":5562,"risk":86,"cat":"red"},{"name":"The Ship Inn","lat":53.41425,"lon":-0.78504,"postcode":"DN21 3AE","la":"West Lindsey","era":"trad","nn":582,"risk":38,"cat":"amber"},{"name":"The Stags Head","lat":53.36185,"lon":-0.73622,"postcode":"DN21 5ET","la":"West Lindsey","era":"trad","nn":2771,"risk":70,"cat":"red"},{"name":"The Stirrup Inn","lat":53.42765,"lon":-0.6014,"postcode":"DN21 5RZ","la":"West Lindsey","era":"trad","nn":5562,"risk":86,"cat":"red"},{"name":"The White Swan","lat":53.49812,"lon":-0.66491,"postcode":"DN21 3UD","la":"West Lindsey","era":"trad","nn":114,"risk":47,"cat":"amber"},{"name":"Trinity Arts Centre","lat":53.39701,"lon":-0.77234,"postcode":"DN21 2AL","la":"West Lindsey","era":"other","nn":85,"risk":29,"cat":"green"},{"name":"Victoria Club","lat":53.44636,"lon":-0.71013,"postcode":"DN21 3LG","la":"West Lindsey","era":"trad","nn":202,"risk":47,"cat":"amber"},{"name":"White Hart Inn","lat":53.44379,"lon":-0.71708,"postcode":"DN21 3LA","la":"West Lindsey","era":"trad","nn":365,"risk":49,"cat":"amber"},{"name":"White Horse Inn","lat":53.39847,"lon":-0.77666,"postcode":"DN21 2DT","la":"West Lindsey","era":"trad","nn":45,"risk":29,"cat":"green"}]