[{"name":"19 Twenty Bar and Grill","lat":54.7761,"lon":-1.57418,"postcode":"DH1 3AA","la":"County Durham","era":"mod","nn":19,"risk":14,"cat":"green"},{"name":"Allison\u2019s Catering Service (Blackhill)","lat":54.8601,"lon":-1.84302,"postcode":"DH8 5TD","la":"County Durham","era":"other","nn":0,"risk":14,"cat":"green"},{"name":"Allison's Catering Services","lat":54.85338,"lon":-1.83272,"postcode":"DH8 5AS","la":"County Durham","era":"other","nn":0,"risk":14,"cat":"green"},{"name":"Annfield Plain Cricket Club","lat":54.8577,"lon":-1.74986,"postcode":"DH9 8PP","la":"County Durham","era":"other","nn":659,"risk":23,"cat":"green"},{"name":"Annfield Plain Democratic Club","lat":54.86554,"lon":-1.7379,"postcode":"DH9 8SY","la":"County Durham","era":"other","nn":42,"risk":14,"cat":"green"},{"name":"Babylon","lat":54.77662,"lon":-1.58008,"postcode":"DH1 4SH","la":"County Durham","era":"other","nn":37,"risk":14,"cat":"green"},{"name":"Bar 33","lat":54.77661,"lon":-1.58141,"postcode":"DH1 4EY","la":"County Durham","era":"mod","nn":75,"risk":14,"cat":"green"},{"name":"Bar Bianco","lat":54.85238,"lon":-1.57347,"postcode":"DH3 3AX","la":"County Durham","era":"mod","nn":29,"risk":14,"cat":"green"},{"name":"Bar One","lat":54.85098,"lon":-1.83242,"postcode":"DH8 5AQ","la":"County Durham","era":"mod","nn":35,"risk":14,"cat":"green"},{"name":"Beamish and East Stanley Sports Club","lat":54.87416,"lon":-1.6821,"postcode":"DH9 0XR","la":"County Durham","era":"other","nn":125,"risk":15,"cat":"green"},{"name":"Beamish Mary Inn","lat":54.87303,"lon":-1.66561,"postcode":"DH9 0QH","la":"County Durham","era":"trad","nn":854,"risk":37,"cat":"amber"},{"name":"Beamish Park Golf Club","lat":54.88289,"lon":-1.66574,"postcode":"DH9 0RH","la":"County Durham","era":"other","nn":460,"risk":22,"cat":"green"},{"name":"Bearpark Workmens Club and Institute","lat":54.78138,"lon":-1.6306,"postcode":"DH7 7AE","la":"County Durham","era":"other","nn":211,"risk":20,"cat":"green"},{"name":"Bede Lodge Social Club","lat":54.80063,"lon":-1.58071,"postcode":"DH1 5HL","la":"County Durham","era":"mod","nn":576,"risk":18,"cat":"green"},{"name":"Bellamys","lat":54.85434,"lon":-1.8351,"postcode":"DH8 5LQ","la":"County Durham","era":"other","nn":12,"risk":14,"cat":"green"},{"name":"Belmont Social Club and Institute Ltd","lat":54.79232,"lon":-1.52642,"postcode":"DH1 1AJ","la":"County Durham","era":"other","nn":570,"risk":35,"cat":"amber"},{"name":"Black Bull Inn","lat":54.82307,"lon":-1.74497,"postcode":"DH7 0HT","la":"County Durham","era":"trad","nn":135,"risk":20,"cat":"green"},{"name":"Black Horse","lat":54.85166,"lon":-1.83059,"postcode":"DH8 5AL","la":"County Durham","era":"trad","nn":41,"risk":14,"cat":"green"},{"name":"Black Horse Beamish","lat":54.89308,"lon":-1.67956,"postcode":"DH9 0RW","la":"County Durham","era":"trad","nn":706,"risk":39,"cat":"amber"},{"name":"Black Horse Inn","lat":54.76028,"lon":-1.72535,"postcode":"DH7 9AU","la":"County Durham","era":"trad","nn":325,"risk":34,"cat":"amber"},{"name":"Blackhill Comrades Club","lat":54.8571,"lon":-1.84831,"postcode":"DH8 8TT","la":"County Durham","era":"other","nn":299,"risk":16,"cat":"green"},{"name":"Blackhill Masonic Hall","lat":54.8601,"lon":-1.84302,"postcode":"DH8 5TD","la":"County Durham","era":"trad","nn":0,"risk":14,"cat":"green"},{"name":"Blacksmiths Arms","lat":54.79782,"lon":-1.49692,"postcode":"DH6 1BJ","la":"County Durham","era":"trad","nn":1780,"risk":49,"cat":"amber"},{"name":"Blue Bell Pub and Restaurant","lat":54.8822,"lon":-1.68791,"postcode":"DH9 0LR","la":"County Durham","era":"other","nn":215,"risk":15,"cat":"green"},{"name":"Blue Eye Bar & Cafe","lat":54.77619,"lon":-1.57478,"postcode":"DH1 3AA","la":"County Durham","era":"mod","nn":17,"risk":14,"cat":"green"},{"name":"Bowburn Sports & Social Club","lat":54.73305,"lon":-1.52399,"postcode":"DH6 5AU","la":"County Durham","era":"mod","nn":2198,"risk":52,"cat":"amber"},{"name":"Brancepeth Castle Golf Club","lat":54.73483,"lon":-1.64919,"postcode":"DH7 8EA","la":"County Durham","era":"other","nn":1239,"risk":45,"cat":"amber"},{"name":"Brandon Cricket Club","lat":54.75573,"lon":-1.6216,"postcode":"DH7 8PG","la":"County Durham","era":"other","nn":676,"risk":23,"cat":"green"},{"name":"Burnhope Cricket Club","lat":54.83202,"lon":-1.70161,"postcode":"DH7 0DP","la":"County Durham","era":"other","nn":2248,"risk":52,"cat":"amber"},{"name":"Butchers Arms","lat":54.85588,"lon":-1.57333,"postcode":"DH3 3QD","la":"County Durham","era":"trad","nn":60,"risk":14,"cat":"green"},{"name":"Caddy Shack Golf","lat":54.78984,"lon":-1.53432,"postcode":"DH1 1TH","la":"County Durham","era":"other","nn":576,"risk":35,"cat":"amber"},{"name":"Castleside & District Workingmens Club","lat":54.83296,"lon":-1.87896,"postcode":"DH8 9QT","la":"County Durham","era":"trad","nn":244,"risk":33,"cat":"amber"},{"name":"Cestrian Club","lat":54.857,"lon":-1.57371,"postcode":"DH3 3BD","la":"County Durham","era":"other","nn":107,"risk":15,"cat":"green"},{"name":"Chaplains","lat":54.85127,"lon":-1.83261,"postcode":"DH8 5AB","la":"County Durham","era":"other","nn":0,"risk":14,"cat":"green"},{"name":"Chester-le-Street Cricket Club","lat":54.85242,"lon":-1.57218,"postcode":"DH3 3PF","la":"County Durham","era":"other","nn":83,"risk":14,"cat":"green"},{"name":"Chesters","lat":54.85265,"lon":-1.5735,"postcode":"DH3 3AX","la":"County Durham","era":"other","nn":0,"risk":14,"cat":"green"},{"name":"Coach and Horses","lat":54.85809,"lon":-1.7396,"postcode":"DH9 8HU","la":"County Durham","era":"trad","nn":127,"risk":15,"cat":"green"},{"name":"Cocken Lodge Driving Range Golf Course","lat":54.81834,"lon":-1.53141,"postcode":"DH4 6QP","la":"County Durham","era":"other","nn":887,"risk":40,"cat":"amber"},{"name":"Colpitts Hotel","lat":54.77572,"lon":-1.58547,"postcode":"DH1 4EG","la":"County Durham","era":"other","nn":215,"risk":15,"cat":"green"},{"name":"Consett & District Golf Club Ltd","lat":54.86277,"lon":-1.83393,"postcode":"DH8 5NN","la":"County Durham","era":"other","nn":203,"risk":15,"cat":"green"},{"name":"Consett & District WMC","lat":54.85314,"lon":-1.83064,"postcode":"DH8 5HE","la":"County Durham","era":"other","nn":0,"risk":14,"cat":"green"},{"name":"Consett AFC Ltd","lat":54.84996,"lon":-1.82452,"postcode":"DH8 7BF","la":"County Durham","era":"other","nn":191,"risk":15,"cat":"green"},{"name":"Consett Cricket Club","lat":54.86239,"lon":-1.84033,"postcode":"DH8 5TS","la":"County Durham","era":"other","nn":213,"risk":15,"cat":"green"},{"name":"Consett Masonic Lodge","lat":54.85338,"lon":-1.83272,"postcode":"DH8 5AS","la":"County Durham","era":"trad","nn":0,"risk":14,"cat":"green"},{"name":"Consett Park Bowling Club","lat":54.85844,"lon":-1.84245,"postcode":"DH8 5TA","la":"County Durham","era":"other","nn":188,"risk":15,"cat":"green"},{"name":"Consett Rugby Club","lat":54.85892,"lon":-1.83089,"postcode":"DH8 6LU","la":"County Durham","era":"other","nn":365,"risk":16,"cat":"green"},{"name":"Consett Station Club","lat":54.85095,"lon":-1.82918,"postcode":"DH8 5RN","la":"County Durham","era":"other","nn":120,"risk":15,"cat":"green"},{"name":"Coxhoe Club","lat":54.71504,"lon":-1.50232,"postcode":"DH6 4AA","la":"County Durham","era":"other","nn":114,"risk":20,"cat":"green"},{"name":"Craghead Social Club","lat":54.85716,"lon":-1.67937,"postcode":"DH9 6AN","la":"County Durham","era":"other","nn":799,"risk":24,"cat":"green"},{"name":"Craghead Victory and Social Club","lat":54.85348,"lon":-1.6681,"postcode":"DH9 6DS","la":"County Durham","era":"other","nn":0,"risk":19,"cat":"green"},{"name":"Cross Keys Inn","lat":54.77486,"lon":-1.50634,"postcode":"DH6 1HD","la":"County Durham","era":"trad","nn":35,"risk":32,"cat":"amber"},{"name":"Cross Keys Inn","lat":54.79118,"lon":-1.69446,"postcode":"DH7 9QR","la":"County Durham","era":"trad","nn":1294,"risk":45,"cat":"amber"},{"name":"Derwent Walk Inn","lat":54.88753,"lon":-1.83501,"postcode":"DH8 0SX","la":"County Durham","era":"trad","nn":1059,"risk":44,"cat":"amber"},{"name":"Dipton Workingmens Club","lat":54.87671,"lon":-1.76033,"postcode":"DH9 9AQ","la":"County Durham","era":"trad","nn":1749,"risk":48,"cat":"amber"},{"name":"Dog and Gun","lat":54.78311,"lon":-1.63197,"postcode":"DH7 7DB","la":"County Durham","era":"other","nn":211,"risk":20,"cat":"green"},{"name":"Duke Of Wellington","lat":54.76676,"lon":-1.59269,"postcode":"DH1 3QN","la":"County Durham","era":"trad","nn":466,"risk":37,"cat":"amber"},{"name":"Duke Of Wellington","lat":54.85314,"lon":-1.83064,"postcode":"DH8 5HE","la":"County Durham","era":"trad","nn":0,"risk":14,"cat":"green"},{"name":"Dunelm Club","lat":54.77516,"lon":-1.56897,"postcode":"DH1 3HN","la":"County Durham","era":"trad","nn":0,"risk":14,"cat":"green"},{"name":"Durham Amateur Rowing Club","lat":54.77356,"lon":-1.56319,"postcode":"DH1 3JU","la":"County Durham","era":"other","nn":0,"risk":14,"cat":"green"},{"name":"Durham City Bowling Club","lat":54.77465,"lon":-1.56421,"postcode":"DH1 3JU","la":"County Durham","era":"other","nn":137,"risk":15,"cat":"green"},{"name":"Durham City Rugby Football Club","lat":54.77356,"lon":-1.56319,"postcode":"DH1 3JU","la":"County Durham","era":"other","nn":0,"risk":14,"cat":"green"},{"name":"Durham City Theatre","lat":54.77685,"lon":-1.57716,"postcode":"DH1 3RA","la":"County Durham","era":"other","nn":0,"risk":14,"cat":"green"},{"name":"Durham City Workmens Club and Institute Ltd","lat":54.77626,"lon":-1.58035,"postcode":"DH1 4PR","la":"County Durham","era":"other","nn":0,"risk":14,"cat":"green"},{"name":"Durham Indoor Bowling Club","lat":54.80503,"lon":-1.576,"postcode":"DH1 5GE","la":"County Durham","era":"other","nn":423,"risk":22,"cat":"green"},{"name":"Durham Masonic Hall","lat":54.77516,"lon":-1.56897,"postcode":"DH1 3HN","la":"County Durham","era":"trad","nn":0,"risk":14,"cat":"green"},{"name":"Durham University - College of St Hild & St Bede Bar","lat":54.77768,"lon":-1.56479,"postcode":"DH1 1QL","la":"County Durham","era":"other","nn":200,"risk":15,"cat":"green"},{"name":"Durham University - Hatfield College Bar","lat":54.77416,"lon":-1.57442,"postcode":"DH1 3RQ","la":"County Durham","era":"other","nn":95,"risk":14,"cat":"green"},{"name":"Durham University - North Bailey Club","lat":54.77256,"lon":-1.57499,"postcode":"DH1 3EW","la":"County Durham","era":"other","nn":56,"risk":14,"cat":"green"},{"name":"Durham University - St Chads College Student Bar","lat":54.77332,"lon":-1.57469,"postcode":"DH1 3RH","la":"County Durham","era":"other","nn":86,"risk":14,"cat":"green"},{"name":"Durham University - St Cuthberts Society","lat":54.77329,"lon":-1.56525,"postcode":"DH1 3JP","la":"County Durham","era":"mod","nn":136,"risk":15,"cat":"green"},{"name":"Durham University - Stephenson College","lat":54.75966,"lon":-1.58127,"postcode":"DH1 3DE","la":"County Durham","era":"other","nn":1077,"risk":44,"cat":"amber"},{"name":"East Stanley Workingmens Club","lat":54.87236,"lon":-1.68763,"postcode":"DH9 0XD","la":"County Durham","era":"trad","nn":88,"risk":14,"cat":"green"},{"name":"Ebony Champagne Bar","lat":54.77799,"lon":-1.57631,"postcode":"DH1 1SQ","la":"County Durham","era":"other","nn":0,"risk":14,"cat":"green"},{"name":"El Pincho Mediterranean Bar","lat":54.77705,"lon":-1.57882,"postcode":"DH1 4SL","la":"County Durham","era":"other","nn":25,"risk":14,"cat":"green"},{"name":"Esh Winning Athletic Football Club","lat":54.76216,"lon":-1.72147,"postcode":"DH7 9BQ","la":"County Durham","era":"trad","nn":278,"risk":33,"cat":"amber"},{"name":"Esh Winning Cricket Club","lat":54.77139,"lon":-1.69955,"postcode":"DH7 9PH","la":"County Durham","era":"trad","nn":379,"risk":34,"cat":"amber"},{"name":"Fabios","lat":54.7761,"lon":-1.57531,"postcode":"DH1 3NP","la":"County Durham","era":"other","nn":36,"risk":14,"cat":"green"},{"name":"Farmers Arms","lat":54.76241,"lon":-1.46839,"postcode":"DH6 1LL","la":"County Durham","era":"trad","nn":1245,"risk":45,"cat":"amber"},{"name":"Flass Inn","lat":54.77754,"lon":-1.64371,"postcode":"DH7 7LF","la":"County Durham","era":"trad","nn":0,"risk":16,"cat":"green"},{"name":"Framwellgate Moor & Pity Me Working Mens Club","lat":54.79649,"lon":-1.59055,"postcode":"DH1 5EE","la":"County Durham","era":"trad","nn":0,"risk":16,"cat":"green"},{"name":"G W Horners","lat":54.85797,"lon":-1.57357,"postcode":"DH3 3BE","la":"County Durham","era":"other","nn":62,"risk":14,"cat":"green"},{"name":"Garden Farm Hotel","lat":54.84795,"lon":-1.58313,"postcode":"DH2 3EH","la":"County Durham","era":"other","nn":467,"risk":17,"cat":"green"},{"name":"Gilesgate Moor Hotel","lat":54.77886,"lon":-1.53974,"postcode":"DH1 2RN","la":"County Durham","era":"other","nn":354,"risk":19,"cat":"green"},{"name":"Golden Lion","lat":54.85954,"lon":-1.80602,"postcode":"DH8 7SB","la":"County Durham","era":"trad","nn":141,"risk":17,"cat":"green"},{"name":"Grange Villa Workmens Social Club Ltd","lat":54.86175,"lon":-1.63653,"postcode":"DH2 3LL","la":"County Durham","era":"mod","nn":580,"risk":23,"cat":"green"},{"name":"Grove & Moorside Community & Social Club","lat":54.84289,"lon":-1.85461,"postcode":"DH8 8BE","la":"County Durham","era":"mod","nn":1542,"risk":47,"cat":"amber"},{"name":"Half Moon Inn","lat":54.77534,"lon":-1.57188,"postcode":"DH1 3AQ","la":"County Durham","era":"trad","nn":0,"risk":14,"cat":"green"},{"name":"Harrys Bar","lat":54.75035,"lon":-1.43014,"postcode":"DH6 3AN","la":"County Durham","era":"other","nn":279,"risk":16,"cat":"green"},{"name":"Heather Lad Inn","lat":54.73822,"lon":-1.48352,"postcode":"DH6 4QD","la":"County Durham","era":"trad","nn":839,"risk":37,"cat":"amber"},{"name":"High Crown","lat":54.85295,"lon":-1.5731,"postcode":"DH3 3AZ","la":"County Durham","era":"trad","nn":43,"risk":14,"cat":"green"},{"name":"Holy Grale","lat":54.77626,"lon":-1.58035,"postcode":"DH1 4PR","la":"County Durham","era":"other","nn":0,"risk":14,"cat":"green"},{"name":"Home Comforts Catering @ Durham City Golf Club","lat":54.74753,"lon":-1.6041,"postcode":"DH7 8HL","la":"County Durham","era":"other","nn":896,"risk":40,"cat":"amber"},{"name":"Hoochs","lat":54.85445,"lon":-1.83512,"postcode":"DH8 5LQ","la":"County Durham","era":"other","nn":0,"risk":14,"cat":"green"},{"name":"Jimmy Allens","lat":54.77616,"lon":-1.57453,"postcode":"DH1 3AA","la":"County Durham","era":"other","nn":0,"risk":14,"cat":"green"},{"name":"Jo Allan","lat":54.85445,"lon":-1.83512,"postcode":"DH8 5LQ","la":"County Durham","era":"other","nn":0,"risk":14,"cat":"green"},{"name":"Johns Castle Inn","lat":54.85348,"lon":-1.6681,"postcode":"DH9 6DS","la":"County Durham","era":"trad","nn":0,"risk":19,"cat":"green"},{"name":"Jovial Monk","lat":54.80319,"lon":-1.56556,"postcode":"DH1 5PY","la":"County Durham","era":"trad","nn":390,"risk":34,"cat":"amber"},{"name":"K2/Time","lat":54.85092,"lon":-1.83332,"postcode":"DH8 5AF","la":"County Durham","era":"other","nn":58,"risk":14,"cat":"green"},{"name":"Katie O' Briens Irish Tavern / Bohemia","lat":54.77799,"lon":-1.57631,"postcode":"DH1 1SQ","la":"County Durham","era":"other","nn":0,"risk":14,"cat":"green"},{"name":"Kelloe Working Mens Club","lat":54.71939,"lon":-1.47381,"postcode":"DH6 4PD","la":"County Durham","era":"trad","nn":293,"risk":36,"cat":"amber"},{"name":"Kimblesworth Cricket Club","lat":54.82133,"lon":-1.59614,"postcode":"DH2 3QA","la":"County Durham","era":"other","nn":593,"risk":38,"cat":"amber"},{"name":"Kings Head Social Club","lat":54.86941,"lon":-1.85946,"postcode":"DH8 0HX","la":"County Durham","era":"other","nn":711,"risk":36,"cat":"amber"},{"name":"Kitt's Pool Room & Bar","lat":54.77721,"lon":-1.57835,"postcode":"DH1 4SL","la":"County Durham","era":"other","nn":35,"risk":14,"cat":"green"},{"name":"Klute","lat":54.77616,"lon":-1.57453,"postcode":"DH1 3AA","la":"County Durham","era":"other","nn":0,"risk":14,"cat":"green"},{"name":"Lambton Arms","lat":54.77516,"lon":-1.5062,"postcode":"DH6 1HA","la":"County Durham","era":"trad","nn":35,"risk":32,"cat":"amber"},{"name":"Lambton Arms","lat":54.85606,"lon":-1.57422,"postcode":"DH3 3BJ","la":"County Durham","era":"trad","nn":0,"risk":14,"cat":"green"},{"name":"Lanchester Cricket Club","lat":54.82538,"lon":-1.74829,"postcode":"DH7 0JQ","la":"County Durham","era":"other","nn":274,"risk":21,"cat":"green"},{"name":"Lanchester Social Club","lat":54.82302,"lon":-1.74707,"postcode":"DH7 0PF","la":"County Durham","era":"mod","nn":135,"risk":20,"cat":"green"},{"name":"Lane 7 Durham","lat":54.77799,"lon":-1.57631,"postcode":"DH1 1SQ","la":"County Durham","era":"other","nn":0,"risk":14,"cat":"green"},{"name":"Langley Park Sports & Social Club","lat":54.79859,"lon":-1.6789,"postcode":"DH7 9UG","la":"County Durham","era":"mod","nn":256,"risk":18,"cat":"green"},{"name":"Langley Park Working Mens Club & Institute","lat":54.79987,"lon":-1.66692,"postcode":"DH7 9SL","la":"County Durham","era":"trad","nn":246,"risk":18,"cat":"green"},{"name":"Leadgate Bowling Club","lat":54.85842,"lon":-1.80709,"postcode":"DH8 7PS","la":"County Durham","era":"other","nn":141,"risk":17,"cat":"green"},{"name":"Leadgate Cricket & Social Club","lat":54.86017,"lon":-1.81052,"postcode":"DH8 6EA","la":"County Durham","era":"mod","nn":293,"risk":21,"cat":"green"},{"name":"Leadgate WMC","lat":54.85986,"lon":-1.80299,"postcode":"DH8 7PZ","la":"County Durham","era":"other","nn":197,"risk":18,"cat":"green"},{"name":"Lord Boyne Hotel","lat":54.75921,"lon":-1.60919,"postcode":"DH7 8JG","la":"County Durham","era":"other","nn":41,"risk":32,"cat":"amber"},{"name":"Market Tavern","lat":54.85857,"lon":-1.57636,"postcode":"DH3 3EZ","la":"County Durham","era":"other","nn":190,"risk":15,"cat":"green"},{"name":"Market Tavern","lat":54.77709,"lon":-1.57604,"postcode":"DH1 3NJ","la":"County Durham","era":"other","nn":77,"risk":14,"cat":"green"},{"name":"Marquis Of Granby","lat":54.79601,"lon":-1.58975,"postcode":"DH1 5BL","la":"County Durham","era":"other","nn":74,"risk":17,"cat":"green"},{"name":"Masonic Temple Association","lat":54.85529,"lon":-1.57516,"postcode":"DH3 3DU","la":"County Durham","era":"trad","nn":79,"risk":14,"cat":"green"},{"name":"Masons Arms","lat":54.86219,"lon":-1.69927,"postcode":"DH9 7PA","la":"County Durham","era":"trad","nn":780,"risk":19,"cat":"green"},{"name":"Meadowfield & District Social Club","lat":54.74966,"lon":-1.62185,"postcode":"DH7 8NA","la":"County Durham","era":"mod","nn":423,"risk":34,"cat":"amber"},{"name":"Miners Arms","lat":54.86172,"lon":-1.85404,"postcode":"DH8 0SG","la":"County Durham","era":"trad","nn":461,"risk":17,"cat":"green"},{"name":"New Brancepeth Club Ltd","lat":54.76728,"lon":-1.65328,"postcode":"DH7 7HZ","la":"County Durham","era":"other","nn":1106,"risk":44,"cat":"amber"},{"name":"New Durham Working Mens Club & Institute Ltd","lat":54.77815,"lon":-1.54512,"postcode":"DH1 2JG","la":"County Durham","era":"trad","nn":283,"risk":18,"cat":"green"},{"name":"New Kyo Constitutional Club & Institute Ltd","lat":54.85862,"lon":-1.72931,"postcode":"DH9 7TS","la":"County Durham","era":"other","nn":535,"risk":20,"cat":"green"},{"name":"New Red Lantern","lat":54.85265,"lon":-1.5735,"postcode":"DH3 3AX","la":"County Durham","era":"other","nn":0,"risk":14,"cat":"green"},{"name":"Newfield Inn","lat":54.86553,"lon":-1.62274,"postcode":"DH2 2SP","la":"County Durham","era":"trad","nn":907,"risk":38,"cat":"amber"},{"name":"Newhouse Club & Institute Ltd","lat":54.77314,"lon":-1.70842,"postcode":"DH7 9JH","la":"County Durham","era":"mod","nn":453,"risk":34,"cat":"amber"},{"name":"Number One Central Social Club","lat":54.8622,"lon":-1.83091,"postcode":"DH8 5NX","la":"County Durham","era":"mod","nn":203,"risk":15,"cat":"green"},{"name":"Oak Tree Inn","lat":54.88636,"lon":-1.72629,"postcode":"DH9 9RF","la":"County Durham","era":"trad","nn":1075,"risk":44,"cat":"amber"},{"name":"Oddfellows Arms","lat":54.78362,"lon":-1.41702,"postcode":"DH6 2BL","la":"County Durham","era":"trad","nn":1576,"risk":47,"cat":"amber"},{"name":"Old Cinema Launderette","lat":54.78066,"lon":-1.54435,"postcode":"DH1 2HX","la":"County Durham","era":"other","nn":283,"risk":18,"cat":"green"},{"name":"Old Tom's","lat":54.77683,"lon":-1.57887,"postcode":"DH1 4SL","la":"County Durham","era":"other","nn":0,"risk":14,"cat":"green"},{"name":"Osborne Working Mens Club Ltd","lat":54.85468,"lon":-1.57579,"postcode":"DH3 3DS","la":"County Durham","era":"trad","nn":79,"risk":14,"cat":"green"},{"name":"Osbournes","lat":54.77599,"lon":-1.57441,"postcode":"DH1 3AA","la":"County Durham","era":"other","nn":18,"risk":14,"cat":"green"},{"name":"Ouston and District Workmans Social Club","lat":54.87705,"lon":-1.59937,"postcode":"DH2 1HR","la":"County Durham","era":"mod","nn":551,"risk":35,"cat":"amber"},{"name":"Oxhill Central WMC & Institute","lat":54.86581,"lon":-1.70983,"postcode":"DH9 7LW","la":"County Durham","era":"other","nn":398,"risk":17,"cat":"green"},{"name":"Pelton RAOB Club","lat":54.87216,"lon":-1.61447,"postcode":"DH2 1LY","la":"County Durham","era":"other","nn":186,"risk":33,"cat":"amber"},{"name":"Penash Indian Restaurant & Bar","lat":54.72467,"lon":-1.58783,"postcode":"DH6 5HX","la":"County Durham","era":"other","nn":55,"risk":34,"cat":"amber"},{"name":"Quarrington Hill Workmens Club and Institute","lat":54.72981,"lon":-1.47955,"postcode":"DH6 4QQ","la":"County Durham","era":"other","nn":181,"risk":33,"cat":"amber"},{"name":"Queens Head","lat":54.79649,"lon":-1.59055,"postcode":"DH1 5EE","la":"County Durham","era":"trad","nn":0,"risk":16,"cat":"green"},{"name":"Queens Head Hotel","lat":54.85837,"lon":-1.73766,"postcode":"DH9 7SY","la":"County Durham","era":"trad","nn":127,"risk":15,"cat":"green"},{"name":"Red Lion","lat":54.88188,"lon":-1.5974,"postcode":"DH2 1JH","la":"County Durham","era":"trad","nn":551,"risk":35,"cat":"amber"},{"name":"Revolution","lat":54.77598,"lon":-1.5786,"postcode":"DH1 4PW","la":"County Durham","era":"other","nn":27,"risk":14,"cat":"green"},{"name":"Rose Tree Inn","lat":54.76175,"lon":-1.55249,"postcode":"DH1 2LY","la":"County Durham","era":"trad","nn":393,"risk":37,"cat":"amber"},{"name":"Roseberry Grange Community Golf Club","lat":54.86664,"lon":-1.63967,"postcode":"DH2 3NF","la":"County Durham","era":"other","nn":580,"risk":35,"cat":"amber"},{"name":"Royal Air Forces Association Club","lat":54.87124,"lon":-1.69942,"postcode":"DH9 8AE","la":"County Durham","era":"trad","nn":121,"risk":15,"cat":"green"},{"name":"Royal Oak Hotel","lat":54.78422,"lon":-1.73539,"postcode":"DH7 9BN","la":"County Durham","era":"trad","nn":2124,"risk":51,"cat":"amber"},{"name":"Sacriston Colliery Cricket Club","lat":54.81897,"lon":-1.6287,"postcode":"DH7 6JT","la":"County Durham","era":"other","nn":104,"risk":34,"cat":"amber"},{"name":"Sacriston Workmens Club","lat":54.81808,"lon":-1.62821,"postcode":"DH7 6NW","la":"County Durham","era":"other","nn":104,"risk":32,"cat":"amber"},{"name":"Saints Bar","lat":54.77718,"lon":-1.57433,"postcode":"DH1 3UJ","la":"County Durham","era":"trad","nn":76,"risk":14,"cat":"green"},{"name":"Sambuca Chester-le-Street","lat":54.85776,"lon":-1.57267,"postcode":"DH3 3QG","la":"County Durham","era":"other","nn":62,"risk":14,"cat":"green"},{"name":"Seven Stars Inn","lat":54.7603,"lon":-1.54689,"postcode":"DH1 2NU","la":"County Durham","era":"trad","nn":393,"risk":37,"cat":"amber"},{"name":"Shepherd and Shepherdess","lat":54.87886,"lon":-1.65692,"postcode":"DH9 0RS","la":"County Durham","era":"other","nn":340,"risk":21,"cat":"green"},{"name":"Sherburn Village Workingmens Club","lat":54.77417,"lon":-1.50265,"postcode":"DH6 1HB","la":"County Durham","era":"trad","nn":249,"risk":33,"cat":"amber"},{"name":"Shotley Bridge Cricket Club","lat":54.87579,"lon":-1.85929,"postcode":"DH8 0TN","la":"County Durham","era":"other","nn":711,"risk":39,"cat":"amber"},{"name":"Shotton Colliery Officials Club","lat":54.76375,"lon":-1.38745,"postcode":"DH6 2JS","la":"County Durham","era":"other","nn":100,"risk":32,"cat":"amber"},{"name":"Shotton Comrades Social Club & Institute Ltd","lat":54.76046,"lon":-1.38591,"postcode":"DH6 2QJ","la":"County Durham","era":"mod","nn":380,"risk":34,"cat":"amber"},{"name":"Singers","lat":54.85127,"lon":-1.83261,"postcode":"DH8 5AB","la":"County Durham","era":"other","nn":0,"risk":14,"cat":"green"},{"name":"Slug & Lettuce / Loco Loco / El Rodeo Mexicano / Burrito Bandits","lat":54.77799,"lon":-1.57631,"postcode":"DH1 1SQ","la":"County Durham","era":"other","nn":0,"risk":14,"cat":"green"},{"name":"South Causey Inn","lat":54.88318,"lon":-1.68502,"postcode":"DH9 0LS","la":"County Durham","era":"trad","nn":215,"risk":18,"cat":"green"},{"name":"South Hetton Cricket Club","lat":54.79993,"lon":-1.4097,"postcode":"DH6 2TG","la":"County Durham","era":"other","nn":1873,"risk":49,"cat":"amber"},{"name":"South Moor Sports and Community Club","lat":54.85332,"lon":-1.70566,"postcode":"DH9 7HA","la":"County Durham","era":"other","nn":1067,"risk":44,"cat":"amber"},{"name":"Spa Hotel","lat":54.87226,"lon":-1.69198,"postcode":"DH9 0DQ","la":"County Durham","era":"other","nn":270,"risk":16,"cat":"green"},{"name":"St Johns College (Bar)","lat":54.7721,"lon":-1.57533,"postcode":"DH1 3RJ","la":"County Durham","era":"other","nn":0,"risk":14,"cat":"green"},{"name":"St Johns College Coffee Shop","lat":54.7721,"lon":-1.57533,"postcode":"DH1 3RJ","la":"County Durham","era":"other","nn":0,"risk":14,"cat":"green"},{"name":"Stanley Central Club & Institute Ltd","lat":54.86933,"lon":-1.69773,"postcode":"DH9 0AD","la":"County Durham","era":"other","nn":139,"risk":15,"cat":"green"},{"name":"Stanley Empire Club","lat":54.87015,"lon":-1.69938,"postcode":"DH9 0SY","la":"County Durham","era":"other","nn":121,"risk":15,"cat":"green"},{"name":"Stanley Indoor Bowls Centre","lat":54.87311,"lon":-1.68803,"postcode":"DH9 0PS","la":"County Durham","era":"other","nn":88,"risk":14,"cat":"green"},{"name":"Stanley Masonic Association","lat":54.86995,"lon":-1.70139,"postcode":"DH9 8AD","la":"County Durham","era":"trad","nn":110,"risk":15,"cat":"green"},{"name":"Stonebridge Inn","lat":54.76653,"lon":-1.59995,"postcode":"DH1 3RX","la":"County Durham","era":"trad","nn":466,"risk":37,"cat":"amber"},{"name":"Sun Inn","lat":54.88171,"lon":-1.65885,"postcode":"DH9 0RG","la":"County Durham","era":"trad","nn":340,"risk":21,"cat":"green"},{"name":"Swan and Three Cygnets","lat":54.77568,"lon":-1.57276,"postcode":"DH1 3AG","la":"County Durham","era":"trad","nn":68,"risk":14,"cat":"green"},{"name":"Swoop Inn","lat":54.76464,"lon":-1.38773,"postcode":"DH6 2NH","la":"County Durham","era":"trad","nn":100,"risk":32,"cat":"amber"},{"name":"Tanfield Lea WMC","lat":54.88033,"lon":-1.71207,"postcode":"DH9 9NA","la":"County Durham","era":"other","nn":1130,"risk":44,"cat":"amber"},{"name":"The Angel","lat":54.77618,"lon":-1.58023,"postcode":"DH1 4PR","la":"County Durham","era":"trad","nn":11,"risk":14,"cat":"green"},{"name":"The Baa","lat":54.84512,"lon":-1.97482,"postcode":"DH8 9NL","la":"County Durham","era":"other","nn":1,"risk":34,"cat":"amber"},{"name":"The Ball Alley","lat":54.87929,"lon":-1.68951,"postcode":"DH9 0LH","la":"County Durham","era":"other","nn":0,"risk":14,"cat":"green"},{"name":"The Bay Horse by Watson","lat":54.75511,"lon":-1.64091,"postcode":"DH7 8ST","la":"County Durham","era":"trad","nn":1168,"risk":44,"cat":"amber"},{"name":"The Bear and Bottle","lat":54.71676,"lon":-1.50459,"postcode":"DH6 4HE","la":"County Durham","era":"other","nn":129,"risk":20,"cat":"green"},{"name":"The Big Jug","lat":54.77781,"lon":-1.57387,"postcode":"DH1 1RG","la":"County Durham","era":"other","nn":0,"risk":14,"cat":"green"},{"name":"The Bird Inn","lat":54.87276,"lon":-1.63606,"postcode":"DH2 1QA","la":"County Durham","era":"trad","nn":718,"risk":39,"cat":"amber"},{"name":"The Bishops' Mill","lat":54.77799,"lon":-1.57631,"postcode":"DH1 1SQ","la":"County Durham","era":"trad","nn":0,"risk":14,"cat":"green"},{"name":"The Black Horse","lat":54.85367,"lon":-1.57324,"postcode":"DH3 3AY","la":"County Durham","era":"trad","nn":80,"risk":14,"cat":"green"},{"name":"The Blast Furnace Micropub Limited","lat":54.8527,"lon":-1.83432,"postcode":"DH8 5QG","la":"County Durham","era":"other","nn":57,"risk":14,"cat":"green"},{"name":"The Blue House","lat":54.77097,"lon":-1.4059,"postcode":"DH6 2AP","la":"County Durham","era":"other","nn":1362,"risk":46,"cat":"amber"},{"name":"The Board Inn","lat":54.87929,"lon":-1.68951,"postcode":"DH9 0LH","la":"County Durham","era":"trad","nn":0,"risk":14,"cat":"green"},{"name":"The Boat Club","lat":54.77634,"lon":-1.57322,"postcode":"DH1 3AF","la":"County Durham","era":"other","nn":67,"risk":14,"cat":"green"},{"name":"The Brawns Den","lat":54.74462,"lon":-1.63994,"postcode":"DH7 8UG","la":"County Durham","era":"other","nn":1168,"risk":44,"cat":"amber"},{"name":"The Bridge Hotel","lat":54.77831,"lon":-1.58375,"postcode":"DH1 4SE","la":"County Durham","era":"other","nn":0,"risk":14,"cat":"green"},{"name":"The Browney","lat":54.74658,"lon":-1.61796,"postcode":"DH7 8HT","la":"County Durham","era":"other","nn":423,"risk":34,"cat":"amber"},{"name":"The Cartologist","lat":54.78315,"lon":-1.5857,"postcode":"DH1 4NQ","la":"County Durham","era":"other","nn":438,"risk":17,"cat":"green"},{"name":"The Cherry Tree","lat":54.88613,"lon":-1.611,"postcode":"DH2 1TJ","la":"County Durham","era":"other","nn":990,"risk":41,"cat":"amber"},{"name":"The Chester Moor","lat":54.83712,"lon":-1.58695,"postcode":"DH2 3RJ","la":"County Durham","era":"other","nn":1229,"risk":45,"cat":"amber"},{"name":"The City","lat":54.77534,"lon":-1.57188,"postcode":"DH1 3AQ","la":"County Durham","era":"other","nn":0,"risk":14,"cat":"green"},{"name":"The Company Row","lat":54.85127,"lon":-1.8326,"postcode":"DH8 5AB","la":"County Durham","era":"other","nn":1,"risk":14,"cat":"green"},{"name":"The Cricketers","lat":54.86069,"lon":-1.84185,"postcode":"DH8 5TH","la":"County Durham","era":"other","nn":99,"risk":14,"cat":"green"},{"name":"The Crown & Thistle","lat":54.86367,"lon":-1.74504,"postcode":"DH9 8EU","la":"County Durham","era":"trad","nn":503,"risk":17,"cat":"green"},{"name":"The Crown Inn","lat":54.87209,"lon":-1.61157,"postcode":"DH2 1LU","la":"County Durham","era":"trad","nn":186,"risk":33,"cat":"amber"},{"name":"The Daleside Arms","lat":54.72452,"lon":-1.58865,"postcode":"DH6 5HY","la":"County Durham","era":"trad","nn":55,"risk":34,"cat":"amber"},{"name":"The Davy Lamp","lat":54.72102,"lon":-1.47023,"postcode":"DH6 4PQ","la":"County Durham","era":"other","nn":293,"risk":36,"cat":"amber"},{"name":"The Demi Sports Bar / Consett Rugby Club","lat":54.85225,"lon":-1.83473,"postcode":"DH8 5QU","la":"County Durham","era":"mod","nn":57,"risk":14,"cat":"green"},{"name":"The Derwent Arms","lat":54.84512,"lon":-1.97484,"postcode":"DH8 9NL","la":"County Durham","era":"trad","nn":1,"risk":34,"cat":"amber"},{"name":"The Drovers Tavern","lat":54.88933,"lon":-1.66099,"postcode":"DH9 0RU","la":"County Durham","era":"other","nn":778,"risk":37,"cat":"amber"},{"name":"The Duck","lat":54.77781,"lon":-1.57387,"postcode":"DH1 1RG","la":"County Durham","era":"other","nn":0,"risk":14,"cat":"green"},{"name":"The Dun Cow","lat":54.85335,"lon":-1.5226,"postcode":"DH4 6DY","la":"County Durham","era":"other","nn":538,"risk":38,"cat":"amber"},{"name":"The Dun Cow","lat":54.77517,"lon":-1.56897,"postcode":"DH1 3HN","la":"County Durham","era":"other","nn":0,"risk":14,"cat":"green"},{"name":"The Fighting Cocks","lat":54.77593,"lon":-1.57901,"postcode":"DH1 4PP","la":"County Durham","era":"other","nn":27,"risk":14,"cat":"green"},{"name":"The Fleece Inn","lat":54.83431,"lon":-1.88196,"postcode":"DH8 9AR","la":"County Durham","era":"trad","nn":244,"risk":33,"cat":"amber"},{"name":"The Floaters Mill","lat":54.84985,"lon":-1.5168,"postcode":"DH4 6BQ","la":"County Durham","era":"trad","nn":538,"risk":38,"cat":"amber"},{"name":"The Food Pit Bar","lat":54.77683,"lon":-1.57887,"postcode":"DH1 4SL","la":"County Durham","era":"other","nn":0,"risk":14,"cat":"green"},{"name":"The Fountain Inn","lat":54.85396,"lon":-1.83116,"postcode":"DH8 5HG","la":"County Durham","era":"trad","nn":35,"risk":14,"cat":"green"},{"name":"The Freemasons Arms","lat":54.8515,"lon":-1.83117,"postcode":"DH8 5RH","la":"County Durham","era":"trad","nn":41,"risk":14,"cat":"green"},{"name":"The Gate","lat":54.79355,"lon":-1.58554,"postcode":"DH1 5JE","la":"County Durham","era":"other","nn":384,"risk":19,"cat":"green"},{"name":"The Ginger Dog","lat":54.71576,"lon":-1.50357,"postcode":"DH6 4DD","la":"County Durham","era":"other","nn":114,"risk":20,"cat":"green"},{"name":"The Glendenning Arms","lat":54.8054,"lon":-1.63959,"postcode":"DH7 6SY","la":"County Durham","era":"trad","nn":159,"risk":32,"cat":"amber"},{"name":"The Grey Horse","lat":54.85398,"lon":-1.82568,"postcode":"DH8 6NE","la":"County Durham","era":"trad","nn":331,"risk":16,"cat":"green"},{"name":"The Half Moon","lat":54.73129,"lon":-1.47836,"postcode":"DH6 4QG","la":"County Durham","era":"other","nn":181,"risk":33,"cat":"amber"},{"name":"The Head of Steam","lat":54.77696,"lon":-1.58011,"postcode":"DH1 4RZ","la":"County Durham","era":"trad","nn":34,"risk":14,"cat":"green"},{"name":"The Hilltop","lat":54.8747,"lon":-1.68038,"postcode":"DH9 0UE","la":"County Durham","era":"other","nn":125,"risk":15,"cat":"green"},{"name":"The Horse and Groom","lat":54.83474,"lon":-1.8741,"postcode":"DH8 9QQ","la":"County Durham","era":"trad","nn":369,"risk":34,"cat":"amber"},{"name":"The Imperial Hotel","lat":54.86917,"lon":-1.70032,"postcode":"DH9 0TB","la":"County Durham","era":"other","nn":0,"risk":14,"cat":"green"},{"name":"The Jolly Drovers","lat":54.86234,"lon":-1.79471,"postcode":"DH8 6RR","la":"County Durham","era":"other","nn":598,"risk":23,"cat":"green"},{"name":"The Kings Head","lat":54.82084,"lon":-1.74341,"postcode":"DH7 0EX","la":"County Durham","era":"trad","nn":267,"risk":21,"cat":"green"},{"name":"The Lambton Worm","lat":54.87124,"lon":-1.57568,"postcode":"DH3 4AJ","la":"County Durham","era":"other","nn":552,"risk":38,"cat":"amber"},{"name":"The Langley Park Hotel","lat":54.80031,"lon":-1.67068,"postcode":"DH7 9YT","la":"County Durham","era":"other","nn":246,"risk":18,"cat":"green"},{"name":"The Library","lat":54.77585,"lon":-1.57453,"postcode":"DH1 3NU","la":"County Durham","era":"other","nn":0,"risk":14,"cat":"green"},{"name":"The Magic Corner","lat":54.77477,"lon":-1.56894,"postcode":"DH1 3HL","la":"County Durham","era":"other","nn":44,"risk":14,"cat":"green"},{"name":"The Miners Arms","lat":54.88436,"lon":-1.81421,"postcode":"DH8 6QN","la":"County Durham","era":"trad","nn":0,"risk":34,"cat":"amber"},{"name":"The Moorings","lat":54.85617,"lon":-1.62651,"postcode":"DH2 3JU","la":"County Durham","era":"other","nn":892,"risk":40,"cat":"amber"},{"name":"The New Board Inn","lat":54.79358,"lon":-1.66705,"postcode":"DH7 9RL","la":"County Durham","era":"trad","nn":699,"risk":21,"cat":"green"},{"name":"The Newton Grange","lat":54.80584,"lon":-1.56955,"postcode":"DH1 5SA","la":"County Durham","era":"other","nn":390,"risk":21,"cat":"green"},{"name":"The Old England","lat":54.83649,"lon":-1.54741,"postcode":"DH3 4JB","la":"County Durham","era":"other","nn":1681,"risk":48,"cat":"amber"},{"name":"The Old Mill","lat":54.71011,"lon":-1.53086,"postcode":"DH6 5NX","la":"County Durham","era":"trad","nn":354,"risk":36,"cat":"amber"},{"name":"The Ox Inn","lat":54.86479,"lon":-1.71579,"postcode":"DH9 7LR","la":"County Durham","era":"trad","nn":398,"risk":37,"cat":"amber"},{"name":"The Peacock","lat":54.89368,"lon":-1.70979,"postcode":"DH9 9PX","la":"County Durham","era":"other","nn":1333,"risk":46,"cat":"amber"},{"name":"The Plough Inn","lat":54.86795,"lon":-1.59432,"postcode":"DH2 1BL","la":"County Durham","era":"trad","nn":1062,"risk":44,"cat":"amber"},{"name":"The Poachers","lat":54.70926,"lon":-1.53618,"postcode":"DH6 5LQ","la":"County Durham","era":"other","nn":354,"risk":36,"cat":"amber"},{"name":"The Pub and Kitchen Cassop","lat":54.73927,"lon":-1.46543,"postcode":"DH6 4RJ","la":"County Durham","era":"mod","nn":1167,"risk":44,"cat":"amber"},{"name":"The Punch Bowl","lat":54.85242,"lon":-1.66998,"postcode":"DH9 6EF","la":"County Durham","era":"other","nn":169,"risk":20,"cat":"green"},{"name":"The Queens Head","lat":54.77866,"lon":-1.55472,"postcode":"DH1 2JR","la":"County Durham","era":"trad","nn":68,"risk":14,"cat":"green"},{"name":"The Rams Head","lat":54.79892,"lon":-1.67494,"postcode":"DH7 9UU","la":"County Durham","era":"trad","nn":256,"risk":18,"cat":"green"},{"name":"The Red Lion Hotel","lat":54.82658,"lon":-1.59456,"postcode":"DH2 3NL","la":"County Durham","era":"trad","nn":593,"risk":38,"cat":"amber"},{"name":"The Royal Oak","lat":54.88436,"lon":-1.81421,"postcode":"DH8 6QN","la":"County Durham","era":"trad","nn":0,"risk":34,"cat":"amber"},{"name":"The Rum Pot","lat":54.85039,"lon":-1.57267,"postcode":"DH3 3LN","la":"County Durham","era":"other","nn":228,"risk":15,"cat":"green"},{"name":"The Scotch Arms","lat":54.85976,"lon":-1.8477,"postcode":"DH8 8LR","la":"County Durham","era":"trad","nn":299,"risk":16,"cat":"green"},{"name":"The Shakespeare Tavern","lat":54.77585,"lon":-1.57453,"postcode":"DH1 3NU","la":"County Durham","era":"other","nn":0,"risk":14,"cat":"green"},{"name":"The Shoes","lat":54.7791,"lon":-1.55397,"postcode":"DH1 2JT","la":"County Durham","era":"other","nn":68,"risk":14,"cat":"green"},{"name":"The Stags Head Hotel","lat":54.76969,"lon":-1.70466,"postcode":"DH7 9HT","la":"County Durham","era":"trad","nn":379,"risk":34,"cat":"amber"},{"name":"The Station Hotel","lat":54.75893,"lon":-1.60877,"postcode":"DH7 8JW","la":"County Durham","era":"other","nn":41,"risk":32,"cat":"amber"},{"name":"The Station House","lat":54.77831,"lon":-1.58376,"postcode":"DH1 4SE","la":"County Durham","era":"other","nn":0,"risk":14,"cat":"green"},{"name":"The Steel Club","lat":54.85385,"lon":-1.83168,"postcode":"DH8 5HA","la":"County Durham","era":"other","nn":35,"risk":14,"cat":"green"},{"name":"The Sticky Wicket","lat":54.84897,"lon":-1.56222,"postcode":"DH3 3QR","la":"County Durham","era":"other","nn":687,"risk":19,"cat":"green"},{"name":"The Three Bridges / 88th Street / Value Mighty / Sin City Burger","lat":54.77709,"lon":-1.58059,"postcode":"DH1 4SQ","la":"County Durham","era":"other","nn":0,"risk":14,"cat":"green"},{"name":"The Three Horseshoes","lat":54.82093,"lon":-1.51832,"postcode":"DH4 6QQ","la":"County Durham","era":"trad","nn":887,"risk":40,"cat":"amber"},{"name":"The Tin of Sardines","lat":54.77616,"lon":-1.57453,"postcode":"DH1 3AA","la":"County Durham","era":"other","nn":0,"risk":14,"cat":"green"},{"name":"The Top House","lat":54.86917,"lon":-1.70032,"postcode":"DH9 0TB","la":"County Durham","era":"other","nn":0,"risk":14,"cat":"green"},{"name":"The Travellers Rest","lat":54.80585,"lon":-1.64195,"postcode":"DH7 6TQ","la":"County Durham","era":"other","nn":159,"risk":32,"cat":"amber"},{"name":"The Turf","lat":54.85127,"lon":-1.83261,"postcode":"DH8 5AB","la":"County Durham","era":"other","nn":0,"risk":14,"cat":"green"},{"name":"The Village Tavern","lat":54.71402,"lon":-1.50145,"postcode":"DH6 4AL","la":"County Durham","era":"other","nn":126,"risk":20,"cat":"green"},{"name":"The Waiting Room","lat":54.77983,"lon":-1.58201,"postcode":"DH1 4RB","la":"County Durham","era":"other","nn":203,"risk":15,"cat":"green"},{"name":"The Waterhouse","lat":54.77709,"lon":-1.58059,"postcode":"DH1 4SQ","la":"County Durham","era":"other","nn":0,"risk":14,"cat":"green"},{"name":"The Wheatsheaf Inn","lat":54.8762,"lon":-1.57584,"postcode":"DH3 2AB","la":"County Durham","era":"trad","nn":552,"risk":23,"cat":"green"},{"name":"The Whistle Blower","lat":54.85191,"lon":-1.83332,"postcode":"DH8 5QP","la":"County Durham","era":"other","nn":84,"risk":14,"cat":"green"},{"name":"The Whitehills","lat":54.85007,"lon":-1.58942,"postcode":"DH2 3AB","la":"County Durham","era":"other","nn":467,"risk":37,"cat":"amber"},{"name":"The Wicket Gate","lat":54.85265,"lon":-1.5735,"postcode":"DH3 3AX","la":"County Durham","era":"other","nn":0,"risk":14,"cat":"green"},{"name":"The Woodman Inn","lat":54.77876,"lon":-1.56729,"postcode":"DH1 1QW","la":"County Durham","era":"trad","nn":200,"risk":15,"cat":"green"},{"name":"Thornley Catholic Club","lat":54.74984,"lon":-1.44012,"postcode":"DH6 3EU","la":"County Durham","era":"other","nn":86,"risk":19,"cat":"green"},{"name":"Thornley Officials Club","lat":54.74939,"lon":-1.43904,"postcode":"DH6 3EP","la":"County Durham","era":"other","nn":86,"risk":19,"cat":"green"},{"name":"Thornley Working Mens Club & Institute Ltd","lat":54.75105,"lon":-1.42597,"postcode":"DH6 3AB","la":"County Durham","era":"trad","nn":279,"risk":16,"cat":"green"},{"name":"Three Horse Shoes","lat":54.84097,"lon":-1.73309,"postcode":"DH7 0QT","la":"County Durham","era":"trad","nn":1949,"risk":50,"cat":"amber"},{"name":"Three Horse Shoes Inn","lat":54.75692,"lon":-1.4853,"postcode":"DH1 2SR","la":"County Durham","era":"trad","nn":1245,"risk":45,"cat":"amber"},{"name":"Travellers Rest","lat":54.8495,"lon":-1.8274,"postcode":"DH8 7JU","la":"County Durham","era":"other","nn":191,"risk":15,"cat":"green"},{"name":"Travellers Rest","lat":54.78884,"lon":-1.5199,"postcode":"DH1 2QT","la":"County Durham","era":"other","nn":570,"risk":35,"cat":"amber"},{"name":"Ushaw Moor Catholic Club","lat":54.77754,"lon":-1.64371,"postcode":"DH7 7LF","la":"County Durham","era":"other","nn":0,"risk":16,"cat":"green"},{"name":"Ushaw Moor Cricket Club","lat":54.77635,"lon":-1.64618,"postcode":"DH7 7QF","la":"County Durham","era":"other","nn":206,"risk":33,"cat":"amber"},{"name":"Utopia","lat":54.85606,"lon":-1.57422,"postcode":"DH3 3BJ","la":"County Durham","era":"other","nn":0,"risk":14,"cat":"green"},{"name":"Victoria Inn","lat":54.77247,"lon":-1.57088,"postcode":"DH1 3AS","la":"County Durham","era":"trad","nn":262,"risk":16,"cat":"green"},{"name":"Waterhouses Community Association","lat":54.76155,"lon":-1.71727,"postcode":"DH7 9AS","la":"County Durham","era":"other","nn":278,"risk":33,"cat":"amber"},{"name":"Wheatley Hill Constitutional Club","lat":54.74582,"lon":-1.41624,"postcode":"DH6 3JW","la":"County Durham","era":"other","nn":278,"risk":21,"cat":"green"},{"name":"Wheatley Hill Old Scouts Club","lat":54.74828,"lon":-1.41544,"postcode":"DH6 3JN","la":"County Durham","era":"other","nn":278,"risk":18,"cat":"green"},{"name":"Wheatley Hill Workmens Social Club & Institute Ltd","lat":54.74448,"lon":-1.42176,"postcode":"DH6 3RF","la":"County Durham","era":"mod","nn":384,"risk":19,"cat":"green"},{"name":"Wiff Waff","lat":54.77685,"lon":-1.57716,"postcode":"DH1 3RA","la":"County Durham","era":"other","nn":0,"risk":14,"cat":"green"},{"name":"Witton Gilbert Working Mens Club","lat":54.81036,"lon":-1.63363,"postcode":"DH7 6RH","la":"County Durham","era":"trad","nn":671,"risk":23,"cat":"green"},{"name":"Ye Olde Earl Grey Inn","lat":54.86528,"lon":-1.73743,"postcode":"DH9 8TA","la":"County Durham","era":"trad","nn":42,"risk":14,"cat":"green"},{"name":"Ye Olde Elm Tree Inn","lat":54.77545,"lon":-1.58215,"postcode":"DH1 4PS","la":"County Durham","era":"trad","nn":137,"risk":15,"cat":"green"},{"name":"Barley Mow Inn","lat":54.88086,"lon":-1.56711,"postcode":"DH3 2AW","la":"Gateshead","era":"trad","nn":0,"risk":28,"cat":"green"},{"name":"Barley Mow Working Mens Club","lat":54.88086,"lon":-1.56711,"postcode":"DH3 2AW","la":"Gateshead","era":"trad","nn":0,"risk":28,"cat":"green"},{"name":"Birtley Golf Club","lat":54.89296,"lon":-1.57269,"postcode":"DH3 2LR","la":"Gateshead","era":"other","nn":68,"risk":24,"cat":"green"},{"name":"Birtley Masonic Hall","lat":54.89484,"lon":-1.57435,"postcode":"DH3 2PJ","la":"Gateshead","era":"trad","nn":180,"risk":25,"cat":"green"},{"name":"Birtley Snooker Club","lat":54.89515,"lon":-1.57731,"postcode":"DH3 2PS","la":"Gateshead","era":"other","nn":83,"risk":24,"cat":"green"},{"name":"Birtley Town Football Club","lat":54.88723,"lon":-1.57712,"postcode":"DH3 2TB","la":"Gateshead","era":"other","nn":697,"risk":28,"cat":"green"},{"name":"Board Inn","lat":54.88993,"lon":-1.56103,"postcode":"DH3 2JL","la":"Gateshead","era":"trad","nn":615,"risk":33,"cat":"amber"},{"name":"Charles Perkins RAOB Club & Institute Limited","lat":54.89657,"lon":-1.57394,"postcode":"DH3 1AP","la":"Gateshead","era":"other","nn":194,"risk":25,"cat":"green"},{"name":"Coach And Horses","lat":54.90596,"lon":-1.57804,"postcode":"DH3 1QF","la":"Gateshead","era":"trad","nn":429,"risk":44,"cat":"amber"},{"name":"Red Lion Inn","lat":54.89829,"lon":-1.57779,"postcode":"DH3 1LS","la":"Gateshead","era":"trad","nn":249,"risk":25,"cat":"green"},{"name":"The Hanlon","lat":54.89589,"lon":-1.57743,"postcode":"DH3 2PQ","la":"Gateshead","era":"other","nn":38,"risk":24,"cat":"green"},{"name":"The Moulders Arms","lat":54.89328,"lon":-1.57361,"postcode":"DH3 2LW","la":"Gateshead","era":"trad","nn":68,"risk":24,"cat":"green"},{"name":"The Railway Hotel","lat":54.89605,"lon":-1.57796,"postcode":"DH3 2QJ","la":"Gateshead","era":"trad","nn":38,"risk":24,"cat":"green"},{"name":"Three Tuns Inn","lat":54.9021,"lon":-1.57783,"postcode":"DH3 1NX","la":"Gateshead","era":"trad","nn":424,"risk":26,"cat":"green"},{"name":"Anchor Inn","lat":54.90899,"lon":-1.88749,"postcode":"DH8 9JN","la":"Northumberland","era":"trad","nn":2155,"risk":53,"cat":"amber"},{"name":"Derwent Reservoir Sailing Club","lat":54.87404,"lon":-1.99212,"postcode":"DH8 9PT","la":"Northumberland","era":"other","nn":0,"risk":36,"cat":"amber"},{"name":"Galley Catering","lat":54.87404,"lon":-1.99212,"postcode":"DH8 9PT","la":"Northumberland","era":"other","nn":0,"risk":36,"cat":"amber"},{"name":"Lord Crewe Arms","lat":54.8481,"lon":-2.05457,"postcode":"DH8 9SP","la":"Northumberland","era":"trad","nn":4930,"risk":73,"cat":"red"},{"name":"The Manor House Inn","lat":54.86502,"lon":-1.9355,"postcode":"DH8 9LX","la":"Northumberland","era":"other","nn":3352,"risk":62,"cat":"red"},{"name":"Vindomora Country Lodges","lat":54.89479,"lon":-1.84572,"postcode":"DH8 9JA","la":"Northumberland","era":"other","nn":1059,"risk":46,"cat":"amber"},{"name":"Bonnie Pit Lad","lat":54.80847,"lon":-1.43631,"postcode":"DH5 0JS","la":"Sunderland","era":"other","nn":154,"risk":44,"cat":"amber"},{"name":"Bowling Club","lat":54.84087,"lon":-1.47497,"postcode":"DH4 5BH","la":"Sunderland","era":"other","nn":314,"risk":25,"cat":"green"},{"name":"Brewers Arms","lat":54.82017,"lon":-1.45196,"postcode":"DH5 9HJ","la":"Sunderland","era":"trad","nn":40,"risk":23,"cat":"green"},{"name":"Davey Arms","lat":54.82057,"lon":-1.45193,"postcode":"DH5 9HJ","la":"Sunderland","era":"trad","nn":24,"risk":23,"cat":"green"},{"name":"Dubmire W M Club","lat":54.84147,"lon":-1.49645,"postcode":"DH4 6LS","la":"Sunderland","era":"other","nn":1377,"risk":55,"cat":"amber"},{"name":"Easington Lane W M C","lat":54.80929,"lon":-1.43826,"postcode":"DH5 0JR","la":"Sunderland","era":"other","nn":154,"risk":44,"cat":"amber"},{"name":"Eppleton Cricket Club","lat":54.82947,"lon":-1.45133,"postcode":"DH5 9AJ","la":"Sunderland","era":"other","nn":334,"risk":25,"cat":"green"},{"name":"Glendale Social Club","lat":54.8409,"lon":-1.46563,"postcode":"DH5 8DA","la":"Sunderland","era":"mod","nn":293,"risk":25,"cat":"green"},{"name":"Hetton & District WMC","lat":54.82073,"lon":-1.45217,"postcode":"DH5 9HN","la":"Sunderland","era":"other","nn":24,"risk":23,"cat":"green"},{"name":"Hetton Victory Club","lat":54.82094,"lon":-1.45155,"postcode":"DH5 9HN","la":"Sunderland","era":"other","nn":45,"risk":23,"cat":"green"},{"name":"Houghton Comrades Club","lat":54.84755,"lon":-1.47241,"postcode":"DH4 4AT","la":"Sunderland","era":"other","nn":503,"risk":26,"cat":"green"},{"name":"Houghton Rugby Club","lat":54.84042,"lon":-1.47013,"postcode":"DH4 5BH","la":"Sunderland","era":"other","nn":276,"risk":25,"cat":"green"},{"name":"Monument Pub","lat":54.87885,"lon":-1.48788,"postcode":"DH4 7ER","la":"Sunderland","era":"other","nn":4,"risk":40,"cat":"amber"},{"name":"Newbottle W M C","lat":54.85756,"lon":-1.47413,"postcode":"DH4 4EP","la":"Sunderland","era":"other","nn":275,"risk":42,"cat":"amber"},{"name":"Penshaw Catholic  Social Club","lat":54.87056,"lon":-1.49877,"postcode":"DH4 7JZ","la":"Sunderland","era":"mod","nn":128,"risk":29,"cat":"green"},{"name":"Shiney Row Masonic Hall","lat":54.86956,"lon":-1.49777,"postcode":"DH4 7LQ","la":"Sunderland","era":"trad","nn":128,"risk":29,"cat":"green"},{"name":"Shoulder Of Mutton","lat":54.86829,"lon":-1.49511,"postcode":"DH4 7DY","la":"Sunderland","era":"other","nn":221,"risk":27,"cat":"green"},{"name":"The Bob Paisley Bar","lat":54.82167,"lon":-1.45552,"postcode":"DH5 9NE","la":"Sunderland","era":"other","nn":239,"risk":24,"cat":"green"},{"name":"The Britannia","lat":54.84306,"lon":-1.47079,"postcode":"DH4 4AL","la":"Sunderland","era":"trad","nn":34,"risk":23,"cat":"green"},{"name":"The Burn","lat":54.8348,"lon":-1.46554,"postcode":"DH5 8JN","la":"Sunderland","era":"other","nn":0,"risk":23,"cat":"green"},{"name":"The Burn Inn","lat":54.83796,"lon":-1.46847,"postcode":"DH5 8JN","la":"Sunderland","era":"trad","nn":293,"risk":25,"cat":"green"},{"name":"The Burn Inn","lat":54.8348,"lon":-1.46554,"postcode":"DH5 8JN","la":"Sunderland","era":"trad","nn":0,"risk":23,"cat":"green"},{"name":"The Colliery Inn","lat":54.82027,"lon":-1.45256,"postcode":"DH5 9JQ","la":"Sunderland","era":"trad","nn":40,"risk":23,"cat":"green"},{"name":"The Grey Horse Inn","lat":54.87882,"lon":-1.48789,"postcode":"DH4 7ER","la":"Sunderland","era":"trad","nn":4,"risk":40,"cat":"amber"},{"name":"The Philadelphia","lat":54.86468,"lon":-1.48298,"postcode":"DH4 4JG","la":"Sunderland","era":"other","nn":874,"risk":34,"cat":"amber"},{"name":"The Prince Of Wales","lat":54.82124,"lon":-1.45007,"postcode":"DH5 9HX","la":"Sunderland","era":"trad","nn":101,"risk":23,"cat":"green"},{"name":"The Prospect","lat":54.87532,"lon":-1.48699,"postcode":"DH4 7EJ","la":"Sunderland","era":"other","nn":392,"risk":25,"cat":"green"},{"name":"The Stables","lat":54.87122,"lon":-1.46039,"postcode":"DH4 4ND","la":"Sunderland","era":"other","nn":144,"risk":44,"cat":"amber"},{"name":"The Stackyard","lat":54.87191,"lon":-1.4585,"postcode":"DH4 4NB","la":"Sunderland","era":"mod","nn":144,"risk":44,"cat":"amber"},{"name":"The Sun Inn & Amalfi","lat":54.85622,"lon":-1.47775,"postcode":"DH4 4EG","la":"Sunderland","era":"trad","nn":275,"risk":42,"cat":"amber"},{"name":"The Three Tuns","lat":54.82978,"lon":-1.45651,"postcode":"DH5 9PN","la":"Sunderland","era":"other","nn":334,"risk":28,"cat":"green"},{"name":"The White Lion","lat":54.8429,"lon":-1.47004,"postcode":"DH4 4AN","la":"Sunderland","era":"trad","nn":20,"risk":23,"cat":"green"},{"name":"The Wild Boar","lat":54.8434,"lon":-1.46927,"postcode":"DH4 4BN","la":"Sunderland","era":"other","nn":74,"risk":23,"cat":"green"},{"name":"Tropi's Bar","lat":54.84303,"lon":-1.47025,"postcode":"DH4 4AN","la":"Sunderland","era":"other","nn":20,"risk":23,"cat":"green"}]