[{"name":"Barking Indoor Bowls","lat":51.54223,"lon":0.0851,"postcode":"IG11 8TA","la":"Barking and Dagenham","era":"trad","nn":571,"risk":34,"cat":"amber"},{"name":"Barking United Services Club","lat":51.53303,"lon":0.09849,"postcode":"IG11 9SF","la":"Barking and Dagenham","era":"trad","nn":402,"risk":37,"cat":"amber"},{"name":"De Lounge","lat":51.53895,"lon":0.07873,"postcode":"IG11 8HG","la":"Barking and Dagenham","era":"mod","nn":302,"risk":34,"cat":"amber"},{"name":"Kings Bull","lat":51.53648,"lon":0.07692,"postcode":"IG11 8ET","la":"Barking and Dagenham","era":"trad","nn":194,"risk":33,"cat":"amber"},{"name":"Scrattons Community Association Ltd","lat":51.53044,"lon":0.13255,"postcode":"IG11 0UA","la":"Barking and Dagenham","era":"other","nn":325,"risk":49,"cat":"amber"},{"name":"Thatched House","lat":51.53343,"lon":0.10556,"postcode":"IG11 9PG","la":"Barking and Dagenham","era":"other","nn":491,"risk":38,"cat":"amber"},{"name":"The Acorn","lat":51.54588,"lon":0.09322,"postcode":"IG11 8UF","la":"Barking and Dagenham","era":"other","nn":694,"risk":54,"cat":"amber"},{"name":"The Jolly Fisherman PH","lat":51.54123,"lon":0.07435,"postcode":"IG11 8LA","la":"Barking and Dagenham","era":"other","nn":395,"risk":35,"cat":"amber"},{"name":"The Lighterman Pub","lat":51.52859,"lon":0.10316,"postcode":"IG11 0NX","la":"Barking and Dagenham","era":"other","nn":562,"risk":38,"cat":"amber"},{"name":"The Spot","lat":51.53539,"lon":0.09409,"postcode":"IG11 9RS","la":"Barking and Dagenham","era":"other","nn":402,"risk":35,"cat":"amber"},{"name":"The Victoria","lat":51.53559,"lon":0.07933,"postcode":"IG11 7LZ","la":"Barking and Dagenham","era":"trad","nn":194,"risk":33,"cat":"amber"},{"name":"Afternoon Tea & Coffee Club","lat":51.64865,"lon":0.08205,"postcode":"IG10 2AZ","la":"Epping Forest","era":"other","nn":174,"risk":27,"cat":"green"},{"name":"Bedford House Community Association","lat":51.62779,"lon":0.03898,"postcode":"IG9 5NW","la":"Epping Forest","era":"mod","nn":310,"risk":28,"cat":"green"},{"name":"Buckhurst Hill Bowling & Lawn Tennis","lat":51.62935,"lon":0.02977,"postcode":"IG9 5TX","la":"Epping Forest","era":"other","nn":316,"risk":28,"cat":"green"},{"name":"Buckhurst Hill Cricket And Lacrosse Club","lat":51.62752,"lon":0.05112,"postcode":"IG9 6BJ","la":"Epping Forest","era":"trad","nn":22,"risk":26,"cat":"green"},{"name":"Buckhurst Hill Junior Sports Club","lat":51.62754,"lon":0.05144,"postcode":"IG9 6BJ","la":"Epping Forest","era":"other","nn":0,"risk":26,"cat":"green"},{"name":"Buckhurst Hill Sports and Leisure","lat":51.62511,"lon":0.04464,"postcode":"IG9 5BY","la":"Epping Forest","era":"other","nn":17,"risk":26,"cat":"green"},{"name":"Carpenters Arms Public House","lat":51.6483,"lon":0.0521,"postcode":"IG10 4BP","la":"Epping Forest","era":"trad","nn":3,"risk":26,"cat":"green"},{"name":"Chigwell Golf Club Ltd","lat":51.61331,"lon":0.06957,"postcode":"IG7 5BH","la":"Epping Forest","era":"other","nn":777,"risk":31,"cat":"amber"},{"name":"Chigwell Hall","lat":51.62486,"lon":0.07612,"postcode":"IG7 6BD","la":"Epping Forest","era":"other","nn":328,"risk":28,"cat":"green"},{"name":"Chigwell Mens Club","lat":51.61812,"lon":0.07774,"postcode":"IG7 6QX","la":"Epping Forest","era":"other","nn":325,"risk":31,"cat":"amber"},{"name":"David Lloyd Leisure Ltd","lat":51.62754,"lon":0.05144,"postcode":"IG9 6BJ","la":"Epping Forest","era":"other","nn":0,"risk":26,"cat":"green"},{"name":"Debden Sports Club","lat":51.64233,"lon":0.08318,"postcode":"IG10 3TP","la":"Epping Forest","era":"other","nn":489,"risk":29,"cat":"green"},{"name":"Grange Farm Centre","lat":51.6324,"lon":0.07625,"postcode":"IG7 6DP","la":"Epping Forest","era":"other","nn":682,"risk":36,"cat":"amber"},{"name":"Gunmakers Arms","lat":51.65807,"lon":0.07954,"postcode":"IG10 2LJ","la":"Epping Forest","era":"trad","nn":577,"risk":50,"cat":"amber"},{"name":"High Beech Golf Club","lat":51.66742,"lon":0.03159,"postcode":"IG10 4AH","la":"Epping Forest","era":"other","nn":677,"risk":51,"cat":"amber"},{"name":"Il Vino","lat":51.62502,"lon":0.04483,"postcode":"IG9 5BY","la":"Epping Forest","era":"other","nn":17,"risk":26,"cat":"green"},{"name":"Krz Evolution","lat":51.63304,"lon":0.02888,"postcode":"IG9 5UA","la":"Epping Forest","era":"other","nn":415,"risk":29,"cat":"green"},{"name":"LBC Golds Lunch Club","lat":51.644,"lon":0.05033,"postcode":"IG10 4QU","la":"Epping Forest","era":"other","nn":227,"risk":27,"cat":"green"},{"name":"Loughton Club","lat":51.64429,"lon":0.05377,"postcode":"IG10 4NZ","la":"Epping Forest","era":"other","nn":97,"risk":27,"cat":"green"},{"name":"Loughton Masonic Hall","lat":51.64657,"lon":0.05146,"postcode":"IG10 4BL","la":"Epping Forest","era":"trad","nn":139,"risk":27,"cat":"green"},{"name":"Manjal Indian Restaurant","lat":51.64492,"lon":0.08891,"postcode":"IG10 3TQ","la":"Epping Forest","era":"other","nn":489,"risk":29,"cat":"green"},{"name":"Monkhams Inn","lat":51.61865,"lon":0.04587,"postcode":"IG9 6HY","la":"Epping Forest","era":"trad","nn":139,"risk":27,"cat":"green"},{"name":"Old Chigwellians Club","lat":51.62684,"lon":0.07208,"postcode":"IG7 6BE","la":"Epping Forest","era":"other","nn":356,"risk":31,"cat":"amber"},{"name":"Old Loughtonians Hockey Club","lat":51.61715,"lon":0.05747,"postcode":"IG7 5AB","la":"Epping Forest","era":"other","nn":0,"risk":26,"cat":"green"},{"name":"Quindici","lat":51.65123,"lon":0.05791,"postcode":"IG10 1RL","la":"Epping Forest","era":"other","nn":203,"risk":27,"cat":"green"},{"name":"Railway Bar & Grill","lat":51.62529,"lon":0.04605,"postcode":"IG9 5BZ","la":"Epping Forest","era":"other","nn":89,"risk":26,"cat":"green"},{"name":"Restore Community","lat":51.64182,"lon":0.07361,"postcode":"IG10 3NB","la":"Epping Forest","era":"other","nn":364,"risk":31,"cat":"amber"},{"name":"Robin Hood","lat":51.64174,"lon":0.03498,"postcode":"IG10 4AA","la":"Epping Forest","era":"other","nn":1055,"risk":56,"cat":"amber"},{"name":"Roding Valley Cricket Club","lat":51.63141,"lon":0.05566,"postcode":"IG9 6BY","la":"Epping Forest","era":"other","nn":520,"risk":32,"cat":"amber"},{"name":"Roding Valley Hall","lat":51.61761,"lon":0.04476,"postcode":"IG9 6LN","la":"Epping Forest","era":"other","nn":139,"risk":27,"cat":"green"},{"name":"Royal British Legion Club","lat":51.65503,"lon":0.06542,"postcode":"IG10 1LH","la":"Epping Forest","era":"trad","nn":50,"risk":26,"cat":"green"},{"name":"Saint James United Reformed Church","lat":51.62724,"lon":0.03458,"postcode":"IG9 5NG","la":"Epping Forest","era":"trad","nn":270,"risk":28,"cat":"green"},{"name":"Sheesh","lat":51.62421,"lon":0.08076,"postcode":"IG7 6QA","la":"Epping Forest","era":"other","nn":328,"risk":28,"cat":"green"},{"name":"St Johns Centenary Hall","lat":51.62966,"lon":0.03433,"postcode":"IG9 5RX","la":"Epping Forest","era":"other","nn":270,"risk":28,"cat":"green"},{"name":"T/A Kings Oak 2009 Ltd","lat":51.66427,"lon":0.03999,"postcode":"IG10 4AE","la":"Epping Forest","era":"trad","nn":677,"risk":51,"cat":"amber"},{"name":"The Black Deer","lat":51.64423,"lon":0.07005,"postcode":"IG10 3JN","la":"Epping Forest","era":"other","nn":364,"risk":31,"cat":"amber"},{"name":"The Cottage Loaf PH","lat":51.65567,"lon":0.08696,"postcode":"IG10 2EQ","la":"Epping Forest","era":"other","nn":577,"risk":47,"cat":"amber"},{"name":"The Foresters Arms","lat":51.65977,"lon":0.06315,"postcode":"IG10 1SF","la":"Epping Forest","era":"trad","nn":549,"risk":35,"cat":"amber"},{"name":"The Gardeners Arms","lat":51.65499,"lon":0.06004,"postcode":"IG10 1RX","la":"Epping Forest","era":"trad","nn":370,"risk":28,"cat":"green"},{"name":"The Hobo Club","lat":51.6456,"lon":0.05345,"postcode":"IG10 4LN","la":"Epping Forest","era":"other","nn":40,"risk":26,"cat":"green"},{"name":"The Holly Bush","lat":51.64592,"lon":0.05316,"postcode":"IG10 4BE","la":"Epping Forest","era":"trad","nn":0,"risk":26,"cat":"green"},{"name":"The Hub","lat":51.64718,"lon":0.08117,"postcode":"IG10 2FA","la":"Epping Forest","era":"mod","nn":174,"risk":27,"cat":"green"},{"name":"The King William IV","lat":51.62104,"lon":0.07743,"postcode":"IG7 6PJ","la":"Epping Forest","era":"trad","nn":325,"risk":31,"cat":"amber"},{"name":"The Luxborough Court School","lat":51.61715,"lon":0.05747,"postcode":"IG7 5AB","la":"Epping Forest","era":"other","nn":0,"risk":26,"cat":"green"},{"name":"The Owl Ltd","lat":51.65446,"lon":0.02036,"postcode":"IG10 4AL","la":"Epping Forest","era":"other","nn":1257,"risk":57,"cat":"amber"},{"name":"The Plume of Feathers","lat":51.65459,"lon":0.06537,"postcode":"IG10 1QR","la":"Epping Forest","era":"other","nn":50,"risk":26,"cat":"green"},{"name":"The Standard","lat":51.64592,"lon":0.05316,"postcode":"IG10 4BE","la":"Epping Forest","era":"other","nn":0,"risk":26,"cat":"green"},{"name":"The Three Colts","lat":51.62451,"lon":0.04412,"postcode":"IG9 5EE","la":"Epping Forest","era":"other","nn":75,"risk":26,"cat":"green"},{"name":"The Three Jolly Wheelers","lat":51.60887,"lon":0.0587,"postcode":"IG8 8AS","la":"Redbridge","era":"other","nn":236,"risk":29,"cat":"green"},{"name":"The Victoria Tavern","lat":51.64829,"lon":0.05214,"postcode":"IG10 4BP","la":"Epping Forest","era":"trad","nn":3,"risk":26,"cat":"green"},{"name":"Tom, Dick and Harry's","lat":51.64507,"lon":0.05314,"postcode":"IG10 4LF","la":"Epping Forest","era":"other","nn":62,"risk":26,"cat":"green"},{"name":"Topgolf","lat":51.64078,"lon":0.09314,"postcode":"IG7 6BX","la":"Epping Forest","era":"other","nn":104,"risk":32,"cat":"amber"},{"name":"Wesley Cafe","lat":51.64963,"lon":0.05648,"postcode":"IG10 1RB","la":"Epping Forest","era":"other","nn":203,"risk":27,"cat":"green"},{"name":"Woolston Manor GC (ATA  Shimla)","lat":51.64165,"lon":0.09367,"postcode":"IG7 6BX","la":"Epping Forest","era":"other","nn":104,"risk":32,"cat":"amber"},{"name":"Bancroft Rugby Football Club","lat":51.61605,"lon":0.04572,"postcode":"IG9 6JD","la":"Redbridge","era":"other","nn":186,"risk":29,"cat":"green"},{"name":"Barkingside Buzz Bingo","lat":51.59282,"lon":0.08217,"postcode":"IG6 2EF","la":"Redbridge","era":"trad","nn":233,"risk":29,"cat":"green"},{"name":"Bealonians Football Club","lat":51.5981,"lon":0.08765,"postcode":"IG6 2JL","la":"Redbridge","era":"other","nn":130,"risk":29,"cat":"green"},{"name":"Central Restaurant and Lounge","lat":51.56037,"lon":0.0951,"postcode":"IG3 9TN","la":"Redbridge","era":"mod","nn":600,"risk":35,"cat":"amber"},{"name":"Clementswood Bowling Club","lat":51.55488,"lon":0.08924,"postcode":"IG1 1SZ","la":"Redbridge","era":"other","nn":507,"risk":49,"cat":"amber"},{"name":"Desi Fusion Flavours","lat":51.59732,"lon":0.08907,"postcode":"IG6 3HD","la":"Redbridge","era":"other","nn":130,"risk":29,"cat":"green"},{"name":"Eastwood Snooker Bar & Grill","lat":51.57677,"lon":0.06529,"postcode":"IG2 6NE","la":"Redbridge","era":"mod","nn":211,"risk":32,"cat":"amber"},{"name":"Faces Nightclub","lat":51.57698,"lon":0.06833,"postcode":"IG2 6LE","la":"Redbridge","era":"other","nn":211,"risk":34,"cat":"amber"},{"name":"Fairlop Waters Boathouse Caf\u00e9","lat":51.59798,"lon":0.10464,"postcode":"IG6 3HN","la":"Redbridge","era":"mod","nn":327,"risk":35,"cat":"amber"},{"name":"Ford Sports & Social Club (Essex)","lat":51.57759,"lon":0.10027,"postcode":"IG3 8HG","la":"Redbridge","era":"mod","nn":834,"risk":51,"cat":"amber"},{"name":"Frenford Club","lat":51.57101,"lon":0.05656,"postcode":"IG1 3PS","la":"Redbridge","era":"other","nn":695,"risk":38,"cat":"amber"},{"name":"Hainault Bowls Club","lat":51.60409,"lon":0.11729,"postcode":"IG6 3SL","la":"Redbridge","era":"other","nn":575,"risk":49,"cat":"amber"},{"name":"Hainault Forest Community Centre","lat":51.60777,"lon":0.1044,"postcode":"IG7 4DF","la":"Redbridge","era":"other","nn":742,"risk":33,"cat":"amber"},{"name":"Hainault Forest Golf Club (Private)","lat":51.60548,"lon":0.13372,"postcode":"IG7 4QW","la":"Redbridge","era":"other","nn":1145,"risk":58,"cat":"amber"},{"name":"Hainault Youth Centre","lat":51.60925,"lon":0.11783,"postcode":"IG6 3SY","la":"Redbridge","era":"other","nn":542,"risk":37,"cat":"amber"},{"name":"Ilford & District Indoor Bowls Club","lat":51.57781,"lon":0.0882,"postcode":"IG2 7LX","la":"Redbridge","era":"other","nn":834,"risk":51,"cat":"amber"},{"name":"Ilford Golf Club","lat":51.56453,"lon":0.056,"postcode":"IG1 3TR","la":"Redbridge","era":"other","nn":722,"risk":50,"cat":"amber"},{"name":"Ilford Liberal Club","lat":51.56138,"lon":0.07231,"postcode":"IG1 4JF","la":"Redbridge","era":"other","nn":242,"risk":30,"cat":"green"},{"name":"Ilford Wanderers Rugby Football","lat":51.59919,"lon":0.10032,"postcode":"IG6 3HJ","la":"Redbridge","era":"other","nn":0,"risk":28,"cat":"green"},{"name":"Jono's Freehouse","lat":51.56001,"lon":0.06959,"postcode":"IG1 4PA","la":"Redbridge","era":"other","nn":151,"risk":29,"cat":"green"},{"name":"King George V Public House","lat":51.57834,"lon":0.07081,"postcode":"IG2 6SX","la":"Redbridge","era":"trad","nn":229,"risk":34,"cat":"amber"},{"name":"McCafferty's","lat":51.565,"lon":0.10113,"postcode":"IG3 8RH","la":"Redbridge","era":"other","nn":305,"risk":35,"cat":"amber"},{"name":"Miller & Carter at the Dick Turpin","lat":51.58607,"lon":0.10271,"postcode":"IG2 7TD","la":"Redbridge","era":"trad","nn":946,"risk":52,"cat":"amber"},{"name":"MM Bar","lat":51.55833,"lon":0.0734,"postcode":"IG1 1EQ","la":"Redbridge","era":"other","nn":191,"risk":29,"cat":"green"},{"name":"New Fairlop Oak Public House","lat":51.59403,"lon":0.08494,"postcode":"IG6 2JP","la":"Redbridge","era":"trad","nn":233,"risk":29,"cat":"green"},{"name":"Old Parkonians","lat":51.59612,"lon":0.09058,"postcode":"IG6 3HD","la":"Redbridge","era":"other","nn":169,"risk":29,"cat":"green"},{"name":"O'Neills","lat":51.55887,"lon":0.07078,"postcode":"IG1 4DW","la":"Redbridge","era":"other","nn":151,"risk":29,"cat":"green"},{"name":"Powerleague","lat":51.59919,"lon":0.10032,"postcode":"IG6 3HJ","la":"Redbridge","era":"other","nn":0,"risk":28,"cat":"green"},{"name":"Redbridge Football Club","lat":51.58592,"lon":0.08902,"postcode":"IG6 1NA","la":"Redbridge","era":"other","nn":620,"risk":32,"cat":"amber"},{"name":"Seasons Events and Catering","lat":51.60794,"lon":0.0333,"postcode":"IG8 0HL","la":"Redbridge","era":"other","nn":191,"risk":32,"cat":"amber"},{"name":"St. Cedd's Catholic Club","lat":51.56587,"lon":0.10531,"postcode":"IG3 8RW","la":"Redbridge","era":"other","nn":305,"risk":35,"cat":"amber"},{"name":"The Beehive Harvester","lat":51.57695,"lon":0.05965,"postcode":"IG4 5DR","la":"Redbridge","era":"trad","nn":390,"risk":33,"cat":"amber"},{"name":"The Chequers Public House","lat":51.58862,"lon":0.08116,"postcode":"IG6 2DD","la":"Redbridge","era":"other","nn":473,"risk":36,"cat":"amber"},{"name":"The Cricketers Public House","lat":51.60193,"lon":0.01889,"postcode":"IG8 9HQ","la":"Redbridge","era":"other","nn":449,"risk":31,"cat":"amber"},{"name":"The Crown & Crooked Billet P H","lat":51.60733,"lon":0.06106,"postcode":"IG8 8BN","la":"Redbridge","era":"trad","nn":236,"risk":34,"cat":"amber"},{"name":"The Forester Public House","lat":51.6125,"lon":0.11197,"postcode":"IG7 4NH","la":"Redbridge","era":"other","nn":542,"risk":49,"cat":"amber"},{"name":"The Great Spoon Of Ilford","lat":51.56225,"lon":0.06841,"postcode":"IG1 4LZ","la":"Redbridge","era":"other","nn":262,"risk":30,"cat":"green"},{"name":"The Horse & Well Public House","lat":51.61736,"lon":0.02693,"postcode":"IG8 0PS","la":"Redbridge","era":"trad","nn":209,"risk":34,"cat":"amber"},{"name":"The Old Maypole Public House","lat":51.6013,"lon":0.08403,"postcode":"IG6 2NG","la":"Redbridge","era":"other","nn":435,"risk":31,"cat":"amber"},{"name":"The Papermakers Arms Public House","lat":51.55653,"lon":0.06796,"postcode":"IG1 2AA","la":"Redbridge","era":"trad","nn":325,"risk":30,"cat":"green"},{"name":"The Prince Of Wales Public House","lat":51.55915,"lon":0.08665,"postcode":"IG1 1XJ","la":"Redbridge","era":"trad","nn":507,"risk":36,"cat":"amber"},{"name":"The Railway Tavern Public House","lat":51.60786,"lon":0.03871,"postcode":"IG8 7HY","la":"Redbridge","era":"trad","nn":325,"risk":48,"cat":"amber"},{"name":"The Rose & Crown Public House","lat":51.6097,"lon":0.0209,"postcode":"IG8 0UG","la":"Redbridge","era":"trad","nn":529,"risk":32,"cat":"amber"},{"name":"The Travellers Friend Public House","lat":51.61565,"lon":0.0257,"postcode":"IG8 0PN","la":"Redbridge","era":"other","nn":183,"risk":32,"cat":"amber"},{"name":"Toby Carvery","lat":51.59148,"lon":0.04732,"postcode":"IG8 8LG","la":"Redbridge","era":"other","nn":664,"risk":52,"cat":"amber"},{"name":"Unicorn Public House","lat":51.59175,"lon":0.06406,"postcode":"IG5 0NY","la":"Redbridge","era":"other","nn":1009,"risk":57,"cat":"amber"},{"name":"Uplands Social Club","lat":51.60524,"lon":0.05303,"postcode":"IG8 8EF","la":"Redbridge","era":"mod","nn":562,"risk":37,"cat":"amber"},{"name":"Wanstead Rugby Club","lat":51.59674,"lon":0.05186,"postcode":"IG8 8JY","la":"Redbridge","era":"other","nn":664,"risk":50,"cat":"amber"},{"name":"Woodford Bowling Club Limited","lat":51.60941,"lon":0.03472,"postcode":"IG8 0JA","la":"Redbridge","era":"other","nn":191,"risk":29,"cat":"green"},{"name":"Woodford Wells Cricket and Lawn Tennis Club","lat":51.61492,"lon":0.02808,"postcode":"IG8 0NL","la":"Redbridge","era":"other","nn":183,"risk":29,"cat":"green"},{"name":"The Royal Oak","lat":51.60421,"lon":0.00289,"postcode":"IG8 9LN","la":"Waltham Forest","era":"trad","nn":287,"risk":29,"cat":"green"},{"name":"Woodford Rugby Football Club","lat":51.6064,"lon":0.01539,"postcode":"IG8 9LB","la":"Waltham Forest","era":"other","nn":529,"risk":30,"cat":"green"}]