[{"name":"The Foxhouse Inn","lat":53.53929,"lon":-1.74728,"postcode":"HD9 2TR","la":"Kirklees","era":"other","nn":2043,"risk":51,"cat":"amber"},{"name":"Black Bull Hotel","lat":53.70122,"lon":-1.78236,"postcode":"HD6 1EA","la":"Calderdale","era":"trad","nn":71,"risk":25,"cat":"green"},{"name":"Brighouse Sports Club","lat":53.71163,"lon":-1.78009,"postcode":"HD6 4LX","la":"Calderdale","era":"mod","nn":436,"risk":45,"cat":"amber"},{"name":"Calder Brighouse","lat":53.70114,"lon":-1.77944,"postcode":"HD6 1JZ","la":"Calderdale","era":"other","nn":123,"risk":25,"cat":"green"},{"name":"Old Ship Inn","lat":53.70128,"lon":-1.7813,"postcode":"HD6 1JR","la":"Calderdale","era":"trad","nn":46,"risk":24,"cat":"green"},{"name":"Prince Albert Inn","lat":53.70673,"lon":-1.78514,"postcode":"HD6 2AZ","la":"Calderdale","era":"trad","nn":263,"risk":26,"cat":"green"},{"name":"Rastrick Constitutional Club","lat":53.691,"lon":-1.79113,"postcode":"HD6 3NF","la":"Calderdale","era":"other","nn":431,"risk":32,"cat":"amber"},{"name":"Red Lion","lat":53.69378,"lon":-1.78655,"postcode":"HD6 3EL","la":"Calderdale","era":"trad","nn":431,"risk":27,"cat":"green"},{"name":"Red Rooster (Brighouse Ltd)","lat":53.70539,"lon":-1.79383,"postcode":"HD6 2QR","la":"Calderdale","era":"mod","nn":591,"risk":28,"cat":"green"},{"name":"Roundhill Inn","lat":53.68194,"lon":-1.79592,"postcode":"HD6 3QL","la":"Calderdale","era":"trad","nn":342,"risk":29,"cat":"green"},{"name":"Sun Inn","lat":53.68256,"lon":-1.80101,"postcode":"HD6 3PZ","la":"Calderdale","era":"trad","nn":342,"risk":29,"cat":"green"},{"name":"The Barge","lat":53.70136,"lon":-1.77741,"postcode":"HD6 1PA","la":"Calderdale","era":"other","nn":136,"risk":25,"cat":"green"},{"name":"The Crow Bar And Kitchen","lat":53.68578,"lon":-1.79689,"postcode":"HD6 3NH","la":"Calderdale","era":"mod","nn":202,"risk":25,"cat":"green"},{"name":"The George","lat":53.70261,"lon":-1.77943,"postcode":"HD6 1AQ","la":"Calderdale","era":"trad","nn":149,"risk":25,"cat":"green"},{"name":"The Grove Inn","lat":53.68758,"lon":-1.79727,"postcode":"HD6 3NW","la":"Calderdale","era":"trad","nn":202,"risk":25,"cat":"green"},{"name":"The Market Tavern","lat":53.70087,"lon":-1.78127,"postcode":"HD6 1JX","la":"Calderdale","era":"other","nn":46,"risk":24,"cat":"green"},{"name":"The Old Post Office","lat":53.7004,"lon":-1.77128,"postcode":"HD6 1AA","la":"Calderdale","era":"other","nn":417,"risk":27,"cat":"green"},{"name":"Thornhill Briggs W M C","lat":53.70781,"lon":-1.78157,"postcode":"HD6 4AW","la":"Calderdale","era":"other","nn":263,"risk":26,"cat":"green"},{"name":"Villain Bar Brighouse Ltd","lat":53.70228,"lon":-1.78163,"postcode":"HD6 1AQ","la":"Calderdale","era":"mod","nn":113,"risk":25,"cat":"green"},{"name":"315 Bar And Restaurant","lat":53.63235,"lon":-1.6907,"postcode":"HD8 0LX","la":"Kirklees","era":"mod","nn":0,"risk":34,"cat":"amber"},{"name":"84 James Street","lat":53.6372,"lon":-1.85194,"postcode":"HD7 4HT","la":"Kirklees","era":"other","nn":148,"risk":15,"cat":"green"},{"name":"Afc Emley","lat":53.61327,"lon":-1.63201,"postcode":"HD8 9RE","la":"Kirklees","era":"other","nn":0,"risk":32,"cat":"amber"},{"name":"Allied Hotel","lat":53.60464,"lon":-1.79304,"postcode":"HD9 6AH","la":"Kirklees","era":"other","nn":53,"risk":15,"cat":"green"},{"name":"Almondbury Bowling Club","lat":53.63014,"lon":-1.74949,"postcode":"HD5 8XN","la":"Kirklees","era":"other","nn":184,"risk":16,"cat":"green"},{"name":"Almondbury Conservative Club","lat":53.63103,"lon":-1.74714,"postcode":"HD5 8XF","la":"Kirklees","era":"other","nn":0,"risk":14,"cat":"green"},{"name":"Almondbury Cricket Club","lat":53.63861,"lon":-1.74975,"postcode":"HD5 8PF","la":"Kirklees","era":"other","nn":571,"risk":18,"cat":"green"},{"name":"Almondbury Liberal Club","lat":53.6346,"lon":-1.74435,"postcode":"HD5 8TA","la":"Kirklees","era":"other","nn":437,"risk":18,"cat":"green"},{"name":"Almondbury Wesleyan Cricket Club","lat":53.62893,"lon":-1.76119,"postcode":"HD5 8XU","la":"Kirklees","era":"other","nn":783,"risk":22,"cat":"green"},{"name":"Antilles Education And Social Club","lat":53.65061,"lon":-1.79764,"postcode":"HD1 4DZ","la":"Kirklees","era":"mod","nn":263,"risk":16,"cat":"green"},{"name":"APNA VENUE","lat":53.64275,"lon":-1.78956,"postcode":"HD1 2NX","la":"Kirklees","era":"other","nn":85,"risk":15,"cat":"green"},{"name":"Armitage Bridge Cricket Club","lat":53.62061,"lon":-1.8017,"postcode":"HD4 7PB","la":"Kirklees","era":"other","nn":0,"risk":17,"cat":"green"},{"name":"Armitage Bridge Monkey Club","lat":53.62061,"lon":-1.8017,"postcode":"HD4 7PB","la":"Kirklees","era":"trad","nn":0,"risk":17,"cat":"green"},{"name":"Bao Bros 23","lat":53.60146,"lon":-1.92713,"postcode":"HD7 6BR","la":"Kirklees","era":"other","nn":0,"risk":14,"cat":"green"},{"name":"Beaumont Arms","lat":53.61268,"lon":-1.81865,"postcode":"HD4 7EL","la":"Kirklees","era":"trad","nn":236,"risk":34,"cat":"amber"},{"name":"Beaumont Arms","lat":53.65144,"lon":-1.72997,"postcode":"HD5 0BH","la":"Kirklees","era":"trad","nn":572,"risk":18,"cat":"green"},{"name":"Beechfield Inn","lat":53.61327,"lon":-1.63201,"postcode":"HD8 9RE","la":"Kirklees","era":"trad","nn":0,"risk":32,"cat":"amber"},{"name":"Berry Brow Liberal Club","lat":53.61941,"lon":-1.7953,"postcode":"HD4 7NF","la":"Kirklees","era":"other","nn":261,"risk":19,"cat":"green"},{"name":"Black Bull","lat":53.584,"lon":-1.71055,"postcode":"HD8 8AE","la":"Kirklees","era":"trad","nn":180,"risk":21,"cat":"green"},{"name":"Black Bull","lat":53.66242,"lon":-1.82551,"postcode":"HD3 3JT","la":"Kirklees","era":"trad","nn":237,"risk":16,"cat":"green"},{"name":"Black Horse","lat":53.6531,"lon":-1.74252,"postcode":"HD5 9ST","la":"Kirklees","era":"trad","nn":775,"risk":22,"cat":"green"},{"name":"Blacksmiths Arms","lat":53.66398,"lon":-1.7209,"postcode":"HD5 0PH","la":"Kirklees","era":"trad","nn":516,"risk":18,"cat":"green"},{"name":"Boot And Shoe Inn","lat":53.56603,"lon":-1.76144,"postcode":"HD9 1UQ","la":"Kirklees","era":"trad","nn":516,"risk":21,"cat":"green"},{"name":"Boshaw Trout","lat":53.54702,"lon":-1.77829,"postcode":"HD9 2JG","la":"Kirklees","era":"other","nn":1158,"risk":45,"cat":"amber"},{"name":"Boy And Barrel Hotel","lat":53.6477,"lon":-1.77961,"postcode":"HD1 1QF","la":"Kirklees","era":"other","nn":49,"risk":15,"cat":"green"},{"name":"Bradley & Colnebridge WMC","lat":53.68021,"lon":-1.73637,"postcode":"HD5 0RH","la":"Kirklees","era":"other","nn":118,"risk":18,"cat":"green"},{"name":"Bradley Mills Cricket And Bowling Club","lat":53.65766,"lon":-1.77036,"postcode":"HD1 6PB","la":"Kirklees","era":"trad","nn":488,"risk":18,"cat":"green"},{"name":"Bradley Park Golf Club","lat":53.68176,"lon":-1.76024,"postcode":"HD2 1PZ","la":"Kirklees","era":"other","nn":1296,"risk":46,"cat":"amber"},{"name":"Brewdog Huddersfield","lat":53.64419,"lon":-1.78001,"postcode":"HD1 2RD","la":"Kirklees","era":"other","nn":0,"risk":14,"cat":"green"},{"name":"Broad Oak Cricket And Athletic Club","lat":53.62793,"lon":-1.84556,"postcode":"HD7 5TE","la":"Kirklees","era":"trad","nn":0,"risk":14,"cat":"green"},{"name":"Broadoak W.M.C.","lat":53.62793,"lon":-1.84556,"postcode":"HD7 5TE","la":"Kirklees","era":"trad","nn":0,"risk":14,"cat":"green"},{"name":"Brockholes Bowling Club","lat":53.59784,"lon":-1.7755,"postcode":"HD9 7AL","la":"Kirklees","era":"other","nn":157,"risk":21,"cat":"green"},{"name":"Butchers Arms","lat":53.55705,"lon":-1.75524,"postcode":"HD9 1TE","la":"Kirklees","era":"trad","nn":627,"risk":21,"cat":"green"},{"name":"Camel Club","lat":53.64751,"lon":-1.78294,"postcode":"HD1 1BS","la":"Kirklees","era":"other","nn":52,"risk":15,"cat":"green"},{"name":"Carousel","lat":53.64612,"lon":-1.78046,"postcode":"HD1 2PT","la":"Kirklees","era":"other","nn":30,"risk":15,"cat":"green"},{"name":"Cavalry Arms","lat":53.66333,"lon":-1.81721,"postcode":"HD3 3BR","la":"Kirklees","era":"trad","nn":456,"risk":18,"cat":"green"},{"name":"Charlie's Vintage Bar","lat":53.57013,"lon":-1.78761,"postcode":"HD9 7DF","la":"Kirklees","era":"other","nn":45,"risk":15,"cat":"green"},{"name":"Clayton West Cricket Club","lat":53.5978,"lon":-1.60878,"postcode":"HD8 9PP","la":"Kirklees","era":"other","nn":267,"risk":21,"cat":"green"},{"name":"Cleopatra's Lounge","lat":53.64695,"lon":-1.77937,"postcode":"HD1 6QE","la":"Kirklees","era":"mod","nn":44,"risk":15,"cat":"green"},{"name":"Clothiers Arms Inn","lat":53.59393,"lon":-1.72409,"postcode":"HD4 6XN","la":"Kirklees","era":"trad","nn":778,"risk":40,"cat":"amber"},{"name":"Commercial Hotel","lat":53.62286,"lon":-1.88055,"postcode":"HD7 5AN","la":"Kirklees","era":"other","nn":118,"risk":15,"cat":"green"},{"name":"Commercial Hotel","lat":53.64465,"lon":-1.78352,"postcode":"HD1 2BW","la":"Kirklees","era":"other","nn":70,"risk":15,"cat":"green"},{"name":"Commercial Inn","lat":53.64081,"lon":-1.86073,"postcode":"HD7 4NB","la":"Kirklees","era":"trad","nn":6,"risk":14,"cat":"green"},{"name":"Cowcliffe Liberal Club","lat":53.66765,"lon":-1.78827,"postcode":"HD2 2LZ","la":"Kirklees","era":"other","nn":175,"risk":18,"cat":"green"},{"name":"Crosland Heath Golf Club","lat":53.62522,"lon":-1.83446,"postcode":"HD4 7AF","la":"Kirklees","era":"other","nn":498,"risk":18,"cat":"green"},{"name":"Crosland Moor Conservative Club","lat":53.63784,"lon":-1.80787,"postcode":"HD4 5DA","la":"Kirklees","era":"other","nn":259,"risk":16,"cat":"green"},{"name":"Crosland Moor Working Mens Club","lat":53.63707,"lon":-1.81158,"postcode":"HD4 5RE","la":"Kirklees","era":"trad","nn":170,"risk":16,"cat":"green"},{"name":"Crown Hotel","lat":53.64678,"lon":-1.78555,"postcode":"HD1 1PB","la":"Kirklees","era":"trad","nn":74,"risk":15,"cat":"green"},{"name":"Cumberworth United Cricket Club","lat":53.57993,"lon":-1.66703,"postcode":"HD8 8PE","la":"Kirklees","era":"other","nn":211,"risk":36,"cat":"amber"},{"name":"Dalton Cricket Club","lat":53.65075,"lon":-1.76277,"postcode":"HD5 9NL","la":"Kirklees","era":"other","nn":606,"risk":19,"cat":"green"},{"name":"Deighton Working Mens Club","lat":53.67049,"lon":-1.7552,"postcode":"HD2 1JU","la":"Kirklees","era":"trad","nn":1272,"risk":46,"cat":"amber"},{"name":"Denby Dale Cricket Club","lat":53.57361,"lon":-1.65311,"postcode":"HD8 8RX","la":"Kirklees","era":"other","nn":169,"risk":21,"cat":"green"},{"name":"Denby Dale Working Mens Club","lat":53.57195,"lon":-1.65757,"postcode":"HD8 8TH","la":"Kirklees","era":"trad","nn":187,"risk":33,"cat":"amber"},{"name":"Dunkirk Inn","lat":53.56819,"lon":-1.64183,"postcode":"HD8 8TX","la":"Kirklees","era":"trad","nn":958,"risk":41,"cat":"amber"},{"name":"Dusty Miller Inn","lat":53.65181,"lon":-1.84394,"postcode":"HD3 4XH","la":"Kirklees","era":"trad","nn":200,"risk":16,"cat":"green"},{"name":"Elephant And Castle Inn","lat":53.56937,"lon":-1.78775,"postcode":"HD9 2DG","la":"Kirklees","era":"trad","nn":14,"risk":15,"cat":"green"},{"name":"Emley Moor Working Mens Club","lat":53.61725,"lon":-1.66192,"postcode":"HD8 9TB","la":"Kirklees","era":"trad","nn":1449,"risk":47,"cat":"amber"},{"name":"Farmers Arms","lat":53.56683,"lon":-1.80334,"postcode":"HD9 2LR","la":"Kirklees","era":"trad","nn":651,"risk":37,"cat":"amber"},{"name":"Farmers Boy Inn","lat":53.58269,"lon":-1.71589,"postcode":"HD8 8AP","la":"Kirklees","era":"trad","nn":253,"risk":21,"cat":"green"},{"name":"Farnley Tyas Bowling Club","lat":53.61248,"lon":-1.75233,"postcode":"HD4 6UE","la":"Kirklees","era":"other","nn":131,"risk":35,"cat":"amber"},{"name":"Fenay Bridge","lat":53.63599,"lon":-1.72597,"postcode":"HD8 0AS","la":"Kirklees","era":"other","nn":0,"risk":19,"cat":"green"},{"name":"Foresters Arms","lat":53.5818,"lon":-1.66651,"postcode":"HD8 8PH","la":"Kirklees","era":"trad","nn":211,"risk":36,"cat":"amber"},{"name":"Foresters Hotel","lat":53.63852,"lon":-1.8124,"postcode":"HD4 5BL","la":"Kirklees","era":"other","nn":170,"risk":16,"cat":"green"},{"name":"Fountain Inn","lat":53.62783,"lon":-1.78661,"postcode":"HD4 6JR","la":"Kirklees","era":"trad","nn":78,"risk":15,"cat":"green"},{"name":"Four Horse Shoes","lat":53.6393,"lon":-1.82577,"postcode":"HD3 4ND","la":"Kirklees","era":"trad","nn":132,"risk":15,"cat":"green"},{"name":"Gawthorpe Working Mens Club","lat":53.64388,"lon":-1.71772,"postcode":"HD5 0NZ","la":"Kirklees","era":"trad","nn":421,"risk":35,"cat":"amber"},{"name":"Golcar Central Liberal Club","lat":53.63843,"lon":-1.85279,"postcode":"HD7 4AH","la":"Kirklees","era":"other","nn":148,"risk":15,"cat":"green"},{"name":"Golcar Cricket And Athletic Club","lat":53.64081,"lon":-1.86064,"postcode":"HD7 4NB","la":"Kirklees","era":"other","nn":6,"risk":14,"cat":"green"},{"name":"Golcar Lily","lat":53.63569,"lon":-1.86877,"postcode":"HD7 4JR","la":"Kirklees","era":"other","nn":778,"risk":20,"cat":"green"},{"name":"Golden Cock Inn","lat":53.61133,"lon":-1.75275,"postcode":"HD4 6UD","la":"Kirklees","era":"trad","nn":131,"risk":35,"cat":"amber"},{"name":"Golden Fleece","lat":53.61803,"lon":-1.79112,"postcode":"HD4 7QP","la":"Kirklees","era":"trad","nn":316,"risk":17,"cat":"green"},{"name":"Greenhead Masonic Hall","lat":53.64702,"lon":-1.78983,"postcode":"HD1 4EN","la":"Kirklees","era":"trad","nn":209,"risk":16,"cat":"green"},{"name":"Grosvenor Casino","lat":53.64001,"lon":-1.78865,"postcode":"HD1 3LT","la":"Kirklees","era":"other","nn":216,"risk":16,"cat":"green"},{"name":"Hall Bower Club","lat":53.62345,"lon":-1.77904,"postcode":"HD4 6RR","la":"Kirklees","era":"other","nn":284,"risk":16,"cat":"green"},{"name":"Hall Bower Cricket Club","lat":53.6249,"lon":-1.7755,"postcode":"HD4 6RN","la":"Kirklees","era":"other","nn":284,"risk":16,"cat":"green"},{"name":"Hao Lai Wu Karaoke Bar","lat":53.64727,"lon":-1.77978,"postcode":"HD1 1QT","la":"Kirklees","era":"other","nn":44,"risk":15,"cat":"green"},{"name":"Harp Inn","lat":53.66122,"lon":-1.78096,"postcode":"HD1 6ER","la":"Kirklees","era":"trad","nn":213,"risk":16,"cat":"green"},{"name":"Harveys Bar Kitchen","lat":53.63599,"lon":-1.72597,"postcode":"HD8 0AS","la":"Kirklees","era":"mod","nn":0,"risk":19,"cat":"green"},{"name":"Head Of Steam","lat":53.64741,"lon":-1.78495,"postcode":"HD1 1JF","la":"Kirklees","era":"trad","nn":0,"risk":14,"cat":"green"},{"name":"Holmbridge Cricket Club","lat":53.55771,"lon":-1.82288,"postcode":"HD9 2QN","la":"Kirklees","era":"other","nn":271,"risk":34,"cat":"amber"},{"name":"Holme Valley Masonic Hall","lat":53.57142,"lon":-1.78413,"postcode":"HD9 1AB","la":"Kirklees","era":"trad","nn":115,"risk":15,"cat":"green"},{"name":"Holmfirth Cricket Club","lat":53.57244,"lon":-1.78387,"postcode":"HD9 7AN","la":"Kirklees","era":"other","nn":115,"risk":15,"cat":"green"},{"name":"Holmfirth Tavern","lat":53.57066,"lon":-1.78706,"postcode":"HD9 7BB","la":"Kirklees","era":"other","nn":30,"risk":15,"cat":"green"},{"name":"Honley Conservative Club","lat":53.60511,"lon":-1.79321,"postcode":"HD9 6BA","la":"Kirklees","era":"other","nn":53,"risk":15,"cat":"green"},{"name":"Honley Cricket Club","lat":53.60224,"lon":-1.7883,"postcode":"HD9 6NS","la":"Kirklees","era":"other","nn":124,"risk":15,"cat":"green"},{"name":"Honley Liberal Club","lat":53.60338,"lon":-1.79414,"postcode":"HD9 6AS","la":"Kirklees","era":"other","nn":97,"risk":15,"cat":"green"},{"name":"Horse And Groom","lat":53.63745,"lon":-1.83069,"postcode":"HD4 5SZ","la":"Kirklees","era":"trad","nn":116,"risk":15,"cat":"green"},{"name":"Huddersfield Bridge Club","lat":53.65219,"lon":-1.78747,"postcode":"HD1 5BU","la":"Kirklees","era":"other","nn":275,"risk":16,"cat":"green"},{"name":"Huddersfield Golf Club","lat":53.67159,"lon":-1.80071,"postcode":"HD2 2EP","la":"Kirklees","era":"other","nn":757,"risk":37,"cat":"amber"},{"name":"Huddersfield Lawn Tennis And Squash Club","lat":53.65323,"lon":-1.79315,"postcode":"HD1 5NF","la":"Kirklees","era":"other","nn":299,"risk":17,"cat":"green"},{"name":"Huddersfield Territorial Army Centre","lat":53.64245,"lon":-1.77885,"postcode":"HD1 3DR","la":"Kirklees","era":"other","nn":208,"risk":16,"cat":"green"},{"name":"Huntsman Inn","lat":53.57034,"lon":-1.83951,"postcode":"HD9 3XF","la":"Kirklees","era":"trad","nn":1783,"risk":49,"cat":"amber"},{"name":"Jackson Bridge Working Mens Club","lat":53.56244,"lon":-1.75244,"postcode":"HD9 1HR","la":"Kirklees","era":"trad","nn":121,"risk":15,"cat":"green"},{"name":"Jacobs Well","lat":53.60334,"lon":-1.788,"postcode":"HD9 6PU","la":"Kirklees","era":"other","nn":124,"risk":15,"cat":"green"},{"name":"Junction Inn","lat":53.65122,"lon":-1.8015,"postcode":"HD1 4LA","la":"Kirklees","era":"trad","nn":263,"risk":16,"cat":"green"},{"name":"Junction Inn","lat":53.6001,"lon":-1.60997,"postcode":"HD8 9QB","la":"Kirklees","era":"trad","nn":0,"risk":32,"cat":"amber"},{"name":"Junction One Cafe Bar","lat":53.638,"lon":-1.85016,"postcode":"HD7 4AN","la":"Kirklees","era":"other","nn":148,"risk":15,"cat":"green"},{"name":"Junk","lat":53.61415,"lon":-1.69465,"postcode":"HD8 0TW","la":"Kirklees","era":"other","nn":641,"risk":24,"cat":"green"},{"name":"Kirkburton Carlton WMC","lat":53.61021,"lon":-1.70176,"postcode":"HD8 0SG","la":"Kirklees","era":"other","nn":342,"risk":17,"cat":"green"},{"name":"Kirkburton Cricket Club","lat":53.61066,"lon":-1.70871,"postcode":"HD8 0SX","la":"Kirklees","era":"other","nn":325,"risk":17,"cat":"green"},{"name":"Kirkburton Liberal Club","lat":53.6126,"lon":-1.70502,"postcode":"HD8 0RH","la":"Kirklees","era":"other","nn":325,"risk":17,"cat":"green"},{"name":"Kirkheaton Conservative Club","lat":53.65909,"lon":-1.72758,"postcode":"HD5 0HW","la":"Kirklees","era":"other","nn":0,"risk":14,"cat":"green"},{"name":"Kirkheaton Cricket And Bowling Club","lat":53.65654,"lon":-1.73095,"postcode":"HD5 0JW","la":"Kirklees","era":"other","nn":189,"risk":16,"cat":"green"},{"name":"Krafty","lat":53.60379,"lon":-1.79213,"postcode":"HD9 6AA","la":"Kirklees","era":"other","nn":17,"risk":15,"cat":"green"},{"name":"Krafty Kettle - Ground Floor","lat":53.60365,"lon":-1.79224,"postcode":"HD9 6AA","la":"Kirklees","era":"other","nn":17,"risk":15,"cat":"green"},{"name":"Lamb Inn","lat":53.65834,"lon":-1.78561,"postcode":"HD1 6HJ","la":"Kirklees","era":"trad","nn":156,"risk":16,"cat":"green"},{"name":"Lascelles Hall Cricket Club","lat":53.64405,"lon":-1.7241,"postcode":"HD5 0BB","la":"Kirklees","era":"other","nn":266,"risk":16,"cat":"green"},{"name":"Lawrence Batley Theatre","lat":53.64454,"lon":-1.78011,"postcode":"HD1 2SP","la":"Kirklees","era":"other","nn":0,"risk":14,"cat":"green"},{"name":"Lepton Highlanders Sports & Social","lat":53.63235,"lon":-1.6907,"postcode":"HD8 0LX","la":"Kirklees","era":"mod","nn":0,"risk":34,"cat":"amber"},{"name":"Lepton Liberal Club","lat":53.64338,"lon":-1.72798,"postcode":"HD8 0BG","la":"Kirklees","era":"other","nn":266,"risk":16,"cat":"green"},{"name":"Lindley Bowling Club","lat":53.65924,"lon":-1.81681,"postcode":"HD3 3LP","la":"Kirklees","era":"other","nn":281,"risk":16,"cat":"green"},{"name":"Lindley Liberal Club","lat":53.65825,"lon":-1.82073,"postcode":"HD3 3EQ","la":"Kirklees","era":"other","nn":0,"risk":14,"cat":"green"},{"name":"Lindley Masonic Hall","lat":53.65232,"lon":-1.81372,"postcode":"HD3 4AJ","la":"Kirklees","era":"trad","nn":89,"risk":15,"cat":"green"},{"name":"Lindley Working Mens Club","lat":53.66031,"lon":-1.82608,"postcode":"HD3 3JQ","la":"Kirklees","era":"trad","nn":211,"risk":16,"cat":"green"},{"name":"Lockwood And Salford Liberal Club","lat":53.63425,"lon":-1.79601,"postcode":"HD1 3TT","la":"Kirklees","era":"other","nn":114,"risk":15,"cat":"green"},{"name":"Longley Park Golf Club","lat":53.64214,"lon":-1.77178,"postcode":"HD5 9AX","la":"Kirklees","era":"other","nn":290,"risk":16,"cat":"green"},{"name":"Longwood Bowling Club","lat":53.65001,"lon":-1.84412,"postcode":"HD3 4TZ","la":"Kirklees","era":"other","nn":185,"risk":16,"cat":"green"},{"name":"Lord Wilson","lat":53.64592,"lon":-1.7791,"postcode":"HD1 2QB","la":"Kirklees","era":"other","nn":58,"risk":15,"cat":"green"},{"name":"Lower Royal George","lat":53.63944,"lon":-1.90212,"postcode":"HD3 3FW","la":"Kirklees","era":"trad","nn":1535,"risk":48,"cat":"amber"},{"name":"Magic Rock Tap Room and Brewery","lat":53.65694,"lon":-1.78581,"postcode":"HD1 5EB","la":"Kirklees","era":"mod","nn":156,"risk":16,"cat":"green"},{"name":"Marsden Conservative Club","lat":53.60212,"lon":-1.92817,"postcode":"HD7 6DF","la":"Kirklees","era":"other","nn":101,"risk":15,"cat":"green"},{"name":"Marsden Cricket Club","lat":53.59382,"lon":-1.93569,"postcode":"HD7 6NN","la":"Kirklees","era":"other","nn":0,"risk":14,"cat":"green"},{"name":"Marsden Golf Club","lat":53.59382,"lon":-1.93569,"postcode":"HD7 6NN","la":"Kirklees","era":"other","nn":0,"risk":14,"cat":"green"},{"name":"Marsden Liberal Club","lat":53.60001,"lon":-1.92577,"postcode":"HD7 6EU","la":"Kirklees","era":"other","nn":44,"risk":15,"cat":"green"},{"name":"Marsden Socialist Institute","lat":53.60133,"lon":-1.9232,"postcode":"HD7 6EW","la":"Kirklees","era":"mod","nn":206,"risk":16,"cat":"green"},{"name":"Marsh Conservative Club","lat":53.65241,"lon":-1.80584,"postcode":"HD1 4PB","la":"Kirklees","era":"other","nn":194,"risk":16,"cat":"green"},{"name":"Marsh Liberal Club","lat":53.65195,"lon":-1.81492,"postcode":"HD3 4AL","la":"Kirklees","era":"other","nn":89,"risk":15,"cat":"green"},{"name":"Marsh United Bowling Club","lat":53.64899,"lon":-1.8061,"postcode":"HD1 4ND","la":"Kirklees","era":"other","nn":314,"risk":17,"cat":"green"},{"name":"Meltham & Meltham Mills  Club","lat":53.59056,"lon":-1.85185,"postcode":"HD9 4ET","la":"Kirklees","era":"trad","nn":196,"risk":16,"cat":"green"},{"name":"Meltham Golf Club","lat":53.58795,"lon":-1.83935,"postcode":"HD9 4DQ","la":"Kirklees","era":"other","nn":826,"risk":23,"cat":"green"},{"name":"Meltham Sports & Community Group Ltd","lat":53.59662,"lon":-1.84764,"postcode":"HD9 5QT","la":"Kirklees","era":"other","nn":484,"risk":20,"cat":"green"},{"name":"Milnsbridge Bowling Club","lat":53.63655,"lon":-1.8298,"postcode":"HD4 5TF","la":"Kirklees","era":"other","nn":116,"risk":15,"cat":"green"},{"name":"Milnsbridge Liberal Club","lat":53.64049,"lon":-1.82566,"postcode":"HD3 4JA","la":"Kirklees","era":"other","nn":132,"risk":15,"cat":"green"},{"name":"Milnsbridge Masonic Hall","lat":53.64135,"lon":-1.828,"postcode":"HD3 4PG","la":"Kirklees","era":"trad","nn":158,"risk":16,"cat":"green"},{"name":"Mirfield Rifle Club","lat":53.67933,"lon":-1.7254,"postcode":"HD5 0PU","la":"Kirklees","era":"other","nn":680,"risk":19,"cat":"green"},{"name":"Moldgreen Conservative Association","lat":53.64205,"lon":-1.75989,"postcode":"HD5 8HA","la":"Kirklees","era":"other","nn":334,"risk":17,"cat":"green"},{"name":"Moldgreen Liberal Club","lat":53.64468,"lon":-1.76235,"postcode":"HD5 8AA","la":"Kirklees","era":"other","nn":174,"risk":16,"cat":"green"},{"name":"Netherton Conservative Club","lat":53.61316,"lon":-1.81147,"postcode":"HD4 7WJ","la":"Kirklees","era":"other","nn":295,"risk":34,"cat":"amber"},{"name":"New Inn","lat":53.60013,"lon":-1.9264,"postcode":"HD7 6EZ","la":"Kirklees","era":"trad","nn":44,"risk":15,"cat":"green"},{"name":"New Mill Club","lat":53.57529,"lon":-1.75564,"postcode":"HD9 7JT","la":"Kirklees","era":"trad","nn":961,"risk":41,"cat":"amber"},{"name":"Newsome Football Club","lat":53.63504,"lon":-1.78435,"postcode":"HD4 6DL","la":"Kirklees","era":"other","nn":409,"risk":17,"cat":"green"},{"name":"Newsome Working Mens Club","lat":53.62796,"lon":-1.78544,"postcode":"HD4 6JP","la":"Kirklees","era":"trad","nn":75,"risk":15,"cat":"green"},{"name":"No 10 Bar And Kitchen","lat":53.6598,"lon":-1.82299,"postcode":"HD3 3JB","la":"Kirklees","era":"mod","nn":211,"risk":16,"cat":"green"},{"name":"Nortonthorpe Sports Club","lat":53.59134,"lon":-1.6193,"postcode":"HD8 9HJ","la":"Kirklees","era":"other","nn":198,"risk":21,"cat":"green"},{"name":"Oakfield Tennis And Bowling Club","lat":53.66107,"lon":-1.79858,"postcode":"HD2 2XQ","la":"Kirklees","era":"trad","nn":645,"risk":19,"cat":"green"},{"name":"O'Briens","lat":53.57054,"lon":-1.78759,"postcode":"HD9 3AZ","la":"Kirklees","era":"other","nn":38,"risk":15,"cat":"green"},{"name":"Olde Hatte Hotel","lat":53.64685,"lon":-1.78667,"postcode":"HD1 4DA","la":"Kirklees","era":"other","nn":74,"risk":15,"cat":"green"},{"name":"Outlane Golf Club Ltd","lat":53.64968,"lon":-1.8788,"postcode":"HD3 3FQ","la":"Kirklees","era":"other","nn":935,"risk":39,"cat":"amber"},{"name":"Paddock Cricket And Bowling Club","lat":53.64256,"lon":-1.80632,"postcode":"HD1 4UB","la":"Kirklees","era":"other","nn":83,"risk":15,"cat":"green"},{"name":"Paddock Institute And Conservative Club","lat":53.64214,"lon":-1.80737,"postcode":"HD1 4TY","la":"Kirklees","era":"other","nn":83,"risk":15,"cat":"green"},{"name":"Pavilion","lat":53.58585,"lon":-1.79086,"postcode":"HD9 3UG","la":"Kirklees","era":"trad","nn":211,"risk":18,"cat":"green"},{"name":"Phoenix Squash And Fitness Club","lat":53.60476,"lon":-1.78985,"postcode":"HD9 6PA","la":"Kirklees","era":"other","nn":185,"risk":16,"cat":"green"},{"name":"Plumbers Arms","lat":53.64533,"lon":-1.78571,"postcode":"HD1 2JY","la":"Kirklees","era":"trad","nn":132,"risk":15,"cat":"green"},{"name":"Polish Roman Catholic Cen","lat":53.6502,"lon":-1.785,"postcode":"HD1 5BB","la":"Kirklees","era":"other","nn":0,"risk":14,"cat":"green"},{"name":"Postcard Inn","lat":53.57208,"lon":-1.78589,"postcode":"HD9 3AS","la":"Kirklees","era":"trad","nn":138,"risk":15,"cat":"green"},{"name":"Puleside Working Mens Club","lat":53.59434,"lon":-1.93592,"postcode":"HD7 6NN","la":"Kirklees","era":"trad","nn":60,"risk":15,"cat":"green"},{"name":"Punch Bar & Tapas","lat":53.60362,"lon":-1.79273,"postcode":"HD9 6AA","la":"Kirklees","era":"mod","nn":33,"risk":15,"cat":"green"},{"name":"Queens Tavern","lat":53.64527,"lon":-1.78371,"postcode":"HD1 2BR","la":"Kirklees","era":"trad","nn":70,"risk":15,"cat":"green"},{"name":"Radcliffe Arms","lat":53.63103,"lon":-1.74714,"postcode":"HD5 8XF","la":"Kirklees","era":"trad","nn":0,"risk":14,"cat":"green"},{"name":"Railway Inn","lat":53.65931,"lon":-1.78091,"postcode":"HD1 6LJ","la":"Kirklees","era":"trad","nn":213,"risk":16,"cat":"green"},{"name":"Rain","lat":53.64592,"lon":-1.78077,"postcode":"HD1 2PZ","la":"Kirklees","era":"other","nn":30,"risk":15,"cat":"green"},{"name":"Red Lion Inn","lat":53.56348,"lon":-1.75296,"postcode":"HD9 7HB","la":"Kirklees","era":"trad","nn":118,"risk":15,"cat":"green"},{"name":"Revolution","lat":53.6466,"lon":-1.78054,"postcode":"HD1 2PT","la":"Kirklees","era":"other","nn":53,"risk":15,"cat":"green"},{"name":"Rhubarb","lat":53.64419,"lon":-1.78001,"postcode":"HD1 2RD","la":"Kirklees","era":"mod","nn":0,"risk":14,"cat":"green"},{"name":"Rising Sun","lat":53.6317,"lon":-1.82473,"postcode":"HD4 5NZ","la":"Kirklees","era":"other","nn":578,"risk":19,"cat":"green"},{"name":"Rising Sun","lat":53.64172,"lon":-1.85423,"postcode":"HD7 4QF","la":"Kirklees","era":"other","nn":378,"risk":17,"cat":"green"},{"name":"Rock Inn","lat":53.59567,"lon":-1.77338,"postcode":"HD9 7AE","la":"Kirklees","era":"trad","nn":279,"risk":34,"cat":"amber"},{"name":"Rose And Crown","lat":53.59035,"lon":-1.75174,"postcode":"HD4 6XU","la":"Kirklees","era":"trad","nn":340,"risk":37,"cat":"amber"},{"name":"Rowley Hill Working Mens Club","lat":53.62944,"lon":-1.71476,"postcode":"HD8 0JF","la":"Kirklees","era":"trad","nn":596,"risk":36,"cat":"amber"},{"name":"Royal British Legion","lat":53.63938,"lon":-1.8425,"postcode":"HD7 4AU","la":"Kirklees","era":"trad","nn":527,"risk":18,"cat":"green"},{"name":"Royal Oak","lat":53.62821,"lon":-1.85243,"postcode":"HD7 5QS","la":"Kirklees","era":"trad","nn":378,"risk":17,"cat":"green"},{"name":"Royal Oak Inn","lat":53.57209,"lon":-1.80767,"postcode":"HD9 3UX","la":"Kirklees","era":"trad","nn":651,"risk":39,"cat":"amber"},{"name":"Sair Inn / Linfit Brewery","lat":53.62519,"lon":-1.84978,"postcode":"HD7 5SG","la":"Kirklees","era":"trad","nn":378,"risk":17,"cat":"green"},{"name":"Salford & Lockwood Conservative Club","lat":53.63388,"lon":-1.7944,"postcode":"HD1 3TG","la":"Kirklees","era":"other","nn":114,"risk":15,"cat":"green"},{"name":"Scammonden Water Sailing Club","lat":53.63218,"lon":-1.92921,"postcode":"HD3 3FT","la":"Kirklees","era":"other","nn":1960,"risk":51,"cat":"amber"},{"name":"Scapegoat Hill Lib. Club","lat":53.64423,"lon":-1.868,"postcode":"HD7 4NJ","la":"Kirklees","era":"other","nn":0,"risk":14,"cat":"green"},{"name":"Scapehouse Inn","lat":53.64423,"lon":-1.868,"postcode":"HD7 4NJ","la":"Kirklees","era":"other","nn":0,"risk":14,"cat":"green"},{"name":"Scholes Cricket Club","lat":53.56182,"lon":-1.76473,"postcode":"HD9 1SX","la":"Kirklees","era":"other","nn":516,"risk":18,"cat":"green"},{"name":"Scissett Wmc","lat":53.5922,"lon":-1.62192,"postcode":"HD8 9HU","la":"Kirklees","era":"other","nn":198,"risk":33,"cat":"amber"},{"name":"Shelley Cricket Club","lat":53.59892,"lon":-1.70002,"postcode":"HD8 8HP","la":"Kirklees","era":"other","nn":460,"risk":23,"cat":"green"},{"name":"Shelley Sports And Social Club","lat":53.59694,"lon":-1.69354,"postcode":"HD8 8LA","la":"Kirklees","era":"mod","nn":128,"risk":20,"cat":"green"},{"name":"Shepherds Arms","lat":53.66857,"lon":-1.79042,"postcode":"HD2 2NB","la":"Kirklees","era":"trad","nn":175,"risk":21,"cat":"green"},{"name":"Shepley Bowling Club","lat":53.58308,"lon":-1.70831,"postcode":"HD8 8DD","la":"Kirklees","era":"other","nn":180,"risk":18,"cat":"green"},{"name":"Shepley Cricket Club","lat":53.58148,"lon":-1.71915,"postcode":"HD8 8AS","la":"Kirklees","era":"other","nn":253,"risk":21,"cat":"green"},{"name":"Ship Inn","lat":53.6423,"lon":-1.80171,"postcode":"HD1 4SH","la":"Kirklees","era":"trad","nn":305,"risk":17,"cat":"green"},{"name":"Shoulder Of Mutton","lat":53.63303,"lon":-1.79616,"postcode":"HD1 3TN","la":"Kirklees","era":"other","nn":136,"risk":15,"cat":"green"},{"name":"Shoulder Of Mutton","lat":53.62237,"lon":-1.88214,"postcode":"HD7 5AS","la":"Kirklees","era":"other","nn":118,"risk":15,"cat":"green"},{"name":"Shoulder Of Mutton Inn","lat":53.56905,"lon":-1.78502,"postcode":"HD9 2DP","la":"Kirklees","era":"trad","nn":150,"risk":16,"cat":"green"},{"name":"Showtime","lat":53.64465,"lon":-1.77887,"postcode":"HD1 2RA","la":"Kirklees","era":"other","nn":61,"risk":15,"cat":"green"},{"name":"Silent Woman Hotel","lat":53.62242,"lon":-1.88485,"postcode":"HD7 5AU","la":"Kirklees","era":"other","nn":80,"risk":15,"cat":"green"},{"name":"Skelmanthorpe Cricket Club","lat":53.58877,"lon":-1.65509,"postcode":"HD8 9AQ","la":"Kirklees","era":"trad","nn":326,"risk":22,"cat":"green"},{"name":"Skelmanthorpe Savoy Sport Club","lat":53.59162,"lon":-1.65082,"postcode":"HD8 9DA","la":"Kirklees","era":"trad","nn":142,"risk":20,"cat":"green"},{"name":"Slaithwaite Band Club","lat":53.62625,"lon":-1.89524,"postcode":"HD7 5DS","la":"Kirklees","era":"other","nn":752,"risk":22,"cat":"green"},{"name":"Slaithwaite Cricket Club","lat":53.625,"lon":-1.88404,"postcode":"HD7 5DQ","la":"Kirklees","era":"other","nn":292,"risk":17,"cat":"green"},{"name":"Slaithwaite Wmc","lat":53.62211,"lon":-1.88594,"postcode":"HD7 5AY","la":"Kirklees","era":"other","nn":80,"risk":15,"cat":"green"},{"name":"Slip Inn","lat":53.64964,"lon":-1.84139,"postcode":"HD3 4XF","la":"Kirklees","era":"trad","nn":185,"risk":16,"cat":"green"},{"name":"Slug & Lettuce/88th Street/Value Mighty/Sin City Burger","lat":53.64552,"lon":-1.77967,"postcode":"HD1 2QT","la":"Kirklees","era":"other","nn":53,"risk":15,"cat":"green"},{"name":"Small Seeds","lat":53.64333,"lon":-1.78408,"postcode":"HD1 2UD","la":"Kirklees","era":"other","nn":80,"risk":15,"cat":"green"},{"name":"Smiths Arms","lat":53.61818,"lon":-1.71133,"postcode":"HD8 0QP","la":"Kirklees","era":"trad","nn":408,"risk":17,"cat":"green"},{"name":"Spangled Bull","lat":53.65808,"lon":-1.72971,"postcode":"HD5 0JG","la":"Kirklees","era":"trad","nn":180,"risk":16,"cat":"green"},{"name":"Spring Grove Tavern","lat":53.61504,"lon":-1.71453,"postcode":"HD8 0PQ","la":"Kirklees","era":"other","nn":0,"risk":14,"cat":"green"},{"name":"Springwood Bowling Club","lat":53.64464,"lon":-1.79347,"postcode":"HD1 4BH","la":"Kirklees","era":"other","nn":284,"risk":16,"cat":"green"},{"name":"Star Inn","lat":53.63819,"lon":-1.78754,"postcode":"HD1 3PJ","la":"Kirklees","era":"trad","nn":216,"risk":16,"cat":"green"},{"name":"Stumble Inn","lat":53.56021,"lon":-1.81234,"postcode":"HD9 2NL","la":"Kirklees","era":"trad","nn":501,"risk":23,"cat":"green"},{"name":"Sweet Chillies Clothiers Arms","lat":53.58404,"lon":-1.78991,"postcode":"HD9 3EB","la":"Kirklees","era":"trad","nn":211,"risk":18,"cat":"green"},{"name":"Table Table","lat":53.64435,"lon":-1.77411,"postcode":"HD1 6SD","la":"Kirklees","era":"other","nn":160,"risk":16,"cat":"green"},{"name":"Th Alma","lat":53.62553,"lon":-1.84199,"postcode":"HD7 5TP","la":"Kirklees","era":"other","nn":356,"risk":17,"cat":"green"},{"name":"The Albert Hotel","lat":53.64464,"lon":-1.78223,"postcode":"HD1 2QF","la":"Kirklees","era":"other","nn":85,"risk":15,"cat":"green"},{"name":"The Bay Horse","lat":53.65339,"lon":-1.81718,"postcode":"HD3 3DX","la":"Kirklees","era":"trad","nn":162,"risk":16,"cat":"green"},{"name":"The Black Horse","lat":53.65825,"lon":-1.82073,"postcode":"HD3 3EQ","la":"Kirklees","era":"trad","nn":0,"risk":14,"cat":"green"},{"name":"The Brickworks","lat":53.6461,"lon":-1.78225,"postcode":"HD1 2AX","la":"Kirklees","era":"mod","nn":89,"risk":15,"cat":"green"},{"name":"The Bridge","lat":53.6418,"lon":-1.79486,"postcode":"HD1 3LE","la":"Kirklees","era":"other","nn":330,"risk":17,"cat":"green"},{"name":"The Bulls Head","lat":53.61437,"lon":-1.85464,"postcode":"HD7 5TR","la":"Kirklees","era":"trad","nn":996,"risk":41,"cat":"amber"},{"name":"The Cherry Tree","lat":53.64722,"lon":-1.78232,"postcode":"HD1 1BA","la":"Kirklees","era":"other","nn":14,"risk":15,"cat":"green"},{"name":"The Clarence","lat":53.62862,"lon":-1.78523,"postcode":"HD4 6JR","la":"Kirklees","era":"other","nn":75,"risk":15,"cat":"green"},{"name":"The County Beerhouse","lat":53.64337,"lon":-1.78287,"postcode":"HD1 2TT","la":"Kirklees","era":"other","nn":80,"risk":15,"cat":"green"},{"name":"The Croppers Arms","lat":53.65149,"lon":-1.80834,"postcode":"HD1 4LF","la":"Kirklees","era":"trad","nn":194,"risk":16,"cat":"green"},{"name":"The Crown","lat":53.589,"lon":-1.62545,"postcode":"HD8 9JL","la":"Kirklees","era":"trad","nn":425,"risk":35,"cat":"amber"},{"name":"The Dalton Hotel","lat":53.65484,"lon":-1.7539,"postcode":"HD5 9PB","la":"Kirklees","era":"other","nn":741,"risk":25,"cat":"green"},{"name":"The Fieldhead","lat":53.64929,"lon":-1.827,"postcode":"HD3 4FB","la":"Kirklees","era":"trad","nn":581,"risk":19,"cat":"green"},{"name":"The Fleece Inn","lat":53.54951,"lon":-1.83826,"postcode":"HD9 2QG","la":"Kirklees","era":"trad","nn":1366,"risk":47,"cat":"amber"},{"name":"The Flying Ferret","lat":53.59808,"lon":-1.6932,"postcode":"HD8 8HF","la":"Kirklees","era":"other","nn":128,"risk":20,"cat":"green"},{"name":"The Foresters Arms","lat":53.60085,"lon":-1.7956,"postcode":"HD9 6DW","la":"Kirklees","era":"trad","nn":298,"risk":17,"cat":"green"},{"name":"The Four Sons Inn","lat":53.68024,"lon":-1.79158,"postcode":"HD6 3QP","la":"Kirklees","era":"trad","nn":343,"risk":19,"cat":"green"},{"name":"The Foxglove","lat":53.61504,"lon":-1.71453,"postcode":"HD8 0PQ","la":"Kirklees","era":"trad","nn":0,"risk":14,"cat":"green"},{"name":"The George","lat":53.56191,"lon":-1.65656,"postcode":"HD8 8UE","la":"Kirklees","era":"trad","nn":1119,"risk":45,"cat":"amber"},{"name":"The Grove","lat":53.64351,"lon":-1.7896,"postcode":"HD1 4BP","la":"Kirklees","era":"other","nn":85,"risk":15,"cat":"green"},{"name":"The Grove Inn","lat":53.59381,"lon":-1.65352,"postcode":"HD8 9AU","la":"Kirklees","era":"trad","nn":271,"risk":21,"cat":"green"},{"name":"The Hart Bar","lat":53.64589,"lon":-1.78389,"postcode":"HD1 2DX","la":"Kirklees","era":"trad","nn":70,"risk":15,"cat":"green"},{"name":"The Hide Out","lat":53.56942,"lon":-1.78755,"postcode":"HD9 2DG","la":"Kirklees","era":"other","nn":14,"risk":15,"cat":"green"},{"name":"The Highgate","lat":53.65407,"lon":-1.82344,"postcode":"HD3 4BU","la":"Kirklees","era":"other","nn":342,"risk":17,"cat":"green"},{"name":"The Huddersfield Irish Centre","lat":53.6502,"lon":-1.785,"postcode":"HD1 5BB","la":"Kirklees","era":"other","nn":0,"risk":14,"cat":"green"},{"name":"The Ivy Green Pub","lat":53.64553,"lon":-1.76014,"postcode":"HD5 8DE","la":"Kirklees","era":"other","nn":174,"risk":16,"cat":"green"},{"name":"The Jules Verne","lat":53.64681,"lon":-1.78364,"postcode":"HD1 1NP","la":"Kirklees","era":"other","nn":90,"risk":15,"cat":"green"},{"name":"The Kings Head","lat":53.64741,"lon":-1.78495,"postcode":"HD1 1JF","la":"Kirklees","era":"trad","nn":0,"risk":14,"cat":"green"},{"name":"The Lockwood Arms","lat":53.63091,"lon":-1.79416,"postcode":"HD4 6ER","la":"Kirklees","era":"trad","nn":270,"risk":16,"cat":"green"},{"name":"The Old Cask Inn","lat":53.64604,"lon":-1.83964,"postcode":"HD3 4SP","la":"Kirklees","era":"trad","nn":416,"risk":17,"cat":"green"},{"name":"The Parish","lat":53.64454,"lon":-1.78011,"postcode":"HD1 2SP","la":"Kirklees","era":"other","nn":0,"risk":14,"cat":"green"},{"name":"The Peacock","lat":53.6599,"lon":-1.76249,"postcode":"HD2 1XL","la":"Kirklees","era":"other","nn":575,"risk":36,"cat":"amber"},{"name":"The Pickled Pheasant","lat":53.55783,"lon":-1.81878,"postcode":"HD9 2NQ","la":"Kirklees","era":"other","nn":271,"risk":34,"cat":"amber"},{"name":"The Picturedrome","lat":53.57005,"lon":-1.78654,"postcode":"HD9 7DA","la":"Kirklees","era":"other","nn":71,"risk":15,"cat":"green"},{"name":"The Railway Hotel","lat":53.62157,"lon":-1.79686,"postcode":"HD4 7LT","la":"Kirklees","era":"trad","nn":261,"risk":16,"cat":"green"},{"name":"The Railway Inn","lat":53.60277,"lon":-1.9304,"postcode":"HD7 6DH","la":"Kirklees","era":"trad","nn":164,"risk":16,"cat":"green"},{"name":"The Rat And Ratchet","lat":53.64179,"lon":-1.78521,"postcode":"HD1 3EB","la":"Kirklees","era":"other","nn":187,"risk":16,"cat":"green"},{"name":"The Rising Sun","lat":53.59466,"lon":-1.70262,"postcode":"HD8 8JB","la":"Kirklees","era":"other","nn":503,"risk":23,"cat":"green"},{"name":"The Riverhead Brewery Tap","lat":53.60146,"lon":-1.92713,"postcode":"HD7 6BR","la":"Kirklees","era":"other","nn":0,"risk":14,"cat":"green"},{"name":"The Royal","lat":53.64033,"lon":-1.82967,"postcode":"HD3 4QH","la":"Kirklees","era":"trad","nn":158,"risk":16,"cat":"green"},{"name":"The Royal And Ancient","lat":53.67538,"lon":-1.73464,"postcode":"HD5 0RE","la":"Kirklees","era":"trad","nn":549,"risk":21,"cat":"green"},{"name":"The Royal British Legion","lat":53.60427,"lon":-1.92411,"postcode":"HD7 6AJ","la":"Kirklees","era":"trad","nn":332,"risk":17,"cat":"green"},{"name":"The Sands House","lat":53.62662,"lon":-1.82662,"postcode":"HD4 7AE","la":"Kirklees","era":"other","nn":540,"risk":36,"cat":"amber"},{"name":"The Shakespeare","lat":53.60054,"lon":-1.92602,"postcode":"HD7 6BW","la":"Kirklees","era":"other","nn":53,"risk":15,"cat":"green"},{"name":"The Spink's Nest","lat":53.6558,"lon":-1.79452,"postcode":"HD2 2AX","la":"Kirklees","era":"other","nn":299,"risk":17,"cat":"green"},{"name":"The Sportsman","lat":53.65039,"lon":-1.78421,"postcode":"HD1 5AY","la":"Kirklees","era":"other","nn":56,"risk":15,"cat":"green"},{"name":"The Stag","lat":53.6439,"lon":-1.74593,"postcode":"HD5 8PS","la":"Kirklees","era":"trad","nn":552,"risk":21,"cat":"green"},{"name":"The Star","lat":53.57516,"lon":-1.68751,"postcode":"HD8 8NS","la":"Kirklees","era":"other","nn":1258,"risk":46,"cat":"amber"},{"name":"The Sun","lat":53.63151,"lon":-1.70642,"postcode":"HD8 0HJ","la":"Kirklees","era":"other","nn":596,"risk":39,"cat":"amber"},{"name":"The Swan","lat":53.63371,"lon":-1.7985,"postcode":"HD1 3UB","la":"Kirklees","era":"trad","nn":172,"risk":16,"cat":"green"},{"name":"The Swan","lat":53.59218,"lon":-1.85071,"postcode":"HD9 4NH","la":"Kirklees","era":"trad","nn":65,"risk":15,"cat":"green"},{"name":"The Victoria Park Hotel","lat":53.59276,"lon":-1.85104,"postcode":"HD9 5QL","la":"Kirklees","era":"trad","nn":68,"risk":15,"cat":"green"},{"name":"The Vulcan","lat":53.64829,"lon":-1.78023,"postcode":"HD1 1RA","la":"Kirklees","era":"other","nn":77,"risk":15,"cat":"green"},{"name":"The White Cross","lat":53.68102,"lon":-1.73753,"postcode":"HD2 1XD","la":"Kirklees","era":"trad","nn":0,"risk":17,"cat":"green"},{"name":"The White Hart","lat":53.57313,"lon":-1.65555,"postcode":"HD8 8RT","la":"Kirklees","era":"trad","nn":169,"risk":33,"cat":"amber"},{"name":"The White Horse Inn","lat":53.56344,"lon":-1.75475,"postcode":"HD9 1LY","la":"Kirklees","era":"trad","nn":118,"risk":15,"cat":"green"},{"name":"The White Swan","lat":53.65891,"lon":-1.86868,"postcode":"HD3 3YJ","la":"Kirklees","era":"trad","nn":1225,"risk":46,"cat":"amber"},{"name":"The Wireworks","lat":53.65467,"lon":-1.81835,"postcode":"HD3 3DZ","la":"Kirklees","era":"mod","nn":162,"risk":16,"cat":"green"},{"name":"The Wooldale Arms","lat":53.57574,"lon":-1.77018,"postcode":"HD9 1QG","la":"Kirklees","era":"trad","nn":961,"risk":21,"cat":"green"},{"name":"The Woolpack","lat":53.63103,"lon":-1.74714,"postcode":"HD5 8XF","la":"Kirklees","era":"trad","nn":0,"risk":14,"cat":"green"},{"name":"The Yorkshire Rose","lat":53.65492,"lon":-1.77614,"postcode":"HD1 6NW","la":"Kirklees","era":"other","nn":488,"risk":18,"cat":"green"},{"name":"Thongsbridge Bowling Club","lat":53.58325,"lon":-1.77764,"postcode":"HD9 7RY","la":"Kirklees","era":"other","nn":0,"risk":14,"cat":"green"},{"name":"Thongsbridge Cricket Club","lat":53.58325,"lon":-1.77764,"postcode":"HD9 7RY","la":"Kirklees","era":"other","nn":0,"risk":14,"cat":"green"},{"name":"Thongsbridge Tennis Club","lat":53.58325,"lon":-1.77764,"postcode":"HD9 7RY","la":"Kirklees","era":"other","nn":0,"risk":14,"cat":"green"},{"name":"Thorncliffe Working Mens Social Club","lat":53.61568,"lon":-1.68373,"postcode":"HD8 0UG","la":"Kirklees","era":"other","nn":740,"risk":40,"cat":"amber"},{"name":"Thorpe Green Bowling And Social Club","lat":53.64472,"lon":-1.8483,"postcode":"HD7 4QP","la":"Kirklees","era":"mod","nn":118,"risk":15,"cat":"green"},{"name":"Thurstonland Cricket Club","lat":53.59314,"lon":-1.74965,"postcode":"HD4 6XD","la":"Kirklees","era":"other","nn":340,"risk":37,"cat":"amber"},{"name":"Tipsy Cow (Skelmanthorpe) Ltd","lat":53.5914,"lon":-1.65294,"postcode":"HD8 9AA","la":"Kirklees","era":"trad","nn":142,"risk":20,"cat":"green"},{"name":"Toast","lat":53.61393,"lon":-1.81575,"postcode":"HD4 7EH","la":"Kirklees","era":"other","nn":236,"risk":34,"cat":"amber"},{"name":"Travellers Rest","lat":53.59875,"lon":-1.77733,"postcode":"HD9 7AZ","la":"Kirklees","era":"other","nn":157,"risk":18,"cat":"green"},{"name":"Travellers Rest","lat":53.59904,"lon":-1.86469,"postcode":"HD9 5NH","la":"Kirklees","era":"other","nn":867,"risk":41,"cat":"amber"},{"name":"Turnbridge Working Mens Club","lat":53.64578,"lon":-1.7741,"postcode":"HD1 6SB","la":"Kirklees","era":"trad","nn":160,"risk":16,"cat":"green"},{"name":"Ukranian Social Club","lat":53.65389,"lon":-1.80113,"postcode":"HD1 5RA","la":"Kirklees","era":"mod","nn":299,"risk":17,"cat":"green"},{"name":"Underbank Rangers Rlfc","lat":53.55744,"lon":-1.77838,"postcode":"HD9 2RR","la":"Kirklees","era":"other","nn":789,"risk":40,"cat":"amber"},{"name":"Underbank Working Mens Club","lat":53.56436,"lon":-1.78098,"postcode":"HD9 2DU","la":"Kirklees","era":"trad","nn":585,"risk":19,"cat":"green"},{"name":"Victoria Hotel","lat":53.62815,"lon":-1.77938,"postcode":"HD4 6RB","la":"Kirklees","era":"trad","nn":390,"risk":17,"cat":"green"},{"name":"Vineyard Working Mens Club","lat":53.62901,"lon":-1.87936,"postcode":"HD7 5DB","la":"Kirklees","era":"other","nn":543,"risk":18,"cat":"green"},{"name":"Vintage Inns","lat":53.57461,"lon":-1.70654,"postcode":"HD8 8BE","la":"Kirklees","era":"trad","nn":949,"risk":41,"cat":"amber"},{"name":"Vox","lat":53.6472,"lon":-1.78211,"postcode":"HD1 1BT","la":"Kirklees","era":"other","nn":14,"risk":15,"cat":"green"},{"name":"Waggon and Horses (Meltham) Ltd","lat":53.59209,"lon":-1.84974,"postcode":"HD9 4AE","la":"Kirklees","era":"trad","nn":65,"risk":15,"cat":"green"},{"name":"Walkers Arms","lat":53.6448,"lon":-1.85009,"postcode":"HD7 4QW","la":"Kirklees","era":"trad","nn":118,"risk":15,"cat":"green"},{"name":"Warehouse, K-Town, Chik Box, Locked and Loaded, Pizza Amore","lat":53.64505,"lon":-1.77951,"postcode":"HD1 2RA","la":"Kirklees","era":"other","nn":53,"risk":15,"cat":"green"},{"name":"Waterloo Subs Bowling Club","lat":53.6452,"lon":-1.73784,"postcode":"HD5 9XP","la":"Kirklees","era":"other","nn":552,"risk":18,"cat":"green"},{"name":"Wellhouse Village Club","lat":53.63295,"lon":-1.85662,"postcode":"HD7 4ES","la":"Kirklees","era":"mod","nn":564,"risk":18,"cat":"green"},{"name":"White Cross Inn Kitchen","lat":53.68102,"lon":-1.73753,"postcode":"HD2 1XD","la":"Kirklees","era":"other","nn":0,"risk":17,"cat":"green"},{"name":"White Horse Inn and  Restaurant","lat":53.61396,"lon":-1.63531,"postcode":"HD8 9SP","la":"Kirklees","era":"trad","nn":231,"risk":34,"cat":"amber"},{"name":"White Swan","lat":53.61905,"lon":-1.71751,"postcode":"HD8 0RB","la":"Kirklees","era":"trad","nn":419,"risk":20,"cat":"green"},{"name":"White Swan","lat":53.64674,"lon":-1.78143,"postcode":"HD1 1QH","la":"Kirklees","era":"trad","nn":61,"risk":15,"cat":"green"},{"name":"Wills O Nats","lat":53.60672,"lon":-1.86249,"postcode":"HD9 5PS","la":"Kirklees","era":"other","nn":867,"risk":38,"cat":"amber"},{"name":"Woodman Inn","lat":53.6001,"lon":-1.60997,"postcode":"HD8 9QB","la":"Kirklees","era":"trad","nn":0,"risk":32,"cat":"amber"},{"name":"Woodman Inn","lat":53.59938,"lon":-1.71672,"postcode":"HD8 0PX","la":"Kirklees","era":"trad","nn":778,"risk":40,"cat":"amber"},{"name":"Woodsome Hall Golf Club","lat":53.6256,"lon":-1.72192,"postcode":"HD8 0LQ","la":"Kirklees","era":"other","nn":637,"risk":36,"cat":"amber"},{"name":"Yeaton Cask","lat":53.65909,"lon":-1.72758,"postcode":"HD5 0HW","la":"Kirklees","era":"other","nn":0,"risk":14,"cat":"green"},{"name":"Ymca","lat":53.65902,"lon":-1.84791,"postcode":"HD3 3XF","la":"Kirklees","era":"other","nn":843,"risk":40,"cat":"amber"},{"name":"Yolanda Hook","lat":53.57078,"lon":-1.78666,"postcode":"HD9 7BB","la":"Kirklees","era":"other","nn":30,"risk":15,"cat":"green"},{"name":"Zeaw","lat":53.64732,"lon":-1.78173,"postcode":"HD1 1BX","la":"Kirklees","era":"other","nn":28,"risk":15,"cat":"green"}]