[{"name":"Alness Bowling Club","lat":57.7365,"lon":-4.33387,"postcode":"IV17 0YE","la":"Highland","era":"other","nn":6241,"risk":88,"cat":"red"},{"name":"Alness Golf Club","lat":57.6985,"lon":-4.25652,"postcode":"IV17 0QA","la":"Highland","era":"other","nn":5012,"risk":88,"cat":"red"},{"name":"Am Fuaran Bar","lat":58.05655,"lon":-5.41791,"postcode":"IV26 2YR","la":"Highland","era":"other","nn":23222,"risk":88,"cat":"red"},{"name":"Black Isle Bar and Rooms","lat":57.47978,"lon":-4.22751,"postcode":"IV1 1EN","la":"Highland","era":"mod","nn":81,"risk":32,"cat":"amber"},{"name":"Blackfriars","lat":57.48047,"lon":-4.22793,"postcode":"IV1 1LX","la":"Highland","era":"other","nn":40,"risk":31,"cat":"amber"},{"name":"Caledonian Bar","lat":57.68808,"lon":-4.16922,"postcode":"IV18 0DT","la":"Highland","era":"other","nn":401,"risk":51,"cat":"amber"},{"name":"Chanonry Sailing Club","lat":57.57952,"lon":-4.13366,"postcode":"IV10 8TP","la":"Highland","era":"other","nn":0,"risk":48,"cat":"amber"},{"name":"Clachan Bar","lat":57.29249,"lon":-5.64245,"postcode":"IV40 8DJ","la":"Highland","era":"other","nn":33889,"risk":88,"cat":"red"},{"name":"Culbokie Inn","lat":57.60372,"lon":-4.33554,"postcode":"IV7 8JH","la":"Highland","era":"trad","nn":5474,"risk":88,"cat":"red"},{"name":"Encore Une Fois","lat":57.47657,"lon":-4.22874,"postcode":"IV3 5BL","la":"Highland","era":"other","nn":158,"risk":32,"cat":"amber"},{"name":"Highland Rugby Club","lat":57.46305,"lon":-4.24064,"postcode":"IV3 5SS","la":"Highland","era":"other","nn":1663,"risk":65,"cat":"red"},{"name":"Highlander","lat":57.47891,"lon":-4.22649,"postcode":"IV1 1EH","la":"Highland","era":"other","nn":3,"risk":31,"cat":"amber"},{"name":"Invergordon social club Ltd","lat":57.69356,"lon":-4.17268,"postcode":"IV18 0LW","la":"Highland","era":"mod","nn":643,"risk":53,"cat":"amber"},{"name":"Janet Witheridge","lat":57.57952,"lon":-4.13366,"postcode":"IV10 8TP","la":"Highland","era":"other","nn":0,"risk":48,"cat":"amber"},{"name":"Links Cafe","lat":57.88766,"lon":-7.11333,"postcode":"IV21 2AH","la":"Highland","era":"other","nn":39292,"risk":88,"cat":"red"},{"name":"MacGregors Bars","lat":57.48083,"lon":-4.22789,"postcode":"IV1 1LX","la":"Highland","era":"other","nn":40,"risk":31,"cat":"amber"},{"name":"Maleia's","lat":57.48446,"lon":-4.2339,"postcode":"IV3 8BL","la":"Highland","era":"other","nn":540,"risk":35,"cat":"amber"},{"name":"Masonic lodge","lat":57.58224,"lon":-4.13349,"postcode":"IV10 8WA","la":"Highland","era":"trad","nn":302,"risk":51,"cat":"amber"},{"name":"Milton Inn","lat":57.74056,"lon":-4.07236,"postcode":"IV18 0NQ","la":"Highland","era":"trad","nn":7862,"risk":88,"cat":"red"},{"name":"Muir of Ord Golf Club","lat":57.51367,"lon":-4.45745,"postcode":"IV6 7SX","la":"Highland","era":"other","nn":395,"risk":54,"cat":"amber"},{"name":"Platform 1864","lat":57.81375,"lon":-4.0519,"postcode":"IV19 1JA","la":"Highland","era":"other","nn":7397,"risk":88,"cat":"red"},{"name":"Royal British Legion","lat":57.68884,"lon":-4.16262,"postcode":"IV18 0AE","la":"Highland","era":"trad","nn":401,"risk":51,"cat":"amber"},{"name":"Royal Dornoch Golf Club","lat":57.87881,"lon":-4.0258,"postcode":"IV25 3LW","la":"Highland","era":"trad","nn":7397,"risk":88,"cat":"red"},{"name":"Seomar at Gellions","lat":57.47733,"lon":-4.22649,"postcode":"IV1 1HD","la":"Highland","era":"trad","nn":158,"risk":32,"cat":"amber"},{"name":"Strathpeffer Golf Club","lat":57.59119,"lon":-4.54253,"postcode":"IV14 9AS","la":"Highland","era":"other","nn":6698,"risk":88,"cat":"red"},{"name":"Tarradale Hotel","lat":57.51631,"lon":-4.45302,"postcode":"IV6 7RR","la":"Highland","era":"other","nn":395,"risk":54,"cat":"amber"},{"name":"The Hen House","lat":57.59451,"lon":-4.42579,"postcode":"IV15 9JP","la":"Highland","era":"other","nn":111,"risk":49,"cat":"amber"},{"name":"The Malt Room Bars Limited","lat":57.47893,"lon":-4.22651,"postcode":"IV1 1EH","la":"Highland","era":"other","nn":3,"risk":31,"cat":"amber"},{"name":"The Plough Inn Bistro Lounge","lat":57.59088,"lon":-4.1151,"postcode":"IV10 8UF","la":"Highland","era":"other","nn":1457,"risk":64,"cat":"red"},{"name":"The Ross-shire Club","lat":57.59567,"lon":-4.43045,"postcode":"IV15 9SS","la":"Highland","era":"other","nn":255,"risk":50,"cat":"amber"},{"name":"The Seaforth Inn","lat":57.89783,"lon":-5.16195,"postcode":"IV26 2UE","la":"Highland","era":"trad","nn":23222,"risk":88,"cat":"red"},{"name":"The Shieling","lat":57.72418,"lon":-5.6886,"postcode":"IV21 2BH","la":"Highland","era":"other","nn":36688,"risk":88,"cat":"red"},{"name":"The Star Inn","lat":57.57124,"lon":-4.03853,"postcode":"IV2 7QB","la":"Highland","era":"trad","nn":5060,"risk":88,"cat":"red"},{"name":"Waverley Inn Lodge","lat":57.59549,"lon":-4.42619,"postcode":"IV15 9HL","la":"Highland","era":"trad","nn":111,"risk":49,"cat":"amber"},{"name":"Abbey Inn","lat":57.63583,"lon":-3.57107,"postcode":"IV36 3TX","la":"Moray","era":"trad","nn":3387,"risk":74,"cat":"red"},{"name":"B. C. Catering Ltd","lat":57.70682,"lon":-3.43506,"postcode":"IV30 5SD","la":"Moray","era":"other","nn":5797,"risk":86,"cat":"red"},{"name":"Badenoch's","lat":57.64798,"lon":-3.31851,"postcode":"IV30 1BA","la":"Moray","era":"other","nn":39,"risk":28,"cat":"green"},{"name":"Brander Arms","lat":57.7241,"lon":-3.28462,"postcode":"IV31 6PB","la":"Moray","era":"trad","nn":314,"risk":48,"cat":"amber"},{"name":"Cottar Hoose","lat":57.63887,"lon":-3.29192,"postcode":"IV30 6RE","la":"Moray","era":"other","nn":1134,"risk":59,"cat":"amber"},{"name":"Coulard Inn","lat":57.71346,"lon":-3.30034,"postcode":"IV31 6SL","la":"Moray","era":"trad","nn":818,"risk":54,"cat":"amber"},{"name":"Crown And Anchor Inn","lat":57.65987,"lon":-3.61135,"postcode":"IV36 3YF","la":"Moray","era":"trad","nn":3590,"risk":76,"cat":"red"},{"name":"Dicey O'Reilly's","lat":57.64848,"lon":-3.31768,"postcode":"IV30 1DW","la":"Moray","era":"other","nn":26,"risk":28,"cat":"green"},{"name":"Downtown USA","lat":57.64839,"lon":-3.31808,"postcode":"IV30 1DJ","la":"Moray","era":"other","nn":0,"risk":28,"cat":"green"},{"name":"Elgin And District Bowling Club","lat":57.64907,"lon":-3.29219,"postcode":"IV30 1XZ","la":"Moray","era":"other","nn":1134,"risk":59,"cat":"amber"},{"name":"Elgin Bowling Club","lat":57.64569,"lon":-3.31422,"postcode":"IV30 1QG","la":"Moray","era":"other","nn":212,"risk":30,"cat":"green"},{"name":"Elgin City Social Club","lat":57.65152,"lon":-3.32016,"postcode":"IV30 1AP","la":"Moray","era":"mod","nn":336,"risk":30,"cat":"green"},{"name":"Entertainment Complex","lat":57.72138,"lon":-3.34134,"postcode":"IV31 6SP","la":"Moray","era":"other","nn":2589,"risk":69,"cat":"red"},{"name":"Fochabers Bowling Club","lat":57.61468,"lon":-3.10042,"postcode":"IV32 7EH","la":"Moray","era":"other","nn":0,"risk":48,"cat":"amber"},{"name":"Fochabers Cricket And Social Club","lat":57.61468,"lon":-3.10042,"postcode":"IV32 7EH","la":"Moray","era":"mod","nn":0,"risk":48,"cat":"amber"},{"name":"Foggies Vape Bar","lat":57.65428,"lon":-3.31657,"postcode":"IV30 4DE","la":"Moray","era":"other","nn":224,"risk":30,"cat":"green"},{"name":"Forres Golf Club","lat":57.60859,"lon":-3.59653,"postcode":"IV36 2RD","la":"Moray","era":"other","nn":821,"risk":51,"cat":"amber"},{"name":"Garmouth And Kingston Golf Club","lat":57.6666,"lon":-3.10555,"postcode":"IV32 7NJ","la":"Moray","era":"trad","nn":5134,"risk":86,"cat":"red"},{"name":"Golden Pheasant","lat":57.65615,"lon":-3.31796,"postcode":"IV30 4EF","la":"Moray","era":"other","nn":224,"risk":30,"cat":"green"},{"name":"Ionic Bar","lat":57.64899,"lon":-3.3118,"postcode":"IV30 1EE","la":"Moray","era":"other","nn":106,"risk":29,"cat":"green"},{"name":"Joanna's Nightclub","lat":57.6487,"lon":-3.31814,"postcode":"IV30 1DJ","la":"Moray","era":"other","nn":34,"risk":28,"cat":"green"},{"name":"Legends Bar","lat":57.60927,"lon":-3.61451,"postcode":"IV36 1NP","la":"Moray","era":"other","nn":92,"risk":34,"cat":"amber"},{"name":"Lodge St John Club","lat":57.61218,"lon":-3.60856,"postcode":"IV36 1BU","la":"Moray","era":"other","nn":480,"risk":34,"cat":"amber"},{"name":"Mother Goose Catering @ Moray Golf Club","lat":57.72057,"lon":-3.29682,"postcode":"IV31 6QS","la":"Moray","era":"other","nn":818,"risk":51,"cat":"amber"},{"name":"Seaforth Association Club","lat":57.64759,"lon":-3.31385,"postcode":"IV30 1LJ","la":"Moray","era":"other","nn":198,"risk":29,"cat":"green"},{"name":"Springfield Bar","lat":57.63813,"lon":-3.31635,"postcode":"IV30 6YA","la":"Moray","era":"other","nn":850,"risk":54,"cat":"amber"},{"name":"The Cocktail Joint Ltd","lat":57.64938,"lon":-3.31342,"postcode":"IV30 1PU","la":"Moray","era":"other","nn":106,"risk":29,"cat":"green"},{"name":"The Royal British Legion","lat":57.60628,"lon":-3.60995,"postcode":"IV36 1DG","la":"Moray","era":"trad","nn":430,"risk":34,"cat":"amber"},{"name":"The Steamboat Inn","lat":57.7226,"lon":-3.28013,"postcode":"IV31 6NT","la":"Moray","era":"trad","nn":314,"risk":50,"cat":"amber"},{"name":"Thistle Bar","lat":57.60888,"lon":-3.61586,"postcode":"IV36 1NP","la":"Moray","era":"other","nn":92,"risk":34,"cat":"amber"},{"name":"Victoria Bar","lat":57.64827,"lon":-3.31888,"postcode":"IV30 1DJ","la":"Moray","era":"trad","nn":39,"risk":28,"cat":"green"},{"name":"White Horse Inn","lat":57.6481,"lon":-3.31775,"postcode":"IV30 1BD","la":"Moray","era":"trad","nn":38,"risk":28,"cat":"green"},{"name":"Zed Bar","lat":57.64839,"lon":-3.31808,"postcode":"IV30 1DJ","la":"Moray","era":"other","nn":0,"risk":28,"cat":"green"}]