[{"name":"Burnopfield Cricket Club","lat":54.90311,"lon":-1.72355,"postcode":"NE16 6ED","la":"County Durham","era":"other","nn":418,"risk":17,"cat":"green"},{"name":"Burnopfield Workmens Victory Social Club & Institute Ltd","lat":54.90692,"lon":-1.72896,"postcode":"NE16 6QA","la":"County Durham","era":"mod","nn":120,"risk":17,"cat":"green"},{"name":"Burton House","lat":54.9068,"lon":-1.72233,"postcode":"NE16 6NF","la":"County Durham","era":"other","nn":354,"risk":19,"cat":"green"},{"name":"Causey Arch Inn","lat":54.89934,"lon":-1.67767,"postcode":"NE16 5EG","la":"County Durham","era":"trad","nn":706,"risk":39,"cat":"amber"},{"name":"Hobson Hotel","lat":54.89603,"lon":-1.73141,"postcode":"NE16 6EE","la":"County Durham","era":"other","nn":933,"risk":40,"cat":"amber"},{"name":"Lintz Cricket Club","lat":54.90065,"lon":-1.74525,"postcode":"NE16 6JY","la":"County Durham","era":"other","nn":1022,"risk":43,"cat":"amber"},{"name":"Pack Horse","lat":54.90792,"lon":-1.71714,"postcode":"NE16 6NS","la":"County Durham","era":"trad","nn":354,"risk":19,"cat":"green"},{"name":"The Owl and Otter","lat":54.88907,"lon":-1.74242,"postcode":"NE16 6BA","la":"County Durham","era":"other","nn":1047,"risk":44,"cat":"amber"},{"name":"The Sun Inn","lat":54.90719,"lon":-1.73076,"postcode":"NE16 6PU","la":"County Durham","era":"trad","nn":120,"risk":17,"cat":"green"},{"name":"101 Regiment Royal Artillery","lat":54.95121,"lon":-1.60375,"postcode":"NE8 4HX","la":"Gateshead","era":"trad","nn":0,"risk":23,"cat":"green"},{"name":"1771 Club House","lat":54.95314,"lon":-1.68678,"postcode":"NE16 3AA","la":"Gateshead","era":"other","nn":156,"risk":24,"cat":"green"},{"name":"Allerdene Social Club","lat":54.92124,"lon":-1.59348,"postcode":"NE9 6NF","la":"Gateshead","era":"mod","nn":611,"risk":33,"cat":"amber"},{"name":"Associates Club","lat":54.93628,"lon":-1.59993,"postcode":"NE9 6HU","la":"Gateshead","era":"other","nn":0,"risk":23,"cat":"green"},{"name":"Axis Beer","lat":54.9655,"lon":-1.60643,"postcode":"NE8 2AJ","la":"Gateshead","era":"other","nn":14,"risk":23,"cat":"green"},{"name":"Bay Horse","lat":54.94565,"lon":-1.6726,"postcode":"NE16 4EF","la":"Gateshead","era":"trad","nn":163,"risk":27,"cat":"green"},{"name":"Beer Drop","lat":54.93532,"lon":-1.59925,"postcode":"NE9 5EY","la":"Gateshead","era":"other","nn":32,"risk":24,"cat":"green"},{"name":"Beer Drop Ltd","lat":54.92802,"lon":-1.59266,"postcode":"NE9 6QD","la":"Gateshead","era":"other","nn":245,"risk":25,"cat":"green"},{"name":"Belle Vue","lat":54.9347,"lon":-1.59951,"postcode":"NE9 6HX","la":"Gateshead","era":"other","nn":47,"risk":24,"cat":"green"},{"name":"Bill Quay Cricket Club","lat":54.95759,"lon":-1.53201,"postcode":"NE10 0UN","la":"Gateshead","era":"other","nn":339,"risk":28,"cat":"green"},{"name":"Bisley Hotel","lat":54.96403,"lon":-1.71291,"postcode":"NE21 5AF","la":"Gateshead","era":"other","nn":25,"risk":24,"cat":"green"},{"name":"Black Bull Hotel","lat":54.96629,"lon":-1.71792,"postcode":"NE21 4JJ","la":"Gateshead","era":"trad","nn":166,"risk":27,"cat":"green"},{"name":"Black Horse Inn","lat":54.93568,"lon":-1.59701,"postcode":"NE9 5HY","la":"Gateshead","era":"trad","nn":0,"risk":23,"cat":"green"},{"name":"Blaydon Cricket Club","lat":54.95713,"lon":-1.7202,"postcode":"NE21 5DE","la":"Gateshead","era":"other","nn":426,"risk":26,"cat":"green"},{"name":"Blaydon Rugby Club","lat":54.95348,"lon":-1.69062,"postcode":"NE16 3BN","la":"Gateshead","era":"other","nn":248,"risk":25,"cat":"green"},{"name":"Blaydon Staffs Club","lat":54.96603,"lon":-1.71536,"postcode":"NE21 4JB","la":"Gateshead","era":"other","nn":166,"risk":27,"cat":"green"},{"name":"Blue Bell","lat":54.95003,"lon":-1.57048,"postcode":"NE10 9LX","la":"Gateshead","era":"other","nn":126,"risk":24,"cat":"green"},{"name":"Bute Arms","lat":54.93102,"lon":-1.78452,"postcode":"NE39 2BD","la":"Gateshead","era":"trad","nn":568,"risk":45,"cat":"amber"},{"name":"Cannon gateshead","lat":54.93747,"lon":-1.59942,"postcode":"NE9 5AN","la":"Gateshead","era":"trad","nn":11,"risk":23,"cat":"green"},{"name":"Central Bar","lat":54.96545,"lon":-1.60453,"postcode":"NE8 2AN","la":"Gateshead","era":"other","nn":32,"risk":24,"cat":"green"},{"name":"Chopwell Colliery Officials Club","lat":54.92235,"lon":-1.81569,"postcode":"NE17 7AG","la":"Gateshead","era":"other","nn":227,"risk":30,"cat":"green"},{"name":"Chopwell Masonic Hall","lat":54.91863,"lon":-1.81643,"postcode":"NE17 7HZ","la":"Gateshead","era":"trad","nn":196,"risk":30,"cat":"green"},{"name":"Coach And Horses","lat":54.92538,"lon":-1.57476,"postcode":"NE9 7JR","la":"Gateshead","era":"trad","nn":0,"risk":23,"cat":"green"},{"name":"Crawcrook Social Club","lat":54.9668,"lon":-1.78913,"postcode":"NE40 4NB","la":"Gateshead","era":"mod","nn":137,"risk":24,"cat":"green"},{"name":"Crown And Cannon Inn","lat":54.95473,"lon":-1.72762,"postcode":"NE21 6AD","la":"Gateshead","era":"trad","nn":50,"risk":24,"cat":"green"},{"name":"Curley's Bar","lat":54.96083,"lon":-1.60031,"postcode":"NE8 1EL","la":"Gateshead","era":"other","nn":0,"risk":23,"cat":"green"},{"name":"Dun Cow Inn","lat":54.95031,"lon":-1.64189,"postcode":"NE11 9SS","la":"Gateshead","era":"trad","nn":163,"risk":24,"cat":"green"},{"name":"Dunston Masonic Hall","lat":54.94892,"lon":-1.6411,"postcode":"NE11 9TJ","la":"Gateshead","era":"trad","nn":163,"risk":24,"cat":"green"},{"name":"Dunston Social Club Limited","lat":54.95216,"lon":-1.64015,"postcode":"NE11 9AF","la":"Gateshead","era":"mod","nn":233,"risk":25,"cat":"green"},{"name":"Dunston UTS Football Club","lat":54.95664,"lon":-1.65292,"postcode":"NE11 9JL","la":"Gateshead","era":"other","nn":797,"risk":31,"cat":"amber"},{"name":"Ellison's of Low Fell","lat":54.93794,"lon":-1.59576,"postcode":"NE9 5HP","la":"Gateshead","era":"other","nn":144,"risk":24,"cat":"green"},{"name":"Felling Cricket Club","lat":54.94585,"lon":-1.5566,"postcode":"NE10 9XD","la":"Gateshead","era":"other","nn":515,"risk":29,"cat":"green"},{"name":"Fox And Hounds","lat":54.9669,"lon":-1.78699,"postcode":"NE40 4TR","la":"Gateshead","era":"trad","nn":137,"risk":24,"cat":"green"},{"name":"Fox And Hounds Inn","lat":54.94276,"lon":-1.80449,"postcode":"NE40 4JN","la":"Gateshead","era":"trad","nn":1397,"risk":56,"cat":"amber"},{"name":"Friars Goose Water Sports Club","lat":54.95922,"lon":-1.56889,"postcode":"NE10 0QH","la":"Gateshead","era":"other","nn":650,"risk":28,"cat":"green"},{"name":"Garesfield Golf Club","lat":54.93019,"lon":-1.80491,"postcode":"NE17 7AP","la":"Gateshead","era":"other","nn":1112,"risk":54,"cat":"amber"},{"name":"Gateshead Arms","lat":54.93505,"lon":-1.59902,"postcode":"NE9 5EY","la":"Gateshead","era":"trad","nn":7,"risk":23,"cat":"green"},{"name":"Gateshead Bowling Green Club","lat":54.95954,"lon":-1.60579,"postcode":"NE8 1LS","la":"Gateshead","era":"trad","nn":275,"risk":25,"cat":"green"},{"name":"Gateshead Corporation Club","lat":54.95121,"lon":-1.60375,"postcode":"NE8 4HX","la":"Gateshead","era":"trad","nn":0,"risk":23,"cat":"green"},{"name":"Gateshead Fell Cricket Club","lat":54.9416,"lon":-1.59529,"postcode":"NE9 5UB","la":"Gateshead","era":"trad","nn":0,"risk":23,"cat":"green"},{"name":"Gateshead Masonic Hall","lat":54.95671,"lon":-1.60655,"postcode":"NE8 1RB","la":"Gateshead","era":"trad","nn":297,"risk":25,"cat":"green"},{"name":"Gateshead Royal British Legion Club","lat":54.95178,"lon":-1.60532,"postcode":"NE8 4LL","la":"Gateshead","era":"trad","nn":119,"risk":24,"cat":"green"},{"name":"Gateshead RUFC","lat":54.9416,"lon":-1.59529,"postcode":"NE9 5UB","la":"Gateshead","era":"trad","nn":0,"risk":23,"cat":"green"},{"name":"Gateshead Snooker Centre","lat":54.94909,"lon":-1.59867,"postcode":"NE9 5EF","la":"Gateshead","era":"trad","nn":401,"risk":26,"cat":"green"},{"name":"Gilbert & Smiths","lat":54.93752,"lon":-1.59956,"postcode":"NE9 5AN","la":"Gateshead","era":"other","nn":11,"risk":23,"cat":"green"},{"name":"Greencroft Social Club","lat":54.93953,"lon":-1.58387,"postcode":"NE9 6QQ","la":"Gateshead","era":"mod","nn":148,"risk":24,"cat":"green"},{"name":"Greenside and District Social Club","lat":54.95454,"lon":-1.77866,"postcode":"NE40 4SR","la":"Gateshead","era":"mod","nn":346,"risk":43,"cat":"amber"},{"name":"Greenside Cricket Club","lat":54.95694,"lon":-1.78213,"postcode":"NE40 4AA","la":"Gateshead","era":"other","nn":346,"risk":43,"cat":"amber"},{"name":"Grey Nags Head","lat":54.96296,"lon":-1.60029,"postcode":"NE8 1AS","la":"Gateshead","era":"trad","nn":98,"risk":24,"cat":"green"},{"name":"Guidepost","lat":54.91947,"lon":-1.55329,"postcode":"NE9 7RR","la":"Sunderland","era":"other","nn":67,"risk":23,"cat":"green"},{"name":"Half Moon Hotel","lat":54.92496,"lon":-1.57377,"postcode":"NE9 7JL","la":"Gateshead","era":"other","nn":73,"risk":24,"cat":"green"},{"name":"Half Moon Inn","lat":54.97641,"lon":-1.76006,"postcode":"NE40 3NU","la":"Gateshead","era":"trad","nn":299,"risk":25,"cat":"green"},{"name":"Heworth Golf Club","lat":54.93969,"lon":-1.53316,"postcode":"NE10 8XY","la":"Gateshead","era":"other","nn":782,"risk":34,"cat":"amber"},{"name":"Highfield Social Club","lat":54.92031,"lon":-1.75572,"postcode":"NE39 1PG","la":"Gateshead","era":"mod","nn":921,"risk":50,"cat":"amber"},{"name":"HMS Calliope","lat":54.96864,"lon":-1.60097,"postcode":"NE8 2BE","la":"Gateshead","era":"other","nn":228,"risk":25,"cat":"green"},{"name":"Holly Hill Sports And Social Club","lat":54.95012,"lon":-1.56805,"postcode":"NE10 9NS","la":"Gateshead","era":"other","nn":155,"risk":24,"cat":"green"},{"name":"Holmeside Hall Social Club","lat":54.94777,"lon":-1.64491,"postcode":"NE11 9UD","la":"Gateshead","era":"mod","nn":274,"risk":25,"cat":"green"},{"name":"Kibblesworth Workmens Club","lat":54.9044,"lon":-1.62063,"postcode":"NE11 0XX","la":"Gateshead","era":"other","nn":2123,"risk":61,"cat":"red"},{"name":"Lambs Arms Inn","lat":54.96519,"lon":-1.79096,"postcode":"NE40 4HJ","la":"Gateshead","era":"trad","nn":65,"risk":24,"cat":"green"},{"name":"Leam Lane Social Club","lat":54.94059,"lon":-1.5453,"postcode":"NE10 8XQ","la":"Gateshead","era":"mod","nn":185,"risk":25,"cat":"green"},{"name":"Leam Rangers YFC","lat":54.9317,"lon":-1.55798,"postcode":"NE10 8LT","la":"Gateshead","era":"other","nn":600,"risk":33,"cat":"amber"},{"name":"Metropole","lat":54.96217,"lon":-1.60097,"postcode":"NE8 1AQ","la":"Gateshead","era":"other","nn":95,"risk":24,"cat":"green"},{"name":"Microbus","lat":54.96531,"lon":-1.60567,"postcode":"NE8 2AJ","la":"Gateshead","era":"other","nn":39,"risk":24,"cat":"green"},{"name":"New West End Social Club","lat":54.95204,"lon":-1.72936,"postcode":"NE21 6PQ","la":"Gateshead","era":"mod","nn":269,"risk":25,"cat":"green"},{"name":"Newcastle (Metrocentre) Premier Inn","lat":54.96155,"lon":-1.68733,"postcode":"NE16 3BL","la":"Gateshead","era":"trad","nn":306,"risk":25,"cat":"green"},{"name":"O'wa The Road Limited","lat":54.95443,"lon":-1.6833,"postcode":"NE16 3DS","la":"Gateshead","era":"other","nn":35,"risk":24,"cat":"green"},{"name":"Pelaw Inn","lat":54.95394,"lon":-1.54356,"postcode":"NE10 0QD","la":"Gateshead","era":"trad","nn":549,"risk":27,"cat":"green"},{"name":"Pelaw Social Club","lat":54.95156,"lon":-1.5511,"postcode":"NE10 0XQ","la":"Gateshead","era":"mod","nn":258,"risk":30,"cat":"green"},{"name":"Phoenix Public House","lat":54.91978,"lon":-1.81343,"postcode":"NE17 7BU","la":"Gateshead","era":"other","nn":144,"risk":29,"cat":"green"},{"name":"Portland Arms","lat":54.94929,"lon":-1.57197,"postcode":"NE10 9HL","la":"Gateshead","era":"trad","nn":126,"risk":24,"cat":"green"},{"name":"Queens Head Hotel","lat":54.95505,"lon":-1.72581,"postcode":"NE21 6AB","la":"Gateshead","era":"trad","nn":58,"risk":24,"cat":"green"},{"name":"Railway Tavern","lat":54.92014,"lon":-1.7413,"postcode":"NE39 1QD","la":"Gateshead","era":"trad","nn":182,"risk":42,"cat":"amber"},{"name":"Ravensworth Golf Club Clubhouse","lat":54.92775,"lon":-1.58111,"postcode":"NE9 7NE","la":"Gateshead","era":"other","nn":483,"risk":27,"cat":"green"},{"name":"RISING SUN INN","lat":54.96464,"lon":-1.79062,"postcode":"NE40 4EE","la":"Gateshead","era":"trad","nn":65,"risk":24,"cat":"green"},{"name":"Rutherford Association Football Club","lat":54.93395,"lon":-1.63268,"postcode":"NE11 0HH","la":"Gateshead","era":"other","nn":826,"risk":49,"cat":"amber"},{"name":"Ryton Football Club","lat":54.97282,"lon":-1.79144,"postcode":"NE40 3SN","la":"Gateshead","era":"other","nn":686,"risk":28,"cat":"green"},{"name":"Ryton Golf Club","lat":54.98195,"lon":-1.78658,"postcode":"NE40 3TD","la":"Gateshead","era":"other","nn":1062,"risk":53,"cat":"amber"},{"name":"Ryton Masonic Hall","lat":54.97343,"lon":-1.76941,"postcode":"NE40 3AE","la":"Gateshead","era":"trad","nn":336,"risk":26,"cat":"green"},{"name":"Ryton Rugby Union Football Club Limited","lat":54.97003,"lon":-1.77889,"postcode":"NE40 3AG","la":"Gateshead","era":"other","nn":0,"risk":23,"cat":"green"},{"name":"Ryton Social Club","lat":54.97222,"lon":-1.75917,"postcode":"NE40 3RA","la":"Gateshead","era":"mod","nn":332,"risk":26,"cat":"green"},{"name":"Saltwell Social Club Limited","lat":54.94924,"lon":-1.61539,"postcode":"NE8 4XH","la":"Gateshead","era":"mod","nn":55,"risk":24,"cat":"green"},{"name":"Socketts","lat":54.93499,"lon":-1.59899,"postcode":"NE9 5EY","la":"Gateshead","era":"other","nn":7,"risk":23,"cat":"green"},{"name":"Spen And District Social Club","lat":54.93637,"lon":-1.78549,"postcode":"NE39 2HA","la":"Gateshead","era":"mod","nn":234,"risk":42,"cat":"amber"},{"name":"Springwell Inn","lat":54.92797,"lon":-1.56478,"postcode":"NE9 7AB","la":"Gateshead","era":"trad","nn":600,"risk":28,"cat":"green"},{"name":"Station East","lat":54.96516,"lon":-1.60458,"postcode":"NE8 2AS","la":"Gateshead","era":"other","nn":32,"risk":24,"cat":"green"},{"name":"Stormont Main Working Mens Club","lat":54.92556,"lon":-1.5733,"postcode":"NE9 7JN","la":"Gateshead","era":"trad","nn":73,"risk":24,"cat":"green"},{"name":"Sunniside Social Club","lat":54.92577,"lon":-1.67556,"postcode":"NE16 5NA","la":"Gateshead","era":"mod","nn":259,"risk":30,"cat":"green"},{"name":"sunside social club","lat":54.95694,"lon":-1.63885,"postcode":"NE11 9DR","la":"Gateshead","era":"mod","nn":116,"risk":24,"cat":"green"},{"name":"Sutherlands","lat":54.94067,"lon":-1.57412,"postcode":"NE10 9RY","la":"Gateshead","era":"other","nn":636,"risk":28,"cat":"green"},{"name":"Swalwell Cricket Club","lat":54.94825,"lon":-1.69958,"postcode":"NE21 6JA","la":"Gateshead","era":"other","nn":0,"risk":28,"cat":"green"},{"name":"Swalwell Junior Football Club","lat":54.94825,"lon":-1.69958,"postcode":"NE21 6JA","la":"Gateshead","era":"other","nn":0,"risk":28,"cat":"green"},{"name":"Swan Hotel","lat":54.95033,"lon":-1.55453,"postcode":"NE10 0NT","la":"Gateshead","era":"trad","nn":258,"risk":25,"cat":"green"},{"name":"Tap @ Carters Bar","lat":54.93628,"lon":-1.59993,"postcode":"NE9 6HU","la":"Gateshead","era":"other","nn":0,"risk":23,"cat":"green"},{"name":"Tayu","lat":54.93568,"lon":-1.59701,"postcode":"NE9 5HY","la":"Gateshead","era":"other","nn":0,"risk":23,"cat":"green"},{"name":"Teams & District Social Club","lat":54.95346,"lon":-1.62383,"postcode":"NE8 2SJ","la":"Gateshead","era":"mod","nn":470,"risk":29,"cat":"green"},{"name":"The Azure Blue","lat":54.95002,"lon":-1.60523,"postcode":"NE8 4NJ","la":"Gateshead","era":"other","nn":163,"risk":24,"cat":"green"},{"name":"The Beaconsfield","lat":54.9376,"lon":-1.59794,"postcode":"NE9 5EU","la":"Gateshead","era":"other","nn":96,"risk":24,"cat":"green"},{"name":"The Black Horse Inn","lat":54.94208,"lon":-1.75868,"postcode":"NE21 6JU","la":"Gateshead","era":"trad","nn":1636,"risk":57,"cat":"amber"},{"name":"The Brandling Inn","lat":54.94833,"lon":-1.57763,"postcode":"NE10 9TS","la":"Gateshead","era":"trad","nn":377,"risk":26,"cat":"green"},{"name":"The Bridle Path","lat":54.94555,"lon":-1.68235,"postcode":"NE16 4JJ","la":"Gateshead","era":"other","nn":92,"risk":24,"cat":"green"},{"name":"The Carlton Club Low Fell Limited","lat":54.93664,"lon":-1.60127,"postcode":"NE9 6BQ","la":"Gateshead","era":"other","nn":95,"risk":24,"cat":"green"},{"name":"The Central","lat":54.92031,"lon":-1.81549,"postcode":"NE17 7AA","la":"Gateshead","era":"other","nn":144,"risk":29,"cat":"green"},{"name":"The Coachman","lat":54.93671,"lon":-1.68911,"postcode":"NE16 5AW","la":"Gateshead","era":"trad","nn":299,"risk":43,"cat":"amber"},{"name":"The Cricketers","lat":54.95902,"lon":-1.53855,"postcode":"NE10 0TX","la":"Gateshead","era":"other","nn":164,"risk":29,"cat":"green"},{"name":"The Crown Inn","lat":54.95863,"lon":-1.6098,"postcode":"NE8 1PU","la":"Gateshead","era":"trad","nn":275,"risk":25,"cat":"green"},{"name":"The Dog House","lat":54.94575,"lon":-1.67514,"postcode":"NE16 4DT","la":"Gateshead","era":"other","nn":163,"risk":27,"cat":"green"},{"name":"THE DURHAM RANGER","lat":54.93896,"lon":-1.54582,"postcode":"NE10 8JR","la":"Gateshead","era":"other","nn":185,"risk":27,"cat":"green"},{"name":"The Eagle","lat":54.93531,"lon":-1.55031,"postcode":"NE10 8RH","la":"Gateshead","era":"trad","nn":1,"risk":26,"cat":"green"},{"name":"The Engine Room","lat":54.91542,"lon":-1.56479,"postcode":"NE9 7XR","la":"Gateshead","era":"other","nn":275,"risk":25,"cat":"green"},{"name":"The Fellsider","lat":54.93814,"lon":-1.69308,"postcode":"NE16 5BY","la":"Gateshead","era":"other","nn":299,"risk":43,"cat":"amber"},{"name":"The Fog on the Tyne","lat":54.96371,"lon":-1.58062,"postcode":"NE8 3AF","la":"Gateshead","era":"other","nn":9,"risk":23,"cat":"green"},{"name":"The Globe","lat":54.95396,"lon":-1.59672,"postcode":"NE8 3TR","la":"Gateshead","era":"other","nn":543,"risk":27,"cat":"green"},{"name":"The Gold Medal","lat":54.92716,"lon":-1.60301,"postcode":"NE9 6JP","la":"Gateshead","era":"other","nn":477,"risk":27,"cat":"green"},{"name":"The Green","lat":54.94566,"lon":-1.51911,"postcode":"NE10 8YB","la":"South Tyneside","era":"other","nn":235,"risk":47,"cat":"amber"},{"name":"The Highlander","lat":54.95408,"lon":-1.68498,"postcode":"NE16 3DW","la":"Gateshead","era":"other","nn":114,"risk":24,"cat":"green"},{"name":"The Highlander","lat":54.95457,"lon":-1.72614,"postcode":"NE21 6AF","la":"Gateshead","era":"other","nn":58,"risk":24,"cat":"green"},{"name":"The Highwayman","lat":54.94388,"lon":-1.65155,"postcode":"NE11 9QJ","la":"Gateshead","era":"other","nn":606,"risk":30,"cat":"green"},{"name":"The Huntsman","lat":54.96158,"lon":-1.71724,"postcode":"NE21 4AU","la":"Gateshead","era":"other","nn":388,"risk":26,"cat":"green"},{"name":"The Lane Head","lat":54.97269,"lon":-1.7643,"postcode":"NE40 3NA","la":"Gateshead","era":"trad","nn":332,"risk":26,"cat":"green"},{"name":"The Mallard","lat":54.95251,"lon":-1.56995,"postcode":"NE10 9LS","la":"Gateshead","era":"other","nn":184,"risk":25,"cat":"green"},{"name":"The New Eagle","lat":54.93531,"lon":-1.55029,"postcode":"NE10 8RH","la":"Gateshead","era":"trad","nn":1,"risk":26,"cat":"green"},{"name":"The Norwood","lat":54.94397,"lon":-1.63628,"postcode":"NE11 9LH","la":"Gateshead","era":"other","nn":577,"risk":27,"cat":"green"},{"name":"The Old Fox","lat":54.95342,"lon":-1.56755,"postcode":"NE10 0HQ","la":"Gateshead","era":"trad","nn":0,"risk":23,"cat":"green"},{"name":"The One Eyed Stag","lat":54.94594,"lon":-1.68107,"postcode":"NE16 4JB","la":"Gateshead","era":"trad","nn":92,"risk":24,"cat":"green"},{"name":"The Plough","lat":54.94722,"lon":-1.5918,"postcode":"NE9 5LB","la":"Gateshead","era":"trad","nn":485,"risk":27,"cat":"green"},{"name":"The Potters Wheel","lat":54.92221,"lon":-1.67507,"postcode":"NE16 5EE","la":"Gateshead","era":"other","nn":174,"risk":42,"cat":"amber"},{"name":"The Red Kite","lat":54.9416,"lon":-1.7119,"postcode":"NE21 6RU","la":"Gateshead","era":"other","nn":1079,"risk":53,"cat":"amber"},{"name":"The Royal Oak","lat":54.92538,"lon":-1.57476,"postcode":"NE9 7JR","la":"Gateshead","era":"trad","nn":0,"risk":23,"cat":"green"},{"name":"The Runhead","lat":54.97411,"lon":-1.75309,"postcode":"NE40 3DF","la":"Gateshead","era":"trad","nn":441,"risk":26,"cat":"green"},{"name":"The Schooner","lat":54.96369,"lon":-1.58048,"postcode":"NE8 3AF","la":"Gateshead","era":"other","nn":9,"risk":23,"cat":"green"},{"name":"The Ship","lat":54.91468,"lon":-1.56068,"postcode":"NE9 7YP","la":"Gateshead","era":"trad","nn":275,"risk":25,"cat":"green"},{"name":"The Skiff Inn","lat":54.9627,"lon":-1.68298,"postcode":"NE16 3BE","la":"Gateshead","era":"trad","nn":306,"risk":28,"cat":"green"},{"name":"The Stirling House","lat":54.94908,"lon":-1.61458,"postcode":"NE8 4TJ","la":"Gateshead","era":"other","nn":55,"risk":24,"cat":"green"},{"name":"The Stone Trough","lat":54.92661,"lon":-1.5956,"postcode":"NE9 7TA","la":"Gateshead","era":"other","nn":245,"risk":25,"cat":"green"},{"name":"The Sun Inn","lat":54.95471,"lon":-1.68355,"postcode":"NE16 3AL","la":"Gateshead","era":"trad","nn":35,"risk":24,"cat":"green"},{"name":"The Three Tuns","lat":54.94009,"lon":-1.58746,"postcode":"NE9 5SD","la":"Gateshead","era":"other","nn":232,"risk":25,"cat":"green"},{"name":"The Tilley Stone","lat":54.96152,"lon":-1.60193,"postcode":"NE8 1EE","la":"Gateshead","era":"other","nn":95,"risk":24,"cat":"green"},{"name":"The Travellers Rest","lat":54.92363,"lon":-1.67394,"postcode":"NE16 5LL","la":"Gateshead","era":"other","nn":174,"risk":42,"cat":"amber"},{"name":"The Travellers Rest","lat":54.93844,"lon":-1.58523,"postcode":"NE9 6QL","la":"Gateshead","era":"other","nn":148,"risk":24,"cat":"green"},{"name":"The Tudor Rose","lat":54.95645,"lon":-1.64044,"postcode":"NE11 9DU","la":"Gateshead","era":"other","nn":116,"risk":24,"cat":"green"},{"name":"The Turf","lat":54.9548,"lon":-1.7284,"postcode":"NE21 6AH","la":"Gateshead","era":"other","nn":50,"risk":24,"cat":"green"},{"name":"The Waggon Inn","lat":54.91847,"lon":-1.5647,"postcode":"NE9 7XB","la":"Gateshead","era":"trad","nn":339,"risk":26,"cat":"green"},{"name":"The Waggon Team","lat":54.94104,"lon":-1.62883,"postcode":"NE11 9NA","la":"Gateshead","era":"other","nn":376,"risk":31,"cat":"amber"},{"name":"The Wardley","lat":54.95773,"lon":-1.53732,"postcode":"NE10 0TT","la":"Gateshead","era":"other","nn":164,"risk":29,"cat":"green"},{"name":"The Wheatsheaf","lat":54.95342,"lon":-1.56755,"postcode":"NE10 0HQ","la":"Gateshead","era":"trad","nn":0,"risk":23,"cat":"green"},{"name":"The Yard","lat":54.96422,"lon":-1.71273,"postcode":"NE21 5AE","la":"Gateshead","era":"mod","nn":25,"risk":24,"cat":"green"},{"name":"Thomas Wilson Working Mens Club","lat":54.93068,"lon":-1.59799,"postcode":"NE9 6JD","la":"Gateshead","era":"trad","nn":154,"risk":24,"cat":"green"},{"name":"Toby Carvery","lat":54.95765,"lon":-1.66857,"postcode":"NE11 9YG","la":"Gateshead","era":"other","nn":0,"risk":43,"cat":"amber"},{"name":"Tyneside Golf Club Limited","lat":54.97676,"lon":-1.76759,"postcode":"NE40 3QE","la":"Gateshead","era":"other","nn":184,"risk":25,"cat":"green"},{"name":"Tynesocial Community CiC","lat":54.95299,"lon":-1.61651,"postcode":"NE8 2XD","la":"Gateshead","era":"mod","nn":224,"risk":25,"cat":"green"},{"name":"Vale of Derwent Social Club","lat":54.92128,"lon":-1.73927,"postcode":"NE39 1QG","la":"Gateshead","era":"mod","nn":182,"risk":45,"cat":"amber"},{"name":"Valley Farm","lat":54.94307,"lon":-1.62413,"postcode":"NE11 0BE","la":"Gateshead","era":"other","nn":376,"risk":26,"cat":"green"},{"name":"Victor Indigo November","lat":54.96544,"lon":-1.60624,"postcode":"NE8 2AJ","la":"Gateshead","era":"other","nn":14,"risk":23,"cat":"green"},{"name":"Victoria Inn","lat":54.93198,"lon":-1.59715,"postcode":"NE9 5HU","la":"Gateshead","era":"trad","nn":154,"risk":24,"cat":"green"},{"name":"Vulcan Inn","lat":54.95433,"lon":-1.728,"postcode":"NE21 6AE","la":"Gateshead","era":"trad","nn":51,"risk":24,"cat":"green"},{"name":"Wardley Club","lat":54.94618,"lon":-1.52268,"postcode":"NE10 8AU","la":"Gateshead","era":"other","nn":235,"risk":42,"cat":"amber"},{"name":"West Ryton RAOB Club","lat":54.97003,"lon":-1.77889,"postcode":"NE40 3AG","la":"Gateshead","era":"other","nn":0,"risk":23,"cat":"green"},{"name":"Wetherspoons","lat":54.95765,"lon":-1.66857,"postcode":"NE11 9YP","la":"Gateshead","era":"other","nn":0,"risk":43,"cat":"amber"},{"name":"Whickham Glebe Sports Social Club","lat":54.94463,"lon":-1.67922,"postcode":"NE16 4NA","la":"Gateshead","era":"mod","nn":188,"risk":27,"cat":"green"},{"name":"Whickham Golf Club","lat":54.93298,"lon":-1.69423,"postcode":"NE16 5SN","la":"Gateshead","era":"other","nn":529,"risk":32,"cat":"amber"},{"name":"Whickham House","lat":54.95097,"lon":-1.61673,"postcode":"NE8 4TE","la":"Gateshead","era":"other","nn":211,"risk":25,"cat":"green"},{"name":"White Swan Inn","lat":54.95561,"lon":-1.7707,"postcode":"NE40 4SP","la":"Gateshead","era":"trad","nn":523,"risk":45,"cat":"amber"},{"name":"Wigs Place","lat":54.93591,"lon":-1.78192,"postcode":"NE39 2EL","la":"Gateshead","era":"other","nn":234,"risk":42,"cat":"amber"},{"name":"William IV","lat":54.96083,"lon":-1.60031,"postcode":"NE8 1EL","la":"Gateshead","era":"other","nn":0,"risk":23,"cat":"green"},{"name":"Winlaton Vulcan Rugby Club","lat":54.95251,"lon":-1.71772,"postcode":"NE21 6NF","la":"Gateshead","era":"other","nn":538,"risk":27,"cat":"green"},{"name":"Woodmans Arms","lat":54.92538,"lon":-1.69065,"postcode":"NE16 5BB","la":"Gateshead","era":"trad","nn":875,"risk":47,"cat":"amber"},{"name":"Ye Olde Cross","lat":54.97677,"lon":-1.7647,"postcode":"NE40 3QP","la":"Gateshead","era":"trad","nn":184,"risk":25,"cat":"green"},{"name":"Ye Olde Fleece","lat":54.96145,"lon":-1.59995,"postcode":"NE8 1EP","la":"Gateshead","era":"trad","nn":73,"risk":24,"cat":"green"},{"name":"2knives kitchen","lat":54.97015,"lon":-1.5813,"postcode":"NE6 2HL","la":"Newcastle upon Tyne","era":"mod","nn":73,"risk":22,"cat":"green"},{"name":"Al Amran Catering Ltd","lat":54.96899,"lon":-1.64613,"postcode":"NE4 6XS","la":"Newcastle upon Tyne","era":"other","nn":277,"risk":26,"cat":"green"},{"name":"Alfie's","lat":54.97411,"lon":-1.60386,"postcode":"NE1 6PF","la":"Newcastle upon Tyne","era":"other","nn":317,"risk":24,"cat":"green"},{"name":"All Bar One","lat":54.97171,"lon":-1.61192,"postcode":"NE1 6EE","la":"Newcastle upon Tyne","era":"mod","nn":19,"risk":22,"cat":"green"},{"name":"Alvinos","lat":54.97203,"lon":-1.61059,"postcode":"NE1 6SG","la":"Newcastle upon Tyne","era":"other","nn":7,"risk":22,"cat":"green"},{"name":"Aveika","lat":54.96877,"lon":-1.60715,"postcode":"NE1 3AF","la":"Newcastle upon Tyne","era":"other","nn":51,"risk":22,"cat":"green"},{"name":"Bacchus","lat":54.9723,"lon":-1.6111,"postcode":"NE1 6BX","la":"Newcastle upon Tyne","era":"other","nn":21,"risk":22,"cat":"green"},{"name":"Bar 11","lat":55.03691,"lon":-1.7101,"postcode":"NE13 8BZ","la":"Newcastle upon Tyne","era":"mod","nn":0,"risk":39,"cat":"amber"},{"name":"Bar 22","lat":54.97675,"lon":-1.58122,"postcode":"NE6 1DS","la":"Newcastle upon Tyne","era":"mod","nn":119,"risk":22,"cat":"green"},{"name":"Bar Luga","lat":54.97155,"lon":-1.61178,"postcode":"NE1 6EE","la":"Newcastle upon Tyne","era":"mod","nn":19,"risk":22,"cat":"green"},{"name":"Barca","lat":55.00637,"lon":-1.61959,"postcode":"NE3 1HD","la":"Newcastle upon Tyne","era":"other","nn":34,"risk":22,"cat":"green"},{"name":"Be at One Newcastle","lat":54.9697,"lon":-1.61575,"postcode":"NE1 5SG","la":"Newcastle upon Tyne","era":"other","nn":20,"risk":22,"cat":"green"},{"name":"Bealim House","lat":54.97389,"lon":-1.61838,"postcode":"NE1 4SG","la":"Newcastle upon Tyne","era":"other","nn":75,"risk":22,"cat":"green"},{"name":"Bentinck Sports & Social Club","lat":54.97251,"lon":-1.64347,"postcode":"NE4 6UR","la":"Newcastle upon Tyne","era":"mod","nn":276,"risk":26,"cat":"green"},{"name":"Benwell Hill Cricket Club","lat":54.98042,"lon":-1.68141,"postcode":"NE15 7EU","la":"Newcastle upon Tyne","era":"other","nn":224,"risk":28,"cat":"green"},{"name":"Billy Bootleggers","lat":54.97547,"lon":-1.5934,"postcode":"NE1 2NP","la":"Newcastle upon Tyne","era":"other","nn":103,"risk":22,"cat":"green"},{"name":"Blackie Boy","lat":54.9704,"lon":-1.61276,"postcode":"NE1 1UQ","la":"Newcastle upon Tyne","era":"other","nn":32,"risk":22,"cat":"green"},{"name":"Blacksmiths Arms","lat":55.00668,"lon":-1.61953,"postcode":"NE3 1HD","la":"Newcastle upon Tyne","era":"trad","nn":25,"risk":22,"cat":"green"},{"name":"Blakelaw And Cowgate Legion Club","lat":54.99509,"lon":-1.67022,"postcode":"NE5 3RS","la":"Newcastle upon Tyne","era":"other","nn":141,"risk":43,"cat":"amber"},{"name":"Blakelaw Social Club","lat":54.99594,"lon":-1.67187,"postcode":"NE5 3SW","la":"Newcastle upon Tyne","era":"mod","nn":141,"risk":43,"cat":"amber"},{"name":"Blue Velvet","lat":54.97005,"lon":-1.60958,"postcode":"NE1 1PG","la":"Newcastle upon Tyne","era":"other","nn":16,"risk":22,"cat":"green"},{"name":"Blutcher & District Social Club","lat":54.99156,"lon":-1.72487,"postcode":"NE15 9SN","la":"Newcastle upon Tyne","era":"mod","nn":1247,"risk":53,"cat":"amber"},{"name":"Bohemia","lat":54.97014,"lon":-1.61298,"postcode":"NE1 1JF","la":"Newcastle upon Tyne","era":"other","nn":27,"risk":22,"cat":"green"},{"name":"Border Minstrel","lat":55.03545,"lon":-1.61321,"postcode":"NE3 5EJ","la":"Newcastle upon Tyne","era":"other","nn":785,"risk":47,"cat":"amber"},{"name":"Boulevard Cabaret Club","lat":54.96728,"lon":-1.62293,"postcode":"NE1 4HF","la":"Newcastle upon Tyne","era":"other","nn":47,"risk":22,"cat":"green"},{"name":"Brack Burger Ltd","lat":54.99097,"lon":-1.60464,"postcode":"NE2 2AN","la":"Newcastle upon Tyne","era":"other","nn":125,"risk":22,"cat":"green"},{"name":"Brandling Arms","lat":55.00605,"lon":-1.6195,"postcode":"NE3 1HD","la":"Newcastle upon Tyne","era":"trad","nn":36,"risk":22,"cat":"green"},{"name":"Brew Dog","lat":54.96992,"lon":-1.60952,"postcode":"NE1 1PG","la":"Newcastle upon Tyne","era":"other","nn":16,"risk":22,"cat":"green"},{"name":"Bryan Does Food @The Stand","lat":54.97179,"lon":-1.61267,"postcode":"NE1 1EW","la":"Newcastle upon Tyne","era":"other","nn":24,"risk":22,"cat":"green"},{"name":"Burgers Inc @ The Metropolitan","lat":54.96751,"lon":-1.63186,"postcode":"NE4 7QS","la":"Newcastle upon Tyne","era":"other","nn":0,"risk":22,"cat":"green"},{"name":"Butchers Arms","lat":54.97659,"lon":-1.58412,"postcode":"NE6 1DL","la":"Newcastle upon Tyne","era":"trad","nn":21,"risk":22,"cat":"green"},{"name":"Butlers","lat":54.97204,"lon":-1.61542,"postcode":"NE1 5AQ","la":"Newcastle upon Tyne","era":"other","nn":65,"risk":22,"cat":"green"},{"name":"Byker And Saint Peter's Social Club","lat":54.97211,"lon":-1.57763,"postcode":"NE6 2EH","la":"Newcastle upon Tyne","era":"other","nn":321,"risk":24,"cat":"green"},{"name":"Chacha Buchi","lat":54.97017,"lon":-1.6134,"postcode":"NE1 1JF","la":"Newcastle upon Tyne","era":"other","nn":27,"risk":22,"cat":"green"},{"name":"Charts","lat":54.96934,"lon":-1.6044,"postcode":"NE1 3DE","la":"Newcastle upon Tyne","era":"trad","nn":35,"risk":22,"cat":"green"},{"name":"City Tavern","lat":54.97687,"lon":-1.61254,"postcode":"NE1 8JF","la":"Newcastle upon Tyne","era":"other","nn":91,"risk":22,"cat":"green"},{"name":"City Vaults / Bier Keller","lat":54.97114,"lon":-1.61469,"postcode":"NE1 1UN","la":"Newcastle upon Tyne","era":"other","nn":53,"risk":22,"cat":"green"},{"name":"Cosmic Ballroom","lat":54.97276,"lon":-1.62,"postcode":"NE1 4XQ","la":"Newcastle upon Tyne","era":"other","nn":58,"risk":22,"cat":"green"},{"name":"Cosy Joes","lat":54.97079,"lon":-1.61333,"postcode":"NE1 1UQ","la":"Newcastle upon Tyne","era":"other","nn":46,"risk":22,"cat":"green"},{"name":"County Hotel","lat":54.9663,"lon":-1.54892,"postcode":"NE6 3LB","la":"Newcastle upon Tyne","era":"other","nn":571,"risk":31,"cat":"amber"},{"name":"Crown Posada","lat":54.96926,"lon":-1.60883,"postcode":"NE1 3JE","la":"Newcastle upon Tyne","era":"trad","nn":22,"risk":22,"cat":"green"},{"name":"Crows Nest","lat":54.97645,"lon":-1.61552,"postcode":"NE1 7RY","la":"Newcastle upon Tyne","era":"other","nn":34,"risk":22,"cat":"green"},{"name":"Cumberland Arms","lat":54.97537,"lon":-1.58925,"postcode":"NE6 1LD","la":"Newcastle upon Tyne","era":"trad","nn":166,"risk":23,"cat":"green"},{"name":"Denton Hotel","lat":54.98223,"lon":-1.68294,"postcode":"NE5 2JJ","la":"Newcastle upon Tyne","era":"other","nn":224,"risk":28,"cat":"green"},{"name":"Destination 1850","lat":54.96894,"lon":-1.61693,"postcode":"NE1 5DL","la":"Newcastle upon Tyne","era":"other","nn":60,"risk":22,"cat":"green"},{"name":"Diamond Club","lat":54.97114,"lon":-1.61153,"postcode":"NE1 6EE","la":"Newcastle upon Tyne","era":"other","nn":0,"risk":22,"cat":"green"},{"name":"Digital","lat":54.96752,"lon":-1.62044,"postcode":"NE1 4EP","la":"Newcastle upon Tyne","era":"other","nn":112,"risk":22,"cat":"green"},{"name":"Dinnington Village Social Club","lat":55.05501,"lon":-1.67483,"postcode":"NE13 7JT","la":"Newcastle upon Tyne","era":"other","nn":2814,"risk":64,"cat":"red"},{"name":"Dog And Parrot","lat":54.96862,"lon":-1.62079,"postcode":"NE1 4EX","la":"Newcastle upon Tyne","era":"other","nn":0,"risk":22,"cat":"green"},{"name":"Duke Of Northumberland","lat":54.97253,"lon":-1.61633,"postcode":"NE1 5PE","la":"Newcastle upon Tyne","era":"trad","nn":56,"risk":22,"cat":"green"},{"name":"East End Liberal Club","lat":54.97833,"lon":-1.57986,"postcode":"NE6 1SA","la":"Newcastle upon Tyne","era":"other","nn":34,"risk":22,"cat":"green"},{"name":"Eazy Street","lat":54.96861,"lon":-1.62099,"postcode":"NE1 4EG","la":"Newcastle upon Tyne","era":"other","nn":13,"risk":22,"cat":"green"},{"name":"Everyman Cinema","lat":54.97266,"lon":-1.61245,"postcode":"NE1 6EF","la":"Newcastle upon Tyne","era":"other","nn":70,"risk":22,"cat":"green"},{"name":"Falcons Nest Vintage Inn","lat":55.03584,"lon":-1.62551,"postcode":"NE3 5EH","la":"Newcastle upon Tyne","era":"trad","nn":785,"risk":47,"cat":"amber"},{"name":"Filthys/Passing Clouds/Illegitimate","lat":54.97159,"lon":-1.61442,"postcode":"NE1 1UW","la":"Newcastle upon Tyne","era":"other","nn":27,"risk":22,"cat":"green"},{"name":"Fitzgeralds","lat":54.97186,"lon":-1.61148,"postcode":"NE1 6AF","la":"Newcastle upon Tyne","era":"other","nn":33,"risk":22,"cat":"green"},{"name":"Flares","lat":54.9706,"lon":-1.61162,"postcode":"NE1 1YF","la":"Newcastle upon Tyne","era":"other","nn":35,"risk":22,"cat":"green"},{"name":"Four Quarters","lat":54.9708,"lon":-1.61001,"postcode":"NE1 1PG","la":"Newcastle upon Tyne","era":"mod","nn":56,"risk":22,"cat":"green"},{"name":"Fox And Hounds","lat":54.97898,"lon":-1.67055,"postcode":"NE5 2ER","la":"Newcastle upon Tyne","era":"trad","nn":711,"risk":44,"cat":"amber"},{"name":"Freya's Restaurant","lat":54.97235,"lon":-1.6184,"postcode":"NE1 5TG","la":"Newcastle upon Tyne","era":"other","nn":0,"risk":22,"cat":"green"},{"name":"Full Circle Brew Co","lat":54.9696,"lon":-1.58067,"postcode":"NE6 2BS","la":"Newcastle upon Tyne","era":"other","nn":73,"risk":22,"cat":"green"},{"name":"G Casino","lat":54.96665,"lon":-1.62418,"postcode":"NE1 4BN","la":"Newcastle upon Tyne","era":"other","nn":75,"risk":22,"cat":"green"},{"name":"Gosforth Empire Club And Institute","lat":55.00699,"lon":-1.62323,"postcode":"NE3 1DX","la":"Newcastle upon Tyne","era":"other","nn":238,"risk":23,"cat":"green"},{"name":"Greys Club","lat":54.97114,"lon":-1.61153,"postcode":"NE1 6EE","la":"Newcastle upon Tyne","era":"other","nn":0,"risk":22,"cat":"green"},{"name":"Gunner Tavern","lat":54.96925,"lon":-1.61817,"postcode":"NE1 5DF","la":"Newcastle upon Tyne","era":"other","nn":38,"risk":22,"cat":"green"},{"name":"Hard Rock Cafe","lat":54.96848,"lon":-1.60776,"postcode":"NE1 3AF","la":"Newcastle upon Tyne","era":"other","nn":37,"risk":22,"cat":"green"},{"name":"Hatchet Harry's","lat":54.96576,"lon":-1.62036,"postcode":"NE1 3PG","la":"Newcastle upon Tyne","era":"other","nn":182,"risk":23,"cat":"green"},{"name":"Head Of Steam","lat":54.96964,"lon":-1.60427,"postcode":"NE1 3DQ","la":"Newcastle upon Tyne","era":"trad","nn":35,"risk":22,"cat":"green"},{"name":"Head Of Steam","lat":54.96957,"lon":-1.61552,"postcode":"NE1 5EN","la":"Newcastle upon Tyne","era":"trad","nn":21,"risk":22,"cat":"green"},{"name":"Heaton Meadowfield Social Club","lat":54.98233,"lon":-1.57628,"postcode":"NE6 5YE","la":"Newcastle upon Tyne","era":"mod","nn":290,"risk":24,"cat":"green"},{"name":"Hoochie Coochie","lat":54.97248,"lon":-1.61097,"postcode":"NE1 6SF","la":"Newcastle upon Tyne","era":"other","nn":21,"risk":22,"cat":"green"},{"name":"House","lat":54.98397,"lon":-1.58161,"postcode":"NE6 5HP","la":"Newcastle upon Tyne","era":"other","nn":57,"risk":22,"cat":"green"},{"name":"Jacksons","lat":54.97736,"lon":-1.57795,"postcode":"NE6 1DU","la":"Newcastle upon Tyne","era":"other","nn":53,"risk":22,"cat":"green"},{"name":"Jam Jar","lat":54.99188,"lon":-1.60349,"postcode":"NE2 2AP","la":"Newcastle upon Tyne","era":"other","nn":125,"risk":27,"cat":"green"},{"name":"Jubilee Club","lat":54.97027,"lon":-1.54326,"postcode":"NE6 3DX","la":"Newcastle upon Tyne","era":"other","nn":571,"risk":31,"cat":"amber"},{"name":"Junction Pub","lat":54.97731,"lon":-1.61374,"postcode":"NE1 7PF","la":"Newcastle upon Tyne","era":"other","nn":91,"risk":22,"cat":"green"},{"name":"Keel Row (No 1 Lloyds)","lat":54.97235,"lon":-1.6184,"postcode":"NE1 5TG","la":"Newcastle upon Tyne","era":"other","nn":0,"risk":22,"cat":"green"},{"name":"Key Club Sports Bar","lat":54.97771,"lon":-1.57582,"postcode":"NE6 1DX","la":"Newcastle upon Tyne","era":"other","nn":62,"risk":22,"cat":"green"},{"name":"Lady Greys","lat":54.97263,"lon":-1.61124,"postcode":"NE1 6AQ","la":"Newcastle upon Tyne","era":"other","nn":24,"risk":22,"cat":"green"},{"name":"Lemington Labour Club","lat":54.9828,"lon":-1.71266,"postcode":"NE15 7JS","la":"Newcastle upon Tyne","era":"other","nn":1247,"risk":53,"cat":"amber"},{"name":"Liberty House","lat":54.96989,"lon":-1.61495,"postcode":"NE1 1TT","la":"Newcastle upon Tyne","era":"other","nn":51,"risk":22,"cat":"green"},{"name":"Livello","lat":54.96932,"lon":-1.60916,"postcode":"NE1 3JE","la":"Newcastle upon Tyne","era":"other","nn":22,"risk":22,"cat":"green"},{"name":"Lola Jeans","lat":54.97297,"lon":-1.6115,"postcode":"NE1 6JE","la":"Newcastle upon Tyne","era":"other","nn":42,"risk":22,"cat":"green"},{"name":"Luthers","lat":54.97891,"lon":-1.61502,"postcode":"NE1 8QB","la":"Newcastle upon Tyne","era":"other","nn":196,"risk":23,"cat":"green"},{"name":"Market Shaker","lat":54.97109,"lon":-1.61278,"postcode":"NE1 1EE","la":"Newcastle upon Tyne","era":"other","nn":10,"risk":22,"cat":"green"},{"name":"Marlborough Social Club","lat":54.96809,"lon":-1.62398,"postcode":"NE1 3PZ","la":"Newcastle upon Tyne","era":"mod","nn":40,"risk":22,"cat":"green"},{"name":"Mean Eyed Cat","lat":54.97689,"lon":-1.61585,"postcode":"NE1 4LE","la":"Newcastle upon Tyne","era":"other","nn":49,"risk":22,"cat":"green"},{"name":"Meat Stack / Feds Fried Chicken","lat":54.96862,"lon":-1.62079,"postcode":"NE1 4EX","la":"Newcastle upon Tyne","era":"other","nn":0,"risk":22,"cat":"green"},{"name":"Meldon Social Club And Institute","lat":54.98491,"lon":-1.57913,"postcode":"NE6 5XS","la":"Newcastle upon Tyne","era":"mod","nn":175,"risk":23,"cat":"green"},{"name":"Metropolitan Bar","lat":54.96751,"lon":-1.63186,"postcode":"NE4 7QS","la":"Newcastle upon Tyne","era":"other","nn":0,"risk":22,"cat":"green"},{"name":"Millstone","lat":55.0057,"lon":-1.60256,"postcode":"NE3 1QL","la":"Newcastle upon Tyne","era":"trad","nn":766,"risk":47,"cat":"amber"},{"name":"Mimo and Green Man","lat":54.97008,"lon":-1.61406,"postcode":"NE1 1UE","la":"Newcastle upon Tyne","era":"other","nn":43,"risk":22,"cat":"green"},{"name":"MOJO Bar","lat":54.97235,"lon":-1.6184,"postcode":"NE1 5TG","la":"Newcastle upon Tyne","era":"other","nn":0,"risk":22,"cat":"green"},{"name":"Motel Mexicana","lat":54.97045,"lon":-1.61113,"postcode":"NE1 1DF","la":"Newcastle upon Tyne","era":"other","nn":35,"risk":22,"cat":"green"},{"name":"Mother Mercy","lat":54.97113,"lon":-1.61292,"postcode":"NE1 1EE","la":"Newcastle upon Tyne","era":"other","nn":0,"risk":22,"cat":"green"},{"name":"Mr Mulligans Space Golf","lat":54.97297,"lon":-1.61831,"postcode":"NE1 5RE","la":"Newcastle upon Tyne","era":"other","nn":52,"risk":22,"cat":"green"},{"name":"Mushroom Bar","lat":54.97183,"lon":-1.61446,"postcode":"NE1 5JQ","la":"Newcastle upon Tyne","era":"other","nn":27,"risk":22,"cat":"green"},{"name":"NE6 Suite","lat":54.97474,"lon":-1.55341,"postcode":"NE6 2PR","la":"Newcastle upon Tyne","era":"other","nn":40,"risk":24,"cat":"green"},{"name":"Newburn Memorial Club","lat":54.98792,"lon":-1.7438,"postcode":"NE15 8PR","la":"Newcastle upon Tyne","era":"other","nn":645,"risk":46,"cat":"amber"},{"name":"Newcastle Arms","lat":54.97324,"lon":-1.61898,"postcode":"NE1 5SE","la":"Newcastle upon Tyne","era":"trad","nn":37,"risk":22,"cat":"green"},{"name":"Newcastle Companions Club","lat":54.97599,"lon":-1.61886,"postcode":"NE1 4PG","la":"Newcastle upon Tyne","era":"other","nn":127,"risk":22,"cat":"green"},{"name":"Newcastle Dance Centre","lat":54.97138,"lon":-1.64732,"postcode":"NE4 8RY","la":"Newcastle upon Tyne","era":"other","nn":276,"risk":41,"cat":"amber"},{"name":"Newcastle Labour Club","lat":54.97483,"lon":-1.61798,"postcode":"NE1 4PF","la":"Newcastle upon Tyne","era":"other","nn":99,"risk":22,"cat":"green"},{"name":"Newcastle RAOB Club And Institute","lat":54.97841,"lon":-1.57935,"postcode":"NE6 1SD","la":"Newcastle upon Tyne","era":"other","nn":34,"risk":22,"cat":"green"},{"name":"Newcastle Tap","lat":54.96954,"lon":-1.61586,"postcode":"NE1 5EN","la":"Newcastle upon Tyne","era":"mod","nn":20,"risk":22,"cat":"green"},{"name":"No 28","lat":54.97334,"lon":-1.61479,"postcode":"NE1 5AN","la":"Newcastle upon Tyne","era":"other","nn":77,"risk":22,"cat":"green"},{"name":"North Terrace","lat":54.98325,"lon":-1.62275,"postcode":"NE2 4AD","la":"Newcastle upon Tyne","era":"other","nn":360,"risk":24,"cat":"green"},{"name":"North Terrace Pub","lat":54.98469,"lon":-1.62781,"postcode":"NE2 4AN","la":"Newcastle upon Tyne","era":"other","nn":360,"risk":42,"cat":"amber"},{"name":"Northern Counties Club","lat":54.97369,"lon":-1.6119,"postcode":"NE1 6LH","la":"Newcastle upon Tyne","era":"other","nn":61,"risk":22,"cat":"green"},{"name":"Northumbrian Piper","lat":55.02039,"lon":-1.64766,"postcode":"NE3 2AH","la":"Newcastle upon Tyne","era":"other","nn":1974,"risk":58,"cat":"amber"},{"name":"NQ64","lat":54.97208,"lon":-1.61065,"postcode":"NE1 6SG","la":"Newcastle upon Tyne","era":"other","nn":7,"risk":22,"cat":"green"},{"name":"Number 52","lat":54.96663,"lon":-1.62301,"postcode":"NE4 7JD","la":"Newcastle upon Tyne","era":"other","nn":14,"risk":22,"cat":"green"},{"name":"O2 City Hall Newcastle","lat":54.97737,"lon":-1.61018,"postcode":"NE1 8SF","la":"Newcastle upon Tyne","era":"other","nn":115,"risk":22,"cat":"green"},{"name":"Pitcher And Piano","lat":54.97051,"lon":-1.59946,"postcode":"NE1 3DX","la":"Newcastle upon Tyne","era":"other","nn":228,"risk":23,"cat":"green"},{"name":"Pleased To Meet You","lat":54.972,"lon":-1.61256,"postcode":"NE1 1EW","la":"Newcastle upon Tyne","era":"other","nn":24,"risk":22,"cat":"green"},{"name":"Pop World","lat":54.97141,"lon":-1.61391,"postcode":"NE1 1UW","la":"Newcastle upon Tyne","era":"other","nn":38,"risk":22,"cat":"green"},{"name":"Powerhouse","lat":54.96831,"lon":-1.62262,"postcode":"NE1 4EQ","la":"Newcastle upon Tyne","era":"other","nn":27,"risk":22,"cat":"green"},{"name":"Prohibition Cabaret Bar","lat":54.96972,"lon":-1.61883,"postcode":"NE1 5DW","la":"Newcastle upon Tyne","era":"other","nn":4,"risk":22,"cat":"green"},{"name":"PTE Social Club","lat":54.98018,"lon":-1.57371,"postcode":"NE6 2XP","la":"Newcastle upon Tyne","era":"mod","nn":244,"risk":23,"cat":"green"},{"name":"Pumphreys","lat":54.97113,"lon":-1.61292,"postcode":"NE1 1EE","la":"Newcastle upon Tyne","era":"other","nn":0,"risk":22,"cat":"green"},{"name":"Queen Victoria","lat":55.0069,"lon":-1.61949,"postcode":"NE3 1HD","la":"Newcastle upon Tyne","era":"trad","nn":25,"risk":22,"cat":"green"},{"name":"Queens","lat":54.96832,"lon":-1.6222,"postcode":"NE1 4EE","la":"Newcastle upon Tyne","era":"trad","nn":27,"risk":22,"cat":"green"},{"name":"Raffertys","lat":54.96975,"lon":-1.61884,"postcode":"NE1 5DW","la":"Newcastle upon Tyne","era":"other","nn":4,"risk":22,"cat":"green"},{"name":"Railway Hotel","lat":54.98511,"lon":-1.55863,"postcode":"NE6 4NT","la":"Newcastle upon Tyne","era":"trad","nn":536,"risk":45,"cat":"amber"},{"name":"Rosie's Bar","lat":54.97226,"lon":-1.62027,"postcode":"NE1 4XQ","la":"Newcastle upon Tyne","era":"other","nn":58,"risk":22,"cat":"green"},{"name":"Royal British Legion Club","lat":54.99258,"lon":-1.60866,"postcode":"NE2 3EX","la":"Newcastle upon Tyne","era":"trad","nn":313,"risk":29,"cat":"green"},{"name":"Saint Theresa's Catholic Men's Club","lat":54.98448,"lon":-1.58176,"postcode":"NE6 5HP","la":"Newcastle upon Tyne","era":"trad","nn":57,"risk":22,"cat":"green"},{"name":"Sambuca Benbenuto","lat":54.96834,"lon":-1.6083,"postcode":"NE1 3RG","la":"Newcastle upon Tyne","era":"other","nn":37,"risk":22,"cat":"green"},{"name":"Sandyford Social Club","lat":54.98299,"lon":-1.5982,"postcode":"NE2 1NQ","la":"Newcastle upon Tyne","era":"mod","nn":297,"risk":24,"cat":"green"},{"name":"Scranners @ Tanners Arms","lat":54.97474,"lon":-1.59642,"postcode":"NE1 2NS","la":"Newcastle upon Tyne","era":"trad","nn":0,"risk":22,"cat":"green"},{"name":"Scrogg Road Social Club","lat":54.97439,"lon":-1.55329,"postcode":"NE6 2PR","la":"Newcastle upon Tyne","era":"mod","nn":40,"risk":24,"cat":"green"},{"name":"Shearers","lat":54.97473,"lon":-1.62117,"postcode":"NE1 4ST","la":"Newcastle upon Tyne","era":"other","nn":105,"risk":22,"cat":"green"},{"name":"Shhh... By Base","lat":54.96773,"lon":-1.62408,"postcode":"NE1 3PZ","la":"Newcastle upon Tyne","era":"other","nn":40,"risk":22,"cat":"green"},{"name":"Sinners","lat":54.97202,"lon":-1.6172,"postcode":"NE1 5RF","la":"Newcastle upon Tyne","era":"trad","nn":79,"risk":22,"cat":"green"},{"name":"Slatyford Tenants Association","lat":54.98779,"lon":-1.68139,"postcode":"NE5 2SS","la":"Newcastle upon Tyne","era":"other","nn":626,"risk":43,"cat":"amber"},{"name":"Slug & Lettuce/K-Town/Chik Box/Locked and Loaded","lat":54.97059,"lon":-1.61546,"postcode":"NE1 5JG","la":"Newcastle upon Tyne","era":"other","nn":78,"risk":22,"cat":"green"},{"name":"Soho Rooms","lat":54.97083,"lon":-1.6111,"postcode":"NE1 1YF","la":"Newcastle upon Tyne","era":"mod","nn":17,"risk":22,"cat":"green"},{"name":"Split Chimp","lat":54.96891,"lon":-1.61169,"postcode":"NE1 1SA","la":"Newcastle upon Tyne","era":"other","nn":102,"risk":22,"cat":"green"},{"name":"Spot White Snooker And Pool Club","lat":54.97324,"lon":-1.61956,"postcode":"NE1 4XQ","la":"Newcastle upon Tyne","era":"other","nn":35,"risk":22,"cat":"green"},{"name":"Spot White West","lat":54.96754,"lon":-1.62636,"postcode":"NE4 7JN","la":"Newcastle upon Tyne","era":"other","nn":147,"risk":23,"cat":"green"},{"name":"SR44","lat":54.96675,"lon":-1.62293,"postcode":"NE4 7JD","la":"Newcastle upon Tyne","era":"other","nn":8,"risk":22,"cat":"green"},{"name":"St Peters Social Club And Institute","lat":54.96905,"lon":-1.57747,"postcode":"NE6 2AB","la":"Newcastle upon Tyne","era":"mod","nn":213,"risk":23,"cat":"green"},{"name":"Strawberry","lat":54.97478,"lon":-1.61953,"postcode":"NE1 4SF","la":"Newcastle upon Tyne","era":"other","nn":99,"risk":22,"cat":"green"},{"name":"Switch","lat":54.96718,"lon":-1.62221,"postcode":"NE4 7JB","la":"Newcastle upon Tyne","era":"other","nn":10,"risk":22,"cat":"green"},{"name":"Tanners Arms","lat":54.97474,"lon":-1.59642,"postcode":"NE1 2NS","la":"Newcastle upon Tyne","era":"trad","nn":0,"risk":22,"cat":"green"},{"name":"The Aspire Lounge","lat":55.03691,"lon":-1.7101,"postcode":"NE13 8BZ","la":"Newcastle upon Tyne","era":"mod","nn":0,"risk":39,"cat":"amber"},{"name":"The Bank Bar","lat":54.96701,"lon":-1.62217,"postcode":"NE4 7JB","la":"Newcastle upon Tyne","era":"other","nn":19,"risk":22,"cat":"green"},{"name":"The Beehive","lat":54.97128,"lon":-1.61316,"postcode":"NE1 1EN","la":"Newcastle upon Tyne","era":"other","nn":20,"risk":22,"cat":"green"},{"name":"The Black Garter","lat":54.97289,"lon":-1.61574,"postcode":"NE1 5PN","la":"Newcastle upon Tyne","era":"other","nn":56,"risk":22,"cat":"green"},{"name":"The Black Swan","lat":54.96993,"lon":-1.6187,"postcode":"NE1 1SG","la":"Newcastle upon Tyne","era":"trad","nn":22,"risk":22,"cat":"green"},{"name":"The Bodega","lat":54.97057,"lon":-1.62135,"postcode":"NE1 4AG","la":"Newcastle upon Tyne","era":"other","nn":29,"risk":22,"cat":"green"},{"name":"The Boiler Shop","lat":54.96726,"lon":-1.6151,"postcode":"NE1 3PE","la":"Newcastle upon Tyne","era":"other","nn":187,"risk":23,"cat":"green"},{"name":"The Bridge Tavern","lat":54.9695,"lon":-1.60746,"postcode":"NE1 3UF","la":"Newcastle upon Tyne","era":"other","nn":83,"risk":22,"cat":"green"},{"name":"The Cafe","lat":54.97,"lon":-1.61801,"postcode":"NE1 1SG","la":"Newcastle upon Tyne","era":"other","nn":45,"risk":22,"cat":"green"},{"name":"The Carriage","lat":54.98195,"lon":-1.60485,"postcode":"NE2 1DB","la":"Newcastle upon Tyne","era":"other","nn":440,"risk":25,"cat":"green"},{"name":"The Charles Grey","lat":54.97387,"lon":-1.6128,"postcode":"NE1 6JG","la":"Newcastle upon Tyne","era":"other","nn":61,"risk":22,"cat":"green"},{"name":"The Cluny","lat":54.97494,"lon":-1.59173,"postcode":"NE1 2PQ","la":"Newcastle upon Tyne","era":"other","nn":122,"risk":22,"cat":"green"},{"name":"The County","lat":55.00363,"lon":-1.62006,"postcode":"NE3 1HB","la":"Newcastle upon Tyne","era":"other","nn":271,"risk":24,"cat":"green"},{"name":"The Dubliner Newcastle","lat":54.96823,"lon":-1.60947,"postcode":"NE1 3RE","la":"Newcastle upon Tyne","era":"other","nn":14,"risk":22,"cat":"green"},{"name":"The Eagle","lat":54.96678,"lon":-1.62283,"postcode":"NE4 7JD","la":"Newcastle upon Tyne","era":"trad","nn":8,"risk":22,"cat":"green"},{"name":"The Five Swans","lat":54.97777,"lon":-1.61184,"postcode":"NE1 7PG","la":"Newcastle upon Tyne","era":"trad","nn":24,"risk":22,"cat":"green"},{"name":"The Forth Hotel","lat":54.96956,"lon":-1.61841,"postcode":"NE1 5DW","la":"Newcastle upon Tyne","era":"other","nn":32,"risk":22,"cat":"green"},{"name":"The Grace Inn","lat":54.97751,"lon":-1.57716,"postcode":"NE6 1DX","la":"Newcastle upon Tyne","era":"trad","nn":53,"risk":22,"cat":"green"},{"name":"The Hancock","lat":54.98001,"lon":-1.6114,"postcode":"NE2 4PU","la":"Newcastle upon Tyne","era":"other","nn":250,"risk":23,"cat":"green"},{"name":"The High Main","lat":54.97677,"lon":-1.5842,"postcode":"NE6 1DL","la":"Newcastle upon Tyne","era":"other","nn":21,"risk":22,"cat":"green"},{"name":"The Hillheads","lat":54.9986,"lon":-1.70051,"postcode":"NE5 5QA","la":"Newcastle upon Tyne","era":"trad","nn":383,"risk":42,"cat":"amber"},{"name":"The Hotspur","lat":54.97708,"lon":-1.61515,"postcode":"NE1 7RY","la":"Newcastle upon Tyne","era":"other","nn":49,"risk":22,"cat":"green"},{"name":"The Keelman","lat":54.98468,"lon":-1.75218,"postcode":"NE15 8NL","la":"Newcastle upon Tyne","era":"trad","nn":645,"risk":46,"cat":"amber"},{"name":"The Lochside","lat":54.99702,"lon":-1.56805,"postcode":"NE7 7LJ","la":"Newcastle upon Tyne","era":"other","nn":1454,"risk":54,"cat":"amber"},{"name":"The Lord Clyde","lat":54.9782,"lon":-1.57537,"postcode":"NE6 1DQ","la":"Newcastle upon Tyne","era":"other","nn":62,"risk":22,"cat":"green"},{"name":"The Mayfair Pub & Kitchen","lat":54.97235,"lon":-1.6184,"postcode":"NE1 5TG","la":"Newcastle upon Tyne","era":"mod","nn":0,"risk":22,"cat":"green"},{"name":"The Mile Castle","lat":54.97289,"lon":-1.61388,"postcode":"NE1 5AE","la":"Newcastle upon Tyne","era":"other","nn":77,"risk":22,"cat":"green"},{"name":"The Old George","lat":54.97127,"lon":-1.61285,"postcode":"NE1 1EZ","la":"Newcastle upon Tyne","era":"trad","nn":16,"risk":22,"cat":"green"},{"name":"The Old Post Office","lat":54.97715,"lon":-1.57948,"postcode":"NE6 1DU","la":"Newcastle upon Tyne","era":"other","nn":101,"risk":22,"cat":"green"},{"name":"The Percy Arms","lat":54.97632,"lon":-1.616,"postcode":"NE1 7RW","la":"Newcastle upon Tyne","era":"trad","nn":34,"risk":22,"cat":"green"},{"name":"The Poachers Cottage","lat":55.01333,"lon":-1.72351,"postcode":"NE5 1NY","la":"Newcastle upon Tyne","era":"other","nn":2199,"risk":60,"cat":"amber"},{"name":"The Punch Bowl","lat":54.98553,"lon":-1.59675,"postcode":"NE2 1JY","la":"Newcastle upon Tyne","era":"other","nn":297,"risk":24,"cat":"green"},{"name":"The Quayside Bar, Wetherspoons","lat":54.96735,"lon":-1.61023,"postcode":"NE1 3RN","la":"Newcastle upon Tyne","era":"other","nn":109,"risk":22,"cat":"green"},{"name":"The Redhouse","lat":54.96883,"lon":-1.60807,"postcode":"NE1 3JF","la":"Newcastle upon Tyne","era":"other","nn":44,"risk":22,"cat":"green"},{"name":"The Rose And Crown","lat":54.97146,"lon":-1.61548,"postcode":"NE1 5RE","la":"Newcastle upon Tyne","era":"trad","nn":62,"risk":22,"cat":"green"},{"name":"The Ship Inn","lat":54.97496,"lon":-1.59474,"postcode":"NE1 2PW","la":"Newcastle upon Tyne","era":"trad","nn":103,"risk":22,"cat":"green"},{"name":"The Stags Head","lat":54.97531,"lon":-1.57598,"postcode":"NE6 1EB","la":"Newcastle upon Tyne","era":"trad","nn":256,"risk":23,"cat":"green"},{"name":"The Stand Comedy Club","lat":54.97194,"lon":-1.61301,"postcode":"NE1 1EW","la":"Newcastle upon Tyne","era":"other","nn":28,"risk":22,"cat":"green"},{"name":"The Tyne Bar","lat":54.97156,"lon":-1.58818,"postcode":"NE6 1LP","la":"Newcastle upon Tyne","era":"other","nn":429,"risk":25,"cat":"green"},{"name":"The Victoria Comet","lat":54.9694,"lon":-1.61741,"postcode":"NE1 5DF","la":"Newcastle upon Tyne","era":"trad","nn":52,"risk":22,"cat":"green"},{"name":"The Yard","lat":54.96726,"lon":-1.62214,"postcode":"NE4 7JB","la":"Newcastle upon Tyne","era":"mod","nn":10,"risk":22,"cat":"green"},{"name":"Three Bulls Head","lat":54.97568,"lon":-1.61666,"postcode":"NE1 7RN","la":"Newcastle upon Tyne","era":"trad","nn":83,"risk":22,"cat":"green"},{"name":"Throckley Union Jack Club","lat":54.995,"lon":-1.75584,"postcode":"NE15 9NQ","la":"Newcastle upon Tyne","era":"other","nn":1099,"risk":52,"cat":"amber"},{"name":"Tiger Hornsby","lat":54.9683,"lon":-1.6093,"postcode":"NE1 3RE","la":"Newcastle upon Tyne","era":"other","nn":14,"risk":22,"cat":"green"},{"name":"Tilley's","lat":54.97048,"lon":-1.62063,"postcode":"NE1 4AG","la":"Newcastle upon Tyne","era":"other","nn":44,"risk":22,"cat":"green"},{"name":"Tipsy Toad/ In Bread kitchen","lat":54.98088,"lon":-1.58061,"postcode":"NE6 5HL","la":"Newcastle upon Tyne","era":"mod","nn":286,"risk":24,"cat":"green"},{"name":"Toby Carvery","lat":55.00748,"lon":-1.66891,"postcode":"NE3 3TY","la":"Newcastle upon Tyne","era":"other","nn":1062,"risk":52,"cat":"amber"},{"name":"Tokyo","lat":54.96922,"lon":-1.61327,"postcode":"NE1 1SE","la":"Newcastle upon Tyne","era":"other","nn":81,"risk":22,"cat":"green"},{"name":"Town Mouse Ale House","lat":54.97774,"lon":-1.61222,"postcode":"NE1 7PG","la":"Newcastle upon Tyne","era":"other","nn":24,"risk":22,"cat":"green"},{"name":"Trent House","lat":54.97709,"lon":-1.61838,"postcode":"NE1 4QT","la":"Newcastle upon Tyne","era":"other","nn":127,"risk":22,"cat":"green"},{"name":"Trillians Rockbar","lat":54.97482,"lon":-1.61105,"postcode":"NE1 8ER","la":"Newcastle upon Tyne","era":"other","nn":137,"risk":23,"cat":"green"},{"name":"Tup Tup Palace","lat":54.96987,"lon":-1.61216,"postcode":"NE1 1RE","la":"Newcastle upon Tyne","era":"other","nn":60,"risk":22,"cat":"green"},{"name":"Twin Farms","lat":55.01546,"lon":-1.67807,"postcode":"NE13 8AB","la":"Newcastle upon Tyne","era":"trad","nn":1062,"risk":52,"cat":"amber"},{"name":"Tyne Theatre and Opera House","lat":54.97078,"lon":-1.62107,"postcode":"NE1 4AG","la":"Newcastle upon Tyne","era":"other","nn":29,"risk":22,"cat":"green"},{"name":"Tyneside Irish Centre","lat":54.97354,"lon":-1.61938,"postcode":"NE1 4SG","la":"Newcastle upon Tyne","era":"other","nn":35,"risk":22,"cat":"green"},{"name":"Utilita Arena","lat":54.9638,"lon":-1.62324,"postcode":"NE4 7NA","la":"Newcastle upon Tyne","era":"other","nn":285,"risk":24,"cat":"green"},{"name":"Villa Victoria Inn","lat":54.96899,"lon":-1.6275,"postcode":"NE4 7JS","la":"Newcastle upon Tyne","era":"trad","nn":177,"risk":23,"cat":"green"},{"name":"Vineyard Wine Bar","lat":54.9709,"lon":-1.61086,"postcode":"NE1 6EE","la":"Newcastle upon Tyne","era":"mod","nn":17,"risk":22,"cat":"green"},{"name":"West Denton Social Club","lat":54.99386,"lon":-1.70053,"postcode":"NE5 2QZ","la":"Newcastle upon Tyne","era":"mod","nn":527,"risk":43,"cat":"amber"},{"name":"Westerhope Excelsior Social Club","lat":54.99778,"lon":-1.69469,"postcode":"NE5 5HQ","la":"Newcastle upon Tyne","era":"mod","nn":383,"risk":42,"cat":"amber"},{"name":"Willows Club","lat":54.98032,"lon":-1.55768,"postcode":"NE6 4EX","la":"Newcastle upon Tyne","era":"trad","nn":536,"risk":30,"cat":"green"},{"name":"Wobbly Duckling","lat":54.9685,"lon":-1.61312,"postcode":"NE1 3NZ","la":"Newcastle upon Tyne","era":"other","nn":81,"risk":22,"cat":"green"},{"name":"Wonder Bar","lat":54.97235,"lon":-1.6184,"postcode":"NE1 5TG","la":"Newcastle upon Tyne","era":"other","nn":0,"risk":22,"cat":"green"},{"name":"World Headquarters","lat":54.97275,"lon":-1.60821,"postcode":"NE1 6UF","la":"Newcastle upon Tyne","era":"other","nn":172,"risk":23,"cat":"green"},{"name":"Wylam Brewery","lat":54.9864,"lon":-1.61648,"postcode":"NE2 4PZ","la":"Newcastle upon Tyne","era":"other","nn":531,"risk":25,"cat":"green"},{"name":"Admiral Casino","lat":54.99089,"lon":-1.53409,"postcode":"NE28 8HU","la":"North Tyneside","era":"other","nn":70,"risk":25,"cat":"green"},{"name":"Al Bear","lat":55.04207,"lon":-1.44878,"postcode":"NE26 2TH","la":"North Tyneside","era":"other","nn":3,"risk":25,"cat":"green"},{"name":"All Fur Coat Ltd","lat":54.99177,"lon":-1.53239,"postcode":"NE28 8PF","la":"North Tyneside","era":"other","nn":91,"risk":25,"cat":"green"},{"name":"Allotment Social Club And Institute Ltd","lat":55.02775,"lon":-1.51596,"postcode":"NE27 0DN","la":"North Tyneside","era":"mod","nn":489,"risk":33,"cat":"amber"},{"name":"Backworth Bites Within Backworth Club","lat":55.04216,"lon":-1.52841,"postcode":"NE27 0AG","la":"North Tyneside","era":"other","nn":914,"risk":51,"cat":"amber"},{"name":"Buzz Bingo","lat":55.00984,"lon":-1.50073,"postcode":"NE28 9NT","la":"North Tyneside","era":"other","nn":174,"risk":28,"cat":"green"},{"name":"Cafe Amsterdam","lat":55.04156,"lon":-1.44448,"postcode":"NE26 2QN","la":"North Tyneside","era":"other","nn":112,"risk":25,"cat":"green"},{"name":"Charlies Bar","lat":55.00916,"lon":-1.44895,"postcode":"NE29 0BG","la":"North Tyneside","era":"other","nn":54,"risk":25,"cat":"green"},{"name":"Chirton Social Club","lat":55.0074,"lon":-1.4614,"postcode":"NE29 0JT","la":"North Tyneside","era":"mod","nn":623,"risk":29,"cat":"green"},{"name":"Club Havana","lat":55.04368,"lon":-1.44284,"postcode":"NE26 2RQ","la":"North Tyneside","era":"other","nn":66,"risk":25,"cat":"green"},{"name":"Coronation Club","lat":54.99195,"lon":-1.53039,"postcode":"NE28 7LW","la":"North Tyneside","era":"other","nn":129,"risk":26,"cat":"green"},{"name":"Cullercoats Crescent Club And Institute Ltd","lat":55.03566,"lon":-1.43325,"postcode":"NE30 4PN","la":"North Tyneside","era":"other","nn":653,"risk":29,"cat":"green"},{"name":"Cumberland Arms","lat":55.01778,"lon":-1.42482,"postcode":"NE30 4DX","la":"North Tyneside","era":"trad","nn":21,"risk":25,"cat":"green"},{"name":"Duke Of York","lat":54.99022,"lon":-1.54015,"postcode":"NE28 8JD","la":"North Tyneside","era":"trad","nn":96,"risk":25,"cat":"green"},{"name":"Enigma Tap","lat":55.00999,"lon":-1.44864,"postcode":"NE29 0AL","la":"North Tyneside","era":"mod","nn":53,"risk":25,"cat":"green"},{"name":"Fishnet Tavern Ltd","lat":55.00965,"lon":-1.43415,"postcode":"NE30 1JA","la":"North Tyneside","era":"other","nn":82,"risk":25,"cat":"green"},{"name":"Forest Hall Constitutional And Unionist Club","lat":55.02186,"lon":-1.56145,"postcode":"NE12 9JN","la":"North Tyneside","era":"other","nn":173,"risk":26,"cat":"green"},{"name":"Forest Hall Ex Servicemen Institute","lat":55.02305,"lon":-1.5597,"postcode":"NE12 9AR","la":"North Tyneside","era":"other","nn":144,"risk":26,"cat":"green"},{"name":"Forest Hall Young People's Club","lat":55.02641,"lon":-1.55104,"postcode":"NE12 9HW","la":"North Tyneside","era":"other","nn":506,"risk":28,"cat":"green"},{"name":"Front Street Tap House","lat":55.04114,"lon":-1.46191,"postcode":"NE25 8AQ","la":"North Tyneside","era":"mod","nn":54,"risk":25,"cat":"green"},{"name":"Garricks Head","lat":55.00831,"lon":-1.44402,"postcode":"NE30 1NT","la":"North Tyneside","era":"trad","nn":152,"risk":26,"cat":"green"},{"name":"Gilbert And Smith's","lat":55.04527,"lon":-1.45246,"postcode":"NE26 3RD","la":"North Tyneside","era":"other","nn":0,"risk":25,"cat":"green"},{"name":"Grey Horse","lat":55.03989,"lon":-1.50456,"postcode":"NE27 0HL","la":"North Tyneside","era":"trad","nn":680,"risk":47,"cat":"amber"},{"name":"Hazlerigg And District Victory Society","lat":55.04205,"lon":-1.63689,"postcode":"NE13 7DD","la":"North Tyneside","era":"mod","nn":1002,"risk":54,"cat":"amber"},{"name":"Head Of Steam","lat":55.01731,"lon":-1.4238,"postcode":"NE30 4BS","la":"North Tyneside","era":"trad","nn":25,"risk":25,"cat":"green"},{"name":"Holystone","lat":55.0283,"lon":-1.52607,"postcode":"NE27 0DA","la":"North Tyneside","era":"other","nn":220,"risk":29,"cat":"green"},{"name":"Holystone Park Cookhouse And Pub","lat":55.02697,"lon":-1.52351,"postcode":"NE27 0UN","la":"North Tyneside","era":"mod","nn":220,"risk":29,"cat":"green"},{"name":"How Do You Do","lat":55.01004,"lon":-1.43525,"postcode":"NE30 1JS","la":"North Tyneside","era":"other","nn":66,"risk":25,"cat":"green"},{"name":"Innisfree Social Club Ltd","lat":55.00951,"lon":-1.59256,"postcode":"NE12 8TY","la":"North Tyneside","era":"other","nn":384,"risk":45,"cat":"amber"},{"name":"Jilly's Homebake@The Rose Inn","lat":54.99589,"lon":-1.51228,"postcode":"NE28 6TR","la":"North Tyneside","era":"trad","nn":610,"risk":46,"cat":"amber"},{"name":"Juke Shed Bar","lat":55.00947,"lon":-1.43555,"postcode":"NE30 1HJ","la":"North Tyneside","era":"other","nn":10,"risk":25,"cat":"green"},{"name":"Killingworth Arms","lat":55.03233,"lon":-1.56113,"postcode":"NE12 6BL","la":"North Tyneside","era":"trad","nn":0,"risk":25,"cat":"green"},{"name":"Killingworth Social Club And Institute Ltd","lat":55.03574,"lon":-1.56324,"postcode":"NE12 6UQ","la":"North Tyneside","era":"mod","nn":403,"risk":32,"cat":"amber"},{"name":"King Street Social Club And Institute Ltd","lat":55.01175,"lon":-1.44027,"postcode":"NE30 1BZ","la":"North Tyneside","era":"other","nn":372,"risk":27,"cat":"green"},{"name":"Lindisfarne Social Club Ltd","lat":54.99331,"lon":-1.5419,"postcode":"NE28 8LG","la":"North Tyneside","era":"mod","nn":361,"risk":27,"cat":"green"},{"name":"Masonic Hall","lat":55.04168,"lon":-1.45182,"postcode":"NE26 2SE","la":"North Tyneside","era":"trad","nn":197,"risk":26,"cat":"green"},{"name":"Miller And Carter Tynemouth","lat":55.02618,"lon":-1.45702,"postcode":"NE29 9DN","la":"North Tyneside","era":"trad","nn":435,"risk":33,"cat":"amber"},{"name":"Murphy's Pub Co T/a The Charnwood","lat":55.0121,"lon":-1.58857,"postcode":"NE12 8PT","la":"North Tyneside","era":"other","nn":384,"risk":32,"cat":"amber"},{"name":"No1 The Basement","lat":55.01022,"lon":-1.44751,"postcode":"NE30 1QP","la":"North Tyneside","era":"other","nn":0,"risk":25,"cat":"green"},{"name":"Nord Bottle Shop","lat":55.04435,"lon":-1.45171,"postcode":"NE26 3RF","la":"North Tyneside","era":"other","nn":113,"risk":25,"cat":"green"},{"name":"North Shields Catholic Club","lat":55.00897,"lon":-1.4517,"postcode":"NE29 0DQ","la":"North Tyneside","era":"other","nn":133,"risk":26,"cat":"green"},{"name":"North Star","lat":55.00804,"lon":-1.44636,"postcode":"NE29 6QH","la":"North Tyneside","era":"other","nn":152,"risk":26,"cat":"green"},{"name":"NUFC Training Centre","lat":55.01027,"lon":-1.5643,"postcode":"NE12 9SF","la":"North Tyneside","era":"other","nn":489,"risk":33,"cat":"amber"},{"name":"Percy Main Cricket Club","lat":54.99757,"lon":-1.47259,"postcode":"NE29 6HS","la":"North Tyneside","era":"other","nn":546,"risk":31,"cat":"amber"},{"name":"Percy Park Rugby Football","lat":55.01698,"lon":-1.44366,"postcode":"NE30 2BE","la":"North Tyneside","era":"other","nn":434,"risk":28,"cat":"green"},{"name":"Pioneer Club Ltd","lat":55.05604,"lon":-1.57744,"postcode":"NE23 7BE","la":"North Tyneside","era":"other","nn":663,"risk":47,"cat":"amber"},{"name":"Platform 2 Craft Ales","lat":55.01731,"lon":-1.42822,"postcode":"NE30 4RE","la":"North Tyneside","era":"mod","nn":212,"risk":26,"cat":"green"},{"name":"Pleased To Meet You","lat":55.01793,"lon":-1.42213,"postcode":"NE30 4DZ","la":"North Tyneside","era":"other","nn":0,"risk":25,"cat":"green"},{"name":"Prince Of Wales","lat":55.0073,"lon":-1.44069,"postcode":"NE30 1HE","la":"North Tyneside","era":"trad","nn":5,"risk":25,"cat":"green"},{"name":"Promenade Club Ltd","lat":55.04422,"lon":-1.44326,"postcode":"NE26 1NX","la":"North Tyneside","era":"other","nn":66,"risk":25,"cat":"green"},{"name":"Queens Head","lat":54.99003,"lon":-1.53868,"postcode":"NE28 8HZ","la":"North Tyneside","era":"trad","nn":0,"risk":25,"cat":"green"},{"name":"R A O B Club","lat":55.04215,"lon":-1.44307,"postcode":"NE26 2TA","la":"North Tyneside","era":"other","nn":51,"risk":25,"cat":"green"},{"name":"Red House Farm","lat":55.04808,"lon":-1.47339,"postcode":"NE25 9XJ","la":"North Tyneside","era":"mod","nn":901,"risk":48,"cat":"amber"},{"name":"Red Lion Inn","lat":55.04553,"lon":-1.49776,"postcode":"NE25 9JU","la":"North Tyneside","era":"trad","nn":116,"risk":43,"cat":"amber"},{"name":"Rising Sun\\\\*","lat":55.00184,"lon":-1.5353,"postcode":"NE28 9HP","la":"North Tyneside","era":"other","nn":334,"risk":27,"cat":"green"},{"name":"Ritz Bingo And Social Club","lat":55.02346,"lon":-1.56184,"postcode":"NE12 7AX","la":"North Tyneside","era":"mod","nn":144,"risk":26,"cat":"green"},{"name":"Rosehill Tavern","lat":54.99882,"lon":-1.50419,"postcode":"NE28 7TB","la":"North Tyneside","era":"other","nn":479,"risk":30,"cat":"green"},{"name":"Salt Market","lat":55.00726,"lon":-1.44071,"postcode":"NE30 1HF","la":"North Tyneside","era":"other","nn":5,"risk":25,"cat":"green"},{"name":"Ship Inn","lat":55.01091,"lon":-1.57189,"postcode":"NE12 8AE","la":"North Tyneside","era":"trad","nn":291,"risk":32,"cat":"amber"},{"name":"Spread Eagle Inn","lat":55.01997,"lon":-1.45158,"postcode":"NE29 9LB","la":"North Tyneside","era":"trad","nn":576,"risk":31,"cat":"amber"},{"name":"Square And Compass Bar","lat":55.04527,"lon":-1.45246,"postcode":"NE26 3RD","la":"North Tyneside","era":"other","nn":0,"risk":25,"cat":"green"},{"name":"Tanner Smiths","lat":55.04254,"lon":-1.44349,"postcode":"NE26 2RE","la":"North Tyneside","era":"other","nn":51,"risk":25,"cat":"green"},{"name":"Terminus Social Club And Institute","lat":55.00935,"lon":-1.44973,"postcode":"NE29 0DS","la":"North Tyneside","era":"mod","nn":54,"risk":25,"cat":"green"},{"name":"The Alexandra","lat":55.01441,"lon":-1.45593,"postcode":"NE29 9AL","la":"North Tyneside","era":"other","nn":416,"risk":28,"cat":"green"},{"name":"The Anchor","lat":54.99003,"lon":-1.53868,"postcode":"NE28 8HZ","la":"North Tyneside","era":"trad","nn":0,"risk":25,"cat":"green"},{"name":"The Anson","lat":54.99149,"lon":-1.53374,"postcode":"NE28 8QS","la":"North Tyneside","era":"other","nn":70,"risk":25,"cat":"green"},{"name":"The Ballarat","lat":55.00596,"lon":-1.44694,"postcode":"NE29 6LU","la":"North Tyneside","era":"other","nn":234,"risk":26,"cat":"green"},{"name":"The Barking Dog","lat":55.00693,"lon":-1.53148,"postcode":"NE28 9JJ","la":"North Tyneside","era":"trad","nn":479,"risk":45,"cat":"amber"},{"name":"The Beacon","lat":55.04179,"lon":-1.48229,"postcode":"NE25 9PT","la":"North Tyneside","era":"other","nn":751,"risk":47,"cat":"amber"},{"name":"The Beehive","lat":55.05429,"lon":-1.48731,"postcode":"NE25 0SZ","la":"North Tyneside","era":"other","nn":1123,"risk":55,"cat":"amber"},{"name":"The Benton Ale House","lat":55.00977,"lon":-1.57678,"postcode":"NE7 7XE","la":"North Tyneside","era":"other","nn":46,"risk":27,"cat":"green"},{"name":"The Black Bull","lat":55.00996,"lon":-1.57614,"postcode":"NE7 7XE","la":"North Tyneside","era":"trad","nn":46,"risk":27,"cat":"green"},{"name":"The Black Horse","lat":55.0414,"lon":-1.46262,"postcode":"NE25 8DP","la":"North Tyneside","era":"trad","nn":0,"risk":25,"cat":"green"},{"name":"The Border Terrier","lat":55.02867,"lon":-1.44345,"postcode":"NE30 3SF","la":"North Tyneside","era":"other","nn":447,"risk":28,"cat":"green"},{"name":"The Brewery And Whitley Bay Brewing Company","lat":55.04314,"lon":-1.44349,"postcode":"NE26 2RG","la":"North Tyneside","era":"other","nn":67,"risk":25,"cat":"green"},{"name":"The Bridge","lat":55.06191,"lon":-1.5793,"postcode":"NE23 7QS","la":"North Tyneside","era":"other","nn":67,"risk":25,"cat":"green"},{"name":"The Bush","lat":55.01612,"lon":-1.51169,"postcode":"NE28 9UY","la":"North Tyneside","era":"other","nn":849,"risk":48,"cat":"amber"},{"name":"The Camperdown","lat":55.0431,"lon":-1.57965,"postcode":"NE12 5UT","la":"North Tyneside","era":"other","nn":0,"risk":45,"cat":"amber"},{"name":"The Cannon Inn","lat":55.04529,"lon":-1.49953,"postcode":"NE25 9JX","la":"North Tyneside","era":"trad","nn":116,"risk":43,"cat":"amber"},{"name":"The Clayton Arms","lat":55.06001,"lon":-1.59321,"postcode":"NE23 7PX","la":"North Tyneside","era":"trad","nn":678,"risk":32,"cat":"amber"},{"name":"The Clousden Hill","lat":55.02736,"lon":-1.55881,"postcode":"NE12 7BR","la":"North Tyneside","era":"other","nn":475,"risk":28,"cat":"green"},{"name":"The Crafty Cold Well","lat":55.0407,"lon":-1.4657,"postcode":"NE25 8LN","la":"North Tyneside","era":"mod","nn":211,"risk":26,"cat":"green"},{"name":"The Dog And Rabbit","lat":55.04204,"lon":-1.44879,"postcode":"NE26 2TH","la":"North Tyneside","era":"other","nn":3,"risk":25,"cat":"green"},{"name":"The Dolphin Inn","lat":55.01848,"lon":-1.4342,"postcode":"NE30 2SN","la":"North Tyneside","era":"trad","nn":402,"risk":27,"cat":"green"},{"name":"The Fat Ox","lat":55.04204,"lon":-1.44709,"postcode":"NE26 2TG","la":"North Tyneside","era":"other","nn":108,"risk":25,"cat":"green"},{"name":"The Ferryman","lat":54.99175,"lon":-1.48102,"postcode":"NE28 0JT","la":"North Tyneside","era":"other","nn":841,"risk":48,"cat":"amber"},{"name":"The Fire Station","lat":55.04298,"lon":-1.44529,"postcode":"NE26 1AB","la":"North Tyneside","era":"other","nn":0,"risk":25,"cat":"green"},{"name":"The Flying Scotsman","lat":55.02272,"lon":-1.56837,"postcode":"NE12 7JN","la":"North Tyneside","era":"other","nn":424,"risk":30,"cat":"green"},{"name":"The Foxhunters","lat":55.02965,"lon":-1.46015,"postcode":"NE29 9QA","la":"North Tyneside","era":"trad","nn":435,"risk":45,"cat":"amber"},{"name":"The Gunner","lat":55.01494,"lon":-1.44946,"postcode":"NE30 2DH","la":"North Tyneside","era":"other","nn":416,"risk":28,"cat":"green"},{"name":"The Hunting Lodge","lat":55.03771,"lon":-1.47289,"postcode":"NE25 9SX","la":"North Tyneside","era":"other","nn":566,"risk":29,"cat":"green"},{"name":"The Kitchen @ The Sandpiper","lat":55.03267,"lon":-1.44277,"postcode":"NE30 3ER","la":"North Tyneside","era":"mod","nn":0,"risk":25,"cat":"green"},{"name":"The Mauretania","lat":55.00118,"lon":-1.49772,"postcode":"NE28 0PP","la":"North Tyneside","era":"other","nn":66,"risk":30,"cat":"green"},{"name":"The Miner's Club And Bella Carvery","lat":54.99386,"lon":-1.53623,"postcode":"NE28 8RG","la":"North Tyneside","era":"other","nn":266,"risk":26,"cat":"green"},{"name":"The Moor House Inn","lat":55.05841,"lon":-1.62692,"postcode":"NE13 6ES","la":"North Tyneside","era":"other","nn":1927,"risk":61,"cat":"red"},{"name":"The Nautilus","lat":55.00936,"lon":-1.4749,"postcode":"NE29 7DL","la":"North Tyneside","era":"other","nn":522,"risk":33,"cat":"amber"},{"name":"The Pavilion","lat":55.03423,"lon":-1.52463,"postcode":"NE27 0FG","la":"North Tyneside","era":"trad","nn":666,"risk":32,"cat":"amber"},{"name":"The Pineapple Inn","lat":55.00539,"lon":-1.47051,"postcode":"NE29 7BH","la":"North Tyneside","era":"trad","nn":299,"risk":29,"cat":"green"},{"name":"The Plough","lat":55.03233,"lon":-1.56113,"postcode":"NE12 6BL","la":"North Tyneside","era":"trad","nn":0,"risk":25,"cat":"green"},{"name":"The Powder Monkey","lat":55.00474,"lon":-1.54949,"postcode":"NE28 8TU","la":"North Tyneside","era":"trad","nn":752,"risk":47,"cat":"amber"},{"name":"The Quarry","lat":55.03667,"lon":-1.44335,"postcode":"NE25 8PL","la":"North Tyneside","era":"other","nn":446,"risk":28,"cat":"green"},{"name":"The Redburn","lat":55.00339,"lon":-1.47365,"postcode":"NE29 7AF","la":"North Tyneside","era":"other","nn":299,"risk":29,"cat":"green"},{"name":"The Ritz","lat":54.99052,"lon":-1.53719,"postcode":"NE28 8JD","la":"North Tyneside","era":"other","nn":0,"risk":25,"cat":"green"},{"name":"The Robin Hood","lat":55.03109,"lon":-1.48808,"postcode":"NE27 0LR","la":"North Tyneside","era":"other","nn":1216,"risk":56,"cat":"amber"},{"name":"The Royal Quays","lat":54.99517,"lon":-1.46511,"postcode":"NE29 6DW","la":"North Tyneside","era":"trad","nn":546,"risk":48,"cat":"amber"},{"name":"The Salty Sea Dog","lat":55.00944,"lon":-1.4357,"postcode":"NE30 1HJ","la":"North Tyneside","era":"other","nn":10,"risk":25,"cat":"green"},{"name":"The Salutation Inn Inc Pizza Amore And Dough Masters","lat":55.01726,"lon":-1.42342,"postcode":"NE30 4BT","la":"North Tyneside","era":"trad","nn":25,"risk":25,"cat":"green"},{"name":"The Sand Piper","lat":55.03267,"lon":-1.44277,"postcode":"NE30 3ER","la":"North Tyneside","era":"other","nn":0,"risk":25,"cat":"green"},{"name":"The Seven Stars","lat":55.01114,"lon":-1.44646,"postcode":"NE30 2RJ","la":"North Tyneside","era":"other","nn":121,"risk":25,"cat":"green"},{"name":"The Ship","lat":54.99052,"lon":-1.53719,"postcode":"NE28 8JD","la":"North Tyneside","era":"trad","nn":0,"risk":25,"cat":"green"},{"name":"The Ship","lat":55.0414,"lon":-1.46262,"postcode":"NE25 8DP","la":"North Tyneside","era":"trad","nn":0,"risk":25,"cat":"green"},{"name":"The Station","lat":55.03254,"lon":-1.58102,"postcode":"NE12 6RA","la":"North Tyneside","era":"other","nn":469,"risk":48,"cat":"amber"},{"name":"The Top House (Albion Inn)","lat":55.00989,"lon":-1.44945,"postcode":"NE29 0AZ","la":"North Tyneside","era":"other","nn":53,"risk":25,"cat":"green"},{"name":"The Two Pennies Cafe And Bar","lat":55.01022,"lon":-1.44751,"postcode":"NE30 1QP","la":"North Tyneside","era":"other","nn":0,"risk":25,"cat":"green"},{"name":"The Walls End","lat":55.01014,"lon":-1.5034,"postcode":"NE28 9NT","la":"North Tyneside","era":"other","nn":174,"risk":31,"cat":"amber"},{"name":"Three Tanners Bank","lat":55.01272,"lon":-1.43337,"postcode":"NE30 1JH","la":"North Tyneside","era":"other","nn":156,"risk":26,"cat":"green"},{"name":"Travellers Rest","lat":55.0431,"lon":-1.57965,"postcode":"NE12 5UT","la":"North Tyneside","era":"other","nn":0,"risk":45,"cat":"amber"},{"name":"Turks Head","lat":55.01793,"lon":-1.42213,"postcode":"NE30 4DZ","la":"North Tyneside","era":"trad","nn":0,"risk":25,"cat":"green"},{"name":"Tynemouth Lodge Hotel","lat":55.01408,"lon":-1.43398,"postcode":"NE30 4AA","la":"North Tyneside","era":"other","nn":156,"risk":26,"cat":"green"},{"name":"Tynemouth Social Club","lat":55.0177,"lon":-1.42451,"postcode":"NE30 4DX","la":"North Tyneside","era":"mod","nn":21,"risk":25,"cat":"green"},{"name":"United Irish League Club","lat":55.06186,"lon":-1.58035,"postcode":"NE23 7QX","la":"North Tyneside","era":"other","nn":67,"risk":25,"cat":"green"},{"name":"Vineyard 72","lat":55.04298,"lon":-1.44529,"postcode":"NE26 1AB","la":"North Tyneside","era":"mod","nn":0,"risk":25,"cat":"green"},{"name":"Vineyard 72","lat":55.01736,"lon":-1.42491,"postcode":"NE30 4BP","la":"North Tyneside","era":"mod","nn":45,"risk":25,"cat":"green"},{"name":"Wallsend Engineers Club Ltd","lat":54.99166,"lon":-1.52507,"postcode":"NE28 6JA","la":"North Tyneside","era":"other","nn":341,"risk":27,"cat":"green"},{"name":"Wallsend Ex Servicemen And Working Mens Club And Institute","lat":54.99591,"lon":-1.53837,"postcode":"NE28 8DG","la":"North Tyneside","era":"trad","nn":266,"risk":26,"cat":"green"},{"name":"Wallsend Labour Club","lat":55.0016,"lon":-1.49845,"postcode":"NE28 0PN","la":"North Tyneside","era":"other","nn":66,"risk":28,"cat":"green"},{"name":"Wallsend RAOB Club And Institute Ltd","lat":54.98919,"lon":-1.53869,"postcode":"NE28 6RT","la":"North Tyneside","era":"other","nn":93,"risk":25,"cat":"green"},{"name":"Wallsend Social Club Ltd","lat":54.99096,"lon":-1.53256,"postcode":"NE28 6TH","la":"North Tyneside","era":"mod","nn":91,"risk":25,"cat":"green"},{"name":"West Moor And District Social Club","lat":55.02839,"lon":-1.58234,"postcode":"NE12 7NL","la":"North Tyneside","era":"mod","nn":469,"risk":48,"cat":"amber"},{"name":"Westholme Farm Social Club","lat":55.00451,"lon":-1.53771,"postcode":"NE28 9LH","la":"North Tyneside","era":"mod","nn":334,"risk":29,"cat":"green"},{"name":"Wheatsheaf","lat":55.02435,"lon":-1.53108,"postcode":"NE12 9SU","la":"North Tyneside","era":"trad","nn":542,"risk":46,"cat":"amber"},{"name":"Whitley Bay Comrades Club \\\\& Cafe","lat":55.04827,"lon":-1.44963,"postcode":"NE26 1PS","la":"North Tyneside","era":"other","nn":379,"risk":27,"cat":"green"},{"name":"Whitley Bay Football Club Ltd","lat":55.03551,"lon":-1.4535,"postcode":"NE25 8HR","la":"North Tyneside","era":"other","nn":660,"risk":29,"cat":"green"},{"name":"Willington Quay Social Club","lat":54.9914,"lon":-1.49616,"postcode":"NE28 6NJ","la":"North Tyneside","era":"mod","nn":953,"risk":34,"cat":"amber"},{"name":"Adam & Eve","lat":55.41242,"lon":-1.70894,"postcode":"NE66 1LA","la":"Northumberland","era":"other","nn":0,"risk":16,"cat":"green"},{"name":"Adam & Eve Public House","lat":54.96541,"lon":-1.8654,"postcode":"NE42 6NP","la":"Northumberland","era":"other","nn":394,"risk":19,"cat":"green"},{"name":"Albert Edward Club","lat":54.97117,"lon":-2.09973,"postcode":"NE46 1XD","la":"Northumberland","era":"other","nn":109,"risk":17,"cat":"green"},{"name":"Alnmouth & Lesbury Cricket Club","lat":55.39334,"lon":-1.62604,"postcode":"NE66 3PX","la":"Northumberland","era":"other","nn":630,"risk":23,"cat":"green"},{"name":"Alnmouth Ex-Servicemen's Club","lat":55.38922,"lon":-1.61279,"postcode":"NE66 2RA","la":"Northumberland","era":"other","nn":0,"risk":18,"cat":"green"},{"name":"Alnwick Castle Golf Club","lat":55.39561,"lon":-1.724,"postcode":"NE66 2AG","la":"Northumberland","era":"other","nn":1305,"risk":47,"cat":"amber"},{"name":"Alnwick Cricket Club (1837) Ltd","lat":55.40335,"lon":-1.70113,"postcode":"NE66 1BX","la":"Northumberland","era":"other","nn":191,"risk":17,"cat":"green"},{"name":"Alnwick Masonic Hall","lat":55.41063,"lon":-1.70616,"postcode":"NE66 1UW","la":"Northumberland","era":"trad","nn":154,"risk":17,"cat":"green"},{"name":"Alnwick Rugby Club Ltd","lat":55.40443,"lon":-1.69877,"postcode":"NE66 1BG","la":"Northumberland","era":"other","nn":0,"risk":16,"cat":"green"},{"name":"Alnwick Town Football Club","lat":55.40443,"lon":-1.69877,"postcode":"NE66 1BG","la":"Northumberland","era":"other","nn":0,"risk":16,"cat":"green"},{"name":"Alnwick Working Mens Club","lat":55.41242,"lon":-1.70894,"postcode":"NE66 1LA","la":"Northumberland","era":"trad","nn":0,"risk":16,"cat":"green"},{"name":"Amble Bowling Club","lat":55.33276,"lon":-1.58779,"postcode":"NE65 0LE","la":"Northumberland","era":"other","nn":0,"risk":16,"cat":"green"},{"name":"Amble Club Ltd","lat":55.33181,"lon":-1.58649,"postcode":"NE65 0EA","la":"Northumberland","era":"other","nn":79,"risk":16,"cat":"green"},{"name":"Amble Coquet Street Club","lat":55.33549,"lon":-1.58199,"postcode":"NE65 0DJ","la":"Northumberland","era":"other","nn":130,"risk":17,"cat":"green"},{"name":"Amble Masonic Hall","lat":55.33214,"lon":-1.58957,"postcode":"NE65 0LN","la":"Northumberland","era":"trad","nn":133,"risk":17,"cat":"green"},{"name":"Anchor Inn","lat":55.54486,"lon":-2.01449,"postcode":"NE71 6LN","la":"Northumberland","era":"trad","nn":185,"risk":35,"cat":"amber"},{"name":"Angel Inn","lat":55.5464,"lon":-2.01563,"postcode":"NE71 6BY","la":"Northumberland","era":"trad","nn":0,"risk":33,"cat":"amber"},{"name":"Anglers Arms","lat":55.28138,"lon":-1.78512,"postcode":"NE65 8AX","la":"Northumberland","era":"trad","nn":2432,"risk":55,"cat":"amber"},{"name":"Anglers Arms","lat":55.31895,"lon":-2.05172,"postcode":"NE62 5NB","la":"Northumberland","era":"trad","nn":0,"risk":16,"cat":"green"},{"name":"Apple Inn","lat":55.56526,"lon":-1.75927,"postcode":"NE70 7JH","la":"Northumberland","era":"trad","nn":2063,"risk":53,"cat":"amber"},{"name":"Ashington & District Comrades Social Club","lat":55.17732,"lon":-1.5679,"postcode":"NE63 0ED","la":"Northumberland","era":"mod","nn":294,"risk":18,"cat":"green"},{"name":"Ashington Cricket Club","lat":55.18292,"lon":-1.57563,"postcode":"NE63 8AB","la":"Northumberland","era":"other","nn":74,"risk":16,"cat":"green"},{"name":"Ashington Masonic Hall","lat":55.18202,"lon":-1.57176,"postcode":"NE63 0SE","la":"Northumberland","era":"trad","nn":127,"risk":17,"cat":"green"},{"name":"Ashington RAOB Club","lat":55.18277,"lon":-1.58031,"postcode":"NE63 8HE","la":"Northumberland","era":"other","nn":0,"risk":16,"cat":"green"},{"name":"Ashington Rugby Club","lat":55.18487,"lon":-1.59538,"postcode":"NE63 8TP","la":"Northumberland","era":"other","nn":418,"risk":19,"cat":"green"},{"name":"Astley Arms","lat":55.0887,"lon":-1.48483,"postcode":"NE26 4JX","la":"Northumberland","era":"trad","nn":957,"risk":42,"cat":"amber"},{"name":"Astons Late Bar","lat":55.13144,"lon":-1.59756,"postcode":"NE22 5UB","la":"Northumberland","era":"other","nn":137,"risk":17,"cat":"green"},{"name":"Bamburgh Castle Golf Club","lat":55.6161,"lon":-1.72808,"postcode":"NE69 7DE","la":"Northumberland","era":"other","nn":1273,"risk":47,"cat":"amber"},{"name":"Bamburgh Castle Inn","lat":55.58258,"lon":-1.65302,"postcode":"NE68 7SQ","la":"Northumberland","era":"trad","nn":207,"risk":17,"cat":"green"},{"name":"Bank House Social Club","lat":55.18391,"lon":-1.51369,"postcode":"NE64 6NU","la":"Northumberland","era":"mod","nn":64,"risk":16,"cat":"green"},{"name":"Bank Top Hotel","lat":55.13462,"lon":-1.56765,"postcode":"NE22 5LW","la":"Northumberland","era":"other","nn":590,"risk":22,"cat":"green"},{"name":"Bar 38","lat":55.12839,"lon":-1.5104,"postcode":"NE24 1LS","la":"Northumberland","era":"mod","nn":0,"risk":16,"cat":"green"},{"name":"Barrasford Park Caravan Site","lat":55.08474,"lon":-2.12077,"postcode":"NE48 4BB","la":"Northumberland","era":"other","nn":5246,"risk":73,"cat":"red"},{"name":"Bay Horse Inn","lat":55.17617,"lon":-2.17061,"postcode":"NE48 2RX","la":"Northumberland","era":"trad","nn":2935,"risk":59,"cat":"amber"},{"name":"Beau Monde Morpeth","lat":55.16719,"lon":-1.68674,"postcode":"NE61 1PQ","la":"Northumberland","era":"other","nn":64,"risk":16,"cat":"green"},{"name":"Bebside Inn","lat":55.12769,"lon":-1.55918,"postcode":"NE24 4HT","la":"Northumberland","era":"trad","nn":940,"risk":40,"cat":"amber"},{"name":"Bedlington Cricket Club","lat":55.13338,"lon":-1.58773,"postcode":"NE22 5QH","la":"Northumberland","era":"other","nn":244,"risk":18,"cat":"green"},{"name":"Bedlington Masonic Hall","lat":55.13019,"lon":-1.60084,"postcode":"NE22 6HU","la":"Northumberland","era":"trad","nn":119,"risk":17,"cat":"green"},{"name":"Bedlington Social Club","lat":55.13111,"lon":-1.59383,"postcode":"NE22 5TN","la":"Northumberland","era":"mod","nn":0,"risk":16,"cat":"green"},{"name":"Bedlington Station Working Mens Club","lat":55.14123,"lon":-1.56683,"postcode":"NE22 7JG","la":"Northumberland","era":"trad","nn":100,"risk":22,"cat":"green"},{"name":"Bedlington Terriers FC 2022 C.I.C","lat":55.13128,"lon":-1.58659,"postcode":"NE22 5DP","la":"Northumberland","era":"other","nn":244,"risk":18,"cat":"green"},{"name":"Bedlingtonshire Golf Club","lat":55.12436,"lon":-1.60137,"postcode":"NE22 6AA","la":"Northumberland","era":"other","nn":649,"risk":20,"cat":"green"},{"name":"Belford Golf Club","lat":55.59182,"lon":-1.81883,"postcode":"NE70 7DP","la":"Northumberland","era":"other","nn":926,"risk":42,"cat":"amber"},{"name":"Bellingham Golf Club","lat":55.14874,"lon":-2.25682,"postcode":"NE48 2DT","la":"Northumberland","era":"other","nn":561,"risk":25,"cat":"green"},{"name":"Bellingham Masonic Hall","lat":55.14328,"lon":-2.25566,"postcode":"NE48 2AS","la":"Northumberland","era":"trad","nn":46,"risk":21,"cat":"green"},{"name":"Benedictine Catholic Club","lat":55.07439,"lon":-1.58072,"postcode":"NE23 6YA","la":"Northumberland","era":"other","nn":438,"risk":36,"cat":"amber"},{"name":"Beresford Arms","lat":55.12779,"lon":-1.79996,"postcode":"NE61 3UZ","la":"Northumberland","era":"trad","nn":4323,"risk":69,"cat":"red"},{"name":"Bertram's","lat":55.34856,"lon":-1.61139,"postcode":"NE65 0XB","la":"Northumberland","era":"trad","nn":74,"risk":16,"cat":"green"},{"name":"Bird in the Bush","lat":55.23372,"lon":-2.10254,"postcode":"NE19 1AA","la":"Northumberland","era":"other","nn":7721,"risk":73,"cat":"red"},{"name":"Black Bull","lat":55.12905,"lon":-1.59048,"postcode":"NE22 5DS","la":"Northumberland","era":"trad","nn":192,"risk":17,"cat":"green"},{"name":"Black Bull Hotel","lat":55.1437,"lon":-2.25634,"postcode":"NE48 2JP","la":"Northumberland","era":"trad","nn":64,"risk":21,"cat":"green"},{"name":"Black Bull Inn","lat":55.5464,"lon":-2.01563,"postcode":"NE71 6BY","la":"Northumberland","era":"trad","nn":0,"risk":33,"cat":"amber"},{"name":"Black Bull Inn","lat":54.97639,"lon":-1.82199,"postcode":"NE41 8AB","la":"Northumberland","era":"trad","nn":44,"risk":19,"cat":"green"},{"name":"Black Bull Inn","lat":54.97378,"lon":-2.01872,"postcode":"NE45 5AT","la":"Northumberland","era":"trad","nn":92,"risk":16,"cat":"green"},{"name":"Blagdon Arms","lat":55.08664,"lon":-1.58376,"postcode":"NE23 1DN","la":"Northumberland","era":"trad","nn":0,"risk":16,"cat":"green"},{"name":"Blink Bonny","lat":55.50092,"lon":-1.66351,"postcode":"NE66 3ES","la":"Northumberland","era":"other","nn":1918,"risk":52,"cat":"amber"},{"name":"Block & Tackle","lat":55.17264,"lon":-1.57734,"postcode":"NE63 8NW","la":"Northumberland","era":"other","nn":794,"risk":39,"cat":"amber"},{"name":"Blue Bell","lat":55.33137,"lon":-1.58747,"postcode":"NE65 0LU","la":"Northumberland","era":"other","nn":79,"risk":16,"cat":"green"},{"name":"Blue Bell Hotel","lat":55.59891,"lon":-1.82949,"postcode":"NE70 7NE","la":"Northumberland","era":"other","nn":61,"risk":34,"cat":"amber"},{"name":"Blue Bell Inn","lat":55.49556,"lon":-1.63457,"postcode":"NE66 3UP","la":"Northumberland","era":"trad","nn":106,"risk":37,"cat":"amber"},{"name":"Blyth Constitutional Club","lat":55.12616,"lon":-1.50895,"postcode":"NE24 2JL","la":"Northumberland","era":"other","nn":63,"risk":16,"cat":"green"},{"name":"Blyth Golf Club","lat":55.11233,"lon":-1.53834,"postcode":"NE24 4DB","la":"Northumberland","era":"other","nn":494,"risk":24,"cat":"green"},{"name":"Blyth Masonic Hall","lat":55.12488,"lon":-1.505,"postcode":"NE24 2DS","la":"Northumberland","era":"trad","nn":57,"risk":16,"cat":"green"},{"name":"Blyth Spartans Social Club","lat":55.12008,"lon":-1.51055,"postcode":"NE24 3JE","la":"Northumberland","era":"mod","nn":363,"risk":18,"cat":"green"},{"name":"Blyth United Services Club","lat":55.12755,"lon":-1.51076,"postcode":"NE24 1BD","la":"Northumberland","era":"other","nn":27,"risk":16,"cat":"green"},{"name":"Bomarsund Social Club","lat":55.16086,"lon":-1.57649,"postcode":"NE62 5UF","la":"Northumberland","era":"mod","nn":176,"risk":20,"cat":"green"},{"name":"Brewis Beer Co Ltd","lat":55.32627,"lon":-1.57726,"postcode":"NE65 0PE","la":"Northumberland","era":"other","nn":580,"risk":20,"cat":"green"},{"name":"Brockwell Seam","lat":55.09561,"lon":-1.58426,"postcode":"NE23 1XZ","la":"Northumberland","era":"other","nn":998,"risk":25,"cat":"green"},{"name":"Bubbles Wine Bar Ltd","lat":55.1831,"lon":-1.57113,"postcode":"NE63 9UJ","la":"Northumberland","era":"mod","nn":127,"risk":17,"cat":"green"},{"name":"Burton House","lat":55.08185,"lon":-1.56977,"postcode":"NE23 6RB","la":"Northumberland","era":"other","nn":145,"risk":37,"cat":"amber"},{"name":"Byrness Hotel","lat":55.31407,"lon":-2.36169,"postcode":"NE19 1TR","la":"Northumberland","era":"other","nn":9091,"risk":73,"cat":"red"},{"name":"Cambois Club Leisure Ltd","lat":55.14567,"lon":-1.52106,"postcode":"NE24 1QY","la":"Northumberland","era":"other","nn":1624,"risk":50,"cat":"amber"},{"name":"Carts Bog Inn","lat":54.93973,"lon":-2.28493,"postcode":"NE47 5NW","la":"Northumberland","era":"trad","nn":2774,"risk":58,"cat":"amber"},{"name":"Centre Of Britain Hotel","lat":54.97071,"lon":-2.45849,"postcode":"NE49 0BH","la":"Northumberland","era":"other","nn":40,"risk":16,"cat":"green"},{"name":"Cherry Tree Bar & Grill","lat":55.16323,"lon":-1.58882,"postcode":"NE62 5JZ","la":"Northumberland","era":"mod","nn":655,"risk":20,"cat":"green"},{"name":"Clayton Arms","lat":55.13992,"lon":-1.56734,"postcode":"NE22 7DR","la":"Northumberland","era":"trad","nn":107,"risk":22,"cat":"green"},{"name":"Coach Inn","lat":55.39839,"lon":-1.63056,"postcode":"NE66 3PP","la":"Northumberland","era":"trad","nn":630,"risk":40,"cat":"amber"},{"name":"Coble Inn","lat":55.18499,"lon":-1.51057,"postcode":"NE64 6EG","la":"Northumberland","era":"trad","nn":60,"risk":16,"cat":"green"},{"name":"Coms Weddings & Events Ltd","lat":55.12811,"lon":-1.51812,"postcode":"NE24 1HG","la":"Northumberland","era":"other","nn":245,"risk":18,"cat":"green"},{"name":"Cook & Barker Inn","lat":55.34145,"lon":-1.73231,"postcode":"NE65 9JY","la":"Northumberland","era":"trad","nn":2126,"risk":53,"cat":"amber"},{"name":"Coquet Yacht Club Bar","lat":55.3342,"lon":-1.59039,"postcode":"NE65 0HH","la":"Northumberland","era":"other","nn":230,"risk":17,"cat":"green"},{"name":"Corstopitum Social Club","lat":54.97534,"lon":-2.0187,"postcode":"NE45 5BE","la":"Northumberland","era":"mod","nn":81,"risk":16,"cat":"green"},{"name":"Cramlington Masonic Lodge","lat":55.08664,"lon":-1.58376,"postcode":"NE23 1DN","la":"Northumberland","era":"trad","nn":0,"risk":16,"cat":"green"},{"name":"Cramlington Working Mens Social Club","lat":55.0865,"lon":-1.58475,"postcode":"NE23 6QJ","la":"Northumberland","era":"other","nn":53,"risk":16,"cat":"green"},{"name":"Cresswell Arms","lat":55.18686,"lon":-1.50591,"postcode":"NE64 6DR","la":"Northumberland","era":"trad","nn":84,"risk":16,"cat":"green"},{"name":"Crown Inn","lat":54.91638,"lon":-2.26965,"postcode":"NE47 9QS","la":"Northumberland","era":"trad","nn":2292,"risk":54,"cat":"amber"},{"name":"Crown Inn","lat":55.03779,"lon":-2.12896,"postcode":"NE46 4AG","la":"Northumberland","era":"trad","nn":2418,"risk":55,"cat":"amber"},{"name":"Deja Vu","lat":55.12718,"lon":-1.50588,"postcode":"NE24 2BS","la":"Northumberland","era":"other","nn":132,"risk":17,"cat":"green"},{"name":"Deuces Bar & Lounge","lat":55.12708,"lon":-1.50806,"postcode":"NE24 1BL","la":"Northumberland","era":"mod","nn":69,"risk":16,"cat":"green"},{"name":"Dipton Mill Inn","lat":54.94364,"lon":-2.11174,"postcode":"NE46 1YA","la":"Northumberland","era":"trad","nn":2925,"risk":59,"cat":"amber"},{"name":"Dirty Bottles","lat":55.41447,"lon":-1.70788,"postcode":"NE66 1JG","la":"Northumberland","era":"other","nn":0,"risk":16,"cat":"green"},{"name":"Dr Syntax","lat":54.96122,"lon":-1.85587,"postcode":"NE42 6HP","la":"Northumberland","era":"other","nn":45,"risk":16,"cat":"green"},{"name":"Dr Syntax Inn","lat":54.9291,"lon":-1.90954,"postcode":"NE43 7RG","la":"Northumberland","era":"trad","nn":2033,"risk":53,"cat":"amber"},{"name":"East Chevington Sports & Social Club Limited","lat":55.29329,"lon":-1.60361,"postcode":"NE65 9SF","la":"Northumberland","era":"mod","nn":906,"risk":42,"cat":"amber"},{"name":"Elks Head","lat":54.90783,"lon":-2.34211,"postcode":"NE47 8HD","la":"Northumberland","era":"trad","nn":4729,"risk":71,"cat":"red"},{"name":"Ellington Caravan Park","lat":55.23101,"lon":-1.56823,"postcode":"NE61 5JR","la":"Northumberland","era":"other","nn":1081,"risk":46,"cat":"amber"},{"name":"Ellington Welfare Social Centre","lat":55.21913,"lon":-1.55547,"postcode":"NE61 5HB","la":"Northumberland","era":"mod","nn":992,"risk":43,"cat":"amber"},{"name":"Falcon Inn","lat":54.96098,"lon":-1.83295,"postcode":"NE42 5DN","la":"Northumberland","era":"trad","nn":499,"risk":37,"cat":"amber"},{"name":"Farne Lodge","lat":55.57667,"lon":-1.66421,"postcode":"NE68 7TT","la":"Northumberland","era":"other","nn":424,"risk":24,"cat":"green"},{"name":"Flowers Cafe and Bar","lat":55.41393,"lon":-1.70768,"postcode":"NE66 1HR","la":"Northumberland","era":"other","nn":33,"risk":16,"cat":"green"},{"name":"Fox & Hounds Inn","lat":54.97622,"lon":-1.8191,"postcode":"NE41 8DL","la":"Northumberland","era":"trad","nn":183,"risk":20,"cat":"green"},{"name":"Fox Cover","lat":55.16693,"lon":-1.54897,"postcode":"NE63 0YB","la":"Northumberland","era":"trad","nn":851,"risk":27,"cat":"green"},{"name":"General Havelock Inn","lat":54.97262,"lon":-2.24848,"postcode":"NE47 6ER","la":"Northumberland","era":"trad","nn":165,"risk":34,"cat":"amber"},{"name":"Golden Sands Sea View Bar","lat":55.23241,"lon":-1.53436,"postcode":"NE61 5LF","la":"Northumberland","era":"other","nn":617,"risk":40,"cat":"amber"},{"name":"Grey Bull Inn","lat":55.08761,"lon":-2.21924,"postcode":"NE48 3LG","la":"Northumberland","era":"trad","nn":6275,"risk":73,"cat":"red"},{"name":"Guidepost & District Working Mens Social Club","lat":55.15841,"lon":-1.60216,"postcode":"NE62 5QY","la":"Northumberland","era":"other","nn":214,"risk":35,"cat":"amber"},{"name":"Hadrian Hotel","lat":55.01615,"lon":-2.13276,"postcode":"NE46 4EE","la":"Northumberland","era":"other","nn":2418,"risk":55,"cat":"amber"},{"name":"Half Moon Inn","lat":55.16441,"lon":-1.57871,"postcode":"NE62 5TT","la":"Northumberland","era":"trad","nn":177,"risk":17,"cat":"green"},{"name":"Halfway House Inn","lat":54.95821,"lon":-1.86427,"postcode":"NE42 6JE","la":"Northumberland","era":"other","nn":0,"risk":16,"cat":"green"},{"name":"Haltwhistle Comrades Club","lat":54.97095,"lon":-2.45675,"postcode":"NE49 0DF","la":"Northumberland","era":"other","nn":95,"risk":16,"cat":"green"},{"name":"Harbour Inn","lat":55.33506,"lon":-1.57851,"postcode":"NE65 0AL","la":"Northumberland","era":"trad","nn":225,"risk":17,"cat":"green"},{"name":"Harry's Bar","lat":55.41448,"lon":-1.70796,"postcode":"NE66 1JG","la":"Northumberland","era":"other","nn":5,"risk":16,"cat":"green"},{"name":"Hastings Hartley Arms","lat":55.08608,"lon":-1.51861,"postcode":"NE25 0SG","la":"Northumberland","era":"trad","nn":475,"risk":39,"cat":"amber"},{"name":"Haydonian Working Mens Club","lat":54.97208,"lon":-2.24607,"postcode":"NE47 6BQ","la":"Northumberland","era":"trad","nn":147,"risk":34,"cat":"amber"},{"name":"Hexham Conservative Club","lat":54.97111,"lon":-2.10201,"postcode":"NE46 3LZ","la":"Northumberland","era":"other","nn":68,"risk":16,"cat":"green"},{"name":"Hexham Ex Servicemens Club","lat":54.97215,"lon":-2.09979,"postcode":"NE46 3PQ","la":"Northumberland","era":"other","nn":102,"risk":17,"cat":"green"},{"name":"Hexham Masonic Hall","lat":54.97095,"lon":-2.11358,"postcode":"NE46 3DJ","la":"Northumberland","era":"trad","nn":246,"risk":18,"cat":"green"},{"name":"High Street Social Club","lat":55.12689,"lon":-1.51313,"postcode":"NE24 1DR","la":"Northumberland","era":"mod","nn":64,"risk":16,"cat":"green"},{"name":"Hirst Industrial Club Ltd","lat":55.1839,"lon":-1.56578,"postcode":"NE63 9AE","la":"Northumberland","era":"other","nn":0,"risk":16,"cat":"green"},{"name":"Hirst Progressive Social Club","lat":55.18141,"lon":-1.56861,"postcode":"NE63 0AG","la":"Northumberland","era":"mod","nn":135,"risk":17,"cat":"green"},{"name":"Holly Bush Inn","lat":55.1793,"lon":-2.32256,"postcode":"NE48 1PW","la":"Northumberland","era":"trad","nn":5383,"risk":73,"cat":"red"},{"name":"Hop 77","lat":55.18352,"lon":-1.57513,"postcode":"NE63 8RS","la":"Northumberland","era":"other","nn":74,"risk":16,"cat":"green"},{"name":"Hope & Anchor Hotel","lat":55.38922,"lon":-1.61279,"postcode":"NE66 2RA","la":"Northumberland","era":"trad","nn":0,"risk":18,"cat":"green"},{"name":"Horse Shoes Inn","lat":55.31895,"lon":-2.05172,"postcode":"NE66 3RS","la":"Northumberland","era":"trad","nn":0,"risk":16,"cat":"green"},{"name":"Isabella Pub","lat":55.11869,"lon":-1.52684,"postcode":"NE24 5RW","la":"Northumberland","era":"other","nn":642,"risk":20,"cat":"green"},{"name":"J Charlton & Sons Ltd","lat":55.15996,"lon":-1.52775,"postcode":"NE24 1SF","la":"Northumberland","era":"other","nn":1555,"risk":49,"cat":"amber"},{"name":"John the Clerk of Cramlington","lat":55.08664,"lon":-1.58376,"postcode":"NE23 1DN","la":"Northumberland","era":"trad","nn":0,"risk":16,"cat":"green"},{"name":"Joiners Arms","lat":55.51926,"lon":-1.62955,"postcode":"NE66 3EA","la":"Northumberland","era":"trad","nn":839,"risk":42,"cat":"amber"},{"name":"Joiners Arms","lat":55.16607,"lon":-1.68719,"postcode":"NE61 1XZ","la":"Northumberland","era":"trad","nn":52,"risk":16,"cat":"green"},{"name":"Jolly Fisherman","lat":55.47231,"lon":-1.59249,"postcode":"NE66 3TR","la":"Northumberland","era":"other","nn":3703,"risk":64,"cat":"red"},{"name":"Kings Arms","lat":55.0843,"lon":-1.4719,"postcode":"NE26 4RD","la":"Northumberland","era":"trad","nn":122,"risk":22,"cat":"green"},{"name":"Lion & Lamb","lat":54.98836,"lon":-1.85403,"postcode":"NE15 0NS","la":"Northumberland","era":"trad","nn":2320,"risk":55,"cat":"amber"},{"name":"Lord of the Manor","lat":55.0849,"lon":-1.59082,"postcode":"NE23 6YD","la":"Northumberland","era":"other","nn":169,"risk":17,"cat":"green"},{"name":"Low Haber Caravan Park Bar","lat":55.31895,"lon":-2.05172,"postcode":"NE47 8HH","la":"Northumberland","era":"other","nn":0,"risk":16,"cat":"green"},{"name":"Lynemouth Miners Welfare Institute","lat":55.21173,"lon":-1.53782,"postcode":"NE61 5YL","la":"Northumberland","era":"other","nn":1389,"risk":48,"cat":"amber"},{"name":"Mailhouse","lat":55.41381,"lon":-1.70816,"postcode":"NE66 1HW","la":"Northumberland","era":"trad","nn":0,"risk":16,"cat":"green"},{"name":"Manor House Inn","lat":54.97049,"lon":-2.458,"postcode":"NE49 0BS","la":"Northumberland","era":"other","nn":40,"risk":16,"cat":"green"},{"name":"Masons Arms","lat":55.34829,"lon":-1.61246,"postcode":"NE65 0UR","la":"Northumberland","era":"trad","nn":74,"risk":16,"cat":"green"},{"name":"Masons Arms","lat":55.1227,"lon":-1.50713,"postcode":"NE24 3JD","la":"Northumberland","era":"trad","nn":277,"risk":18,"cat":"green"},{"name":"Mickley & District Social Club","lat":54.95336,"lon":-1.88505,"postcode":"NE43 7BG","la":"Northumberland","era":"mod","nn":1433,"risk":48,"cat":"amber"},{"name":"Milecastle Inn on Hadrians Wall Ltd","lat":54.98791,"lon":-2.44555,"postcode":"NE49 9NN","la":"Northumberland","era":"trad","nn":2017,"risk":52,"cat":"amber"},{"name":"Mood Steakhouse","lat":55.13111,"lon":-1.59383,"postcode":"NE22 5TN","la":"Northumberland","era":"other","nn":0,"risk":16,"cat":"green"},{"name":"Moor Farm Beefeater","lat":55.06492,"lon":-1.58168,"postcode":"NE23 7QA","la":"Northumberland","era":"other","nn":351,"risk":18,"cat":"green"},{"name":"Morpeth Conservative & Unionist Club","lat":55.16901,"lon":-1.69136,"postcode":"NE61 1AT","la":"Northumberland","era":"other","nn":73,"risk":16,"cat":"green"},{"name":"Morpeth Masonic Hall","lat":55.1694,"lon":-1.68764,"postcode":"NE61 1HW","la":"Northumberland","era":"trad","nn":178,"risk":17,"cat":"green"},{"name":"Morpeth Rugby Club","lat":55.16973,"lon":-1.70007,"postcode":"NE61 1RJ","la":"Northumberland","era":"other","nn":473,"risk":19,"cat":"green"},{"name":"Morpeth Town Football Club Ltd","lat":55.15548,"lon":-1.70972,"postcode":"NE61 2YX","la":"Northumberland","era":"other","nn":1041,"risk":46,"cat":"amber"},{"name":"Mountgate Caravans","lat":55.3181,"lon":-1.55171,"postcode":"NE65 0JR","la":"Northumberland","era":"other","nn":1854,"risk":51,"cat":"amber"},{"name":"Mr Ants","lat":54.97007,"lon":-2.09715,"postcode":"NE46 1PS","la":"Northumberland","era":"other","nn":107,"risk":17,"cat":"green"},{"name":"Netherton Social Club Ltd","lat":55.13166,"lon":-1.61436,"postcode":"NE22 6DP","la":"Northumberland","era":"mod","nn":867,"risk":39,"cat":"amber"},{"name":"New Delaval & Newsham Social Club","lat":55.1133,"lon":-1.53076,"postcode":"NE24 4NH","la":"Northumberland","era":"mod","nn":80,"risk":16,"cat":"green"},{"name":"New Hartley Victory Sports & Social Club","lat":55.08265,"lon":-1.52307,"postcode":"NE25 0RJ","la":"Northumberland","era":"other","nn":475,"risk":37,"cat":"amber"},{"name":"New Hirst & District Social Club","lat":55.17997,"lon":-1.56793,"postcode":"NE63 0EH","la":"Northumberland","era":"mod","nn":166,"risk":17,"cat":"green"},{"name":"Newbiggin Bowling Club","lat":55.17867,"lon":-1.51632,"postcode":"NE64 6XE","la":"Northumberland","era":"other","nn":333,"risk":18,"cat":"green"},{"name":"Newbiggin Central Club","lat":55.18589,"lon":-1.50981,"postcode":"NE64 6AA","la":"Northumberland","era":"other","nn":111,"risk":17,"cat":"green"},{"name":"Newbiggin Masonic Hall","lat":55.18406,"lon":-1.51272,"postcode":"NE64 6NR","la":"Northumberland","era":"trad","nn":64,"risk":16,"cat":"green"},{"name":"Newcastle House Hotel","lat":55.30942,"lon":-1.91115,"postcode":"NE65 7UT","la":"Northumberland","era":"mod","nn":68,"risk":21,"cat":"green"},{"name":"Newsham Hotel","lat":55.11222,"lon":-1.52946,"postcode":"NE24 4NG","la":"Northumberland","era":"other","nn":78,"risk":16,"cat":"green"},{"name":"Northern Social Club","lat":55.17478,"lon":-1.54205,"postcode":"NE63 9TL","la":"Northumberland","era":"mod","nn":978,"risk":43,"cat":"amber"},{"name":"Northumberland Arms","lat":55.13045,"lon":-1.59224,"postcode":"NE22 5AE","la":"Northumberland","era":"trad","nn":125,"risk":17,"cat":"green"},{"name":"Old Ash Dene","lat":55.18699,"lon":-1.58383,"postcode":"NE63 8QW","la":"Northumberland","era":"other","nn":508,"risk":19,"cat":"green"},{"name":"Old Fat Ox","lat":55.06348,"lon":-1.50433,"postcode":"NE25 0LJ","la":"Northumberland","era":"other","nn":91,"risk":36,"cat":"amber"},{"name":"Olivers Wine Bar","lat":55.12767,"lon":-1.50399,"postcode":"NE24 2AP","la":"Northumberland","era":"other","nn":0,"risk":16,"cat":"green"},{"name":"Ovington Social Club","lat":54.96823,"lon":-1.89704,"postcode":"NE42 6DH","la":"Northumberland","era":"mod","nn":1822,"risk":51,"cat":"amber"},{"name":"Pacers Bar","lat":55.2133,"lon":-1.58802,"postcode":"NE61 5SE","la":"Northumberland","era":"other","nn":1424,"risk":48,"cat":"amber"},{"name":"Pegswood & District Social Club","lat":55.17987,"lon":-1.66138,"postcode":"NE61 6RE","la":"Northumberland","era":"mod","nn":2034,"risk":53,"cat":"amber"},{"name":"Percy Arms","lat":55.12428,"lon":-1.53722,"postcode":"NE24 5AU","la":"Northumberland","era":"trad","nn":827,"risk":39,"cat":"amber"},{"name":"Percy Arms","lat":55.54915,"lon":-1.91312,"postcode":"NE66 5PS","la":"Northumberland","era":"trad","nn":6395,"risk":73,"cat":"red"},{"name":"Pig in Muck","lat":55.41353,"lon":-1.7071,"postcode":"NE66 1HS","la":"Northumberland","era":"other","nn":39,"risk":16,"cat":"green"},{"name":"Pigeon & Whippet","lat":55.18277,"lon":-1.58031,"postcode":"NE63 8HE","la":"Northumberland","era":"other","nn":0,"risk":16,"cat":"green"},{"name":"Platform One","lat":55.14076,"lon":-1.56817,"postcode":"NE22 7JN","la":"Northumberland","era":"other","nn":100,"risk":22,"cat":"green"},{"name":"Ponteland Club & Institute","lat":55.05018,"lon":-1.74458,"postcode":"NE20 9PX","la":"Northumberland","era":"other","nn":106,"risk":17,"cat":"green"},{"name":"Ponteland Golf Club","lat":55.05008,"lon":-1.73898,"postcode":"NE20 9BD","la":"Northumberland","era":"other","nn":129,"risk":17,"cat":"green"},{"name":"Premier Club","lat":55.1839,"lon":-1.56578,"postcode":"NE63 9AE","la":"Northumberland","era":"other","nn":0,"risk":16,"cat":"green"},{"name":"Prince William Bar & Grill","lat":55.24592,"lon":-1.80157,"postcode":"NE65 8QY","la":"Northumberland","era":"other","nn":2233,"risk":54,"cat":"amber"},{"name":"Prudhoe & District United Services Club","lat":54.96174,"lon":-1.85001,"postcode":"NE42 5HJ","la":"Northumberland","era":"other","nn":0,"risk":16,"cat":"green"},{"name":"Prudhoe & Mickley Union Club","lat":54.96084,"lon":-1.85561,"postcode":"NE42 6HR","la":"Northumberland","era":"other","nn":45,"risk":16,"cat":"green"},{"name":"Prudhoe Snooker Club","lat":54.96174,"lon":-1.85001,"postcode":"NE42 5HJ","la":"Northumberland","era":"other","nn":0,"risk":16,"cat":"green"},{"name":"Prudhoe Town Football Club","lat":54.96498,"lon":-1.83649,"postcode":"NE42 5EH","la":"Northumberland","era":"other","nn":499,"risk":19,"cat":"green"},{"name":"Prudhoe Working Mens Social Club","lat":54.9605,"lon":-1.85245,"postcode":"NE42 5JT","la":"Northumberland","era":"other","nn":205,"risk":17,"cat":"green"},{"name":"Qrave Food","lat":54.95821,"lon":-1.86427,"postcode":"NE42 6JE","la":"Northumberland","era":"other","nn":0,"risk":16,"cat":"green"},{"name":"Queens Arms Hotel","lat":54.99247,"lon":-2.11025,"postcode":"NE46 4PT","la":"Northumberland","era":"trad","nn":174,"risk":37,"cat":"amber"},{"name":"Queens Head Hotel","lat":55.18662,"lon":-1.50717,"postcode":"NE64 6AT","la":"Northumberland","era":"trad","nn":84,"risk":16,"cat":"green"},{"name":"Queens Head Inn","lat":55.03221,"lon":-1.9929,"postcode":"NE19 2HP","la":"Northumberland","era":"trad","nn":2742,"risk":57,"cat":"amber"},{"name":"RAFA Hexham Branch","lat":54.97211,"lon":-2.10224,"postcode":"NE46 3NU","la":"Northumberland","era":"other","nn":31,"risk":16,"cat":"green"},{"name":"Railway Hotel","lat":54.9688,"lon":-2.46259,"postcode":"NE49 0AH","la":"Northumberland","era":"trad","nn":139,"risk":17,"cat":"green"},{"name":"Railway Inn","lat":55.30838,"lon":-1.65001,"postcode":"NE65 9BP","la":"Northumberland","era":"trad","nn":2260,"risk":54,"cat":"amber"},{"name":"Railway Tavern","lat":55.12839,"lon":-1.5104,"postcode":"NE24 1LS","la":"Northumberland","era":"trad","nn":0,"risk":16,"cat":"green"},{"name":"Red Lion Inn","lat":55.00557,"lon":-2.19854,"postcode":"NE47 5AR","la":"Northumberland","era":"trad","nn":4043,"risk":67,"cat":"red"},{"name":"Red Lion Inn","lat":55.59851,"lon":-2.10443,"postcode":"NE71 6JD","la":"Northumberland","era":"trad","nn":6461,"risk":73,"cat":"red"},{"name":"Red Lion Inn","lat":55.38822,"lon":-1.61242,"postcode":"NE66 2RJ","la":"Northumberland","era":"trad","nn":113,"risk":22,"cat":"green"},{"name":"Red Row Working Mens Club","lat":55.28516,"lon":-1.60251,"postcode":"NE61 5AU","la":"Northumberland","era":"trad","nn":906,"risk":42,"cat":"amber"},{"name":"Redesdale Arms","lat":55.2657,"lon":-2.24593,"postcode":"NE19 1TA","la":"Northumberland","era":"trad","nn":9091,"risk":73,"cat":"red"},{"name":"Regent Sports Bar","lat":55.1274,"lon":-1.51042,"postcode":"NE24 1BQ","la":"Northumberland","era":"other","nn":27,"risk":16,"cat":"green"},{"name":"Rose & Crown","lat":55.14337,"lon":-2.25495,"postcode":"NE48 2AH","la":"Northumberland","era":"trad","nn":46,"risk":21,"cat":"green"},{"name":"Rose & Thistle Inn","lat":55.35092,"lon":-2.12699,"postcode":"NE65 7BQ","la":"Northumberland","era":"trad","nn":2098,"risk":53,"cat":"amber"},{"name":"Rothbury Golf Club","lat":55.30502,"lon":-1.91622,"postcode":"NE65 7TR","la":"Northumberland","era":"other","nn":569,"risk":25,"cat":"green"},{"name":"Royal Engineers Club","lat":55.12539,"lon":-1.50496,"postcode":"NE24 2DA","la":"Northumberland","era":"trad","nn":57,"risk":16,"cat":"green"},{"name":"Schooner Inn","lat":55.58096,"lon":-1.65142,"postcode":"NE68 7SB","la":"Northumberland","era":"trad","nn":98,"risk":16,"cat":"green"},{"name":"Seahouses & District Social Club","lat":55.57906,"lon":-1.65895,"postcode":"NE68 7TR","la":"Northumberland","era":"mod","nn":424,"risk":19,"cat":"green"},{"name":"Seaton Delaval Masonic Hall","lat":55.07608,"lon":-1.54003,"postcode":"NE25 0PT","la":"Northumberland","era":"trad","nn":328,"risk":21,"cat":"green"},{"name":"Seaton Sluice & District Social Club Ltd","lat":55.08321,"lon":-1.47213,"postcode":"NE26 4QZ","la":"Northumberland","era":"mod","nn":0,"risk":21,"cat":"green"},{"name":"Seaton Terrace Club & Institute","lat":55.0702,"lon":-1.51546,"postcode":"NE25 0BB","la":"Northumberland","era":"other","nn":323,"risk":23,"cat":"green"},{"name":"Secret Garden","lat":55.07818,"lon":-1.53377,"postcode":"NE25 0PP","la":"Northumberland","era":"other","nn":298,"risk":18,"cat":"green"},{"name":"Seghill Comrades Club","lat":55.06188,"lon":-1.55857,"postcode":"NE23 7TQ","la":"Northumberland","era":"other","nn":493,"risk":37,"cat":"amber"},{"name":"Seghill Rugby Club","lat":55.06521,"lon":-1.55346,"postcode":"NE23 7EZ","la":"Northumberland","era":"other","nn":365,"risk":36,"cat":"amber"},{"name":"Seven Stars","lat":55.04968,"lon":-1.7425,"postcode":"NE20 9NH","la":"Northumberland","era":"other","nn":120,"risk":17,"cat":"green"},{"name":"Shankhouse Sports & Social Club","lat":55.08145,"lon":-1.57194,"postcode":"NE23 6TQ","la":"Northumberland","era":"mod","nn":145,"risk":17,"cat":"green"},{"name":"Ship Inn","lat":55.51396,"lon":-1.62007,"postcode":"NE66 3EL","la":"Northumberland","era":"trad","nn":839,"risk":42,"cat":"amber"},{"name":"Shoulder of Mutton","lat":55.24615,"lon":-1.76635,"postcode":"NE65 8SY","la":"Northumberland","era":"other","nn":1412,"risk":48,"cat":"amber"},{"name":"St Mary's Inn","lat":55.12369,"lon":-1.71678,"postcode":"NE61 6BL","la":"Northumberland","era":"trad","nn":3564,"risk":63,"cat":"red"},{"name":"Stakeford & Bomarsund Sports & Social Welfare Centre","lat":55.16244,"lon":-1.57655,"postcode":"NE62 5UD","la":"Northumberland","era":"mod","nn":114,"risk":19,"cat":"green"},{"name":"Star Inn","lat":55.36323,"lon":-2.021,"postcode":"NE65 7HD","la":"Northumberland","era":"trad","nn":5292,"risk":73,"cat":"red"},{"name":"Stobswood Welfare Recreation Club","lat":55.24457,"lon":-1.62665,"postcode":"NE61 5PX","la":"Northumberland","era":"other","nn":2192,"risk":54,"cat":"amber"},{"name":"Stocksfield Cricket Club","lat":54.94883,"lon":-1.91047,"postcode":"NE43 7NN","la":"Northumberland","era":"other","nn":1699,"risk":50,"cat":"amber"},{"name":"Stocksfield Tennis Club","lat":55.31895,"lon":-2.05172,"postcode":"NE43 7QS","la":"Northumberland","era":"other","nn":0,"risk":16,"cat":"green"},{"name":"Stonehaugh Social Club","lat":55.07928,"lon":-2.32646,"postcode":"NE48 3DZ","la":"Northumberland","era":"mod","nn":6886,"risk":73,"cat":"red"},{"name":"Sun Inn","lat":55.38922,"lon":-1.61279,"postcode":"NE66 2RA","la":"Northumberland","era":"trad","nn":0,"risk":18,"cat":"green"},{"name":"Swarland Working Mens Club","lat":55.32386,"lon":-1.74546,"postcode":"NE65 9JG","la":"Northumberland","era":"trad","nn":2126,"risk":53,"cat":"amber"},{"name":"Swinburne Arms","lat":55.04351,"lon":-1.8809,"postcode":"NE18 0QG","la":"Northumberland","era":"trad","nn":4600,"risk":71,"cat":"red"},{"name":"Tap & Spile","lat":55.1694,"lon":-1.69043,"postcode":"NE61 1BH","la":"Northumberland","era":"other","nn":73,"risk":16,"cat":"green"},{"name":"The Ale Gate Ltd","lat":55.41193,"lon":-1.70256,"postcode":"NE66 1PR","la":"Northumberland","era":"other","nn":13,"risk":16,"cat":"green"},{"name":"The Allenheads Inn","lat":54.80344,"lon":-2.22028,"postcode":"NE47 9HJ","la":"Northumberland","era":"trad","nn":4794,"risk":72,"cat":"red"},{"name":"The Anchor Hotel","lat":54.9731,"lon":-2.24459,"postcode":"NE47 6AB","la":"Northumberland","era":"trad","nn":147,"risk":34,"cat":"amber"},{"name":"The Angel of Corbridge","lat":54.97377,"lon":-2.01619,"postcode":"NE45 5LA","la":"Northumberland","era":"trad","nn":110,"risk":17,"cat":"green"},{"name":"The Badger","lat":55.04056,"lon":-1.7222,"postcode":"NE20 9BT","la":"Northumberland","era":"other","nn":871,"risk":39,"cat":"amber"},{"name":"The Bay Horse Inn","lat":55.07272,"lon":-1.57449,"postcode":"NE23 6XB","la":"Northumberland","era":"trad","nn":438,"risk":24,"cat":"green"},{"name":"The Black & Grey","lat":55.17018,"lon":-1.69265,"postcode":"NE61 1BU","la":"Northumberland","era":"other","nn":154,"risk":17,"cat":"green"},{"name":"The Black Bull","lat":55.16752,"lon":-1.68796,"postcode":"NE61 1PE","la":"Northumberland","era":"trad","nn":86,"risk":16,"cat":"green"},{"name":"The Black Bull","lat":54.97025,"lon":-2.45861,"postcode":"NE49 0BL","la":"Northumberland","era":"trad","nn":47,"risk":16,"cat":"green"},{"name":"The Black Bull","lat":55.04147,"lon":-1.95301,"postcode":"NE20 0RP","la":"Northumberland","era":"trad","nn":2742,"risk":57,"cat":"amber"},{"name":"The Black Cock Inn","lat":55.18115,"lon":-2.43741,"postcode":"NE48 1AA","la":"Northumberland","era":"trad","nn":927,"risk":42,"cat":"amber"},{"name":"The Black Swan","lat":55.58128,"lon":-1.64997,"postcode":"NE68 7RT","la":"Northumberland","era":"trad","nn":98,"risk":19,"cat":"green"},{"name":"The Black Swan","lat":55.41447,"lon":-1.70788,"postcode":"NE66 1JG","la":"Northumberland","era":"trad","nn":0,"risk":16,"cat":"green"},{"name":"The Black Swan Hotel","lat":55.59897,"lon":-1.82852,"postcode":"NE70 7ND","la":"Northumberland","era":"trad","nn":61,"risk":34,"cat":"amber"},{"name":"The Blackbird","lat":55.05235,"lon":-1.74282,"postcode":"NE20 9UH","la":"Northumberland","era":"other","nn":258,"risk":18,"cat":"green"},{"name":"The Blake Arms","lat":55.06363,"lon":-1.54844,"postcode":"NE23 7EF","la":"Northumberland","era":"trad","nn":365,"risk":36,"cat":"amber"},{"name":"The Blue Bell","lat":55.41242,"lon":-1.70894,"postcode":"NE66 1LA","la":"Northumberland","era":"other","nn":0,"risk":16,"cat":"green"},{"name":"The Blue Bell","lat":54.97461,"lon":-2.0187,"postcode":"NE45 5AA","la":"Northumberland","era":"other","nn":81,"risk":16,"cat":"green"},{"name":"The Boathouse Inn","lat":54.97463,"lon":-1.81449,"postcode":"NE41 8HR","la":"Northumberland","era":"other","nn":344,"risk":21,"cat":"green"},{"name":"The Boatside Inn","lat":54.9892,"lon":-2.14195,"postcode":"NE46 4SQ","la":"Northumberland","era":"trad","nn":2055,"risk":53,"cat":"amber"},{"name":"The Bowes Hotel","lat":54.97598,"lon":-2.34741,"postcode":"NE47 7HU","la":"Northumberland","era":"other","nn":3570,"risk":63,"cat":"red"},{"name":"The Castle Inn","lat":55.60705,"lon":-1.71566,"postcode":"NE69 7BW","la":"Northumberland","era":"trad","nn":1273,"risk":47,"cat":"amber"},{"name":"The Coach & Horses","lat":54.97035,"lon":-2.09874,"postcode":"NE46 1PQ","la":"Northumberland","era":"trad","nn":107,"risk":17,"cat":"green"},{"name":"The Cock & Bull","lat":55.33432,"lon":-1.58218,"postcode":"NE65 0DQ","la":"Northumberland","era":"trad","nn":102,"risk":17,"cat":"green"},{"name":"The Crafty Lodge","lat":55.0731,"lon":-1.5267,"postcode":"NE25 0DG","la":"Northumberland","era":"mod","nn":475,"risk":19,"cat":"green"},{"name":"The Craster Arms Hotel","lat":55.55724,"lon":-1.63901,"postcode":"NE67 5AZ","la":"Northumberland","era":"trad","nn":2172,"risk":54,"cat":"amber"},{"name":"The Crazy Horse Saloon","lat":55.27227,"lon":-1.69964,"postcode":"NE65 9QH","la":"Northumberland","era":"trad","nn":1283,"risk":47,"cat":"amber"},{"name":"The Cree","lat":55.1839,"lon":-1.56578,"postcode":"NE63 9AE","la":"Northumberland","era":"other","nn":0,"risk":16,"cat":"green"},{"name":"The Delaval Arms","lat":55.07526,"lon":-1.46597,"postcode":"NE26 4RL","la":"Northumberland","era":"trad","nn":967,"risk":40,"cat":"amber"},{"name":"The Diamond Inn","lat":55.05029,"lon":-1.74097,"postcode":"NE20 9BB","la":"Northumberland","era":"trad","nn":120,"risk":17,"cat":"green"},{"name":"The Dock Hotel","lat":55.33349,"lon":-1.58502,"postcode":"NE65 0BX","la":"Northumberland","era":"other","nn":38,"risk":16,"cat":"green"},{"name":"The Dyvels Inn","lat":54.96723,"lon":-2.01829,"postcode":"NE45 5AY","la":"Northumberland","era":"trad","nn":729,"risk":21,"cat":"green"},{"name":"The Electrical Wizard","lat":55.16709,"lon":-1.691,"postcode":"NE61 1PS","la":"Northumberland","era":"other","nn":144,"risk":17,"cat":"green"},{"name":"The Elephant","lat":55.17036,"lon":-1.56095,"postcode":"NE63 0SZ","la":"Northumberland","era":"other","nn":851,"risk":27,"cat":"green"},{"name":"The Feathers Inn","lat":54.92757,"lon":-1.87784,"postcode":"NE43 7SW","la":"Northumberland","era":"trad","nn":2033,"risk":53,"cat":"amber"},{"name":"The Fishing Boat Inn Ltd","lat":55.42173,"lon":-1.58072,"postcode":"NE66 3BP","la":"Northumberland","era":"trad","nn":4078,"risk":67,"cat":"red"},{"name":"The Fleece","lat":55.41202,"lon":-1.70269,"postcode":"NE66 1PR","la":"Northumberland","era":"trad","nn":13,"risk":16,"cat":"green"},{"name":"The Flying Horse","lat":55.1265,"lon":-1.51235,"postcode":"NE24 1DG","la":"Northumberland","era":"trad","nn":5,"risk":16,"cat":"green"},{"name":"The Foresters Arms","lat":55.16179,"lon":-1.56066,"postcode":"NE62 5XE","la":"Northumberland","era":"trad","nn":937,"risk":40,"cat":"amber"},{"name":"The Forum (Wetherspoons)","lat":54.97187,"lon":-2.10132,"postcode":"NE46 3PB","la":"Northumberland","era":"other","nn":65,"risk":16,"cat":"green"},{"name":"The Four Ladies","lat":55.08609,"lon":-1.58431,"postcode":"NE23 6QQ","la":"Northumberland","era":"other","nn":53,"risk":16,"cat":"green"},{"name":"The Fox Inn","lat":54.96993,"lon":-2.11016,"postcode":"NE46 3DB","la":"Northumberland","era":"trad","nn":246,"risk":18,"cat":"green"},{"name":"The Foxes Den","lat":55.29679,"lon":-1.71053,"postcode":"NE65 9EA","la":"Northumberland","era":"trad","nn":149,"risk":37,"cat":"amber"},{"name":"The Gate","lat":55.2606,"lon":-1.89676,"postcode":"NE61 4PT","la":"Northumberland","era":"other","nn":5091,"risk":73,"cat":"red"},{"name":"The General Havelock","lat":55.14401,"lon":-1.54645,"postcode":"NE22 7AT","la":"Northumberland","era":"other","nn":1331,"risk":48,"cat":"amber"},{"name":"The George Inn","lat":55.41345,"lon":-1.7065,"postcode":"NE66 1HZ","la":"Northumberland","era":"trad","nn":39,"risk":16,"cat":"green"},{"name":"The Globe Inn","lat":54.97,"lon":-2.10208,"postcode":"NE46 1BA","la":"Northumberland","era":"trad","nn":69,"risk":16,"cat":"green"},{"name":"The Golden Lion","lat":54.97458,"lon":-2.01719,"postcode":"NE45 5AE","la":"Northumberland","era":"trad","nn":97,"risk":16,"cat":"green"},{"name":"The Golden Lion Hotel","lat":54.89758,"lon":-2.25494,"postcode":"NE47 9BD","la":"Northumberland","era":"trad","nn":0,"risk":36,"cat":"amber"},{"name":"The Grand Station Lounge","lat":55.18279,"lon":-1.56858,"postcode":"NE63 0AE","la":"Northumberland","era":"mod","nn":34,"risk":16,"cat":"green"},{"name":"The Grapes","lat":54.97055,"lon":-2.10157,"postcode":"NE46 1NQ","la":"Northumberland","era":"other","nn":68,"risk":16,"cat":"green"},{"name":"The Grapes","lat":55.13135,"lon":-1.59542,"postcode":"NE22 5UA","la":"Northumberland","era":"other","nn":80,"risk":16,"cat":"green"},{"name":"The Greys Inn","lat":55.49637,"lon":-1.63371,"postcode":"NE66 3UY","la":"Northumberland","era":"trad","nn":106,"risk":37,"cat":"amber"},{"name":"The Gun Inn","lat":55.15436,"lon":-2.14458,"postcode":"NE48 2TF","la":"Northumberland","era":"trad","nn":2935,"risk":59,"cat":"amber"},{"name":"The Hastings","lat":55.07559,"lon":-1.53494,"postcode":"NE25 0QH","la":"Northumberland","era":"other","nn":298,"risk":23,"cat":"green"},{"name":"The Heart Of Northumberland","lat":54.97237,"lon":-2.10209,"postcode":"NE46 3NS","la":"Northumberland","era":"other","nn":31,"risk":16,"cat":"green"},{"name":"The Hermitage Inn","lat":55.34769,"lon":-1.61166,"postcode":"NE65 0UL","la":"Northumberland","era":"trad","nn":84,"risk":16,"cat":"green"},{"name":"The Highlander Belsay Ltd","lat":55.08761,"lon":-1.81179,"postcode":"NE20 0DN","la":"Northumberland","era":"other","nn":4531,"risk":70,"cat":"red"},{"name":"The Ink Spot","lat":55.18495,"lon":-1.51197,"postcode":"NE64 6NJ","la":"Northumberland","era":"other","nn":30,"risk":16,"cat":"green"},{"name":"The John Bull Inn","lat":55.41104,"lon":-1.70849,"postcode":"NE66 1UY","la":"Northumberland","era":"trad","nn":154,"risk":17,"cat":"green"},{"name":"The Jubilee","lat":54.96862,"lon":-2.46475,"postcode":"NE49 9HP","la":"Northumberland","era":"other","nn":139,"risk":17,"cat":"green"},{"name":"The Kaims","lat":55.58381,"lon":-1.75925,"postcode":"NE70 7JT","la":"Northumberland","era":"other","nn":2063,"risk":53,"cat":"amber"},{"name":"The Keel Row","lat":55.08316,"lon":-1.54366,"postcode":"NE25 0QG","la":"Northumberland","era":"other","nn":820,"risk":39,"cat":"amber"},{"name":"The Kielder Tavern","lat":55.23385,"lon":-2.58028,"postcode":"NE48 1ER","la":"Northumberland","era":"other","nn":10794,"risk":73,"cat":"red"},{"name":"The Kings Arms","lat":55.13047,"lon":-1.54445,"postcode":"NE24 5NG","la":"Northumberland","era":"trad","nn":827,"risk":39,"cat":"amber"},{"name":"The Kings Head","lat":54.89758,"lon":-2.25494,"postcode":"NE47 9BD","la":"Northumberland","era":"trad","nn":0,"risk":36,"cat":"amber"},{"name":"The Linden Tree Pub","lat":55.25816,"lon":-1.7736,"postcode":"NE65 8XA","la":"Northumberland","era":"other","nn":1412,"risk":48,"cat":"amber"},{"name":"The Lord Barrington","lat":55.16346,"lon":-1.57648,"postcode":"NE62 5UA","la":"Northumberland","era":"other","nn":114,"risk":19,"cat":"green"},{"name":"The Masons Arms","lat":55.33067,"lon":-1.5883,"postcode":"NE65 0NH","la":"Northumberland","era":"trad","nn":94,"risk":16,"cat":"green"},{"name":"The Mighty Oak","lat":55.1839,"lon":-1.56578,"postcode":"NE63 9AE","la":"Northumberland","era":"trad","nn":0,"risk":16,"cat":"green"},{"name":"The Milbourne Arms","lat":55.06427,"lon":-1.50398,"postcode":"NE25 0LL","la":"Northumberland","era":"trad","nn":91,"risk":34,"cat":"amber"},{"name":"The Miners Arms Inn","lat":54.99306,"lon":-2.10772,"postcode":"NE46 4PW","la":"Northumberland","era":"trad","nn":174,"risk":37,"cat":"amber"},{"name":"The Narrow Nick","lat":55.30985,"lon":-1.91193,"postcode":"NE65 7TB","la":"Northumberland","era":"other","nn":64,"risk":21,"cat":"green"},{"name":"The Neuk","lat":55.16562,"lon":-1.81563,"postcode":"NE61 3SL","la":"Northumberland","era":"other","nn":4323,"risk":69,"cat":"red"},{"name":"The New Ship","lat":55.18166,"lon":-1.51622,"postcode":"NE64 6UW","la":"Northumberland","era":"trad","nn":298,"risk":18,"cat":"green"},{"name":"The Northumberland Arms","lat":55.29549,"lon":-1.71107,"postcode":"NE65 9EE","la":"Northumberland","era":"trad","nn":149,"risk":37,"cat":"amber"},{"name":"The Oaks Hotel","lat":55.40832,"lon":-1.69331,"postcode":"NE66 2PN","la":"Northumberland","era":"trad","nn":554,"risk":20,"cat":"green"},{"name":"The Oddfellows Arms","lat":55.12742,"lon":-1.50232,"postcode":"NE24 3AE","la":"Northumberland","era":"trad","nn":110,"risk":17,"cat":"green"},{"name":"The Office (Morpeth) Ltd","lat":55.16674,"lon":-1.68738,"postcode":"NE61 1PJ","la":"Northumberland","era":"other","nn":64,"risk":16,"cat":"green"},{"name":"The Old Ship Hotel","lat":55.18502,"lon":-1.51151,"postcode":"NE64 6NJ","la":"Northumberland","era":"trad","nn":30,"risk":16,"cat":"green"},{"name":"The Ox Inn","lat":55.16079,"lon":-1.90478,"postcode":"NE61 4QZ","la":"Northumberland","era":"trad","nn":5688,"risk":73,"cat":"red"},{"name":"The Pack Horse Inn","lat":55.52564,"lon":-1.73361,"postcode":"NE67 5HA","la":"Northumberland","era":"trad","nn":4183,"risk":68,"cat":"red"},{"name":"The Pheasant Inn","lat":55.17282,"lon":-2.43786,"postcode":"NE48 1DD","la":"Northumberland","era":"trad","nn":927,"risk":42,"cat":"amber"},{"name":"The Phoenix","lat":54.97107,"lon":-2.09552,"postcode":"NE46 1QL","la":"Northumberland","era":"other","nn":153,"risk":17,"cat":"green"},{"name":"The Plough Inn","lat":55.16804,"lon":-1.73166,"postcode":"NE61 3PR","la":"Northumberland","era":"trad","nn":1973,"risk":52,"cat":"amber"},{"name":"The Plough Inn","lat":55.22138,"lon":-1.57059,"postcode":"NE61 5JB","la":"Northumberland","era":"trad","nn":992,"risk":43,"cat":"amber"},{"name":"The Plough Inn","lat":55.08664,"lon":-1.58376,"postcode":"NE23 1DN","la":"Northumberland","era":"trad","nn":0,"risk":16,"cat":"green"},{"name":"The Pont Tap","lat":55.04958,"lon":-1.74588,"postcode":"NE20 9SU","la":"Northumberland","era":"mod","nn":106,"risk":17,"cat":"green"},{"name":"The Portland","lat":55.18246,"lon":-1.58483,"postcode":"NE63 8HG","la":"Northumberland","era":"other","nn":289,"risk":18,"cat":"green"},{"name":"The Post Office Bar","lat":55.12767,"lon":-1.50399,"postcode":"NE24 2AP","la":"Northumberland","era":"other","nn":0,"risk":16,"cat":"green"},{"name":"The Prince of Wales","lat":55.12648,"lon":-1.51243,"postcode":"NE24 1DG","la":"Northumberland","era":"trad","nn":5,"risk":16,"cat":"green"},{"name":"The Queens Head","lat":55.31895,"lon":-2.05172,"postcode":"NE65 7SR","la":"Northumberland","era":"trad","nn":0,"risk":16,"cat":"green"},{"name":"The Queens Head Hotel","lat":55.42425,"lon":-1.89064,"postcode":"NE66 4AP","la":"Northumberland","era":"trad","nn":6203,"risk":73,"cat":"red"},{"name":"The Radcliffe Club","lat":55.33093,"lon":-1.57312,"postcode":"NE65 0RA","la":"Northumberland","era":"other","nn":572,"risk":20,"cat":"green"},{"name":"The Rat","lat":54.98416,"lon":-2.07441,"postcode":"NE46 4LN","la":"Northumberland","era":"other","nn":1983,"risk":52,"cat":"amber"},{"name":"The Real Taste of Northumberland","lat":55.57608,"lon":-1.64813,"postcode":"NE68 7XT","la":"Northumberland","era":"other","nn":581,"risk":22,"cat":"green"},{"name":"The Red Lion","lat":55.13126,"lon":-1.60073,"postcode":"NE22 6HR","la":"Northumberland","era":"trad","nn":119,"risk":17,"cat":"green"},{"name":"The Ridley Arms","lat":55.10879,"lon":-1.66548,"postcode":"NE61 6EL","la":"Northumberland","era":"trad","nn":3499,"risk":63,"cat":"red"},{"name":"The Robin Hood Inn","lat":55.0093,"lon":-1.92677,"postcode":"NE18 0LL","la":"Northumberland","era":"trad","nn":3949,"risk":66,"cat":"red"},{"name":"The Rohan Kanhai","lat":55.1839,"lon":-1.56578,"postcode":"NE63 9AE","la":"Northumberland","era":"other","nn":0,"risk":16,"cat":"green"},{"name":"The Rose & Crown","lat":54.91461,"lon":-2.03994,"postcode":"NE47 0AA","la":"Northumberland","era":"trad","nn":1671,"risk":50,"cat":"amber"},{"name":"The Salmon","lat":55.59809,"lon":-1.82854,"postcode":"NE70 7NG","la":"Northumberland","era":"other","nn":98,"risk":21,"cat":"green"},{"name":"The Seahorse","lat":55.11406,"lon":-1.52083,"postcode":"NE24 3LP","la":"Northumberland","era":"trad","nn":585,"risk":20,"cat":"green"},{"name":"The Seven Oaks","lat":55.08466,"lon":-1.5882,"postcode":"NE23 6UL","la":"Northumberland","era":"trad","nn":169,"risk":17,"cat":"green"},{"name":"The Shakespeare Tavern","lat":55.16026,"lon":-1.60306,"postcode":"NE62 5LU","la":"Northumberland","era":"other","nn":214,"risk":22,"cat":"green"},{"name":"The Shepherds Rest","lat":55.40727,"lon":-1.72158,"postcode":"NE66 2AH","la":"Northumberland","era":"other","nn":927,"risk":25,"cat":"green"},{"name":"The Ship Inn","lat":54.97616,"lon":-1.82353,"postcode":"NE41 8AQ","la":"Northumberland","era":"trad","nn":101,"risk":19,"cat":"green"},{"name":"The Snowy Owl","lat":55.08583,"lon":-1.62786,"postcode":"NE23 8AU","la":"Northumberland","era":"other","nn":2360,"risk":55,"cat":"amber"},{"name":"The South Beach","lat":55.11055,"lon":-1.51045,"postcode":"NE24 3RJ","la":"Northumberland","era":"other","nn":767,"risk":41,"cat":"amber"},{"name":"The Star Inn","lat":55.33638,"lon":-2.10585,"postcode":"NE65 7DG","la":"Northumberland","era":"trad","nn":2098,"risk":53,"cat":"amber"},{"name":"The Sun Hotel","lat":55.34636,"lon":-1.61119,"postcode":"NE65 0UP","la":"Northumberland","era":"other","nn":151,"risk":17,"cat":"green"},{"name":"The Sun Inn","lat":55.13064,"lon":-1.59522,"postcode":"NE22 5TT","la":"Northumberland","era":"trad","nn":80,"risk":16,"cat":"green"},{"name":"The Sun Inn","lat":55.31895,"lon":-2.05172,"postcode":"NE61 2QT","la":"Northumberland","era":"trad","nn":0,"risk":16,"cat":"green"},{"name":"The Swan Inn","lat":54.99672,"lon":-1.79083,"postcode":"NE15 0DR","la":"Northumberland","era":"trad","nn":210,"risk":37,"cat":"amber"},{"name":"The Tankerville Arms","lat":55.46932,"lon":-1.83267,"postcode":"NE66 2TX","la":"Northumberland","era":"trad","nn":6203,"risk":73,"cat":"red"},{"name":"The Tanners Arms","lat":55.41159,"lon":-1.70359,"postcode":"NE66 1QF","la":"Northumberland","era":"trad","nn":74,"risk":16,"cat":"green"},{"name":"The Tannery","lat":54.97321,"lon":-2.1052,"postcode":"NE46 3QD","la":"Northumberland","era":"other","nn":219,"risk":17,"cat":"green"},{"name":"The Tavern","lat":55.33403,"lon":-1.58371,"postcode":"NE65 0DA","la":"Northumberland","era":"other","nn":102,"risk":17,"cat":"green"},{"name":"The Tavern Steakhouse & Lodge","lat":55.41381,"lon":-1.70816,"postcode":"NE66 1HW","la":"Northumberland","era":"mod","nn":0,"risk":16,"cat":"green"},{"name":"The Toll House","lat":55.16588,"lon":-1.68644,"postcode":"NE61 1YB","la":"Northumberland","era":"other","nn":52,"risk":16,"cat":"green"},{"name":"The Top House","lat":55.12594,"lon":-1.51871,"postcode":"NE24 2RH","la":"Northumberland","era":"other","nn":147,"risk":17,"cat":"green"},{"name":"The Trap Inn","lat":55.30519,"lon":-1.61474,"postcode":"NE65 9UT","la":"Northumberland","era":"trad","nn":281,"risk":38,"cat":"amber"},{"name":"The Turks Head","lat":55.30978,"lon":-1.91293,"postcode":"NE65 7TE","la":"Northumberland","era":"trad","nn":64,"risk":21,"cat":"green"},{"name":"The Village Inn","lat":55.3027,"lon":-1.7937,"postcode":"NE65 8AD","la":"Northumberland","era":"trad","nn":2432,"risk":55,"cat":"amber"},{"name":"The Wallaw","lat":55.12646,"lon":-1.50812,"postcode":"NE24 2DX","la":"Northumberland","era":"other","nn":63,"risk":16,"cat":"green"},{"name":"The Waterford Lodge","lat":55.16521,"lon":-1.68674,"postcode":"NE61 1YD","la":"Northumberland","era":"other","nn":76,"risk":16,"cat":"green"},{"name":"The Waterloo","lat":55.33314,"lon":-1.58499,"postcode":"NE65 0BZ","la":"Northumberland","era":"other","nn":38,"risk":16,"cat":"green"},{"name":"The Waterloo Pub","lat":55.1262,"lon":-1.50994,"postcode":"NE24 2JW","la":"Northumberland","era":"other","nn":63,"risk":16,"cat":"green"},{"name":"The Wellwood Arms","lat":55.3327,"lon":-1.58676,"postcode":"NE65 0LD","la":"Northumberland","era":"trad","nn":65,"risk":16,"cat":"green"},{"name":"The White Swan","lat":55.16834,"lon":-1.69042,"postcode":"NE61 1BA","la":"Northumberland","era":"trad","nn":95,"risk":16,"cat":"green"},{"name":"The White Swan Inn","lat":55.54978,"lon":-1.78459,"postcode":"NE70 7HY","la":"Northumberland","era":"trad","nn":2345,"risk":55,"cat":"amber"},{"name":"Three Tuns Inn","lat":54.9975,"lon":-1.79383,"postcode":"NE15 0BQ","la":"Northumberland","era":"trad","nn":210,"risk":37,"cat":"amber"},{"name":"Three Wheat Heads","lat":55.31461,"lon":-1.95764,"postcode":"NE65 7LR","la":"Northumberland","era":"trad","nn":2830,"risk":58,"cat":"amber"},{"name":"Timeout Tavern Ltd","lat":55.27427,"lon":-1.71958,"postcode":"NE65 9QJ","la":"Northumberland","era":"other","nn":1283,"risk":47,"cat":"amber"},{"name":"Togston Terrace Social Club Ltd","lat":55.3075,"lon":-1.61297,"postcode":"NE65 9TW","la":"Northumberland","era":"mod","nn":281,"risk":38,"cat":"amber"},{"name":"Tower Tavern","lat":55.2335,"lon":-1.54391,"postcode":"NE61 5JT","la":"Northumberland","era":"other","nn":617,"risk":40,"cat":"amber"},{"name":"Travellers Rest","lat":54.92041,"lon":-2.06405,"postcode":"NE46 1TT","la":"Northumberland","era":"other","nn":1671,"risk":50,"cat":"amber"},{"name":"Travellers Rest","lat":55.15232,"lon":-1.60339,"postcode":"NE62 5SS","la":"Northumberland","era":"other","nn":681,"risk":38,"cat":"amber"},{"name":"Twice Brewed Inn","lat":54.99549,"lon":-2.39184,"postcode":"NE47 7AN","la":"Northumberland","era":"trad","nn":3528,"risk":63,"cat":"red"},{"name":"Ulgham Cricket Club","lat":55.22416,"lon":-1.63327,"postcode":"NE61 3BG","la":"Northumberland","era":"other","nn":2309,"risk":54,"cat":"amber"},{"name":"Vice City Bar & Club","lat":55.1826,"lon":-1.569,"postcode":"NE63 0AF","la":"Northumberland","era":"mod","nn":34,"risk":16,"cat":"green"},{"name":"Victoria & Albert Inn","lat":55.07193,"lon":-1.51953,"postcode":"NE25 0AT","la":"Northumberland","era":"trad","nn":323,"risk":36,"cat":"amber"},{"name":"Victorian Tap","lat":54.96925,"lon":-2.10088,"postcode":"NE46 1BH","la":"Northumberland","era":"other","nn":114,"risk":17,"cat":"green"},{"name":"Victory Sports & Social Club","lat":55.11259,"lon":-1.5305,"postcode":"NE24 4NR","la":"Northumberland","era":"mod","nn":78,"risk":16,"cat":"green"},{"name":"Vistas Wine Bar","lat":55.33276,"lon":-1.58779,"postcode":"NE65 0LE","la":"Northumberland","era":"other","nn":0,"risk":16,"cat":"green"},{"name":"Wallace Arms","lat":54.94027,"lon":-2.49597,"postcode":"NE49 0JF","la":"Northumberland","era":"trad","nn":3730,"risk":64,"cat":"red"},{"name":"Wansbeck Inn","lat":55.16325,"lon":-1.70057,"postcode":"NE61 2BD","la":"Northumberland","era":"trad","nn":721,"risk":21,"cat":"green"},{"name":"Waren Caravan & Camping Park","lat":55.60229,"lon":-1.76894,"postcode":"NE70 7EE","la":"Northumberland","era":"other","nn":2143,"risk":53,"cat":"amber"},{"name":"Warkworth Cricket Club","lat":55.34497,"lon":-1.61171,"postcode":"NE65 0UJ","la":"Northumberland","era":"other","nn":158,"risk":19,"cat":"green"},{"name":"Warkworth Golf Club","lat":55.35277,"lon":-1.6004,"postcode":"NE65 0SW","la":"Northumberland","era":"other","nn":837,"risk":24,"cat":"green"},{"name":"Waterford Arms","lat":55.08321,"lon":-1.47213,"postcode":"NE26 4QZ","la":"Northumberland","era":"trad","nn":0,"risk":21,"cat":"green"},{"name":"Waterloo Road Social Club","lat":55.12593,"lon":-1.5164,"postcode":"NE24 1DE","la":"Northumberland","era":"mod","nn":147,"risk":17,"cat":"green"},{"name":"Wellington Hotel","lat":54.94785,"lon":-1.97296,"postcode":"NE44 6DQ","la":"Northumberland","era":"trad","nn":3608,"risk":64,"cat":"red"},{"name":"West Wylam Inn","lat":54.96137,"lon":-1.84563,"postcode":"NE42 5DQ","la":"Northumberland","era":"trad","nn":283,"risk":18,"cat":"green"},{"name":"White House Unique Social Club","lat":55.18296,"lon":-1.58971,"postcode":"NE63 8PD","la":"Northumberland","era":"mod","nn":315,"risk":18,"cat":"green"},{"name":"White Swan","lat":54.96885,"lon":-1.8669,"postcode":"NE42 6AG","la":"Northumberland","era":"trad","nn":394,"risk":39,"cat":"amber"},{"name":"Widdrington Inn","lat":55.25772,"lon":-1.60088,"postcode":"NE61 5DY","la":"Northumberland","era":"trad","nn":2192,"risk":54,"cat":"amber"},{"name":"Willow Farm Pub Restaurant","lat":55.06563,"lon":-1.58908,"postcode":"NE23 7GA","la":"Northumberland","era":"trad","nn":478,"risk":22,"cat":"green"},{"name":"Woodhorn Grange Cookhouse & Pub","lat":55.1972,"lon":-1.55419,"postcode":"NE63 9AT","la":"Northumberland","era":"mod","nn":1652,"risk":50,"cat":"amber"},{"name":"Wooler Golf Club","lat":55.58677,"lon":-2.00372,"postcode":"NE71 6AN","la":"Northumberland","era":"other","nn":4551,"risk":70,"cat":"red"},{"name":"Wor Local Micro Pub","lat":54.96174,"lon":-1.85001,"postcode":"NE42 5HJ","la":"Northumberland","era":"other","nn":0,"risk":16,"cat":"green"},{"name":"Wylam Masonic Hall","lat":54.976,"lon":-1.82195,"postcode":"NE41 8DF","la":"Northumberland","era":"trad","nn":44,"risk":19,"cat":"green"},{"name":"Alum House","lat":55.0065,"lon":-1.42825,"postcode":"NE33 1LH","la":"South Tyneside","era":"other","nn":174,"risk":26,"cat":"green"},{"name":"Armstrong Hall Social Club","lat":54.98351,"lon":-1.43006,"postcode":"NE33 4BQ","la":"South Tyneside","era":"other","nn":397,"risk":28,"cat":"green"},{"name":"Bar Blue","lat":54.98987,"lon":-1.43508,"postcode":"NE33 5DR","la":"South Tyneside","era":"mod","nn":398,"risk":28,"cat":"green"},{"name":"Boldon Cricket Club","lat":54.94378,"lon":-1.42444,"postcode":"NE36 0NA","la":"South Tyneside","era":"other","nn":604,"risk":47,"cat":"amber"},{"name":"Brigham & Cowan Social Club","lat":54.99981,"lon":-1.43226,"postcode":"NE33 2DL","la":"South Tyneside","era":"mod","nn":34,"risk":25,"cat":"green"},{"name":"Buzz Bingo","lat":54.99843,"lon":-1.43129,"postcode":"NE33 2LR","la":"South Tyneside","era":"other","nn":0,"risk":25,"cat":"green"},{"name":"Buzzers Pool and Sports Bar","lat":54.96533,"lon":-1.45386,"postcode":"NE34 9RY","la":"South Tyneside","era":"other","nn":0,"risk":28,"cat":"green"},{"name":"Cask Lounge","lat":54.99469,"lon":-1.43039,"postcode":"NE33 1QQ","la":"South Tyneside","era":"mod","nn":35,"risk":25,"cat":"green"},{"name":"Charlies Bar","lat":54.99843,"lon":-1.43129,"postcode":"NE33 2LR","la":"South Tyneside","era":"other","nn":0,"risk":25,"cat":"green"},{"name":"Cleadon Social Club","lat":54.97895,"lon":-1.39207,"postcode":"NE34 7DQ","la":"South Tyneside","era":"mod","nn":129,"risk":26,"cat":"green"},{"name":"Club Del Mar","lat":54.9989,"lon":-1.43075,"postcode":"NE33 2HZ","la":"South Tyneside","era":"other","nn":0,"risk":25,"cat":"green"},{"name":"Cock Crow Inn","lat":54.95802,"lon":-1.51544,"postcode":"NE31 2EY","la":"South Tyneside","era":"trad","nn":258,"risk":44,"cat":"amber"},{"name":"County Hotel","lat":54.98526,"lon":-1.4226,"postcode":"NE33 4UU","la":"South Tyneside","era":"other","nn":228,"risk":27,"cat":"green"},{"name":"Dolly Peel","lat":54.99005,"lon":-1.44204,"postcode":"NE33 1SQ","la":"South Tyneside","era":"other","nn":122,"risk":26,"cat":"green"},{"name":"Dougies Tavern","lat":54.98392,"lon":-1.50344,"postcode":"NE31 1ST","la":"South Tyneside","era":"other","nn":690,"risk":30,"cat":"green"},{"name":"Dunes Adventure Island","lat":55.00037,"lon":-1.41574,"postcode":"NE33 2LD","la":"South Tyneside","era":"other","nn":0,"risk":25,"cat":"green"},{"name":"Elmfield Social Club","lat":54.96659,"lon":-1.50593,"postcode":"NE31 2ED","la":"South Tyneside","era":"other","nn":662,"risk":47,"cat":"amber"},{"name":"Expresso Slots","lat":54.98087,"lon":-1.49046,"postcode":"NE32 3JX","la":"South Tyneside","era":"other","nn":0,"risk":25,"cat":"green"},{"name":"Garden Lane","lat":54.99537,"lon":-1.43258,"postcode":"NE33 1PS","la":"South Tyneside","era":"other","nn":90,"risk":26,"cat":"green"},{"name":"Harbour Lights","lat":55.00505,"lon":-1.42929,"postcode":"NE33 2AJ","la":"South Tyneside","era":"other","nn":125,"risk":26,"cat":"green"},{"name":"Harleys Bar","lat":54.972,"lon":-1.41095,"postcode":"NE34 6QY","la":"South Tyneside","era":"other","nn":189,"risk":26,"cat":"green"},{"name":"Hebburn Legion Social Club","lat":54.96546,"lon":-1.51612,"postcode":"NE31 2QP","la":"South Tyneside","era":"mod","nn":582,"risk":29,"cat":"green"},{"name":"Hebburn Protestant Conservative Club","lat":54.97268,"lon":-1.51757,"postcode":"NE31 1LB","la":"South Tyneside","era":"other","nn":787,"risk":33,"cat":"amber"},{"name":"Hebburn Sports Club","lat":54.96697,"lon":-1.52484,"postcode":"NE31 1UN","la":"South Tyneside","era":"other","nn":582,"risk":34,"cat":"amber"},{"name":"Hogarths","lat":54.99942,"lon":-1.43257,"postcode":"NE33 1TS","la":"South Tyneside","era":"other","nn":48,"risk":25,"cat":"green"},{"name":"Industry","lat":54.99893,"lon":-1.43081,"postcode":"NE33 2HZ","la":"South Tyneside","era":"other","nn":5,"risk":25,"cat":"green"},{"name":"Ingham Street Masonic Hall","lat":54.99986,"lon":-1.43172,"postcode":"NE33 2DQ","la":"South Tyneside","era":"trad","nn":34,"risk":25,"cat":"green"},{"name":"Jarrow Buffs","lat":54.98087,"lon":-1.49046,"postcode":"NE32 3JX","la":"South Tyneside","era":"other","nn":0,"risk":25,"cat":"green"},{"name":"Jarrow Conservative Club Ltd","lat":54.97523,"lon":-1.49388,"postcode":"NE32 5AS","la":"South Tyneside","era":"other","nn":393,"risk":28,"cat":"green"},{"name":"Johnnies","lat":54.9833,"lon":-1.49005,"postcode":"NE32 3PH","la":"South Tyneside","era":"other","nn":187,"risk":26,"cat":"green"},{"name":"Kennedys","lat":54.98019,"lon":-1.4445,"postcode":"NE33 5SZ","la":"South Tyneside","era":"other","nn":711,"risk":35,"cat":"amber"},{"name":"Kirkpatricks","lat":54.99912,"lon":-1.43164,"postcode":"NE33 2HT","la":"South Tyneside","era":"other","nn":0,"risk":25,"cat":"green"},{"name":"Last Orders","lat":54.97312,"lon":-1.44001,"postcode":"NE34 0AT","la":"South Tyneside","era":"other","nn":218,"risk":32,"cat":"amber"},{"name":"Madleys","lat":54.99883,"lon":-1.43255,"postcode":"NE33 1TA","la":"South Tyneside","era":"other","nn":65,"risk":26,"cat":"green"},{"name":"Mechanics Arms","lat":54.99754,"lon":-1.43643,"postcode":"NE33 1BW","la":"South Tyneside","era":"trad","nn":45,"risk":25,"cat":"green"},{"name":"Mid Boldon Club Ltd","lat":54.94528,"lon":-1.43354,"postcode":"NE36 0SH","la":"South Tyneside","era":"other","nn":278,"risk":45,"cat":"amber"},{"name":"Murrays Social Club","lat":54.95498,"lon":-1.47783,"postcode":"NE32 4LZ","la":"South Tyneside","era":"mod","nn":708,"risk":48,"cat":"amber"},{"name":"Namaste, Kings Prosecco Lounge","lat":54.964,"lon":-1.41374,"postcode":"NE34 8AQ","la":"South Tyneside","era":"other","nn":421,"risk":31,"cat":"amber"},{"name":"Nightime Golf","lat":54.97232,"lon":-1.46677,"postcode":"NE32 3RA","la":"South Tyneside","era":"other","nn":994,"risk":52,"cat":"amber"},{"name":"R A F Association","lat":54.98718,"lon":-1.42384,"postcode":"NE33 3PT","la":"South Tyneside","era":"other","nn":82,"risk":26,"cat":"green"},{"name":"Riverview","lat":54.99541,"lon":-1.43897,"postcode":"NE33 1EQ","la":"South Tyneside","era":"other","nn":67,"risk":26,"cat":"green"},{"name":"Rose and Crown","lat":54.97389,"lon":-1.39785,"postcode":"NE34 7RQ","la":"South Tyneside","era":"trad","nn":95,"risk":26,"cat":"green"},{"name":"Royal British Legion Club","lat":54.99868,"lon":-1.43479,"postcode":"NE33 1HL","la":"South Tyneside","era":"trad","nn":144,"risk":26,"cat":"green"},{"name":"Simonside Social Club","lat":54.96533,"lon":-1.45386,"postcode":"NE34 9RY","la":"South Tyneside","era":"mod","nn":0,"risk":28,"cat":"green"},{"name":"South Shields Catholic Mens Club Ltd","lat":54.98812,"lon":-1.42408,"postcode":"NE33 3PW","la":"South Tyneside","era":"other","nn":105,"risk":26,"cat":"green"},{"name":"South Shields Golf Club Ltd","lat":54.96941,"lon":-1.39543,"postcode":"NE34 8EG","la":"South Tyneside","era":"other","nn":263,"risk":27,"cat":"green"},{"name":"Sutton Residents Association","lat":54.97319,"lon":-1.3987,"postcode":"NE34 7QD","la":"South Tyneside","era":"other","nn":95,"risk":26,"cat":"green"},{"name":"The Address","lat":54.99733,"lon":-1.43703,"postcode":"NE33 1BH","la":"South Tyneside","era":"other","nn":45,"risk":25,"cat":"green"},{"name":"The Alberta Social Club","lat":54.97876,"lon":-1.4938,"postcode":"NE32 5HW","la":"South Tyneside","era":"mod","nn":305,"risk":27,"cat":"green"},{"name":"The Ashley","lat":54.97755,"lon":-1.43435,"postcode":"NE33 4SS","la":"South Tyneside","era":"other","nn":611,"risk":29,"cat":"green"},{"name":"The Bamburgh","lat":54.9883,"lon":-1.40379,"postcode":"NE34 6SS","la":"South Tyneside","era":"other","nn":497,"risk":46,"cat":"amber"},{"name":"The Beehive Inn","lat":55.00378,"lon":-1.43698,"postcode":"NE33 1TF","la":"South Tyneside","era":"trad","nn":454,"risk":28,"cat":"green"},{"name":"The Ben Lomond","lat":54.9814,"lon":-1.49249,"postcode":"NE32 3JA","la":"South Tyneside","era":"other","nn":95,"risk":26,"cat":"green"},{"name":"The Black Bull","lat":54.94582,"lon":-1.43779,"postcode":"NE36 0SG","la":"South Tyneside","era":"trad","nn":278,"risk":45,"cat":"amber"},{"name":"The Black Horse","lat":54.94351,"lon":-1.45495,"postcode":"NE36 0QQ","la":"South Tyneside","era":"trad","nn":134,"risk":26,"cat":"green"},{"name":"The Bridge","lat":54.96672,"lon":-1.45156,"postcode":"NE34 9AZ","la":"South Tyneside","era":"other","nn":213,"risk":27,"cat":"green"},{"name":"The Britannia","lat":54.9944,"lon":-1.43016,"postcode":"NE33 4NU","la":"South Tyneside","era":"trad","nn":35,"risk":25,"cat":"green"},{"name":"The Caledonian Hotel","lat":54.9793,"lon":-1.52293,"postcode":"NE31 1EG","la":"South Tyneside","era":"other","nn":811,"risk":51,"cat":"amber"},{"name":"The Chichester Arms","lat":54.987,"lon":-1.43134,"postcode":"NE33 4AA","la":"South Tyneside","era":"trad","nn":44,"risk":25,"cat":"green"},{"name":"The Clock Tavern","lat":54.97776,"lon":-1.50214,"postcode":"NE31 1YQ","la":"South Tyneside","era":"other","nn":460,"risk":28,"cat":"green"},{"name":"The Colliery Tavern","lat":54.95371,"lon":-1.46521,"postcode":"NE35 9HS","la":"South Tyneside","era":"other","nn":156,"risk":26,"cat":"green"},{"name":"The Criterion","lat":54.9989,"lon":-1.43075,"postcode":"NE33 2HZ","la":"South Tyneside","era":"other","nn":0,"risk":25,"cat":"green"},{"name":"The Crown and Anchor","lat":54.97942,"lon":-1.48857,"postcode":"NE32 3LX","la":"South Tyneside","era":"trad","nn":201,"risk":27,"cat":"green"},{"name":"The Crown Hotel","lat":54.95298,"lon":-1.4673,"postcode":"NE35 9HZ","la":"South Tyneside","era":"trad","nn":156,"risk":26,"cat":"green"},{"name":"The Cyprus Hotel","lat":54.98718,"lon":-1.43073,"postcode":"NE33 4AF","la":"South Tyneside","era":"other","nn":44,"risk":25,"cat":"green"},{"name":"The Derby","lat":54.9722,"lon":-1.40801,"postcode":"NE34 7LZ","la":"South Tyneside","era":"other","nn":189,"risk":26,"cat":"green"},{"name":"The Fad","lat":54.96194,"lon":-1.42906,"postcode":"NE34 8JN","la":"South Tyneside","era":"other","nn":470,"risk":46,"cat":"amber"},{"name":"The Flat Tops/Old Barrell","lat":54.95099,"lon":-1.46326,"postcode":"NE35 9AF","la":"South Tyneside","era":"other","nn":148,"risk":26,"cat":"green"},{"name":"The Fountain","lat":54.98514,"lon":-1.40928,"postcode":"NE34 6JL","la":"South Tyneside","era":"other","nn":497,"risk":29,"cat":"green"},{"name":"THE FRANKLIN CLUB","lat":54.99608,"lon":-1.43191,"postcode":"NE33 1PR","la":"South Tyneside","era":"other","nn":90,"risk":26,"cat":"green"},{"name":"The Grey Hen","lat":54.97512,"lon":-1.42165,"postcode":"NE34 0EN","la":"South Tyneside","era":"other","nn":546,"risk":29,"cat":"green"},{"name":"The Grotto","lat":54.97702,"lon":-1.37758,"postcode":"NE34 7BS","la":"South Tyneside","era":"other","nn":572,"risk":34,"cat":"amber"},{"name":"The Jarrow Civic Hall","lat":54.98173,"lon":-1.49112,"postcode":"NE32 3HZ","la":"South Tyneside","era":"other","nn":95,"risk":26,"cat":"green"},{"name":"The Jolly Steward","lat":54.97892,"lon":-1.39408,"postcode":"NE34 7DF","la":"South Tyneside","era":"other","nn":129,"risk":26,"cat":"green"},{"name":"The Lake","lat":54.97587,"lon":-1.38632,"postcode":"NE34 7AY","la":"South Tyneside","era":"other","nn":502,"risk":29,"cat":"green"},{"name":"The Longship","lat":54.97403,"lon":-1.50523,"postcode":"NE31 2YA","la":"South Tyneside","era":"trad","nn":460,"risk":28,"cat":"green"},{"name":"The Look Out","lat":55.00394,"lon":-1.42893,"postcode":"NE33 2AR","la":"South Tyneside","era":"other","nn":125,"risk":26,"cat":"green"},{"name":"The Maltings / Chameleon","lat":54.9933,"lon":-1.43072,"postcode":"NE33 4PG","la":"South Tyneside","era":"other","nn":128,"risk":26,"cat":"green"},{"name":"The Marine Public House","lat":55.00016,"lon":-1.4249,"postcode":"NE33 2JQ","la":"South Tyneside","era":"other","nn":145,"risk":26,"cat":"green"},{"name":"The Mill Tavern","lat":54.95985,"lon":-1.51791,"postcode":"NE31 2EU","la":"South Tyneside","era":"trad","nn":258,"risk":29,"cat":"green"},{"name":"The New Crown","lat":54.99399,"lon":-1.41183,"postcode":"NE33 3NG","la":"South Tyneside","era":"trad","nn":529,"risk":29,"cat":"green"},{"name":"The New Green Baize Snooker Club","lat":54.97135,"lon":-1.43856,"postcode":"NE34 0NF","la":"South Tyneside","era":"other","nn":218,"risk":29,"cat":"green"},{"name":"The New Mill","lat":54.96393,"lon":-1.44414,"postcode":"NE34 9HG","la":"South Tyneside","era":"trad","nn":528,"risk":29,"cat":"green"},{"name":"The New Ship","lat":54.96392,"lon":-1.40715,"postcode":"NE34 8DG","la":"South Tyneside","era":"trad","nn":421,"risk":28,"cat":"green"},{"name":"The New Sundial","lat":55.00037,"lon":-1.41574,"postcode":"NE33 2LD","la":"South Tyneside","era":"other","nn":0,"risk":25,"cat":"green"},{"name":"The Novelist","lat":54.99799,"lon":-1.43828,"postcode":"NE33 1JF","la":"South Tyneside","era":"other","nn":109,"risk":26,"cat":"green"},{"name":"The Old Ship","lat":54.97913,"lon":-1.41434,"postcode":"NE34 6NQ","la":"South Tyneside","era":"trad","nn":135,"risk":26,"cat":"green"},{"name":"The Pier","lat":54.99971,"lon":-1.42704,"postcode":"NE33 2JF","la":"South Tyneside","era":"other","nn":145,"risk":26,"cat":"green"},{"name":"The Rattler","lat":55.00037,"lon":-1.41574,"postcode":"NE33 2LD","la":"South Tyneside","era":"other","nn":0,"risk":25,"cat":"green"},{"name":"The Red Hackle","lat":54.96353,"lon":-1.46399,"postcode":"NE32 4HT","la":"South Tyneside","era":"other","nn":677,"risk":32,"cat":"amber"},{"name":"The Red Lion Inn","lat":54.94232,"lon":-1.45528,"postcode":"NE36 0PZ","la":"South Tyneside","era":"trad","nn":134,"risk":29,"cat":"green"},{"name":"The Sand Dancer","lat":54.99865,"lon":-1.41346,"postcode":"NE33 2LD","la":"South Tyneside","era":"other","nn":240,"risk":27,"cat":"green"},{"name":"The Shack","lat":54.94989,"lon":-1.46198,"postcode":"NE35 9AL","la":"South Tyneside","era":"other","nn":148,"risk":26,"cat":"green"},{"name":"The Ship & Royal","lat":54.99912,"lon":-1.43164,"postcode":"NE33 2HT","la":"South Tyneside","era":"trad","nn":0,"risk":25,"cat":"green"},{"name":"The Stags Head","lat":54.99738,"lon":-1.43076,"postcode":"NE33 1NS","la":"South Tyneside","era":"trad","nn":122,"risk":26,"cat":"green"},{"name":"The Steamboat Public House","lat":54.99496,"lon":-1.43965,"postcode":"NE33 1EQ","la":"South Tyneside","era":"other","nn":67,"risk":26,"cat":"green"},{"name":"The Storybook","lat":54.9468,"lon":-1.46633,"postcode":"NE35 9PB","la":"South Tyneside","era":"other","nn":442,"risk":28,"cat":"green"},{"name":"The Travelling Man","lat":54.94196,"lon":-1.46393,"postcode":"NE36 0BQ","la":"South Tyneside","era":"other","nn":554,"risk":32,"cat":"amber"},{"name":"The Vigilant Inn","lat":54.97807,"lon":-1.41331,"postcode":"NE34 6AE","la":"South Tyneside","era":"trad","nn":135,"risk":26,"cat":"green"},{"name":"The Voyager","lat":54.99728,"lon":-1.42826,"postcode":"NE33 2RJ","la":"South Tyneside","era":"other","nn":160,"risk":26,"cat":"green"},{"name":"The Westoe Public House","lat":54.98748,"lon":-1.42266,"postcode":"NE33 3DY","la":"South Tyneside","era":"other","nn":82,"risk":26,"cat":"green"},{"name":"The Westside Club","lat":54.97253,"lon":-1.41439,"postcode":"NE34 6QU","la":"South Tyneside","era":"other","nn":228,"risk":27,"cat":"green"},{"name":"The White Horse","lat":54.97141,"lon":-1.39321,"postcode":"NE34 7QZ","la":"South Tyneside","era":"trad","nn":263,"risk":27,"cat":"green"},{"name":"The Wouldhave","lat":55.00003,"lon":-1.43339,"postcode":"NE33 1TA","la":"South Tyneside","era":"other","nn":77,"risk":26,"cat":"green"},{"name":"Trimmers","lat":54.99113,"lon":-1.44163,"postcode":"NE33 1RW","la":"South Tyneside","era":"other","nn":122,"risk":26,"cat":"green"},{"name":"Whitburn Golf Club Ltd","lat":54.97063,"lon":-1.37535,"postcode":"NE34 7AF","la":"South Tyneside","era":"other","nn":725,"risk":48,"cat":"amber"},{"name":"WHITELEAS DISTRICT SOCIAL CLUB","lat":54.96223,"lon":-1.43641,"postcode":"NE34 8RN","la":"South Tyneside","era":"mod","nn":470,"risk":46,"cat":"amber"},{"name":"Buzz Bingo","lat":54.90011,"lon":-1.53274,"postcode":"NE38 7SB","la":"Sunderland","era":"other","nn":692,"risk":28,"cat":"green"},{"name":"Cross Keys","lat":54.90364,"lon":-1.51645,"postcode":"NE38 7AB","la":"Sunderland","era":"trad","nn":66,"risk":23,"cat":"green"},{"name":"Fiume Restaurant & River Bar","lat":54.87952,"lon":-1.51728,"postcode":"NE38 8AJ","la":"Sunderland","era":"other","nn":65,"risk":41,"cat":"amber"},{"name":"Havelock Arms","lat":54.87919,"lon":-1.51812,"postcode":"NE38 8AJ","la":"Sunderland","era":"trad","nn":65,"risk":41,"cat":"amber"},{"name":"NE38 Sports Bar","lat":54.90225,"lon":-1.50909,"postcode":"NE38 8DG","la":"Sunderland","era":"other","nn":495,"risk":26,"cat":"green"},{"name":"New Tavern","lat":54.91255,"lon":-1.52052,"postcode":"NE37 2AL","la":"Sunderland","era":"other","nn":0,"risk":23,"cat":"green"},{"name":"North Biddick Social Club","lat":54.87879,"lon":-1.5193,"postcode":"NE38 8AJ","la":"Sunderland","era":"mod","nn":87,"risk":41,"cat":"amber"},{"name":"Ox & Plough","lat":54.89705,"lon":-1.54569,"postcode":"NE38 0LZ","la":"Sunderland","era":"trad","nn":0,"risk":23,"cat":"green"},{"name":"Ox & Plough","lat":54.89705,"lon":-1.54569,"postcode":"NE38 0LZ","la":"Sunderland","era":"trad","nn":0,"risk":23,"cat":"green"},{"name":"Sir William De Wessyngton","lat":54.91259,"lon":-1.52303,"postcode":"NE37 2SY","la":"Sunderland","era":"other","nn":105,"risk":23,"cat":"green"},{"name":"Sky Lounge","lat":54.89406,"lon":-1.5103,"postcode":"NE38 7ET","la":"Sunderland","era":"mod","nn":219,"risk":27,"cat":"green"},{"name":"Speculation Inn","lat":54.91255,"lon":-1.52052,"postcode":"NE37 2AL","la":"Sunderland","era":"trad","nn":0,"risk":23,"cat":"green"},{"name":"Springwell Social Club","lat":54.91828,"lon":-1.55225,"postcode":"NE9 7RX","la":"Sunderland","era":"mod","nn":80,"risk":23,"cat":"green"},{"name":"Teal Farm Pub","lat":54.89318,"lon":-1.49238,"postcode":"NE38 8FH","la":"Sunderland","era":"other","nn":230,"risk":42,"cat":"amber"},{"name":"The Bird Inn","lat":54.91258,"lon":-1.52139,"postcode":"NE37 2AL","la":"Sunderland","era":"trad","nn":25,"risk":23,"cat":"green"},{"name":"The Black Bush","lat":54.90293,"lon":-1.5231,"postcode":"NE38 7HY","la":"Sunderland","era":"other","nn":153,"risk":24,"cat":"green"},{"name":"The Cherry Tree","lat":54.89034,"lon":-1.55144,"postcode":"NE38 0DL","la":"Sunderland","era":"other","nn":615,"risk":30,"cat":"green"},{"name":"The Guide Post","lat":54.91895,"lon":-1.55276,"postcode":"NE9 7RT","la":"Sunderland","era":"other","nn":67,"risk":23,"cat":"green"},{"name":"The Highwayman","lat":54.89072,"lon":-1.53905,"postcode":"NE38 0QA","la":"Sunderland","era":"other","nn":793,"risk":33,"cat":"amber"},{"name":"The Honest Boy","lat":54.90387,"lon":-1.54701,"postcode":"NE37 1LL","la":"Sunderland","era":"other","nn":763,"risk":33,"cat":"amber"},{"name":"The Middle Inn","lat":54.9126,"lon":-1.52101,"postcode":"NE37 2AL","la":"Sunderland","era":"trad","nn":25,"risk":23,"cat":"green"},{"name":"The Stella","lat":54.90705,"lon":-1.53481,"postcode":"NE37 1UB","la":"Sunderland","era":"other","nn":784,"risk":31,"cat":"amber"},{"name":"The Steps","lat":54.90451,"lon":-1.51943,"postcode":"NE38 7HP","la":"Sunderland","era":"other","nn":154,"risk":24,"cat":"green"},{"name":"The Victoria","lat":54.89553,"lon":-1.51687,"postcode":"NE38 7DS","la":"Sunderland","era":"trad","nn":341,"risk":25,"cat":"green"},{"name":"The Woodlands","lat":54.87921,"lon":-1.54948,"postcode":"NE38 9ET","la":"Sunderland","era":"other","nn":1143,"risk":53,"cat":"amber"},{"name":"Usworth & Washington Gardeners Club","lat":54.91184,"lon":-1.51632,"postcode":"NE37 3AB","la":"Sunderland","era":"other","nn":280,"risk":25,"cat":"green"},{"name":"Washington Arms","lat":54.90371,"lon":-1.51747,"postcode":"NE38 7AB","la":"Sunderland","era":"trad","nn":66,"risk":23,"cat":"green"},{"name":"Washington Station Celtic Club","lat":54.89555,"lon":-1.50806,"postcode":"NE38 8LX","la":"Sunderland","era":"other","nn":219,"risk":27,"cat":"green"},{"name":"Washington Union Club","lat":54.90289,"lon":-1.5207,"postcode":"NE38 7HU","la":"Sunderland","era":"other","nn":153,"risk":24,"cat":"green"},{"name":"Wessington","lat":54.91834,"lon":-1.53652,"postcode":"NE37 1EE","la":"Sunderland","era":"other","nn":1005,"risk":52,"cat":"amber"},{"name":"Westwood Club - Washington Station C I U","lat":54.89849,"lon":-1.51546,"postcode":"NE38 7LW","la":"Sunderland","era":"other","nn":341,"risk":25,"cat":"green"}]