[{"name":"Adam & Eve","lat":52.42843,"lon":-1.48762,"postcode":"CV6 5HH","la":"Coventry","era":"other","nn":340,"risk":27,"cat":"green"},{"name":"Al Bader Restaurant","lat":52.40748,"lon":-1.50903,"postcode":"CV1 5RE","la":"Coventry","era":"other","nn":0,"risk":24,"cat":"green"},{"name":"Albany Social Club","lat":52.39955,"lon":-1.53155,"postcode":"CV5 6EG","la":"Coventry","era":"mod","nn":72,"risk":25,"cat":"green"},{"name":"Arches Venue","lat":52.40937,"lon":-1.52809,"postcode":"CV1 3JQ","la":"Coventry","era":"other","nn":142,"risk":25,"cat":"green"},{"name":"Ballentines at The Quadrant Club","lat":52.40489,"lon":-1.51291,"postcode":"CV1 2EL","la":"Coventry","era":"other","nn":73,"risk":25,"cat":"green"},{"name":"Barker Butts RFC","lat":52.42909,"lon":-1.60085,"postcode":"CV5 9AR","la":"Coventry","era":"other","nn":992,"risk":51,"cat":"amber"},{"name":"Barras Social Club","lat":52.41638,"lon":-1.48125,"postcode":"CV2 4LZ","la":"Coventry","era":"mod","nn":167,"risk":25,"cat":"green"},{"name":"Beechwood Lawn Tennis Club","lat":52.39617,"lon":-1.53814,"postcode":"CV5 6FQ","la":"Coventry","era":"other","nn":444,"risk":27,"cat":"green"},{"name":"Beer2daygone2morrow","lat":52.4332,"lon":-1.56336,"postcode":"CV5 9PS","la":"Coventry","era":"other","nn":0,"risk":44,"cat":"amber"},{"name":"Bell Green Working Mens Club","lat":52.43684,"lon":-1.47158,"postcode":"CV2 1NB","la":"Coventry","era":"trad","nn":194,"risk":43,"cat":"amber"},{"name":"Bell Inn","lat":52.44067,"lon":-1.53223,"postcode":"CV6 2FN","la":"Coventry","era":"trad","nn":298,"risk":26,"cat":"green"},{"name":"Biggin Hall","lat":52.40705,"lon":-1.47154,"postcode":"CV3 1HG","la":"Coventry","era":"other","nn":220,"risk":26,"cat":"green"},{"name":"Binley Banqueting Suite","lat":52.39125,"lon":-1.44665,"postcode":"CV3 2ED","la":"Coventry","era":"other","nn":736,"risk":34,"cat":"amber"},{"name":"Bird in Hand","lat":52.44609,"lon":-1.47346,"postcode":"CV2 1PQ","la":"Coventry","era":"other","nn":987,"risk":51,"cat":"amber"},{"name":"Black Prince","lat":52.40947,"lon":-1.58025,"postcode":"CV4 9QS","la":"Coventry","era":"trad","nn":749,"risk":32,"cat":"amber"},{"name":"Boat Inn","lat":52.44239,"lon":-1.45321,"postcode":"CV2 2AB","la":"Coventry","era":"trad","nn":636,"risk":49,"cat":"amber"},{"name":"Bricklayers Arms","lat":52.42131,"lon":-1.49332,"postcode":"CV6 5EZ","la":"Coventry","era":"trad","nn":0,"risk":24,"cat":"green"},{"name":"Broad Street RFC","lat":52.43218,"lon":-1.46637,"postcode":"CV2 1BW","la":"Coventry","era":"other","nn":627,"risk":46,"cat":"amber"},{"name":"Brooklands","lat":52.42284,"lon":-1.5462,"postcode":"CV6 1PJ","la":"Coventry","era":"other","nn":148,"risk":43,"cat":"amber"},{"name":"Broomfield Tavern","lat":52.40765,"lon":-1.52695,"postcode":"CV5 6GY","la":"Coventry","era":"other","nn":64,"risk":25,"cat":"green"},{"name":"Bulls Head","lat":52.40634,"lon":-1.47522,"postcode":"CV3 1HB","la":"Coventry","era":"trad","nn":1,"risk":24,"cat":"green"},{"name":"Burnt Post","lat":52.38469,"lon":-1.5295,"postcode":"CV3 6AW","la":"Coventry","era":"other","nn":35,"risk":29,"cat":"green"},{"name":"Cafe Fusion - Rootes Building","lat":52.3789,"lon":-1.56025,"postcode":"CV4 7ES","la":"Coventry","era":"other","nn":0,"risk":42,"cat":"amber"},{"name":"Castle Grounds also t/a Loco Loco, El Rodeo Mexicano, Burrito Bandits","lat":52.40633,"lon":-1.50891,"postcode":"CV1 2JZ","la":"Coventry","era":"other","nn":128,"risk":25,"cat":"green"},{"name":"Charterhouse Working Mens Club","lat":52.40478,"lon":-1.4941,"postcode":"CV1 2BW","la":"Coventry","era":"other","nn":301,"risk":26,"cat":"green"},{"name":"Cherry Tree Sports and Social Club","lat":52.44143,"lon":-1.49734,"postcode":"CV6 6FT","la":"Coventry","era":"mod","nn":456,"risk":27,"cat":"green"},{"name":"Chestnut Tree","lat":52.40608,"lon":-1.53361,"postcode":"CV5 8DT","la":"Coventry","era":"other","nn":39,"risk":24,"cat":"green"},{"name":"Cheylesmore Social Club","lat":52.39142,"lon":-1.50458,"postcode":"CV3 5PZ","la":"Coventry","era":"mod","nn":383,"risk":32,"cat":"amber"},{"name":"City Arms","lat":52.39895,"lon":-1.53194,"postcode":"CV5 6EP","la":"Coventry","era":"trad","nn":72,"risk":25,"cat":"green"},{"name":"Club 147","lat":52.40747,"lon":-1.49676,"postcode":"CV1 5DY","la":"Coventry","era":"other","nn":58,"risk":25,"cat":"green"},{"name":"Coach & Horses","lat":52.45156,"lon":-1.48591,"postcode":"CV6 6BG","la":"Coventry","era":"trad","nn":326,"risk":46,"cat":"amber"},{"name":"Coombe Social Club","lat":52.4043,"lon":-1.44015,"postcode":"CV3 2HY","la":"Coventry","era":"mod","nn":205,"risk":31,"cat":"amber"},{"name":"Copsewood Sports & Social Club","lat":52.3998,"lon":-1.46178,"postcode":"CV3 1JP","la":"Coventry","era":"mod","nn":430,"risk":32,"cat":"amber"},{"name":"Coundon Social Club Ltd","lat":52.42401,"lon":-1.54514,"postcode":"CV6 1GP","la":"Coventry","era":"mod","nn":148,"risk":30,"cat":"green"},{"name":"Coventry & North Warwickshire Sports","lat":52.40633,"lon":-1.47521,"postcode":"CV3 1HB","la":"Coventry","era":"other","nn":1,"risk":24,"cat":"green"},{"name":"Coventry Caribbean Association","lat":52.40846,"lon":-1.51781,"postcode":"CV1 3BB","la":"Coventry","era":"other","nn":0,"risk":24,"cat":"green"},{"name":"Coventry City Supporters Club","lat":52.41621,"lon":-1.49263,"postcode":"CV1 5BH","la":"Coventry","era":"other","nn":506,"risk":28,"cat":"green"},{"name":"Coventry Cross","lat":52.41015,"lon":-1.51061,"postcode":"CV1 1HL","la":"Coventry","era":"trad","nn":0,"risk":24,"cat":"green"},{"name":"Coventry Dining Club","lat":52.40752,"lon":-1.49339,"postcode":"CV1 5ED","la":"Coventry","era":"other","nn":32,"risk":24,"cat":"green"},{"name":"Coventry Masonic Hall","lat":52.39778,"lon":-1.51617,"postcode":"CV3 6AU","la":"Coventry","era":"trad","nn":377,"risk":27,"cat":"green"},{"name":"Coventry Rugby Club","lat":52.40587,"lon":-1.5254,"postcode":"CV1 3GE","la":"Coventry","era":"other","nn":224,"risk":26,"cat":"green"},{"name":"Coventry Saracens R. F. C.","lat":52.39979,"lon":-1.44648,"postcode":"CV3 2FD","la":"Coventry","era":"other","nn":259,"risk":26,"cat":"green"},{"name":"Coventry University Sporting Club","lat":52.38563,"lon":-1.58098,"postcode":"CV4 8GP","la":"Coventry","era":"other","nn":0,"risk":29,"cat":"green"},{"name":"Craven Arms","lat":52.40643,"lon":-1.53359,"postcode":"CV5 8DW","la":"Coventry","era":"trad","nn":39,"risk":24,"cat":"green"},{"name":"Craven Street Club","lat":52.40732,"lon":-1.53142,"postcode":"CV5 8DS","la":"Coventry","era":"other","nn":0,"risk":24,"cat":"green"},{"name":"Devonshire Arms","lat":52.42137,"lon":-1.471,"postcode":"CV2 3NX","la":"Coventry","era":"trad","nn":767,"risk":32,"cat":"amber"},{"name":"Down Town","lat":52.41015,"lon":-1.51061,"postcode":"CV1 1HL","la":"Coventry","era":"other","nn":0,"risk":24,"cat":"green"},{"name":"Earl of Mercia","lat":52.40748,"lon":-1.50903,"postcode":"CV1 5RE","la":"Coventry","era":"other","nn":0,"risk":24,"cat":"green"},{"name":"Earlsdon Rugby Football Club","lat":52.39053,"lon":-1.56994,"postcode":"CV4 8DY","la":"Coventry","era":"other","nn":445,"risk":32,"cat":"amber"},{"name":"Fairfax Social Club","lat":52.40846,"lon":-1.51781,"postcode":"CV1 3BB","la":"Coventry","era":"mod","nn":0,"risk":24,"cat":"green"},{"name":"Foleshill Ex Servicemens Club","lat":52.43231,"lon":-1.49689,"postcode":"CV6 5JQ","la":"Coventry","era":"other","nn":286,"risk":26,"cat":"green"},{"name":"Foleshill Gas Club","lat":52.44254,"lon":-1.48927,"postcode":"CV6 6EN","la":"Coventry","era":"other","nn":237,"risk":28,"cat":"green"},{"name":"Folly Lane Members Club","lat":52.38598,"lon":-1.47661,"postcode":"CV3 4DA","la":"Coventry","era":"other","nn":945,"risk":51,"cat":"amber"},{"name":"Four Provinces","lat":52.40815,"lon":-1.53205,"postcode":"CV5 8BU","la":"Coventry","era":"other","nn":101,"risk":25,"cat":"green"},{"name":"Glamorous","lat":52.40419,"lon":-1.50398,"postcode":"CV1 2LW","la":"Coventry","era":"other","nn":264,"risk":26,"cat":"green"},{"name":"Goals Soccer Centre (Coventry)","lat":52.43063,"lon":-1.48414,"postcode":"CV6 7GP","la":"Coventry","era":"other","nn":340,"risk":27,"cat":"green"},{"name":"Gosford Arms","lat":52.40813,"lon":-1.49451,"postcode":"CV1 5DZ","la":"Coventry","era":"trad","nn":84,"risk":25,"cat":"green"},{"name":"Green Lane Ex Services Club","lat":52.37996,"lon":-1.53605,"postcode":"CV3 6BH","la":"Coventry","era":"other","nn":627,"risk":34,"cat":"amber"},{"name":"Grill Father","lat":52.42794,"lon":-1.50338,"postcode":"CV6 5PD","la":"Coventry","era":"other","nn":0,"risk":24,"cat":"green"},{"name":"Hare And Hounds","lat":52.45067,"lon":-1.53083,"postcode":"CV7 8JA","la":"Coventry","era":"trad","nn":994,"risk":51,"cat":"amber"},{"name":"Hearsall Golf Club","lat":52.394,"lon":-1.5317,"postcode":"CV5 6DF","la":"Coventry","era":"other","nn":500,"risk":28,"cat":"green"},{"name":"Hearsall Inn","lat":52.40732,"lon":-1.53142,"postcode":"CV5 8DS","la":"Coventry","era":"trad","nn":0,"risk":24,"cat":"green"},{"name":"Heat","lat":52.40605,"lon":-1.51461,"postcode":"CV1 3HX","la":"Coventry","era":"other","nn":103,"risk":25,"cat":"green"},{"name":"Hen Lane Social Club","lat":52.44413,"lon":-1.50742,"postcode":"CV6 4DS","la":"Coventry","era":"mod","nn":194,"risk":28,"cat":"green"},{"name":"Highway Club","lat":52.40196,"lon":-1.5597,"postcode":"CV4 9BY","la":"Coventry","era":"other","nn":620,"risk":33,"cat":"amber"},{"name":"Hogans","lat":52.44363,"lon":-1.53988,"postcode":"CV7 8NJ","la":"Coventry","era":"other","nn":614,"risk":33,"cat":"amber"},{"name":"Holyhead","lat":52.41483,"lon":-1.53339,"postcode":"CV5 8JN","la":"Coventry","era":"trad","nn":561,"risk":28,"cat":"green"},{"name":"Hops d'Amour","lat":52.40954,"lon":-1.51416,"postcode":"CV1 1GX","la":"Coventry","era":"other","nn":70,"risk":25,"cat":"green"},{"name":"Humber Hotel","lat":52.40254,"lon":-1.48703,"postcode":"CV3 1BA","la":"Coventry","era":"other","nn":506,"risk":28,"cat":"green"},{"name":"Ivy House & Rosie Malones","lat":52.40663,"lon":-1.50453,"postcode":"CV1 5RW","la":"Coventry","era":"mod","nn":79,"risk":25,"cat":"green"},{"name":"Jaguar Bowls Club","lat":52.42764,"lon":-1.51127,"postcode":"CV6 3LS","la":"Coventry","era":"other","nn":536,"risk":28,"cat":"green"},{"name":"Kathleens","lat":52.41031,"lon":-1.49921,"postcode":"CV1 5QF","la":"Coventry","era":"other","nn":357,"risk":27,"cat":"green"},{"name":"Keresley Coronation Club","lat":52.43808,"lon":-1.5311,"postcode":"CV6 2FL","la":"Coventry","era":"other","nn":298,"risk":26,"cat":"green"},{"name":"Khushi Grill","lat":52.4083,"lon":-1.5263,"postcode":"CV1 3HF","la":"Coventry","era":"other","nn":0,"risk":24,"cat":"green"},{"name":"Lime Tree Park WMC","lat":52.40109,"lon":-1.57082,"postcode":"CV4 9BQ","la":"Coventry","era":"other","nn":254,"risk":28,"cat":"green"},{"name":"Litten Tree / LTB Showrooms","lat":52.40518,"lon":-1.51388,"postcode":"CV1 1EX","la":"Coventry","era":"mod","nn":73,"risk":25,"cat":"green"},{"name":"Longford Engine","lat":52.45441,"lon":-1.48482,"postcode":"CV6 6BP","la":"Coventry","era":"other","nn":326,"risk":46,"cat":"amber"},{"name":"Massey Ferguson Sports & Social Club","lat":52.41593,"lon":-1.6071,"postcode":"CV5 7NL","la":"Coventry","era":"mod","nn":604,"risk":46,"cat":"amber"},{"name":"Mercia Venue Banqueting Suite","lat":52.42794,"lon":-1.50338,"postcode":"CV6 5PD","la":"Coventry","era":"other","nn":0,"risk":24,"cat":"green"},{"name":"Minstrel Pub","lat":52.41377,"lon":-1.56271,"postcode":"CV5 9HF","la":"Coventry","era":"other","nn":403,"risk":44,"cat":"amber"},{"name":"Mister Shenanigans","lat":52.40823,"lon":-1.51731,"postcode":"CV1 3BA","la":"Coventry","era":"other","nn":25,"risk":24,"cat":"green"},{"name":"Mount Pleasant","lat":52.42852,"lon":-1.43972,"postcode":"CV2 2EU","la":"Coventry","era":"other","nn":404,"risk":44,"cat":"amber"},{"name":"New Inn","lat":52.40503,"lon":-1.47768,"postcode":"CV3 1FR","la":"Coventry","era":"trad","nn":193,"risk":25,"cat":"green"},{"name":"New Spires","lat":52.41296,"lon":-1.54785,"postcode":"CV5 8HJ","la":"Coventry","era":"other","nn":564,"risk":46,"cat":"amber"},{"name":"Nursery Tavern","lat":52.40747,"lon":-1.5335,"postcode":"CV5 8DA","la":"Coventry","era":"other","nn":115,"risk":25,"cat":"green"},{"name":"Old Ball Hotel","lat":52.41002,"lon":-1.4856,"postcode":"CV2 4EB","la":"Coventry","era":"other","nn":473,"risk":27,"cat":"green"},{"name":"Old Crown","lat":52.45321,"lon":-1.46359,"postcode":"CV2 1NP","la":"Coventry","era":"trad","nn":604,"risk":48,"cat":"amber"},{"name":"Old Dyers Arms","lat":52.40819,"lon":-1.52728,"postcode":"CV1 3HB","la":"Coventry","era":"trad","nn":64,"risk":25,"cat":"green"},{"name":"Open Arms","lat":52.39177,"lon":-1.51412,"postcode":"CV3 5DP","la":"Coventry","era":"trad","nn":538,"risk":30,"cat":"green"},{"name":"Our Lady of the Assumption Rear Hall","lat":52.4026,"lon":-1.58298,"postcode":"CV4 9TA","la":"Coventry","era":"other","nn":787,"risk":32,"cat":"amber"},{"name":"Parkstone Working Mens Club","lat":52.43117,"lon":-1.49311,"postcode":"CV6 5GS","la":"Coventry","era":"trad","nn":286,"risk":26,"cat":"green"},{"name":"Penny Farthing","lat":52.41199,"lon":-1.59862,"postcode":"CV4 9AE","la":"Coventry","era":"other","nn":531,"risk":33,"cat":"amber"},{"name":"Phantom Coach","lat":52.39062,"lon":-1.54889,"postcode":"CV4 7BA","la":"Coventry","era":"trad","nn":955,"risk":51,"cat":"amber"},{"name":"Philip Larkin","lat":52.41028,"lon":-1.51113,"postcode":"CV1 1HN","la":"Coventry","era":"other","nn":38,"risk":24,"cat":"green"},{"name":"Pilot Hotel","lat":52.43503,"lon":-1.51911,"postcode":"CV6 4AU","la":"Coventry","era":"other","nn":0,"risk":24,"cat":"green"},{"name":"Pinley R F C","lat":52.41968,"lon":-1.45793,"postcode":"CV2 3AA","la":"Coventry","era":"other","nn":906,"risk":50,"cat":"amber"},{"name":"Potters Green Community Centre","lat":52.4378,"lon":-1.44762,"postcode":"CV2 2QR","la":"Coventry","era":"other","nn":636,"risk":49,"cat":"amber"},{"name":"Powerleague","lat":52.41349,"lon":-1.5912,"postcode":"CV5 7FF","la":"Coventry","era":"other","nn":531,"risk":45,"cat":"amber"},{"name":"Radford Social Club","lat":52.42083,"lon":-1.51944,"postcode":"CV6 3BQ","la":"Coventry","era":"mod","nn":711,"risk":34,"cat":"amber"},{"name":"Railway Bar & Grill","lat":52.4083,"lon":-1.5263,"postcode":"CV1 3HF","la":"Coventry","era":"other","nn":0,"risk":24,"cat":"green"},{"name":"Rainbow Inn","lat":52.42326,"lon":-1.56095,"postcode":"CV5 9GT","la":"Coventry","era":"trad","nn":1001,"risk":54,"cat":"amber"},{"name":"Red Lion","lat":52.42431,"lon":-1.44464,"postcode":"CV2 2EY","la":"Coventry","era":"trad","nn":464,"risk":45,"cat":"amber"},{"name":"Rileys Snooker Hall","lat":52.40523,"lon":-1.51858,"postcode":"CV1 3JZ","la":"Coventry","era":"other","nn":0,"risk":24,"cat":"green"},{"name":"Rose & Crown","lat":52.411,"lon":-1.47615,"postcode":"CV2 4BN","la":"Coventry","era":"trad","nn":377,"risk":27,"cat":"green"},{"name":"Rose & Woodbine","lat":52.41785,"lon":-1.48073,"postcode":"CV2 3FW","la":"Coventry","era":"trad","nn":167,"risk":25,"cat":"green"},{"name":"Rose And Crown","lat":52.43724,"lon":-1.47438,"postcode":"CV6 7BW","la":"Coventry","era":"trad","nn":194,"risk":26,"cat":"green"},{"name":"Royal Hotel","lat":52.43693,"lon":-1.48744,"postcode":"CV6 7DU","la":"Coventry","era":"trad","nn":407,"risk":27,"cat":"green"},{"name":"Slug & Lettuce","lat":52.4077,"lon":-1.50769,"postcode":"CV1 5RN","la":"Coventry","era":"other","nn":59,"risk":25,"cat":"green"},{"name":"Sphinx Sports and Social Club","lat":52.40237,"lon":-1.47479,"postcode":"CV3 1WA","la":"Coventry","era":"mod","nn":355,"risk":27,"cat":"green"},{"name":"Square One Entertainment Venue","lat":52.40532,"lon":-1.50008,"postcode":"CV1 5FB","la":"Coventry","era":"other","nn":231,"risk":26,"cat":"green"},{"name":"St Finbarrs Sport & Social Club 1956","lat":52.44488,"lon":-1.51,"postcode":"CV6 4DG","la":"Coventry","era":"mod","nn":194,"risk":26,"cat":"green"},{"name":"Standard Bearer","lat":52.39778,"lon":-1.44843,"postcode":"CV3 2FG","la":"Coventry","era":"other","nn":259,"risk":26,"cat":"green"},{"name":"Standard Triumph Club","lat":52.40418,"lon":-1.54914,"postcode":"CV4 9DG","la":"Coventry","era":"other","nn":758,"risk":47,"cat":"amber"},{"name":"STOKE (COVENTRY) CLUB","lat":52.404,"lon":-1.47997,"postcode":"CV3 1FP","la":"Coventry","era":"other","nn":193,"risk":25,"cat":"green"},{"name":"Stoke Bowling Club","lat":52.40903,"lon":-1.47163,"postcode":"CV2 4AB","la":"Coventry","era":"other","nn":220,"risk":26,"cat":"green"},{"name":"Stoke Old Boys RFC","lat":52.40217,"lon":-1.45678,"postcode":"CV3 2DG","la":"Coventry","era":"other","nn":430,"risk":30,"cat":"green"},{"name":"Taksim Turkish Restaurant","lat":52.4185,"lon":-1.49907,"postcode":"CV1 4FR","la":"Coventry","era":"other","nn":321,"risk":26,"cat":"green"},{"name":"Taverna Romanian Bar, Rear of","lat":52.42682,"lon":-1.49866,"postcode":"CV6 5AX","la":"Coventry","era":"other","nn":343,"risk":27,"cat":"green"},{"name":"Teezers","lat":52.40523,"lon":-1.51858,"postcode":"CV1 3JZ","la":"Coventry","era":"other","nn":0,"risk":24,"cat":"green"},{"name":"The Aardvark TA K-Town, Chik Box and Locked and Loaded","lat":52.40482,"lon":-1.52033,"postcode":"CV1 3GR","la":"Coventry","era":"other","nn":127,"risk":25,"cat":"green"},{"name":"The Auction House","lat":52.39869,"lon":-1.59581,"postcode":"CV4 9HS","la":"Coventry","era":"other","nn":973,"risk":51,"cat":"amber"},{"name":"The Bar","lat":52.3789,"lon":-1.56025,"postcode":"CV4 7ES","la":"Coventry","era":"other","nn":0,"risk":42,"cat":"amber"},{"name":"The Cottage","lat":52.39926,"lon":-1.53391,"postcode":"CV5 6ET","la":"Coventry","era":"other","nn":84,"risk":25,"cat":"green"},{"name":"The Coundon","lat":52.41499,"lon":-1.52367,"postcode":"CV6 1DT","la":"Coventry","era":"other","nn":659,"risk":29,"cat":"green"},{"name":"The Craftsman","lat":52.44149,"lon":-1.52238,"postcode":"CV6 2HQ","la":"Coventry","era":"mod","nn":674,"risk":29,"cat":"green"},{"name":"The Cue Club","lat":52.38486,"lon":-1.52993,"postcode":"CV3 6AW","la":"Coventry","era":"other","nn":35,"risk":29,"cat":"green"},{"name":"The Empire","lat":52.40723,"lon":-1.49751,"postcode":"CV1 5DU","la":"Coventry","era":"other","nn":58,"risk":25,"cat":"green"},{"name":"The Festival","lat":52.37887,"lon":-1.50308,"postcode":"CV3 5QJ","la":"Coventry","era":"other","nn":1098,"risk":54,"cat":"amber"},{"name":"The Flying Standard","lat":52.40947,"lon":-1.50925,"postcode":"CV1 1FL","la":"Coventry","era":"other","nn":119,"risk":25,"cat":"green"},{"name":"The Gatehouse","lat":52.40945,"lon":-1.51553,"postcode":"CV1 4AN","la":"Coventry","era":"other","nn":30,"risk":24,"cat":"green"},{"name":"The Glade","lat":52.38675,"lon":-1.45491,"postcode":"CV3 3FB","la":"Coventry","era":"other","nn":541,"risk":45,"cat":"amber"},{"name":"The Golden Cross","lat":52.40757,"lon":-1.50853,"postcode":"CV1 5RF","la":"Coventry","era":"trad","nn":35,"risk":24,"cat":"green"},{"name":"The Green","lat":52.42017,"lon":-1.60154,"postcode":"CV5 7BX","la":"Coventry","era":"other","nn":604,"risk":33,"cat":"amber"},{"name":"The Greyhound","lat":52.45727,"lon":-1.4695,"postcode":"CV6 6DF","la":"Coventry","era":"trad","nn":604,"risk":48,"cat":"amber"},{"name":"The Hastings","lat":52.41405,"lon":-1.48338,"postcode":"CV2 4LS","la":"Coventry","era":"other","nn":296,"risk":26,"cat":"green"},{"name":"The Hole in the Wall","lat":52.4332,"lon":-1.56336,"postcode":"CV5 9PS","la":"Coventry","era":"other","nn":0,"risk":44,"cat":"amber"},{"name":"The Hub","lat":52.45031,"lon":-1.51112,"postcode":"CV6 4HH","la":"Coventry","era":"mod","nn":609,"risk":28,"cat":"green"},{"name":"The Lions Inn","lat":52.41958,"lon":-1.53062,"postcode":"CV6 1EU","la":"Coventry","era":"trad","nn":561,"risk":31,"cat":"amber"},{"name":"The New Albany","lat":52.40298,"lon":-1.5268,"postcode":"CV5 6JU","la":"Coventry","era":"other","nn":335,"risk":26,"cat":"green"},{"name":"The New Crow Bar & Grill","lat":52.42919,"lon":-1.50334,"postcode":"CV6 5NY","la":"Coventry","era":"mod","nn":139,"risk":25,"cat":"green"},{"name":"The New Haven","lat":52.38869,"lon":-1.50801,"postcode":"CV3 5DU","la":"Coventry","era":"other","nn":383,"risk":44,"cat":"amber"},{"name":"The New Horseshoe Bar & Grill","lat":52.43809,"lon":-1.49314,"postcode":"CV6 5HN","la":"Coventry","era":"other","nn":324,"risk":26,"cat":"green"},{"name":"The Newlands","lat":52.40297,"lon":-1.56869,"postcode":"CV4 9DJ","la":"Coventry","era":"other","nn":254,"risk":31,"cat":"amber"},{"name":"The Nugget","lat":52.43122,"lon":-1.54054,"postcode":"CV6 2AL","la":"Coventry","era":"other","nn":635,"risk":31,"cat":"amber"},{"name":"The Oak Inn","lat":52.40653,"lon":-1.50338,"postcode":"CV1 5DL","la":"Coventry","era":"trad","nn":33,"risk":24,"cat":"green"},{"name":"The Old Shepherd","lat":52.43375,"lon":-1.53112,"postcode":"CV6 2JJ","la":"Coventry","era":"other","nn":195,"risk":26,"cat":"green"},{"name":"The Old Windmill","lat":52.40829,"lon":-1.51695,"postcode":"CV1 3BA","la":"Coventry","era":"trad","nn":25,"risk":24,"cat":"green"},{"name":"The Painted Lady","lat":52.41105,"lon":-1.46466,"postcode":"CV2 5HN","la":"Coventry","era":"other","nn":524,"risk":28,"cat":"green"},{"name":"The Phoenix","lat":52.40648,"lon":-1.5029,"postcode":"CV1 5DL","la":"Coventry","era":"other","nn":33,"risk":24,"cat":"green"},{"name":"The Pilot","lat":52.43503,"lon":-1.51911,"postcode":"CV6 4AU","la":"Coventry","era":"other","nn":0,"risk":24,"cat":"green"},{"name":"The Premier Club","lat":52.43029,"lon":-1.50038,"postcode":"CV6 5NB","la":"Coventry","era":"other","nn":235,"risk":26,"cat":"green"},{"name":"The Royal Oak","lat":52.3987,"lon":-1.53307,"postcode":"CV5 6EJ","la":"Coventry","era":"trad","nn":82,"risk":25,"cat":"green"},{"name":"The Royal Oak","lat":52.39415,"lon":-1.49452,"postcode":"CV3 4AL","la":"Coventry","era":"trad","nn":747,"risk":49,"cat":"amber"},{"name":"The Sovereign","lat":52.39334,"lon":-1.5746,"postcode":"CV4 8DA","la":"Coventry","era":"other","nn":445,"risk":30,"cat":"green"},{"name":"The Spon Gate","lat":52.40784,"lon":-1.51862,"postcode":"CV1 3AZ","la":"Coventry","era":"other","nn":88,"risk":25,"cat":"green"},{"name":"The Town Wall Tavern","lat":52.40962,"lon":-1.51519,"postcode":"CV1 4AH","la":"Coventry","era":"other","nn":30,"risk":24,"cat":"green"},{"name":"The Unicorn","lat":52.41507,"lon":-1.5741,"postcode":"CV5 7LN","la":"Coventry","era":"other","nn":397,"risk":32,"cat":"amber"},{"name":"The Vale","lat":52.41375,"lon":-1.56865,"postcode":"CV5 7JN","la":"Coventry","era":"other","nn":397,"risk":32,"cat":"amber"},{"name":"The Varsity","lat":52.37444,"lon":-1.55245,"postcode":"CV4 7AJ","la":"Coventry","era":"other","nn":726,"risk":47,"cat":"amber"},{"name":"The Wallace","lat":52.432,"lon":-1.53127,"postcode":"CV6 2JF","la":"Coventry","era":"other","nn":195,"risk":26,"cat":"green"},{"name":"The Walsgrave","lat":52.41394,"lon":-1.47101,"postcode":"CV2 4AF","la":"Coventry","era":"other","nn":478,"risk":27,"cat":"green"},{"name":"The Wheatsheaf","lat":52.44061,"lon":-1.49075,"postcode":"CV6 6GS","la":"Coventry","era":"trad","nn":237,"risk":28,"cat":"green"},{"name":"The Yard","lat":52.40619,"lon":-1.51311,"postcode":"CV1 1LH","la":"Coventry","era":"mod","nn":103,"risk":25,"cat":"green"},{"name":"Three Spires Bowling Club","lat":52.39761,"lon":-1.52172,"postcode":"CV5 6PD","la":"Coventry","era":"other","nn":377,"risk":27,"cat":"green"},{"name":"Toby Carvery Binley","lat":52.40383,"lon":-1.44306,"postcode":"CV3 2DS","la":"Coventry","era":"other","nn":205,"risk":28,"cat":"green"},{"name":"Tollgate","lat":52.41741,"lon":-1.54386,"postcode":"CV5 8HU","la":"Coventry","era":"other","nn":564,"risk":28,"cat":"green"},{"name":"Town Crier","lat":52.40773,"lon":-1.51559,"postcode":"CV1 1PB","la":"Coventry","era":"other","nn":111,"risk":25,"cat":"green"},{"name":"Trinity Guild RFC","lat":52.38222,"lon":-1.52758,"postcode":"CV3 6EA","la":"Coventry","era":"other","nn":304,"risk":29,"cat":"green"},{"name":"Twisted Barrel Ale","lat":52.40749,"lon":-1.49386,"postcode":"CV1 5ED","la":"Coventry","era":"other","nn":32,"risk":24,"cat":"green"},{"name":"Ukrainian Social Club","lat":52.4185,"lon":-1.50381,"postcode":"CV1 4HL","la":"Coventry","era":"mod","nn":321,"risk":26,"cat":"green"},{"name":"Unicorn Social Club","lat":52.44162,"lon":-1.50924,"postcode":"CV6 4DE","la":"Coventry","era":"mod","nn":305,"risk":26,"cat":"green"},{"name":"Walsgrave Club","lat":52.42844,"lon":-1.44568,"postcode":"CV2 2EJ","la":"Coventry","era":"other","nn":404,"risk":44,"cat":"amber"},{"name":"Welcome Banqueting Suites","lat":52.42131,"lon":-1.49332,"postcode":"CV6 5EZ","la":"Coventry","era":"other","nn":0,"risk":24,"cat":"green"},{"name":"Westwood Club","lat":52.38563,"lon":-1.58098,"postcode":"CV4 8GP","la":"Coventry","era":"other","nn":0,"risk":29,"cat":"green"},{"name":"White Lion","lat":52.44177,"lon":-1.55649,"postcode":"CV5 9FQ","la":"Coventry","era":"trad","nn":1060,"risk":54,"cat":"amber"},{"name":"Willenhall Social Club & Institute","lat":52.38723,"lon":-1.46284,"postcode":"CV3 3BB","la":"Coventry","era":"mod","nn":541,"risk":45,"cat":"amber"},{"name":"Barlestone Bowls Club","lat":52.6454,"lon":-1.3725,"postcode":"CV13 0HU","la":"Hinckley and Bosworth","era":"other","nn":244,"risk":32,"cat":"amber"},{"name":"Barlestone St Giles Sports And Social Club","lat":52.64759,"lon":-1.37226,"postcode":"CV13 0EP","la":"Hinckley and Bosworth","era":"mod","nn":179,"risk":32,"cat":"amber"},{"name":"Hercules Revived","lat":52.6016,"lon":-1.38367,"postcode":"CV13 0AG","la":"Hinckley and Bosworth","era":"other","nn":0,"risk":46,"cat":"amber"},{"name":"La Bella Piazza","lat":52.62499,"lon":-1.40125,"postcode":"CV13 0JW","la":"Hinckley and Bosworth","era":"other","nn":86,"risk":31,"cat":"amber"},{"name":"Market Bosworth Bowling Club","lat":52.62318,"lon":-1.39888,"postcode":"CV13 0LS","la":"Hinckley and Bosworth","era":"other","nn":164,"risk":29,"cat":"green"},{"name":"Market Bosworth Rugby Football Club","lat":52.62422,"lon":-1.38427,"postcode":"CV13 0BA","la":"Hinckley and Bosworth","era":"other","nn":993,"risk":53,"cat":"amber"},{"name":"Mira Sports And Social Club","lat":52.55369,"lon":-1.46497,"postcode":"CV10 0TU","la":"Hinckley and Bosworth","era":"mod","nn":1394,"risk":58,"cat":"amber"},{"name":"Stoke Golding Liberal Club","lat":52.57093,"lon":-1.4081,"postcode":"CV13 6DZ","la":"Hinckley and Bosworth","era":"other","nn":405,"risk":33,"cat":"amber"},{"name":"The Black Horse","lat":52.61033,"lon":-1.51836,"postcode":"CV9 3QR","la":"Hinckley and Bosworth","era":"trad","nn":1972,"risk":62,"cat":"red"},{"name":"The Black Horse Restaurant","lat":52.62385,"lon":-1.40103,"postcode":"CV13 0LF","la":"Hinckley and Bosworth","era":"trad","nn":80,"risk":31,"cat":"amber"},{"name":"The Blue Lion","lat":52.57348,"lon":-1.52102,"postcode":"CV9 3NA","la":"Hinckley and Bosworth","era":"trad","nn":0,"risk":46,"cat":"amber"},{"name":"The Gate Hangs Well","lat":52.64425,"lon":-1.4093,"postcode":"CV13 0DB","la":"Hinckley and Bosworth","era":"other","nn":1680,"risk":60,"cat":"amber"},{"name":"The Gate Inn","lat":52.59266,"lon":-1.52076,"postcode":"CV9 3NY","la":"Hinckley and Bosworth","era":"trad","nn":1972,"risk":62,"cat":"red"},{"name":"The Gate Inn","lat":52.65063,"lon":-1.38673,"postcode":"CV13 0HP","la":"Hinckley and Bosworth","era":"trad","nn":1033,"risk":55,"cat":"amber"},{"name":"The George And Dragon","lat":52.57089,"lon":-1.41693,"postcode":"CV13 6EZ","la":"Hinckley and Bosworth","era":"trad","nn":244,"risk":32,"cat":"amber"},{"name":"The Red Lion","lat":52.64649,"lon":-1.36736,"postcode":"CV13 0DZ","la":"Hinckley and Bosworth","era":"trad","nn":175,"risk":32,"cat":"amber"},{"name":"The Rising Sun","lat":52.65677,"lon":-1.44773,"postcode":"CV13 6NN","la":"Hinckley and Bosworth","era":"other","nn":2943,"risk":69,"cat":"red"},{"name":"The Royal Arms","lat":52.6016,"lon":-1.38367,"postcode":"CV13 0AG","la":"Hinckley and Bosworth","era":"trad","nn":0,"risk":46,"cat":"amber"},{"name":"The Royal Redgate","lat":52.55921,"lon":-1.48349,"postcode":"CV10 0RY","la":"Hinckley and Bosworth","era":"trad","nn":1394,"risk":58,"cat":"amber"},{"name":"The Three Tuns Inn","lat":52.64718,"lon":-1.36969,"postcode":"CV13 0EJ","la":"Hinckley and Bosworth","era":"trad","nn":175,"risk":32,"cat":"amber"},{"name":"The White Swan","lat":52.57202,"lon":-1.41383,"postcode":"CV13 6HE","la":"Hinckley and Bosworth","era":"trad","nn":0,"risk":31,"cat":"amber"},{"name":"Three Horseshoes","lat":52.57202,"lon":-1.41383,"postcode":"CV13 6HE","la":"Hinckley and Bosworth","era":"trad","nn":0,"risk":31,"cat":"amber"},{"name":"Unicorn Inn","lat":52.63257,"lon":-1.54597,"postcode":"CV9 3NN","la":"Hinckley and Bosworth","era":"trad","nn":2520,"risk":66,"cat":"red"},{"name":"Witherley United Football Club","lat":52.57348,"lon":-1.52102,"postcode":"CV9 3NA","la":"Hinckley and Bosworth","era":"other","nn":0,"risk":46,"cat":"amber"},{"name":"Ye Olde Red Lion","lat":52.62444,"lon":-1.40035,"postcode":"CV13 0LL","la":"Hinckley and Bosworth","era":"trad","nn":80,"risk":31,"cat":"amber"},{"name":"Atherstone Conservative Club","lat":52.57639,"lon":-1.54375,"postcode":"CV9 1AD","la":"North Warwickshire","era":"other","nn":20,"risk":32,"cat":"amber"},{"name":"Atherstone Golf Club","lat":52.56804,"lon":-1.54747,"postcode":"CV9 2RL","la":"North Warwickshire","era":"other","nn":635,"risk":36,"cat":"amber"},{"name":"Atherstone Town F.C.","lat":52.58465,"lon":-1.54804,"postcode":"CV9 3AD","la":"North Warwickshire","era":"other","nn":737,"risk":37,"cat":"amber"},{"name":"Baddesley Ensor Social Club","lat":52.57933,"lon":-1.60163,"postcode":"CV9 2DN","la":"North Warwickshire","era":"mod","nn":1453,"risk":64,"cat":"red"},{"name":"Corley Cricket Club","lat":52.45929,"lon":-1.55419,"postcode":"CV7 8AA","la":"North Warwickshire","era":"other","nn":1851,"risk":67,"cat":"red"},{"name":"Fillongley Cricket Club","lat":52.48762,"lon":-1.60121,"postcode":"CV7 8EG","la":"North Warwickshire","era":"other","nn":1153,"risk":62,"cat":"red"},{"name":"Fir Tree Inn","lat":52.50664,"lon":-1.57229,"postcode":"CV7 8GW","la":"North Warwickshire","era":"trad","nn":2882,"risk":74,"cat":"red"},{"name":"Grendon Working Mens Club","lat":52.59166,"lon":-1.59451,"postcode":"CV9 2PZ","la":"North Warwickshire","era":"trad","nn":1453,"risk":64,"cat":"red"},{"name":"Hartshill Sports and social club","lat":52.53761,"lon":-1.51859,"postcode":"CV10 0LS","la":"North Warwickshire","era":"other","nn":266,"risk":39,"cat":"amber"},{"name":"Hat and Beaver","lat":52.57656,"lon":-1.54368,"postcode":"CV9 1AF","la":"North Warwickshire","era":"other","nn":20,"risk":32,"cat":"amber"},{"name":"Maid Of The Mill","lat":52.57359,"lon":-1.54966,"postcode":"CV9 2AB","la":"North Warwickshire","era":"trad","nn":462,"risk":35,"cat":"amber"},{"name":"Market Tavern","lat":52.57808,"lon":-1.54605,"postcode":"CV9 1ET","la":"North Warwickshire","era":"other","nn":39,"risk":32,"cat":"amber"},{"name":"Royal Oak Hartshill","lat":52.54186,"lon":-1.52275,"postcode":"CV10 0TD","la":"North Warwickshire","era":"trad","nn":550,"risk":41,"cat":"amber"},{"name":"SBV Pixies Ltd T/A Old Swan","lat":52.57593,"lon":-1.54236,"postcode":"CV9 1AH","la":"North Warwickshire","era":"trad","nn":108,"risk":32,"cat":"amber"},{"name":"The Anchor Inn","lat":52.5677,"lon":-1.64554,"postcode":"CV9 2LR","la":"North Warwickshire","era":"trad","nn":1616,"risk":66,"cat":"red"},{"name":"The Legion","lat":52.57779,"lon":-1.54638,"postcode":"CV9 1ET","la":"North Warwickshire","era":"other","nn":39,"risk":32,"cat":"amber"},{"name":"The Manor House","lat":52.48104,"lon":-1.58805,"postcode":"CV7 8ET","la":"North Warwickshire","era":"other","nn":1153,"risk":62,"cat":"red"},{"name":"The Wheatsheaf","lat":52.57809,"lon":-1.54958,"postcode":"CV9 1AY","la":"North Warwickshire","era":"trad","nn":181,"risk":33,"cat":"amber"},{"name":"The White Horse","lat":52.57687,"lon":-1.54547,"postcode":"CV9 1AB","la":"North Warwickshire","era":"trad","nn":119,"risk":33,"cat":"amber"},{"name":"The Wine Bar","lat":52.57796,"lon":-1.54691,"postcode":"CV9 1HA","la":"North Warwickshire","era":"other","nn":40,"risk":32,"cat":"amber"},{"name":"White Hart Inn","lat":52.55205,"lon":-1.57024,"postcode":"CV10 0RB","la":"North Warwickshire","era":"trad","nn":2352,"risk":71,"cat":"red"},{"name":"Wood End Working Mens Club","lat":52.58215,"lon":-1.6429,"postcode":"CV9 2QH","la":"North Warwickshire","era":"trad","nn":1616,"risk":66,"cat":"red"},{"name":"Abbey Theatre","lat":52.52284,"lon":-1.47381,"postcode":"CV11 5DB","la":"Nuneaton and Bedworth","era":"trad","nn":52,"risk":27,"cat":"green"},{"name":"Access Catering @ Nuneaton Golf Club","lat":52.50845,"lon":-1.42142,"postcode":"CV11 6QF","la":"Nuneaton and Bedworth","era":"other","nn":659,"risk":51,"cat":"amber"},{"name":"Alties","lat":52.47943,"lon":-1.48192,"postcode":"CV12 8QP","la":"Nuneaton and Bedworth","era":"other","nn":285,"risk":28,"cat":"green"},{"name":"Ambleside Club","lat":52.53375,"lon":-1.44802,"postcode":"CV11 6AT","la":"Nuneaton and Bedworth","era":"other","nn":428,"risk":34,"cat":"amber"},{"name":"Atack Snooker Club","lat":52.5244,"lon":-1.46244,"postcode":"CV11 4BL","la":"Nuneaton and Bedworth","era":"other","nn":220,"risk":28,"cat":"green"},{"name":"Attleborough Arms","lat":52.51532,"lon":-1.45565,"postcode":"CV11 4PL","la":"Nuneaton and Bedworth","era":"trad","nn":224,"risk":28,"cat":"green"},{"name":"Attleborough Liberal Club","lat":52.51344,"lon":-1.45688,"postcode":"CV11 4JX","la":"Nuneaton and Bedworth","era":"other","nn":72,"risk":27,"cat":"green"},{"name":"Attleborough Sports Club","lat":52.51094,"lon":-1.45382,"postcode":"CV11 4RD","la":"Nuneaton and Bedworth","era":"other","nn":294,"risk":28,"cat":"green"},{"name":"Bedworth Civic Hall","lat":52.47872,"lon":-1.47157,"postcode":"CV12 8NF","la":"Nuneaton and Bedworth","era":"other","nn":102,"risk":27,"cat":"green"},{"name":"Bedworth Conservative Club","lat":52.47674,"lon":-1.4729,"postcode":"CV12 8NN","la":"Nuneaton and Bedworth","era":"other","nn":0,"risk":26,"cat":"green"},{"name":"Bedworth Liberal Club","lat":52.47963,"lon":-1.47176,"postcode":"CV12 8HT","la":"Nuneaton and Bedworth","era":"other","nn":46,"risk":26,"cat":"green"},{"name":"Bedworth United Football Club","lat":52.47674,"lon":-1.4729,"postcode":"CV12 8NN","la":"Nuneaton and Bedworth","era":"other","nn":0,"risk":26,"cat":"green"},{"name":"Bulkington Sports & Social Club","lat":52.47824,"lon":-1.42621,"postcode":"CV12 9PZ","la":"Nuneaton and Bedworth","era":"other","nn":268,"risk":31,"cat":"amber"},{"name":"Bulkington Working Mens Club & Institute","lat":52.47538,"lon":-1.42551,"postcode":"CV12 9NH","la":"Nuneaton and Bedworth","era":"trad","nn":0,"risk":29,"cat":"green"},{"name":"Chilvers Coton Conservative Club","lat":52.51474,"lon":-1.46979,"postcode":"CV11 5UD","la":"Nuneaton and Bedworth","era":"other","nn":99,"risk":27,"cat":"green"},{"name":"CJ's Restaurant and Bar","lat":52.51564,"lon":-1.49866,"postcode":"CV10 7NJ","la":"Nuneaton and Bedworth","era":"other","nn":0,"risk":26,"cat":"green"},{"name":"Collycroft W M C","lat":52.48463,"lon":-1.47419,"postcode":"CV12 8AG","la":"Nuneaton and Bedworth","era":"other","nn":181,"risk":27,"cat":"green"},{"name":"Coniston Tavern","lat":52.53512,"lon":-1.44211,"postcode":"CV11 6JT","la":"Nuneaton and Bedworth","era":"other","nn":428,"risk":32,"cat":"amber"},{"name":"Coton Sports & Social Club","lat":52.51563,"lon":-1.46968,"postcode":"CV11 5SQ","la":"Nuneaton and Bedworth","era":"mod","nn":99,"risk":27,"cat":"green"},{"name":"Coventry Welsh RFC","lat":52.45309,"lon":-1.50308,"postcode":"CV6 6AY","la":"Nuneaton and Bedworth","era":"other","nn":484,"risk":47,"cat":"amber"},{"name":"Cuisine queens","lat":52.51823,"lon":-1.51411,"postcode":"CV10 8LT","la":"Nuneaton and Bedworth","era":"trad","nn":613,"risk":30,"cat":"green"},{"name":"Fife Street Social Club","lat":52.52286,"lon":-1.47802,"postcode":"CV11 5PW","la":"Nuneaton and Bedworth","era":"mod","nn":154,"risk":27,"cat":"green"},{"name":"Fuel Bar","lat":52.51328,"lon":-1.45585,"postcode":"CV11 4JY","la":"Nuneaton and Bedworth","era":"other","nn":0,"risk":26,"cat":"green"},{"name":"Ghetto Grub uk","lat":52.51559,"lon":-1.50615,"postcode":"CV10 7NQ","la":"Nuneaton and Bedworth","era":"other","nn":0,"risk":26,"cat":"green"},{"name":"Griff & Coton Sports and Miners Welfare Charity","lat":52.51361,"lon":-1.47586,"postcode":"CV10 7JQ","la":"Nuneaton and Bedworth","era":"other","nn":0,"risk":26,"cat":"green"},{"name":"Griff House Beefeater & Premier Inn","lat":52.49509,"lon":-1.47392,"postcode":"CV10 7PJ","la":"Nuneaton and Bedworth","era":"other","nn":0,"risk":29,"cat":"green"},{"name":"Hare & Hounds","lat":52.51376,"lon":-1.48473,"postcode":"CV10 7JA","la":"Nuneaton and Bedworth","era":"trad","nn":600,"risk":30,"cat":"green"},{"name":"Haunchwood Sports and Social Club","lat":52.5239,"lon":-1.53534,"postcode":"CV10 9NH","la":"Nuneaton and Bedworth","era":"mod","nn":1307,"risk":58,"cat":"amber"},{"name":"Hearty Goodfellow","lat":52.51559,"lon":-1.50615,"postcode":"CV10 7NQ","la":"Nuneaton and Bedworth","era":"other","nn":0,"risk":26,"cat":"green"},{"name":"Jacks Entertainment Ltd","lat":52.47947,"lon":-1.46998,"postcode":"CV12 8JQ","la":"Nuneaton and Bedworth","era":"other","nn":77,"risk":27,"cat":"green"},{"name":"Lord Hop","lat":52.52243,"lon":-1.47137,"postcode":"CV11 5JX","la":"Nuneaton and Bedworth","era":"other","nn":124,"risk":27,"cat":"green"},{"name":"Lucky Break Sports Bar","lat":52.52201,"lon":-1.47981,"postcode":"CV11 5LR","la":"Nuneaton and Bedworth","era":"other","nn":154,"risk":27,"cat":"green"},{"name":"Masonic Buildings","lat":52.52376,"lon":-1.46666,"postcode":"CV11 4EZ","la":"Nuneaton and Bedworth","era":"trad","nn":28,"risk":26,"cat":"green"},{"name":"Middlemarch Farm","lat":52.49753,"lon":-1.48374,"postcode":"CV10 7SE","la":"Nuneaton and Bedworth","era":"other","nn":718,"risk":49,"cat":"amber"},{"name":"Midland Railway","lat":52.52388,"lon":-1.50954,"postcode":"CV10 9HU","la":"Nuneaton and Bedworth","era":"trad","nn":0,"risk":26,"cat":"green"},{"name":"Miners Arms","lat":52.52388,"lon":-1.50954,"postcode":"CV10 9HU","la":"Nuneaton and Bedworth","era":"trad","nn":0,"risk":26,"cat":"green"},{"name":"Miners Arms","lat":52.48681,"lon":-1.47223,"postcode":"CV12 8DH","la":"Nuneaton and Bedworth","era":"trad","nn":236,"risk":28,"cat":"green"},{"name":"Newdigate Colliery & District Sports & Social Club","lat":52.47402,"lon":-1.49984,"postcode":"CV12 0JP","la":"Nuneaton and Bedworth","era":"mod","nn":793,"risk":49,"cat":"amber"},{"name":"Nuneaton Bowling Club","lat":52.5316,"lon":-1.45354,"postcode":"CV11 6AX","la":"Nuneaton and Bedworth","era":"other","nn":443,"risk":29,"cat":"green"},{"name":"Nuneaton Rugby Club","lat":52.52024,"lon":-1.44312,"postcode":"CV11 6RR","la":"Nuneaton and Bedworth","era":"other","nn":778,"risk":52,"cat":"amber"},{"name":"Old Black Bank","lat":52.47362,"lon":-1.47712,"postcode":"CV7 9NY","la":"Nuneaton and Bedworth","era":"other","nn":325,"risk":28,"cat":"green"},{"name":"Old Edwardians R F C","lat":52.53333,"lon":-1.46525,"postcode":"CV10 0HF","la":"Nuneaton and Bedworth","era":"other","nn":281,"risk":31,"cat":"amber"},{"name":"Palace Bingo","lat":52.48311,"lon":-1.47319,"postcode":"CV12 8AB","la":"Nuneaton and Bedworth","era":"other","nn":65,"risk":27,"cat":"green"},{"name":"Plough Inn","lat":52.53444,"lon":-1.52679,"postcode":"CV10 9NY","la":"Nuneaton and Bedworth","era":"trad","nn":391,"risk":34,"cat":"amber"},{"name":"Popworld","lat":52.52243,"lon":-1.46526,"postcode":"CV11 4AD","la":"Nuneaton and Bedworth","era":"other","nn":134,"risk":27,"cat":"green"},{"name":"Prince of Wales","lat":52.47848,"lon":-1.46253,"postcode":"CV12 9DT","la":"Nuneaton and Bedworth","era":"trad","nn":165,"risk":27,"cat":"green"},{"name":"Royal Oak Inn","lat":52.46536,"lon":-1.51036,"postcode":"CV12 0JB","la":"Nuneaton and Bedworth","era":"trad","nn":966,"risk":53,"cat":"amber"},{"name":"Rule & Compass","lat":52.47601,"lon":-1.42472,"postcode":"CV12 9NG","la":"Nuneaton and Bedworth","era":"other","nn":88,"risk":29,"cat":"green"},{"name":"Salutation Inn","lat":52.53619,"lon":-1.52177,"postcode":"CV10 0PB","la":"Nuneaton and Bedworth","era":"trad","nn":266,"risk":33,"cat":"amber"},{"name":"Stockingford Sports & Social Club","lat":52.51564,"lon":-1.49866,"postcode":"CV10 7NJ","la":"Nuneaton and Bedworth","era":"other","nn":0,"risk":26,"cat":"green"},{"name":"The Acorn","lat":52.52662,"lon":-1.43842,"postcode":"CV11 6GU","la":"Nuneaton and Bedworth","era":"other","nn":341,"risk":34,"cat":"amber"},{"name":"The Anker Inn","lat":52.53054,"lon":-1.46276,"postcode":"CV10 0AN","la":"Nuneaton and Bedworth","era":"trad","nn":353,"risk":29,"cat":"green"},{"name":"The Arches","lat":52.51228,"lon":-1.46744,"postcode":"CV11 4NL","la":"Nuneaton and Bedworth","era":"other","nn":317,"risk":28,"cat":"green"},{"name":"The Bear & Ragged Staff","lat":52.47963,"lon":-1.47108,"postcode":"CV12 8JA","la":"Nuneaton and Bedworth","era":"other","nn":46,"risk":26,"cat":"green"},{"name":"The Black Swan in Hand","lat":52.52363,"lon":-1.46543,"postcode":"CV11 4AL","la":"Nuneaton and Bedworth","era":"trad","nn":68,"risk":27,"cat":"green"},{"name":"The Blue Bear","lat":52.52371,"lon":-1.47075,"postcode":"CV11 5BT","la":"Nuneaton and Bedworth","era":"other","nn":126,"risk":27,"cat":"green"},{"name":"The Bull and Anchor","lat":52.45722,"lon":-1.50536,"postcode":"CV7 9HN","la":"Nuneaton and Bedworth","era":"trad","nn":484,"risk":35,"cat":"amber"},{"name":"The Chestnuts Club","lat":52.52742,"lon":-1.45932,"postcode":"CV10 0AB","la":"Nuneaton and Bedworth","era":"other","nn":396,"risk":29,"cat":"green"},{"name":"The Chetwynd Arms","lat":52.49977,"lon":-1.43208,"postcode":"CV11 4TF","la":"Nuneaton and Bedworth","era":"trad","nn":459,"risk":47,"cat":"amber"},{"name":"The Corner House","lat":52.49571,"lon":-1.43327,"postcode":"CV12 9SB","la":"Nuneaton and Bedworth","era":"other","nn":459,"risk":49,"cat":"amber"},{"name":"The Crew Nuneaton LTD","lat":52.52256,"lon":-1.47319,"postcode":"CV11 5LA","la":"Nuneaton and Bedworth","era":"other","nn":52,"risk":27,"cat":"green"},{"name":"The Crows Nest","lat":52.50857,"lon":-1.43981,"postcode":"CV11 6PJ","la":"Nuneaton and Bedworth","era":"other","nn":730,"risk":49,"cat":"amber"},{"name":"The Felix Holt","lat":52.52316,"lon":-1.46913,"postcode":"CV11 5BS","la":"Nuneaton and Bedworth","era":"other","nn":126,"risk":27,"cat":"green"},{"name":"The Fox Inn","lat":52.51328,"lon":-1.45585,"postcode":"CV11 4JY","la":"Nuneaton and Bedworth","era":"trad","nn":0,"risk":26,"cat":"green"},{"name":"The Fuzzy Duck British Indian Kitchen","lat":52.5175,"lon":-1.45928,"postcode":"CV11 4JQ","la":"Nuneaton and Bedworth","era":"mod","nn":345,"risk":29,"cat":"green"},{"name":"The Griffin","lat":52.49509,"lon":-1.47392,"postcode":"CV10 7PJ","la":"Nuneaton and Bedworth","era":"trad","nn":0,"risk":29,"cat":"green"},{"name":"The Horseshoes","lat":52.51361,"lon":-1.47586,"postcode":"CV10 7JQ","la":"Nuneaton and Bedworth","era":"trad","nn":0,"risk":26,"cat":"green"},{"name":"The Lamb & Flag","lat":52.52243,"lon":-1.50803,"postcode":"CV10 8LJ","la":"Nuneaton and Bedworth","era":"other","nn":190,"risk":27,"cat":"green"},{"name":"The Mount Pleasant","lat":52.48265,"lon":-1.47379,"postcode":"CV12 8BU","la":"Nuneaton and Bedworth","era":"other","nn":65,"risk":27,"cat":"green"},{"name":"The Newdigate Arms","lat":52.48199,"lon":-1.48211,"postcode":"CV12 8EF","la":"Nuneaton and Bedworth","era":"trad","nn":285,"risk":28,"cat":"green"},{"name":"The Old Royal Oak","lat":52.48887,"lon":-1.47305,"postcode":"CV12 8AP","la":"Nuneaton and Bedworth","era":"trad","nn":236,"risk":28,"cat":"green"},{"name":"The Olde Chequers Inn","lat":52.47538,"lon":-1.42551,"postcode":"CV12 9NH","la":"Nuneaton and Bedworth","era":"trad","nn":0,"risk":29,"cat":"green"},{"name":"The Plough Inn","lat":52.47595,"lon":-1.51111,"postcode":"CV12 0LG","la":"Nuneaton and Bedworth","era":"trad","nn":793,"risk":52,"cat":"amber"},{"name":"The Rose Inn","lat":52.51909,"lon":-1.46743,"postcode":"CV11 5TW","la":"Nuneaton and Bedworth","era":"trad","nn":399,"risk":29,"cat":"green"},{"name":"The Royal Oak","lat":52.51559,"lon":-1.50615,"postcode":"CV10 7NQ","la":"Nuneaton and Bedworth","era":"trad","nn":0,"risk":26,"cat":"green"},{"name":"The Royal Oak","lat":52.51328,"lon":-1.45585,"postcode":"CV11 4JY","la":"Nuneaton and Bedworth","era":"trad","nn":0,"risk":26,"cat":"green"},{"name":"The Saunders","lat":52.47702,"lon":-1.47628,"postcode":"CV12 8RJ","la":"Nuneaton and Bedworth","era":"other","nn":61,"risk":27,"cat":"green"},{"name":"The Saunders Club","lat":52.47654,"lon":-1.47672,"postcode":"CV12 8RJ","la":"Nuneaton and Bedworth","era":"other","nn":61,"risk":27,"cat":"green"},{"name":"The Silk Mill","lat":52.52356,"lon":-1.46643,"postcode":"CV11 4EU","la":"Nuneaton and Bedworth","era":"trad","nn":28,"risk":26,"cat":"green"},{"name":"The Sunnyside","lat":52.51922,"lon":-1.49202,"postcode":"CV10 8ER","la":"Nuneaton and Bedworth","era":"other","nn":399,"risk":29,"cat":"green"},{"name":"The Whitestone","lat":52.50573,"lon":-1.43008,"postcode":"CV11 6NF","la":"Nuneaton and Bedworth","era":"other","nn":659,"risk":36,"cat":"amber"},{"name":"Travellers Rest","lat":52.47869,"lon":-1.46554,"postcode":"CV12 9DG","la":"Nuneaton and Bedworth","era":"other","nn":135,"risk":27,"cat":"green"},{"name":"Trent Valley House WMC","lat":52.47958,"lon":-1.46418,"postcode":"CV12 9DL","la":"Nuneaton and Bedworth","era":"mod","nn":135,"risk":27,"cat":"green"},{"name":"Weavers Arms","lat":52.479,"lon":-1.41443,"postcode":"CV12 9JZ","la":"Nuneaton and Bedworth","era":"trad","nn":772,"risk":34,"cat":"amber"},{"name":"Weddington Social Club","lat":52.53581,"lon":-1.4661,"postcode":"CV10 0ER","la":"Nuneaton and Bedworth","era":"mod","nn":281,"risk":33,"cat":"amber"},{"name":"White Lion","lat":52.51583,"lon":-1.49398,"postcode":"CV10 7DZ","la":"Nuneaton and Bedworth","era":"trad","nn":318,"risk":28,"cat":"green"},{"name":"Woodlands Working Mens Club","lat":52.48072,"lon":-1.4913,"postcode":"CV12 0AB","la":"Nuneaton and Bedworth","era":"trad","nn":638,"risk":36,"cat":"amber"},{"name":"Yeoman Harvester","lat":52.52969,"lon":-1.43863,"postcode":"CV11 6EN","la":"Nuneaton and Bedworth","era":"trad","nn":341,"risk":34,"cat":"amber"},{"name":"Ansty (Warwickshire) Club & Institute Limited","lat":52.44673,"lon":-1.40461,"postcode":"CV7 9JD","la":"Rugby","era":"other","nn":0,"risk":47,"cat":"amber"},{"name":"BAR8","lat":52.37349,"lon":-1.25997,"postcode":"CV21 2QE","la":"Rugby","era":"other","nn":33,"risk":27,"cat":"green"},{"name":"Black Swan","lat":52.37246,"lon":-1.26288,"postcode":"CV21 3EB","la":"Rugby","era":"trad","nn":65,"risk":27,"cat":"green"},{"name":"Blacksmith Arms","lat":52.36548,"lon":-1.43395,"postcode":"CV8 3EY","la":"Rugby","era":"trad","nn":2760,"risk":69,"cat":"red"},{"name":"Bramcote Driving Range Limited","lat":52.48826,"lon":-1.38879,"postcode":"CV11 6QJ","la":"Rugby","era":"trad","nn":1296,"risk":59,"cat":"amber"},{"name":"Brandon Club","lat":52.3842,"lon":-1.40031,"postcode":"CV8 3HW","la":"Rugby","era":"other","nn":279,"risk":46,"cat":"amber"},{"name":"Bull Rugby","lat":52.37155,"lon":-1.26338,"postcode":"CV21 3BX","la":"Rugby","era":"trad","nn":15,"risk":27,"cat":"green"},{"name":"Caldecott Arms","lat":52.37966,"lon":-1.30839,"postcode":"CV23 9AY","la":"Rugby","era":"trad","nn":25,"risk":47,"cat":"amber"},{"name":"Caldecott Park Bowls Club","lat":52.37784,"lon":-1.26139,"postcode":"CV21 2QU","la":"Rugby","era":"other","nn":367,"risk":30,"cat":"green"},{"name":"Crown Hotel","lat":52.37314,"lon":-1.26238,"postcode":"CV21 3DU","la":"Rugby","era":"trad","nn":16,"risk":27,"cat":"green"},{"name":"Essence of India Restaurant","lat":52.31812,"lon":-1.40249,"postcode":"CV23 9RH","la":"Rugby","era":"other","nn":3434,"risk":73,"cat":"red"},{"name":"Father and Boy Ltd","lat":52.37459,"lon":-1.27979,"postcode":"CV21 2JG","la":"Rugby","era":"other","nn":228,"risk":31,"cat":"amber"},{"name":"Get Golfing CIO","lat":52.44673,"lon":-1.40461,"postcode":"CV7 9JL","la":"Rugby","era":"other","nn":0,"risk":47,"cat":"amber"},{"name":"Hillmorton Ex-Servicemens Club","lat":52.35911,"lon":-1.22334,"postcode":"CV21 4EH","la":"Rugby","era":"other","nn":285,"risk":46,"cat":"amber"},{"name":"Lawford Arms","lat":52.37944,"lon":-1.30846,"postcode":"CV23 9AY","la":"Rugby","era":"trad","nn":25,"risk":47,"cat":"amber"},{"name":"MATI'S","lat":52.37191,"lon":-1.26252,"postcode":"CV21 3BG","la":"Rugby","era":"other","nn":58,"risk":27,"cat":"green"},{"name":"Newbold Crown","lat":52.39047,"lon":-1.28059,"postcode":"CV21 1HW","la":"Rugby","era":"trad","nn":315,"risk":49,"cat":"amber"},{"name":"Newbold Rugby Football club","lat":52.38825,"lon":-1.28347,"postcode":"CV21 1EZ","la":"Rugby","era":"other","nn":315,"risk":49,"cat":"amber"},{"name":"Oakfield Cricket Club","lat":52.36148,"lon":-1.24203,"postcode":"CV22 5LH","la":"Rugby","era":"trad","nn":695,"risk":49,"cat":"amber"},{"name":"Oakfield Park Social Club","lat":52.37013,"lon":-1.26982,"postcode":"CV22 7AL","la":"Rugby","era":"other","nn":288,"risk":29,"cat":"green"},{"name":"Old Lion Rugby","lat":52.40955,"lon":-1.29803,"postcode":"CV23 0HQ","la":"Rugby","era":"trad","nn":2428,"risk":66,"cat":"red"},{"name":"Pump Action Pub Company","lat":52.37167,"lon":-1.26329,"postcode":"CV21 3BX","la":"Rugby","era":"other","nn":15,"risk":27,"cat":"green"},{"name":"Quigleys Bar & On The Rocks Restaurant","lat":52.37362,"lon":-1.25953,"postcode":"CV21 2RS","la":"Rugby","era":"mod","nn":33,"risk":27,"cat":"green"},{"name":"Red Lion","lat":52.35867,"lon":-1.2192,"postcode":"CV21 4EG","la":"Rugby","era":"trad","nn":285,"risk":46,"cat":"amber"},{"name":"Rose And Crown","lat":52.37667,"lon":-1.39505,"postcode":"CV8 3HJ","la":"Rugby","era":"trad","nn":161,"risk":33,"cat":"amber"},{"name":"Royal Oak","lat":52.38177,"lon":-1.4013,"postcode":"CV8 3HR","la":"Rugby","era":"trad","nn":279,"risk":34,"cat":"amber"},{"name":"Rugby Cricket Club","lat":52.37077,"lon":-1.27695,"postcode":"CV22 7AU","la":"Rugby","era":"other","nn":291,"risk":29,"cat":"green"},{"name":"Rugby Golf Club Limited","lat":52.37614,"lon":-1.23815,"postcode":"CV21 3RD","la":"Rugby","era":"other","nn":250,"risk":46,"cat":"amber"},{"name":"Rugby Irish Association","lat":52.37291,"lon":-1.25846,"postcode":"CV21 2TX","la":"Rugby","era":"other","nn":55,"risk":27,"cat":"green"},{"name":"Rugby Railway Club","lat":52.36711,"lon":-1.24647,"postcode":"CV22 5AL","la":"Rugby","era":"trad","nn":695,"risk":37,"cat":"amber"},{"name":"Rugby Theatre Society","lat":52.37415,"lon":-1.26024,"postcode":"CV21 2QA","la":"Rugby","era":"mod","nn":22,"risk":27,"cat":"green"},{"name":"Rugby West Indian Association","lat":52.37506,"lon":-1.25604,"postcode":"CV21 3HE","la":"Rugby","era":"other","nn":88,"risk":28,"cat":"green"},{"name":"Rugby Workers Club Ltd","lat":52.37312,"lon":-1.26901,"postcode":"CV21 2ET","la":"Rugby","era":"other","nn":312,"risk":29,"cat":"green"},{"name":"Seven Stars","lat":52.37494,"lon":-1.25732,"postcode":"CV21 2SH","la":"Rugby","era":"other","nn":88,"risk":28,"cat":"green"},{"name":"Shilton Sports & Social Club","lat":52.45839,"lon":-1.41041,"postcode":"CV7 9JQ","la":"Rugby","era":"mod","nn":378,"risk":50,"cat":"amber"},{"name":"Squirrel Inn","lat":52.37248,"lon":-1.259,"postcode":"CV21 3PU","la":"Rugby","era":"trad","nn":60,"risk":27,"cat":"green"},{"name":"St Thomas' Cross","lat":52.39334,"lon":-1.22174,"postcode":"CV23 0DN","la":"Rugby","era":"trad","nn":621,"risk":51,"cat":"amber"},{"name":"The Bank","lat":52.37355,"lon":-1.26053,"postcode":"CV21 2QE","la":"Rugby","era":"other","nn":39,"risk":27,"cat":"green"},{"name":"The Bear","lat":52.36724,"lon":-1.30186,"postcode":"CV23 9DU","la":"Rugby","era":"other","nn":1136,"risk":57,"cat":"amber"},{"name":"The Black Horse Inn","lat":52.35905,"lon":-1.29186,"postcode":"CV22 7LZ","la":"Rugby","era":"trad","nn":127,"risk":45,"cat":"amber"},{"name":"The Bulls Head","lat":52.40977,"lon":-1.36362,"postcode":"CV23 0NE","la":"Rugby","era":"trad","nn":197,"risk":46,"cat":"amber"},{"name":"The Clifton Inn","lat":52.37464,"lon":-1.2409,"postcode":"CV21 3QZ","la":"Rugby","era":"trad","nn":250,"risk":34,"cat":"amber"},{"name":"The Courthouse","lat":52.37463,"lon":-1.26262,"postcode":"CV21 2AG","la":"Rugby","era":"other","nn":137,"risk":28,"cat":"green"},{"name":"The Crow Pie","lat":52.36533,"lon":-1.28385,"postcode":"CV22 7DX","la":"Rugby","era":"other","nn":765,"risk":37,"cat":"amber"},{"name":"The Denbigh Arms","lat":52.44359,"lon":-1.31981,"postcode":"CV23 0QX","la":"Rugby","era":"trad","nn":4064,"risk":78,"cat":"red"},{"name":"The Distillery Bar and Kitchen","lat":52.37343,"lon":-1.26218,"postcode":"CV21 2AL","la":"Rugby","era":"mod","nn":27,"risk":27,"cat":"green"},{"name":"The Dun Cow","lat":52.33731,"lon":-1.28961,"postcode":"CV22 6NJ","la":"Rugby","era":"other","nn":80,"risk":47,"cat":"amber"},{"name":"The George","lat":52.35962,"lon":-1.29023,"postcode":"CV22 7LY","la":"Rugby","era":"trad","nn":127,"risk":45,"cat":"amber"},{"name":"The Green Man","lat":52.33668,"lon":-1.28903,"postcode":"CV22 6NS","la":"Rugby","era":"other","nn":80,"risk":47,"cat":"amber"},{"name":"The Griffin","lat":52.3625,"lon":-1.26645,"postcode":"CV22 5NT","la":"Rugby","era":"trad","nn":761,"risk":35,"cat":"amber"},{"name":"The Half Moon Wolston","lat":52.3753,"lon":-1.39583,"postcode":"CV8 3HB","la":"Rugby","era":"other","nn":161,"risk":46,"cat":"amber"},{"name":"The Holly Bush Inn","lat":52.37339,"lon":-1.27708,"postcode":"CV21 2HR","la":"Rugby","era":"trad","nn":228,"risk":29,"cat":"green"},{"name":"The Lawrence Sheriff","lat":52.37092,"lon":-1.26308,"postcode":"CV21 3BW","la":"Rugby","era":"other","nn":72,"risk":27,"cat":"green"},{"name":"the oak and black dog","lat":52.34965,"lon":-1.40116,"postcode":"CV23 9LY","la":"Rugby","era":"trad","nn":2839,"risk":69,"cat":"red"},{"name":"The Old Olive Bush","lat":52.26713,"lon":-1.24558,"postcode":"CV23 8AT","la":"Rugby","era":"other","nn":3095,"risk":71,"cat":"red"},{"name":"The Paddox Bar and Grill","lat":52.35819,"lon":-1.22839,"postcode":"CV22 5EY","la":"Rugby","era":"mod","nn":358,"risk":34,"cat":"amber"},{"name":"The Raglan Arms","lat":52.36928,"lon":-1.26496,"postcode":"CV22 6AD","la":"Rugby","era":"trad","nn":209,"risk":28,"cat":"green"},{"name":"The Raven","lat":52.41217,"lon":-1.36034,"postcode":"CV23 0LN","la":"Rugby","era":"other","nn":163,"risk":46,"cat":"amber"},{"name":"The Roseycombe","lat":52.39468,"lon":-1.42033,"postcode":"CV3 2AY","la":"Rugby","era":"other","nn":1718,"risk":61,"cat":"red"},{"name":"The Rupert Brooke","lat":52.37305,"lon":-1.25923,"postcode":"CV21 2TP","la":"Rugby","era":"other","nn":55,"risk":27,"cat":"green"},{"name":"The Shilton Arms","lat":52.45591,"lon":-1.40661,"postcode":"CV7 9HX","la":"Rugby","era":"trad","nn":378,"risk":50,"cat":"amber"},{"name":"The Shoulder of Mutton","lat":52.29747,"lon":-1.28102,"postcode":"CV23 8DN","la":"Rugby","era":"other","nn":4029,"risk":78,"cat":"red"},{"name":"The Stag And Pheasant","lat":52.39891,"lon":-1.22109,"postcode":"CV23 0DY","la":"Rugby","era":"trad","nn":621,"risk":51,"cat":"amber"},{"name":"The Town and County Club","lat":52.374,"lon":-1.26002,"postcode":"CV21 2QA","la":"Rugby","era":"other","nn":22,"risk":27,"cat":"green"},{"name":"THE WINDMILL INN","lat":52.37327,"lon":-1.26247,"postcode":"CV21 2AB","la":"Rugby","era":"trad","nn":16,"risk":27,"cat":"green"},{"name":"V.S. Rugby Football Club Limited","lat":52.37302,"lon":-1.23613,"postcode":"CV21 3SB","la":"Rugby","era":"other","nn":370,"risk":35,"cat":"amber"},{"name":"Waterside","lat":52.35558,"lon":-1.20087,"postcode":"CV21 4PW","la":"Rugby","era":"other","nn":1291,"risk":58,"cat":"amber"},{"name":"White Lion Inn","lat":52.41082,"lon":-1.36129,"postcode":"CV23 0LN","la":"Rugby","era":"trad","nn":163,"risk":46,"cat":"amber"},{"name":"William Webb Ellis","lat":52.37108,"lon":-1.26587,"postcode":"CV21 3DH","la":"Rugby","era":"other","nn":177,"risk":28,"cat":"green"},{"name":"George In The Tree","lat":52.39973,"lon":-1.65594,"postcode":"CV7 7EX","la":"Solihull","era":"trad","nn":1033,"risk":57,"cat":"amber"},{"name":"Heart Of England Club","lat":52.43419,"lon":-1.6411,"postcode":"CV7 7LB","la":"Solihull","era":"other","nn":2787,"risk":69,"cat":"red"},{"name":"Railway Inn","lat":52.39561,"lon":-1.64207,"postcode":"CV7 7EF","la":"Solihull","era":"trad","nn":79,"risk":33,"cat":"amber"},{"name":"The Brickmakers Arms BC Ltd","lat":52.39431,"lon":-1.64356,"postcode":"CV7 7EG","la":"Solihull","era":"trad","nn":131,"risk":33,"cat":"amber"},{"name":"The Royal British Legion","lat":52.3949,"lon":-1.64188,"postcode":"CV7 7EF","la":"Solihull","era":"trad","nn":79,"risk":33,"cat":"amber"},{"name":"Tipperary Inn","lat":52.37332,"lon":-1.63363,"postcode":"CV8 1PW","la":"Solihull","era":"trad","nn":1821,"risk":62,"cat":"red"},{"name":"Toby Carvery Stonebridge - Malt Shovel","lat":52.44592,"lon":-1.68901,"postcode":"CV7 7HL","la":"Solihull","era":"other","nn":2514,"risk":67,"cat":"red"},{"name":"White Horse","lat":52.38761,"lon":-1.64675,"postcode":"CV7 7DT","la":"Solihull","era":"trad","nn":776,"risk":37,"cat":"amber"},{"name":"All Bar One","lat":52.298,"lon":-1.53713,"postcode":"CV37 6EX","la":"Stratford-on-Avon","era":"mod","nn":266,"risk":28,"cat":"green"},{"name":"Avenue Sports And Social Club","lat":52.20189,"lon":-1.72022,"postcode":"CV37 0HR","la":"Stratford-on-Avon","era":"mod","nn":342,"risk":33,"cat":"amber"},{"name":"Avon Bowling Club","lat":52.19059,"lon":-1.7004,"postcode":"CV37 7LS","la":"Stratford-on-Avon","era":"other","nn":0,"risk":26,"cat":"green"},{"name":"Avon Sports Bar","lat":52.19611,"lon":-1.71461,"postcode":"CV37 0AH","la":"Stratford-on-Avon","era":"other","nn":404,"risk":29,"cat":"green"},{"name":"Avon Valley Indoor Bowls Club","lat":52.19465,"lon":-1.48445,"postcode":"CV35 0RR","la":"Stratford-on-Avon","era":"other","nn":1477,"risk":59,"cat":"amber"},{"name":"Bearley Sports And Social Club","lat":52.24377,"lon":-1.7409,"postcode":"CV37 0SB","la":"Stratford-on-Avon","era":"mod","nn":2765,"risk":68,"cat":"red"},{"name":"Binton Social Club","lat":52.18787,"lon":-1.80074,"postcode":"CV37 9TU","la":"Stratford-on-Avon","era":"mod","nn":843,"risk":52,"cat":"amber"},{"name":"Black Horse","lat":52.06577,"lon":-1.6254,"postcode":"CV36 4BT","la":"Stratford-on-Avon","era":"trad","nn":16,"risk":28,"cat":"green"},{"name":"Bowling Green Inn","lat":52.25422,"lon":-1.38745,"postcode":"CV47 0EP","la":"Stratford-on-Avon","era":"trad","nn":126,"risk":44,"cat":"amber"},{"name":"Caffeine And Machine Ltd","lat":52.14982,"lon":-1.62995,"postcode":"CV37 7NS","la":"Stratford-on-Avon","era":"other","nn":2364,"risk":65,"cat":"red"},{"name":"Claverdon Rugby Football Club","lat":52.28859,"lon":-1.72834,"postcode":"CV35 8HN","la":"Stratford-on-Avon","era":"other","nn":3487,"risk":73,"cat":"red"},{"name":"Clifford Chambers Working Mens Club","lat":52.16888,"lon":-1.71411,"postcode":"CV37 8HR","la":"Stratford-on-Avon","era":"trad","nn":0,"risk":46,"cat":"amber"},{"name":"Coach And Horses","lat":52.06111,"lon":-1.62426,"postcode":"CV36 4EN","la":"Stratford-on-Avon","era":"trad","nn":204,"risk":30,"cat":"green"},{"name":"Community Centre","lat":52.28128,"lon":-1.38792,"postcode":"CV47 9QP","la":"Stratford-on-Avon","era":"other","nn":423,"risk":29,"cat":"green"},{"name":"Cox's Yard","lat":52.19357,"lon":-1.70176,"postcode":"CV37 6YY","la":"Stratford-on-Avon","era":"mod","nn":0,"risk":26,"cat":"green"},{"name":"G S Catering","lat":52.16687,"lon":-1.78999,"postcode":"CV37 8EW","la":"Stratford-on-Avon","era":"other","nn":654,"risk":48,"cat":"amber"},{"name":"Garrick Inn","lat":52.192,"lon":-1.70649,"postcode":"CV37 6AU","la":"Stratford-on-Avon","era":"trad","nn":90,"risk":26,"cat":"green"},{"name":"Golden Bee","lat":52.19166,"lon":-1.70529,"postcode":"CV37 6EE","la":"Stratford-on-Avon","era":"other","nn":19,"risk":26,"cat":"green"},{"name":"Harbury Rugby Football Club","lat":52.24584,"lon":-1.48406,"postcode":"CV33 9JN","la":"Stratford-on-Avon","era":"other","nn":1078,"risk":56,"cat":"amber"},{"name":"Head Honcho Hacienda","lat":52.19172,"lon":-1.7084,"postcode":"CV37 6LN","la":"Stratford-on-Avon","era":"trad","nn":33,"risk":26,"cat":"green"},{"name":"Kings Head Pub","lat":52.25274,"lon":-1.3234,"postcode":"CV47 8NG","la":"Stratford-on-Avon","era":"trad","nn":976,"risk":53,"cat":"amber"},{"name":"Myers","lat":52.2531,"lon":-1.3872,"postcode":"CV47 1PH","la":"Stratford-on-Avon","era":"other","nn":126,"risk":44,"cat":"amber"},{"name":"Napton Victory Club","lat":52.24452,"lon":-1.31838,"postcode":"CV47 8LT","la":"Stratford-on-Avon","era":"other","nn":890,"risk":49,"cat":"amber"},{"name":"Old Tramway Inn","lat":52.18683,"lon":-1.69929,"postcode":"CV37 7LW","la":"Stratford-on-Avon","era":"trad","nn":425,"risk":29,"cat":"green"},{"name":"One Elm","lat":52.19441,"lon":-1.70774,"postcode":"CV37 6QZ","la":"Stratford-on-Avon","era":"trad","nn":68,"risk":26,"cat":"green"},{"name":"Peacock Inn","lat":52.09535,"lon":-1.50472,"postcode":"CV35 0SE","la":"Stratford-on-Avon","era":"trad","nn":2847,"risk":68,"cat":"red"},{"name":"Pen And Parchment","lat":52.19357,"lon":-1.70176,"postcode":"CV37 6YY","la":"Stratford-on-Avon","era":"other","nn":0,"risk":26,"cat":"green"},{"name":"Priors Sport And Social Club","lat":52.21004,"lon":-1.28346,"postcode":"CV47 7RP","la":"Stratford-on-Avon","era":"mod","nn":353,"risk":48,"cat":"amber"},{"name":"Red Lion","lat":52.19482,"lon":-1.70237,"postcode":"CV37 6YW","la":"Stratford-on-Avon","era":"trad","nn":145,"risk":27,"cat":"green"},{"name":"Royal British Legion","lat":52.18799,"lon":-1.71042,"postcode":"CV37 6DT","la":"Stratford-on-Avon","era":"trad","nn":54,"risk":26,"cat":"green"},{"name":"Shipston Sports Club","lat":52.05697,"lon":-1.62326,"postcode":"CV36 4EP","la":"Stratford-on-Avon","era":"trad","nn":465,"risk":34,"cat":"amber"},{"name":"Snitterfield Sports Club","lat":52.24314,"lon":-1.6909,"postcode":"CV37 0HB","la":"Stratford-on-Avon","era":"other","nn":599,"risk":47,"cat":"amber"},{"name":"Southam Rugby Football Club","lat":52.24187,"lon":-1.40282,"postcode":"CV47 2DH","la":"Stratford-on-Avon","era":"other","nn":1508,"risk":59,"cat":"amber"},{"name":"Stockton Football And Cricket Club","lat":52.27159,"lon":-1.35868,"postcode":"CV47 8JU","la":"Stratford-on-Avon","era":"other","nn":0,"risk":46,"cat":"amber"},{"name":"Stratford Oaks Golf Club Ltd","lat":52.23851,"lon":-1.70121,"postcode":"CV37 0EZ","la":"Stratford-on-Avon","era":"trad","nn":687,"risk":48,"cat":"amber"},{"name":"Stratford Sports Club","lat":52.19059,"lon":-1.7004,"postcode":"CV37 7LS","la":"Stratford-on-Avon","era":"other","nn":0,"risk":26,"cat":"green"},{"name":"Stratford-On-Avon Bowls Club","lat":52.20205,"lon":-1.68413,"postcode":"CV37 7AG","la":"Stratford-on-Avon","era":"other","nn":576,"risk":47,"cat":"amber"},{"name":"Stratford-Upon-Avon Boat Club","lat":52.19059,"lon":-1.7004,"postcode":"CV37 7LS","la":"Stratford-on-Avon","era":"other","nn":0,"risk":26,"cat":"green"},{"name":"Stratford-Upon-Avon Masonic Hall","lat":52.19494,"lon":-1.70723,"postcode":"CV37 6RY","la":"Stratford-on-Avon","era":"trad","nn":68,"risk":26,"cat":"green"},{"name":"That Little Gin And Prosecco Bar","lat":52.19181,"lon":-1.70516,"postcode":"CV37 6GJ","la":"Stratford-on-Avon","era":"other","nn":19,"risk":26,"cat":"green"},{"name":"The Antelope Inn","lat":52.19954,"lon":-1.5046,"postcode":"CV35 0BX","la":"Stratford-on-Avon","era":"trad","nn":1477,"risk":59,"cat":"amber"},{"name":"The Bell","lat":52.13448,"lon":-1.66444,"postcode":"CV37 8NY","la":"Stratford-on-Avon","era":"other","nn":2618,"risk":67,"cat":"red"},{"name":"The Bell","lat":52.19042,"lon":-1.72779,"postcode":"CV37 9HD","la":"Stratford-on-Avon","era":"other","nn":1100,"risk":56,"cat":"amber"},{"name":"The Black Dog","lat":52.25239,"lon":-1.38885,"postcode":"CV47 0HF","la":"Stratford-on-Avon","era":"other","nn":137,"risk":44,"cat":"amber"},{"name":"The Blue Lias Inn","lat":52.27791,"lon":-1.37336,"postcode":"CV47 8LD","la":"Stratford-on-Avon","era":"trad","nn":1058,"risk":56,"cat":"amber"},{"name":"The Boar's Head","lat":52.21125,"lon":-1.62752,"postcode":"CV35 8BE","la":"Stratford-on-Avon","era":"trad","nn":1985,"risk":62,"cat":"red"},{"name":"The Bull","lat":52.18754,"lon":-1.7107,"postcode":"CV37 6DT","la":"Stratford-on-Avon","era":"trad","nn":54,"risk":26,"cat":"green"},{"name":"The Butchers Arms","lat":52.21691,"lon":-1.43052,"postcode":"CV47 2RE","la":"Stratford-on-Avon","era":"trad","nn":0,"risk":46,"cat":"amber"},{"name":"The Butchers Arms Restaurant","lat":52.2024,"lon":-1.31133,"postcode":"CV47 7SN","la":"Stratford-on-Avon","era":"trad","nn":2081,"risk":63,"cat":"red"},{"name":"The Chequers Inn","lat":52.13615,"lon":-1.60341,"postcode":"CV37 7SR","la":"Stratford-on-Avon","era":"trad","nn":2364,"risk":65,"cat":"red"},{"name":"The Cherington","lat":52.02563,"lon":-1.57754,"postcode":"CV36 5HS","la":"Stratford-on-Avon","era":"other","nn":3027,"risk":69,"cat":"red"},{"name":"The Connie","lat":52.19711,"lon":-1.59424,"postcode":"CV35 9LS","la":"Stratford-on-Avon","era":"other","nn":342,"risk":48,"cat":"amber"},{"name":"The Copper Grill","lat":52.06591,"lon":-1.62546,"postcode":"CV36 4BT","la":"Stratford-on-Avon","era":"other","nn":16,"risk":31,"cat":"amber"},{"name":"The Crown","lat":52.20019,"lon":-1.67625,"postcode":"CV37 7AZ","la":"Stratford-on-Avon","era":"trad","nn":170,"risk":44,"cat":"amber"},{"name":"The Crown Inn","lat":52.23718,"lon":-1.45208,"postcode":"CV33 9HE","la":"Stratford-on-Avon","era":"trad","nn":329,"risk":46,"cat":"amber"},{"name":"The Cuttle Inn","lat":52.27762,"lon":-1.38962,"postcode":"CV47 9QZ","la":"Stratford-on-Avon","era":"trad","nn":0,"risk":26,"cat":"green"},{"name":"The Dirty Duck","lat":52.19069,"lon":-1.7048,"postcode":"CV37 6BA","la":"Stratford-on-Avon","era":"other","nn":85,"risk":26,"cat":"green"},{"name":"The Duck On The Pond","lat":52.28449,"lon":-1.39183,"postcode":"CV47 9QJ","la":"Stratford-on-Avon","era":"other","nn":378,"risk":28,"cat":"green"},{"name":"The Encore","lat":52.19238,"lon":-1.70505,"postcode":"CV37 6AB","la":"Stratford-on-Avon","era":"other","nn":64,"risk":26,"cat":"green"},{"name":"The Ferry Inn","lat":52.20645,"lon":-1.65557,"postcode":"CV37 7QX","la":"Stratford-on-Avon","era":"trad","nn":1406,"risk":58,"cat":"amber"},{"name":"The Folly","lat":52.24209,"lon":-1.33084,"postcode":"CV47 8NZ","la":"Stratford-on-Avon","era":"other","nn":890,"risk":52,"cat":"amber"},{"name":"The Four Alls","lat":52.175,"lon":-1.78907,"postcode":"CV37 8PW","la":"Stratford-on-Avon","era":"other","nn":906,"risk":52,"cat":"amber"},{"name":"The Fox And Hen","lat":52.26145,"lon":-1.42524,"postcode":"CV47 2DN","la":"Stratford-on-Avon","era":"trad","nn":1523,"risk":59,"cat":"amber"},{"name":"The Gamecock","lat":52.23593,"lon":-1.45646,"postcode":"CV33 9HT","la":"Stratford-on-Avon","era":"other","nn":140,"risk":44,"cat":"amber"},{"name":"The Greaves Club","lat":52.21691,"lon":-1.43052,"postcode":"CV47 2RE","la":"Stratford-on-Avon","era":"other","nn":0,"risk":46,"cat":"amber"},{"name":"The Green Man","lat":52.28319,"lon":-1.4002,"postcode":"CV47 9PW","la":"Stratford-on-Avon","era":"other","nn":246,"risk":27,"cat":"green"},{"name":"The Halford Bridge Inn","lat":52.10786,"lon":-1.62125,"postcode":"CV36 5BN","la":"Stratford-on-Avon","era":"trad","nn":1621,"risk":60,"cat":"amber"},{"name":"The Harvester","lat":52.2828,"lon":-1.39664,"postcode":"CV47 9PE","la":"Stratford-on-Avon","era":"trad","nn":246,"risk":27,"cat":"green"},{"name":"The Holly Bush Inn","lat":52.21315,"lon":-1.2845,"postcode":"CV47 7RW","la":"Stratford-on-Avon","era":"trad","nn":353,"risk":48,"cat":"amber"},{"name":"The Home Guard Club","lat":52.20055,"lon":-1.67382,"postcode":"CV37 7AY","la":"Stratford-on-Avon","era":"other","nn":170,"risk":44,"cat":"amber"},{"name":"The Howard Arms","lat":52.0912,"lon":-1.69103,"postcode":"CV36 4LT","la":"Stratford-on-Avon","era":"trad","nn":104,"risk":46,"cat":"amber"},{"name":"The Lion Treddington","lat":52.08991,"lon":-1.62637,"postcode":"CV36 4NS","la":"Stratford-on-Avon","era":"trad","nn":2026,"risk":62,"cat":"red"},{"name":"The Lost Pug","lat":52.16907,"lon":-1.42986,"postcode":"CV47 2TJ","la":"Stratford-on-Avon","era":"other","nn":2595,"risk":66,"cat":"red"},{"name":"The Malt Shovel","lat":52.18294,"lon":-1.46924,"postcode":"CV35 0ET","la":"Stratford-on-Avon","era":"other","nn":1664,"risk":60,"cat":"amber"},{"name":"The Masons Arms","lat":52.13598,"lon":-1.77726,"postcode":"CV37 8RG","la":"Stratford-on-Avon","era":"trad","nn":3214,"risk":71,"cat":"red"},{"name":"The Merrie Lion","lat":52.16844,"lon":-1.39183,"postcode":"CV47 2YH","la":"Stratford-on-Avon","era":"trad","nn":1532,"risk":59,"cat":"amber"},{"name":"The Nelson Club And Institute Ltd","lat":52.27159,"lon":-1.35868,"postcode":"CV47 8JU","la":"Stratford-on-Avon","era":"trad","nn":0,"risk":46,"cat":"amber"},{"name":"The New Inn","lat":52.16888,"lon":-1.71411,"postcode":"CV37 8HR","la":"Stratford-on-Avon","era":"trad","nn":0,"risk":46,"cat":"amber"},{"name":"The Norman Knight","lat":52.00996,"lon":-1.54137,"postcode":"CV36 5PE","la":"Stratford-on-Avon","era":"other","nn":3027,"risk":69,"cat":"red"},{"name":"The Old Thatch Tavern","lat":52.19306,"lon":-1.71038,"postcode":"CV37 6LE","la":"Stratford-on-Avon","era":"other","nn":51,"risk":26,"cat":"green"},{"name":"The Peacock Inn","lat":52.10926,"lon":-1.53971,"postcode":"CV35 0QU","la":"Stratford-on-Avon","era":"trad","nn":2013,"risk":62,"cat":"red"},{"name":"The Red Lion","lat":51.9896,"lon":-1.58092,"postcode":"CV36 5JS","la":"Stratford-on-Avon","era":"trad","nn":3252,"risk":71,"cat":"red"},{"name":"The Red Lion","lat":52.09035,"lon":-1.6904,"postcode":"CV36 4LX","la":"Stratford-on-Avon","era":"trad","nn":104,"risk":46,"cat":"amber"},{"name":"The Rose And Crown","lat":52.19134,"lon":-1.70545,"postcode":"CV37 6EF","la":"Stratford-on-Avon","era":"trad","nn":37,"risk":26,"cat":"green"},{"name":"The Royal Oak","lat":52.09888,"lon":-1.56386,"postcode":"CV36 5EF","la":"Stratford-on-Avon","era":"trad","nn":2013,"risk":62,"cat":"red"},{"name":"The Shakespeare Inn","lat":52.23676,"lon":-1.45801,"postcode":"CV33 9HR","la":"Stratford-on-Avon","era":"trad","nn":140,"risk":44,"cat":"amber"},{"name":"The Shakespeare Inn","lat":52.1648,"lon":-1.78102,"postcode":"CV37 8PX","la":"Stratford-on-Avon","era":"trad","nn":654,"risk":50,"cat":"amber"},{"name":"The Snitterfield Arms","lat":52.23775,"lon":-1.69121,"postcode":"CV37 0JH","la":"Stratford-on-Avon","era":"trad","nn":599,"risk":47,"cat":"amber"},{"name":"The Squirrel","lat":52.19985,"lon":-1.73403,"postcode":"CV37 9LD","la":"Stratford-on-Avon","era":"other","nn":968,"risk":53,"cat":"amber"},{"name":"The Stags Head","lat":52.19427,"lon":-1.59618,"postcode":"CV35 9QS","la":"Stratford-on-Avon","era":"trad","nn":342,"risk":48,"cat":"amber"},{"name":"The Stratford Alehouse","lat":52.19319,"lon":-1.71111,"postcode":"CV37 6LF","la":"Stratford-on-Avon","era":"other","nn":51,"risk":26,"cat":"green"},{"name":"The Stratford Park Hotel \\\\& Golf Club","lat":52.21418,"lon":-1.6863,"postcode":"CV37 0QE","la":"Stratford-on-Avon","era":"other","nn":1357,"risk":58,"cat":"amber"},{"name":"The Two Boats Inn","lat":52.27762,"lon":-1.38962,"postcode":"CV47 9QZ","la":"Stratford-on-Avon","era":"trad","nn":0,"risk":26,"cat":"green"},{"name":"The White Bear","lat":52.06294,"lon":-1.62445,"postcode":"CV36 4AJ","la":"Stratford-on-Avon","era":"other","nn":204,"risk":30,"cat":"green"},{"name":"The White Hart","lat":52.11574,"lon":-1.64122,"postcode":"CV37 8TS","la":"Stratford-on-Avon","era":"trad","nn":1621,"risk":60,"cat":"amber"},{"name":"The Windmill","lat":52.18955,"lon":-1.70902,"postcode":"CV37 6HB","la":"Stratford-on-Avon","era":"trad","nn":197,"risk":27,"cat":"green"},{"name":"Wellesbourne Bowls Club","lat":52.18334,"lon":-1.60826,"postcode":"CV35 9JL","la":"Stratford-on-Avon","era":"other","nn":0,"risk":46,"cat":"amber"},{"name":"Wellesbourne Cricket Club","lat":52.18334,"lon":-1.60826,"postcode":"CV35 9JL","la":"Stratford-on-Avon","era":"other","nn":0,"risk":46,"cat":"amber"},{"name":"Wharf Inn","lat":52.17531,"lon":-1.37236,"postcode":"CV47 2FE","la":"Stratford-on-Avon","era":"trad","nn":1532,"risk":59,"cat":"amber"},{"name":"White Hart","lat":52.25629,"lon":-1.44597,"postcode":"CV33 9PJ","la":"Stratford-on-Avon","era":"trad","nn":1523,"risk":59,"cat":"amber"},{"name":"Wilmcote Sports And Social Club","lat":52.22209,"lon":-1.76592,"postcode":"CV37 9XX","la":"Stratford-on-Avon","era":"mod","nn":2858,"risk":68,"cat":"red"},{"name":"Wrapalicious","lat":52.19156,"lon":-1.70879,"postcode":"CV37 6LW","la":"Stratford-on-Avon","era":"other","nn":33,"risk":26,"cat":"green"},{"name":"Yard Of Ale","lat":52.20336,"lon":-1.71581,"postcode":"CV37 0DF","la":"Stratford-on-Avon","era":"mod","nn":342,"risk":46,"cat":"amber"},{"name":"Alderson House (Warwick) Ltd","lat":52.28018,"lon":-1.58956,"postcode":"CV34 4AX","la":"Warwick","era":"mod","nn":136,"risk":26,"cat":"green"},{"name":"Altoria","lat":52.29201,"lon":-1.5376,"postcode":"CV32 5JX","la":"Warwick","era":"other","nn":0,"risk":25,"cat":"green"},{"name":"Alvis Sports & Social Club","lat":52.37644,"lon":-1.52139,"postcode":"CV3 6EG","la":"Warwick","era":"mod","nn":767,"risk":51,"cat":"amber"},{"name":"Anchor Inn","lat":52.31712,"lon":-1.57705,"postcode":"CV35 7QX","la":"Warwick","era":"trad","nn":305,"risk":47,"cat":"amber"},{"name":"Ashow Village Club","lat":52.33061,"lon":-1.545,"postcode":"CV8 2LE","la":"Warwick","era":"other","nn":913,"risk":52,"cat":"amber"},{"name":"Avenue Bowls Club","lat":52.28584,"lon":-1.53785,"postcode":"CV31 3PG","la":"Warwick","era":"other","nn":185,"risk":27,"cat":"green"},{"name":"Bar and Block","lat":52.29237,"lon":-1.53636,"postcode":"CV32 4BQ","la":"Warwick","era":"mod","nn":93,"risk":26,"cat":"green"},{"name":"Beausale Club","lat":52.33527,"lon":-1.64857,"postcode":"CV35 7NW","la":"Warwick","era":"other","nn":1843,"risk":61,"cat":"red"},{"name":"Bishops Tachbrook Sports & Social Club","lat":52.24802,"lon":-1.5434,"postcode":"CV33 9RR","la":"Warwick","era":"other","nn":1995,"risk":62,"cat":"red"},{"name":"Black Horse","lat":52.28621,"lon":-1.59567,"postcode":"CV34 4TT","la":"Warwick","era":"trad","nn":493,"risk":29,"cat":"green"},{"name":"Blue Note Bar","lat":52.28308,"lon":-1.58208,"postcode":"CV34 4HU","la":"Warwick","era":"other","nn":66,"risk":26,"cat":"green"},{"name":"Builders Arms","lat":52.29326,"lon":-1.53056,"postcode":"CV32 4SP","la":"Warwick","era":"trad","nn":46,"risk":26,"cat":"green"},{"name":"Bulldog","lat":52.27438,"lon":-1.52337,"postcode":"CV31 2NX","la":"Warwick","era":"trad","nn":564,"risk":29,"cat":"green"},{"name":"Cape of Good Hope","lat":52.29145,"lon":-1.59544,"postcode":"CV34 5DP","la":"Warwick","era":"other","nn":583,"risk":47,"cat":"amber"},{"name":"Case is Altered","lat":52.32796,"lon":-1.67291,"postcode":"CV35 7JD","la":"Warwick","era":"other","nn":1843,"risk":61,"cat":"red"},{"name":"Clink Cellar Bar","lat":52.29167,"lon":-1.53761,"postcode":"CV32 5JS","la":"Warwick","era":"other","nn":38,"risk":26,"cat":"green"},{"name":"Copper House Club Ltd","lat":52.34971,"lon":-1.57265,"postcode":"CV8 2FZ","la":"Warwick","era":"mod","nn":100,"risk":26,"cat":"green"},{"name":"Copper Pot","lat":52.29201,"lon":-1.5376,"postcode":"CV32 5JX","la":"Warwick","era":"other","nn":0,"risk":25,"cat":"green"},{"name":"Cubbington Sports & Social Club","lat":52.31188,"lon":-1.50764,"postcode":"CV32 7LN","la":"Warwick","era":"mod","nn":446,"risk":48,"cat":"amber"},{"name":"Elephant & Castle","lat":52.28881,"lon":-1.56244,"postcode":"CV34 5QY","la":"Warwick","era":"other","nn":449,"risk":31,"cat":"amber"},{"name":"Fade Golf UK","lat":52.28269,"lon":-1.58282,"postcode":"CV34 4JD","la":"Warwick","era":"other","nn":38,"risk":26,"cat":"green"},{"name":"Fat Pug","lat":52.29166,"lon":-1.54769,"postcode":"CV32 5BZ","la":"Warwick","era":"other","nn":345,"risk":28,"cat":"green"},{"name":"Fifteen","lat":52.28589,"lon":-1.53366,"postcode":"CV31 3NE","la":"Warwick","era":"other","nn":28,"risk":26,"cat":"green"},{"name":"Foresters Arms","lat":52.27931,"lon":-1.59441,"postcode":"CV34 6HG","la":"Warwick","era":"trad","nn":327,"risk":28,"cat":"green"},{"name":"Frames Snooker Club","lat":52.28896,"lon":-1.53581,"postcode":"CV32 4AG","la":"Warwick","era":"trad","nn":0,"risk":25,"cat":"green"},{"name":"Fusilier","lat":52.28371,"lon":-1.51646,"postcode":"CV31 1NJ","la":"Warwick","era":"other","nn":461,"risk":29,"cat":"green"},{"name":"Gauntlet","lat":52.33673,"lon":-1.5853,"postcode":"CV8 1DP","la":"Warwick","era":"other","nn":599,"risk":50,"cat":"amber"},{"name":"Greyhound","lat":52.29332,"lon":-1.52989,"postcode":"CV32 4SY","la":"Warwick","era":"trad","nn":46,"risk":26,"cat":"green"},{"name":"Guys Cliffe Catering Ltd at Guys Cliffe Masonic Rooms","lat":52.29814,"lon":-1.57302,"postcode":"CV34 5YD","la":"Warwick","era":"other","nn":1002,"risk":55,"cat":"amber"},{"name":"Hart & Co","lat":52.28928,"lon":-1.53741,"postcode":"CV32 5EL","la":"Warwick","era":"trad","nn":115,"risk":26,"cat":"green"},{"name":"Hatton Arms","lat":52.30097,"lon":-1.64605,"postcode":"CV35 7JJ","la":"Warwick","era":"trad","nn":1393,"risk":58,"cat":"amber"},{"name":"Hope & Anchor","lat":52.29446,"lon":-1.53027,"postcode":"CV32 5XT","la":"Warwick","era":"trad","nn":130,"risk":26,"cat":"green"},{"name":"Hope Tavern","lat":52.28109,"lon":-1.5108,"postcode":"CV31 1SH","la":"Warwick","era":"other","nn":483,"risk":34,"cat":"amber"},{"name":"Hunningham Cricket Club","lat":52.31273,"lon":-1.45223,"postcode":"CV33 9DY","la":"Warwick","era":"other","nn":3359,"risk":71,"cat":"red"},{"name":"Jet","lat":52.27948,"lon":-1.52972,"postcode":"CV31 2EE","la":"Warwick","era":"other","nn":138,"risk":26,"cat":"green"},{"name":"Joiners Arms","lat":52.27852,"lon":-1.53101,"postcode":"CV31 3BD","la":"Warwick","era":"trad","nn":138,"risk":26,"cat":"green"},{"name":"Joseph Arch","lat":52.24508,"lon":-1.60792,"postcode":"CV35 8EH","la":"Warwick","era":"other","nn":542,"risk":49,"cat":"amber"},{"name":"Kelseys","lat":52.28422,"lon":-1.53296,"postcode":"CV31 3AW","la":"Warwick","era":"other","nn":30,"risk":26,"cat":"green"},{"name":"Kenilworth Abbey Club","lat":52.34596,"lon":-1.57824,"postcode":"CV8 1LW","la":"Warwick","era":"trad","nn":164,"risk":26,"cat":"green"},{"name":"Kenilworth Cricket Club","lat":52.32961,"lon":-1.57468,"postcode":"CV8 1FE","la":"Warwick","era":"other","nn":1070,"risk":55,"cat":"amber"},{"name":"Kenilworth Lawn Tennis and Squash Club","lat":52.35827,"lon":-1.57231,"postcode":"CV8 2JS","la":"Warwick","era":"other","nn":877,"risk":36,"cat":"amber"},{"name":"Kenilworth Rugby Football Club","lat":52.33826,"lon":-1.55994,"postcode":"CV8 2AJ","la":"Warwick","era":"other","nn":0,"risk":45,"cat":"amber"},{"name":"Kenilworth Sports & Social Club Ltd.","lat":52.34726,"lon":-1.57708,"postcode":"CV8 2PA","la":"Warwick","era":"mod","nn":164,"risk":26,"cat":"green"},{"name":"Kenilworth Wardens Sports Club","lat":52.33826,"lon":-1.55994,"postcode":"CV8 2AJ","la":"Warwick","era":"other","nn":0,"risk":45,"cat":"amber"},{"name":"Khalsa Hockey Club","lat":52.28348,"lon":-1.53296,"postcode":"CV31 3AP","la":"Warwick","era":"other","nn":52,"risk":26,"cat":"green"},{"name":"Leamington  Cricket Club","lat":52.29939,"lon":-1.53396,"postcode":"CV32 5UG","la":"Warwick","era":"other","nn":266,"risk":27,"cat":"green"},{"name":"Leamington and County Golf Club","lat":52.26275,"lon":-1.5217,"postcode":"CV31 2QA","la":"Warwick","era":"other","nn":290,"risk":32,"cat":"amber"},{"name":"Leamington Dance Centre","lat":52.28896,"lon":-1.53581,"postcode":"CV32 4AG","la":"Warwick","era":"other","nn":0,"risk":25,"cat":"green"},{"name":"Leamington Football Club Ltd.","lat":52.24639,"lon":-1.49987,"postcode":"CV33 9JP","la":"Warwick","era":"other","nn":1078,"risk":55,"cat":"amber"},{"name":"Leamington Home Guard Club","lat":52.29057,"lon":-1.53918,"postcode":"CV32 5HE","la":"Warwick","era":"other","nn":45,"risk":26,"cat":"green"},{"name":"Leamington Lawn Tennis and Squash Club","lat":52.29399,"lon":-1.55105,"postcode":"CV32 6LZ","la":"Warwick","era":"other","nn":345,"risk":28,"cat":"green"},{"name":"Leek Wootton Sports Club","lat":52.31952,"lon":-1.57923,"postcode":"CV35 7QJ","la":"Warwick","era":"other","nn":305,"risk":47,"cat":"amber"},{"name":"Leru","lat":52.2904,"lon":-1.53837,"postcode":"CV32 5EJ","la":"Warwick","era":"other","nn":17,"risk":25,"cat":"green"},{"name":"Lillington Bowling Club","lat":52.3047,"lon":-1.52309,"postcode":"CV32 7DB","la":"Warwick","era":"other","nn":118,"risk":44,"cat":"amber"},{"name":"Lillington Club","lat":52.30386,"lon":-1.52205,"postcode":"CV32 7DA","la":"Warwick","era":"other","nn":118,"risk":44,"cat":"amber"},{"name":"London Midland Railway Club","lat":52.28451,"lon":-1.53624,"postcode":"CV31 3NS","la":"Warwick","era":"trad","nn":176,"risk":27,"cat":"green"},{"name":"Montgomery Of Alamein","lat":52.28335,"lon":-1.62334,"postcode":"CV35 8RT","la":"Warwick","era":"other","nn":1809,"risk":60,"cat":"amber"},{"name":"Moo","lat":52.29225,"lon":-1.53837,"postcode":"CV32 5QB","la":"Warwick","era":"other","nn":59,"risk":26,"cat":"green"},{"name":"Murphys Bar","lat":52.29036,"lon":-1.53861,"postcode":"CV32 5EJ","la":"Warwick","era":"other","nn":17,"risk":25,"cat":"green"},{"name":"Nelson Club","lat":52.28739,"lon":-1.56861,"postcode":"CV34 5LE","la":"Warwick","era":"trad","nn":96,"risk":26,"cat":"green"},{"name":"Nelson Public House","lat":52.28668,"lon":-1.56942,"postcode":"CV34 5QE","la":"Warwick","era":"trad","nn":96,"risk":26,"cat":"green"},{"name":"Neon Night Club","lat":52.2856,"lon":-1.53369,"postcode":"CV31 3NF","la":"Warwick","era":"other","nn":0,"risk":25,"cat":"green"},{"name":"New Bowling Green","lat":52.28251,"lon":-1.58234,"postcode":"CV34 4JD","la":"Warwick","era":"other","nn":38,"risk":26,"cat":"green"},{"name":"New Inn","lat":52.2664,"lon":-1.66837,"postcode":"CV35 8JA","la":"Warwick","era":"trad","nn":317,"risk":48,"cat":"amber"},{"name":"Norton Lindsay & Wolverton Cricket Club","lat":52.2671,"lon":-1.67287,"postcode":"CV35 8JL","la":"Warwick","era":"other","nn":317,"risk":48,"cat":"amber"},{"name":"Oak","lat":52.28443,"lon":-1.57923,"postcode":"CV34 4NT","la":"Warwick","era":"trad","nn":145,"risk":26,"cat":"green"},{"name":"Oak House Sports and Social Club","lat":52.29197,"lon":-1.5273,"postcode":"CV32 4JS","la":"Warwick","era":"other","nn":71,"risk":26,"cat":"green"},{"name":"Oddfellows Friendly Society","lat":52.28597,"lon":-1.52863,"postcode":"CV31 1HP","la":"Warwick","era":"mod","nn":2,"risk":25,"cat":"green"},{"name":"Old Leamingtonians RFC","lat":52.32248,"lon":-1.54304,"postcode":"CV32 6QP","la":"Warwick","era":"other","nn":913,"risk":52,"cat":"amber"},{"name":"Pig & Fiddle","lat":52.28643,"lon":-1.52157,"postcode":"CV31 1LH","la":"Warwick","era":"other","nn":461,"risk":29,"cat":"green"},{"name":"Plough & Harrow","lat":52.26744,"lon":-1.52346,"postcode":"CV31 2HX","la":"Warwick","era":"trad","nn":206,"risk":27,"cat":"green"},{"name":"Queens Head","lat":52.31047,"lon":-1.5015,"postcode":"CV32 7NA","la":"Warwick","era":"trad","nn":446,"risk":48,"cat":"amber"},{"name":"Radford Semele Sports & Social Club","lat":52.2745,"lon":-1.49566,"postcode":"CV31 1UQ","la":"Warwick","era":"mod","nn":1063,"risk":55,"cat":"amber"},{"name":"Raro Tapas and Cocktail Bar","lat":52.28455,"lon":-1.53212,"postcode":"CV31 3AG","la":"Warwick","era":"mod","nn":0,"risk":25,"cat":"green"},{"name":"Rowington Club Ltd","lat":52.32915,"lon":-1.70568,"postcode":"CV35 7DB","la":"Warwick","era":"other","nn":0,"risk":45,"cat":"amber"},{"name":"Rowington Cricket Club","lat":52.32915,"lon":-1.70568,"postcode":"CV35 7DB","la":"Warwick","era":"other","nn":0,"risk":45,"cat":"amber"},{"name":"Royal British Legion Club","lat":52.37065,"lon":-1.49412,"postcode":"CV8 3AQ","la":"Warwick","era":"trad","nn":450,"risk":48,"cat":"amber"},{"name":"Royal Leamington Spa Bowling Club","lat":52.28738,"lon":-1.54181,"postcode":"CV31 3PT","la":"Warwick","era":"trad","nn":157,"risk":26,"cat":"green"},{"name":"Royal Oak","lat":52.35089,"lon":-1.57896,"postcode":"CV8 2EZ","la":"Warwick","era":"trad","nn":423,"risk":28,"cat":"green"},{"name":"Shades","lat":52.28395,"lon":-1.53292,"postcode":"CV31 3AN","la":"Warwick","era":"other","nn":30,"risk":26,"cat":"green"},{"name":"Smack","lat":52.29341,"lon":-1.53676,"postcode":"CV32 5PJ","la":"Warwick","era":"other","nn":118,"risk":26,"cat":"green"},{"name":"Somerville Arms","lat":52.29297,"lon":-1.5257,"postcode":"CV32 4SX","la":"Warwick","era":"trad","nn":156,"risk":26,"cat":"green"},{"name":"Star and Garter","lat":52.29161,"lon":-1.54198,"postcode":"CV32 5LL","la":"Warwick","era":"other","nn":168,"risk":26,"cat":"green"},{"name":"Stoneleigh Village Club","lat":52.35082,"lon":-1.51906,"postcode":"CV8 3DH","la":"Warwick","era":"other","nn":2583,"risk":66,"cat":"red"},{"name":"Talisman Theatre Company","lat":52.34128,"lon":-1.58057,"postcode":"CV8 1EG","la":"Warwick","era":"other","nn":545,"risk":34,"cat":"amber"},{"name":"TearAByte","lat":52.28389,"lon":-1.53385,"postcode":"CV31 3AN","la":"Warwick","era":"other","nn":64,"risk":26,"cat":"green"},{"name":"The Assembly and Bier Haus","lat":52.2856,"lon":-1.53369,"postcode":"CV31 3NF","la":"Warwick","era":"mod","nn":0,"risk":25,"cat":"green"},{"name":"The Bowling Green","lat":52.28596,"lon":-1.52864,"postcode":"CV31 1HP","la":"Warwick","era":"other","nn":2,"risk":25,"cat":"green"},{"name":"The Drawing Board","lat":52.28979,"lon":-1.5314,"postcode":"CV32 4HN","la":"Warwick","era":"other","nn":312,"risk":27,"cat":"green"},{"name":"The Eagle","lat":52.28228,"lon":-1.59097,"postcode":"CV34 4SL","la":"Warwick","era":"trad","nn":164,"risk":26,"cat":"green"},{"name":"The Falcon at Hatton","lat":52.3089,"lon":-1.66192,"postcode":"CV35 7HA","la":"Warwick","era":"other","nn":1393,"risk":58,"cat":"amber"},{"name":"The Granville Arms","lat":52.2403,"lon":-1.60647,"postcode":"CV35 8DS","la":"Warwick","era":"trad","nn":542,"risk":49,"cat":"amber"},{"name":"The Green Man","lat":52.27899,"lon":-1.52681,"postcode":"CV31 2BQ","la":"Warwick","era":"other","nn":205,"risk":27,"cat":"green"},{"name":"The Hod Carrier","lat":52.26243,"lon":-1.52593,"postcode":"CV31 2LT","la":"Warwick","era":"other","nn":290,"risk":32,"cat":"amber"},{"name":"The Oak","lat":52.36691,"lon":-1.49161,"postcode":"CV8 3AU","la":"Warwick","era":"trad","nn":450,"risk":48,"cat":"amber"},{"name":"The Railway","lat":52.28573,"lon":-1.57941,"postcode":"CV34 4LW","la":"Warwick","era":"trad","nn":145,"risk":26,"cat":"green"},{"name":"The Shire Grill / Taste Republic / Bossy Chicken / Smashburger","lat":52.27657,"lon":-1.51091,"postcode":"CV31 1YJ","la":"Warwick","era":"other","nn":502,"risk":34,"cat":"amber"},{"name":"The Terrace","lat":52.28613,"lon":-1.53355,"postcode":"CV31 3AB","la":"Warwick","era":"other","nn":28,"risk":26,"cat":"green"},{"name":"The Urban Fox","lat":52.27778,"lon":-1.53348,"postcode":"CV31 3BE","la":"Warwick","era":"trad","nn":187,"risk":27,"cat":"green"},{"name":"The Wine House","lat":52.28264,"lon":-1.58361,"postcode":"CV34 4HS","la":"Warwick","era":"other","nn":54,"risk":26,"cat":"green"},{"name":"Thomas James Hotel","lat":52.28455,"lon":-1.53212,"postcode":"CV31 3AG","la":"Warwick","era":"other","nn":0,"risk":25,"cat":"green"},{"name":"Tiltyard Public House","lat":52.3473,"lon":-1.55797,"postcode":"CV8 2DE","la":"Warwick","era":"mod","nn":995,"risk":52,"cat":"amber"},{"name":"Town House","lat":52.28547,"lon":-1.53057,"postcode":"CV31 1ET","la":"Warwick","era":"other","nn":142,"risk":26,"cat":"green"},{"name":"Tuesday Club at St Patricks Club","lat":52.28879,"lon":-1.54193,"postcode":"CV32 5AH","la":"Warwick","era":"other","nn":148,"risk":26,"cat":"green"},{"name":"Victoria House Bar","lat":52.29188,"lon":-1.52834,"postcode":"CV32 4PT","la":"Warwick","era":"other","nn":71,"risk":26,"cat":"green"},{"name":"Warwick Boat Club Ltd.","lat":52.28056,"lon":-1.58285,"postcode":"CV34 4HB","la":"Warwick","era":"other","nn":219,"risk":27,"cat":"green"},{"name":"Warwick Conservative Club","lat":52.28137,"lon":-1.58907,"postcode":"CV34 4BJ","la":"Warwick","era":"other","nn":136,"risk":26,"cat":"green"},{"name":"Warwick Golf Centre","lat":52.28183,"lon":-1.59686,"postcode":"CV34 6HW","la":"Warwick","era":"other","nn":327,"risk":28,"cat":"green"},{"name":"Warwick Sports Club","lat":52.27603,"lon":-1.59645,"postcode":"CV34 6HX","la":"Warwick","era":"other","nn":390,"risk":28,"cat":"green"},{"name":"WCC Sports Pavillion","lat":52.28153,"lon":-1.56409,"postcode":"CV34 6PS","la":"Warwick","era":"trad","nn":678,"risk":35,"cat":"amber"},{"name":"Whitnash Sports & Social Club","lat":52.26833,"lon":-1.52612,"postcode":"CV31 2NF","la":"Warwick","era":"mod","nn":206,"risk":27,"cat":"green"},{"name":"Windmill Inn","lat":52.27293,"lon":-1.53428,"postcode":"CV31 3DD","la":"Warwick","era":"trad","nn":542,"risk":29,"cat":"green"},{"name":"Woodland Tavern","lat":52.29011,"lon":-1.54171,"postcode":"CV32 5HW","la":"Warwick","era":"other","nn":148,"risk":26,"cat":"green"},{"name":"Woodloes Tavern","lat":52.29452,"lon":-1.58651,"postcode":"CV34 5RN","la":"Warwick","era":"other","nn":697,"risk":50,"cat":"amber"},{"name":"Wyandotte Inn","lat":52.3504,"lon":-1.57171,"postcode":"CV8 2GF","la":"Warwick","era":"trad","nn":100,"risk":26,"cat":"green"},{"name":"Cadman Sporting","lat":52.34528,"lon":-1.21641,"postcode":"CV23 8UX","la":"West Northamptonshire","era":"other","nn":1500,"risk":53,"cat":"amber"},{"name":"George Hotel","lat":52.33499,"lon":-1.17384,"postcode":"CV23 8YE","la":"West Northamptonshire","era":"trad","nn":477,"risk":44,"cat":"amber"},{"name":"Head Of Steam","lat":52.3881,"lon":-1.17328,"postcode":"CV23 0SX","la":"West Northamptonshire","era":"trad","nn":1571,"risk":54,"cat":"amber"},{"name":"Onley Grounds Equestrian Complex Limited","lat":52.33102,"lon":-1.25862,"postcode":"CV23 8AJ","la":"West Northamptonshire","era":"other","nn":2160,"risk":58,"cat":"amber"},{"name":"Red Lion","lat":52.33652,"lon":-1.1804,"postcode":"CV23 8XP","la":"West Northamptonshire","era":"trad","nn":477,"risk":44,"cat":"amber"},{"name":"The Arnold Arms","lat":52.33016,"lon":-1.20498,"postcode":"CV23 8UE","la":"West Northamptonshire","era":"trad","nn":1814,"risk":56,"cat":"amber"}]