[{"name":"Angels Cut","lat":54.52527,"lon":-1.56035,"postcode":"DL3 7RX","la":"Darlington","era":"trad","nn":167,"risk":27,"cat":"green"},{"name":"Bannatynes Health And Leisure","lat":54.52788,"lon":-1.54772,"postcode":"DL1 1SS","la":"Darlington","era":"other","nn":293,"risk":28,"cat":"green"},{"name":"Baydale Beck","lat":54.5212,"lon":-1.6105,"postcode":"DL2 2JX","la":"Darlington","era":"other","nn":1234,"risk":57,"cat":"amber"},{"name":"Black Swan","lat":54.52395,"lon":-1.54762,"postcode":"DL1 1RX","la":"Darlington","era":"trad","nn":107,"risk":27,"cat":"green"},{"name":"Blackwell Grange Golf Club Ltd","lat":54.50694,"lon":-1.56091,"postcode":"DL2 2SA","la":"Darlington","era":"other","nn":397,"risk":46,"cat":"amber"},{"name":"Boot And Shoe","lat":54.52464,"lon":-1.55357,"postcode":"DL1 5QD","la":"Darlington","era":"other","nn":38,"risk":26,"cat":"green"},{"name":"Builders Arms","lat":54.53579,"lon":-1.55719,"postcode":"DL3 6RQ","la":"Darlington","era":"trad","nn":156,"risk":27,"cat":"green"},{"name":"Burtree Inn","lat":54.56242,"lon":-1.59613,"postcode":"DL2 2XZ","la":"Darlington","era":"trad","nn":1763,"risk":61,"cat":"red"},{"name":"Buzz Bingo","lat":54.5258,"lon":-1.55754,"postcode":"DL3 7NR","la":"Darlington","era":"other","nn":32,"risk":26,"cat":"green"},{"name":"Cleveland Sports And Social Club","lat":54.51645,"lon":-1.54175,"postcode":"DL1 4DF","la":"Darlington","era":"mod","nn":222,"risk":27,"cat":"green"},{"name":"Cockerton Band & Musical Inst.","lat":54.53367,"lon":-1.57722,"postcode":"DL3 9AB","la":"Darlington","era":"other","nn":97,"risk":27,"cat":"green"},{"name":"Copper Beech","lat":54.51456,"lon":-1.54066,"postcode":"DL1 4DH","la":"Darlington","era":"other","nn":222,"risk":32,"cat":"amber"},{"name":"Cricket And Social Club","lat":54.51828,"lon":-1.47085,"postcode":"DL2 1JG","la":"Darlington","era":"mod","nn":255,"risk":48,"cat":"amber"},{"name":"Crooners Champagne Bar","lat":54.52368,"lon":-1.55623,"postcode":"DL1 5SG","la":"Darlington","era":"other","nn":14,"risk":26,"cat":"green"},{"name":"Dalesman","lat":54.52133,"lon":-1.55105,"postcode":"DL1 5JW","la":"Darlington","era":"other","nn":206,"risk":27,"cat":"green"},{"name":"Darlington Cricket Club","lat":54.52127,"lon":-1.55569,"postcode":"DL1 5JD","la":"Darlington","era":"other","nn":251,"risk":28,"cat":"green"},{"name":"Darlington Flyer","lat":54.52551,"lon":-1.55763,"postcode":"DL3 7NR","la":"Darlington","era":"other","nn":30,"risk":26,"cat":"green"},{"name":"Darlington Freemasons Hall","lat":54.52766,"lon":-1.55713,"postcode":"DL3 6LS","la":"Darlington","era":"trad","nn":84,"risk":26,"cat":"green"},{"name":"Darlington Indoor Bowls Club Limited","lat":54.53719,"lon":-1.55295,"postcode":"DL1 2PP","la":"Darlington","era":"other","nn":315,"risk":28,"cat":"green"},{"name":"Darlington Junior Unionist Club","lat":54.52813,"lon":-1.55592,"postcode":"DL3 6JW","la":"Darlington","era":"other","nn":94,"risk":27,"cat":"green"},{"name":"Darlington Quoit Club","lat":54.54381,"lon":-1.581,"postcode":"DL3 7TP","la":"Darlington","era":"other","nn":540,"risk":35,"cat":"amber"},{"name":"Darlington Rugby Football Club Ltd","lat":54.5099,"lon":-1.56434,"postcode":"DL1 5NR","la":"Darlington","era":"other","nn":397,"risk":46,"cat":"amber"},{"name":"Darlington Snooker Club","lat":54.53148,"lon":-1.55427,"postcode":"DL3 6AE","la":"Darlington","era":"other","nn":327,"risk":28,"cat":"green"},{"name":"Dr Inks","lat":54.52343,"lon":-1.55845,"postcode":"DL3 7EE","la":"Darlington","era":"other","nn":19,"risk":26,"cat":"green"},{"name":"DSRM Sports & Social Club","lat":54.5493,"lon":-1.5498,"postcode":"DL3 0HX","la":"Darlington","era":"mod","nn":518,"risk":47,"cat":"amber"},{"name":"Emerson Arms","lat":54.48575,"lon":-1.52347,"postcode":"DL2 2AQ","la":"Darlington","era":"trad","nn":340,"risk":48,"cat":"amber"},{"name":"Foresters Arms","lat":54.58037,"lon":-1.55461,"postcode":"DL1 3LU","la":"Darlington","era":"trad","nn":1903,"risk":62,"cat":"red"},{"name":"George & Dragon","lat":54.59526,"lon":-1.61374,"postcode":"DL5 6PP","la":"Darlington","era":"trad","nn":278,"risk":48,"cat":"amber"},{"name":"Golden Cock","lat":54.52509,"lon":-1.55412,"postcode":"DL1 1NU","la":"Darlington","era":"other","nn":0,"risk":26,"cat":"green"},{"name":"Green Dragon","lat":54.5249,"lon":-1.55676,"postcode":"DL3 7LU","la":"Darlington","era":"trad","nn":37,"risk":26,"cat":"green"},{"name":"Harrowgate Club & Institute","lat":54.54971,"lon":-1.54181,"postcode":"DL1 3DT","la":"Darlington","era":"other","nn":518,"risk":50,"cat":"amber"},{"name":"Harvey's","lat":54.52356,"lon":-1.55645,"postcode":"DL1 5RL","la":"Darlington","era":"other","nn":18,"risk":26,"cat":"green"},{"name":"Hash Bar \\\\& Kitchen","lat":54.52355,"lon":-1.55987,"postcode":"DL3 7RG","la":"Darlington","era":"mod","nn":0,"risk":26,"cat":"green"},{"name":"Haughton WMC","lat":54.53797,"lon":-1.522,"postcode":"DL1 2DD","la":"Darlington","era":"other","nn":0,"risk":28,"cat":"green"},{"name":"Highland Laddie","lat":54.53761,"lon":-1.52123,"postcode":"DL1 2DF","la":"Darlington","era":"other","nn":64,"risk":29,"cat":"green"},{"name":"Hole In The Wall","lat":54.52401,"lon":-1.55456,"postcode":"DL1 5PT","la":"Darlington","era":"other","nn":46,"risk":26,"cat":"green"},{"name":"Hopetown & Whessoe WMC","lat":54.53706,"lon":-1.55822,"postcode":"DL3 6RD","la":"Darlington","era":"other","nn":156,"risk":27,"cat":"green"},{"name":"Hoptimist","lat":54.52479,"lon":-1.55298,"postcode":"DL1 1PD","la":"Darlington","era":"other","nn":0,"risk":26,"cat":"green"},{"name":"Hoskins","lat":54.52356,"lon":-1.5576,"postcode":"DL1 5HW","la":"Darlington","era":"other","nn":0,"risk":26,"cat":"green"},{"name":"Hoskins","lat":54.52353,"lon":-1.55709,"postcode":"DL1 5HW","la":"Darlington","era":"other","nn":0,"risk":26,"cat":"green"},{"name":"House Of Hop","lat":54.52351,"lon":-1.55618,"postcode":"DL1 5RL","la":"Darlington","era":"mod","nn":18,"risk":26,"cat":"green"},{"name":"Hurworth Community Association","lat":54.48598,"lon":-1.54206,"postcode":"DL2 2BN","la":"Darlington","era":"other","nn":863,"risk":52,"cat":"amber"},{"name":"Hustle","lat":54.53797,"lon":-1.522,"postcode":"DL1 2DD","la":"Darlington","era":"other","nn":0,"risk":28,"cat":"green"},{"name":"Miss Ruby's (Kitchen \\\\& Cocktails)","lat":54.52345,"lon":-1.55816,"postcode":"DL1 5NQ","la":"Darlington","era":"mod","nn":19,"risk":26,"cat":"green"},{"name":"Morton Park Beefeater And Premier Inn","lat":54.52063,"lon":-1.50141,"postcode":"DL1 4PJ","la":"Darlington","era":"trad","nn":423,"risk":49,"cat":"amber"},{"name":"Mr Huttons Bar And Barbers","lat":54.52353,"lon":-1.55709,"postcode":"DL1 5HW","la":"Darlington","era":"mod","nn":0,"risk":26,"cat":"green"},{"name":"New Club","lat":54.52689,"lon":-1.55313,"postcode":"DL1 1LX","la":"Darlington","era":"other","nn":166,"risk":27,"cat":"green"},{"name":"Number Twenty Two Alehouse And Canteen","lat":54.52355,"lon":-1.55987,"postcode":"DL3 7RG","la":"Darlington","era":"mod","nn":0,"risk":26,"cat":"green"},{"name":"Rosie's Tavern","lat":54.52642,"lon":-1.55614,"postcode":"DL3 7LB","la":"Darlington","era":"other","nn":95,"risk":27,"cat":"green"},{"name":"Shuttle And Loom","lat":54.54461,"lon":-1.52401,"postcode":"DL1 3RW","la":"Darlington","era":"other","nn":750,"risk":34,"cat":"amber"},{"name":"Skerne Park Pub","lat":54.51055,"lon":-1.55261,"postcode":"DL1 5AL","la":"Darlington","era":"other","nn":670,"risk":33,"cat":"amber"},{"name":"Sortie","lat":54.52378,"lon":-1.55609,"postcode":"DL1 5SG","la":"Darlington","era":"other","nn":14,"risk":26,"cat":"green"},{"name":"St George's Bridge Centre","lat":54.54388,"lon":-1.55999,"postcode":"DL3 0RW","la":"Darlington","era":"trad","nn":767,"risk":31,"cat":"amber"},{"name":"St Mary's Community Centre","lat":54.53572,"lon":-1.58423,"postcode":"DL3 9EX","la":"Darlington","era":"other","nn":328,"risk":28,"cat":"green"},{"name":"Tanners Hall","lat":54.52524,"lon":-1.55728,"postcode":"DL3 7LL","la":"Darlington","era":"other","nn":31,"risk":26,"cat":"green"},{"name":"The Bay Horse","lat":54.59583,"lon":-1.61795,"postcode":"DL5 6PE","la":"Darlington","era":"trad","nn":278,"risk":48,"cat":"amber"},{"name":"The Bay Horse","lat":54.48613,"lon":-1.5287,"postcode":"DL2 2AA","la":"Darlington","era":"trad","nn":340,"risk":46,"cat":"amber"},{"name":"The Brinkburn","lat":54.53754,"lon":-1.56639,"postcode":"DL3 0YR","la":"Darlington","era":"other","nn":530,"risk":30,"cat":"green"},{"name":"The Britannia Inn","lat":54.52702,"lon":-1.55782,"postcode":"DL3 6LR","la":"Darlington","era":"trad","nn":84,"risk":26,"cat":"green"},{"name":"The Corner House","lat":54.52525,"lon":-1.55777,"postcode":"DL3 7NW","la":"Darlington","era":"other","nn":30,"risk":26,"cat":"green"},{"name":"The Deacon","lat":54.53798,"lon":-1.5875,"postcode":"DL3 0DE","la":"Darlington","era":"other","nn":328,"risk":28,"cat":"green"},{"name":"The Forum Music Centre","lat":54.52525,"lon":-1.54798,"postcode":"DL1 1SG","la":"Darlington","era":"other","nn":123,"risk":27,"cat":"green"},{"name":"The Gate","lat":54.52356,"lon":-1.5576,"postcode":"DL1 5HW","la":"Darlington","era":"other","nn":0,"risk":26,"cat":"green"},{"name":"The Grey Horse","lat":54.53797,"lon":-1.522,"postcode":"DL1 2DD","la":"Darlington","era":"trad","nn":0,"risk":28,"cat":"green"},{"name":"The Greyhound","lat":54.52436,"lon":-1.54911,"postcode":"DL1 1RS","la":"Darlington","era":"trad","nn":107,"risk":27,"cat":"green"},{"name":"The Half Moon","lat":54.52865,"lon":-1.55288,"postcode":"DL1 1QS","la":"Darlington","era":"other","nn":196,"risk":27,"cat":"green"},{"name":"The Havelock Arms","lat":54.51653,"lon":-1.46831,"postcode":"DL2 1EG","la":"Darlington","era":"trad","nn":255,"risk":48,"cat":"amber"},{"name":"The Juniper Tree","lat":54.52322,"lon":-1.55777,"postcode":"DL1 5NA","la":"Darlington","era":"other","nn":37,"risk":26,"cat":"green"},{"name":"The Market Tap","lat":54.5245,"lon":-1.55484,"postcode":"DL1 5PX","la":"Darlington","era":"mod","nn":14,"risk":26,"cat":"green"},{"name":"The Model T","lat":54.52717,"lon":-1.59438,"postcode":"DL3 9XT","la":"Darlington","era":"other","nn":840,"risk":52,"cat":"amber"},{"name":"The Mowden","lat":54.53425,"lon":-1.58986,"postcode":"DL3 9BE","la":"Darlington","era":"other","nn":398,"risk":29,"cat":"green"},{"name":"The New Bank Top","lat":54.52301,"lon":-1.54325,"postcode":"DL1 1XH","la":"Darlington","era":"other","nn":301,"risk":28,"cat":"green"},{"name":"The Oak Tree","lat":54.51568,"lon":-1.44309,"postcode":"DL2 1HN","la":"Darlington","era":"trad","nn":1631,"risk":60,"cat":"amber"},{"name":"The Old Dunn Cow","lat":54.52492,"lon":-1.5562,"postcode":"DL3 7LU","la":"Darlington","era":"other","nn":37,"risk":26,"cat":"green"},{"name":"The Old Farmhouse Inn","lat":54.52021,"lon":-1.4949,"postcode":"DL2 1JY","la":"Darlington","era":"other","nn":423,"risk":49,"cat":"amber"},{"name":"The Pennyweight","lat":54.52461,"lon":-1.55415,"postcode":"DL1 5QA","la":"Darlington","era":"other","nn":38,"risk":26,"cat":"green"},{"name":"The Quaker House","lat":54.52449,"lon":-1.55619,"postcode":"DL3 7QF","la":"Darlington","era":"other","nn":48,"risk":26,"cat":"green"},{"name":"The Red Lion","lat":54.52562,"lon":-1.55445,"postcode":"DL1 1NG","la":"Darlington","era":"trad","nn":62,"risk":26,"cat":"green"},{"name":"The Spotted Dog","lat":54.53192,"lon":-1.64991,"postcode":"DL2 2LJ","la":"Darlington","era":"other","nn":2809,"risk":68,"cat":"red"},{"name":"The Tawny Owl","lat":54.50357,"lon":-1.52861,"postcode":"DL2 1QE","la":"Darlington","era":"other","nn":1449,"risk":59,"cat":"amber"},{"name":"The Tubwell Tap","lat":54.52509,"lon":-1.55412,"postcode":"DL1 1NU","la":"Darlington","era":"mod","nn":0,"risk":26,"cat":"green"},{"name":"The Vault","lat":54.52438,"lon":-1.55489,"postcode":"DL1 5PZ","la":"Darlington","era":"other","nn":14,"risk":26,"cat":"green"},{"name":"The Wheatsheaf","lat":54.52188,"lon":-1.52339,"postcode":"DL1 1XN","la":"Darlington","era":"trad","nn":1287,"risk":57,"cat":"amber"},{"name":"The White Heifer That Travelled","lat":54.54767,"lon":-1.58607,"postcode":"DL2 2GG","la":"Darlington","era":"other","nn":540,"risk":50,"cat":"amber"},{"name":"The Woollen Mill","lat":54.52287,"lon":-1.55284,"postcode":"DL1 5AD","la":"Darlington","era":"trad","nn":169,"risk":27,"cat":"green"},{"name":"Travellers Rest","lat":54.53434,"lon":-1.57816,"postcode":"DL3 9ER","la":"Darlington","era":"other","nn":97,"risk":27,"cat":"green"},{"name":"Turks Head","lat":54.52626,"lon":-1.55759,"postcode":"DL3 7JG","la":"Darlington","era":"trad","nn":0,"risk":26,"cat":"green"},{"name":"Turks Head","lat":54.52626,"lon":-1.55759,"postcode":"DL3 7JG","la":"Darlington","era":"trad","nn":0,"risk":26,"cat":"green"},{"name":"William Stead","lat":54.52479,"lon":-1.55298,"postcode":"DL1 1PD","la":"Darlington","era":"other","nn":0,"risk":26,"cat":"green"},{"name":"Woodland Bowling Club","lat":54.53063,"lon":-1.56851,"postcode":"DL3 9LN","la":"Darlington","era":"other","nn":656,"risk":31,"cat":"amber"},{"name":"124 Recovery Company","lat":54.61248,"lon":-1.58302,"postcode":"DL5 6UR","la":"County Durham","era":"other","nn":178,"risk":15,"cat":"green"},{"name":"A Squadron 201 Field Hospital","lat":54.6197,"lon":-1.57483,"postcode":"DL5 4EW","la":"County Durham","era":"other","nn":73,"risk":14,"cat":"green"},{"name":"All Saints Community Centre","lat":54.68385,"lon":-1.55523,"postcode":"DL17 8ET","la":"County Durham","era":"trad","nn":0,"risk":14,"cat":"green"},{"name":"Ancient Unicorn","lat":54.51717,"lon":-2.01041,"postcode":"DL12 9HL","la":"County Durham","era":"other","nn":124,"risk":35,"cat":"amber"},{"name":"Aruvi Restaurant & Bar","lat":54.70095,"lon":-1.58239,"postcode":"DL16 6HQ","la":"County Durham","era":"other","nn":514,"risk":35,"cat":"amber"},{"name":"Australian Hotel","lat":54.69513,"lon":-1.75093,"postcode":"DL15 8HH","la":"County Durham","era":"other","nn":1336,"risk":46,"cat":"amber"},{"name":"Aviator Gin Bar","lat":54.61209,"lon":-1.58034,"postcode":"DL5 6EJ","la":"County Durham","era":"other","nn":178,"risk":15,"cat":"green"},{"name":"Barford Raceway","lat":54.55998,"lon":-1.85213,"postcode":"DL12 8UD","la":"County Durham","era":"other","nn":3544,"risk":61,"cat":"red"},{"name":"Barnard Castle Cricket Club","lat":54.54613,"lon":-1.92562,"postcode":"DL12 8AD","la":"County Durham","era":"other","nn":125,"risk":15,"cat":"green"},{"name":"Barnard Castle Masonic Hall","lat":54.54133,"lon":-1.9201,"postcode":"DL12 8NJ","la":"County Durham","era":"trad","nn":128,"risk":15,"cat":"green"},{"name":"Barnard Castle Rugby Union Football Club","lat":54.54248,"lon":-1.91993,"postcode":"DL12 8JR","la":"County Durham","era":"other","nn":128,"risk":15,"cat":"green"},{"name":"Barnard Castle Working Mens Club","lat":54.5441,"lon":-1.92264,"postcode":"DL12 8JJ","la":"County Durham","era":"trad","nn":108,"risk":15,"cat":"green"},{"name":"Bay Horse","lat":54.66531,"lon":-1.67709,"postcode":"DL14 7PE","la":"County Durham","era":"trad","nn":61,"risk":14,"cat":"green"},{"name":"Bay Horse Inn","lat":54.64782,"lon":-1.70871,"postcode":"DL14 0LL","la":"County Durham","era":"trad","nn":936,"risk":40,"cat":"amber"},{"name":"Belle Vue Inn","lat":54.71461,"lon":-1.748,"postcode":"DL15 9HP","la":"County Durham","era":"trad","nn":0,"risk":14,"cat":"green"},{"name":"Billy Row Club","lat":54.73435,"lon":-1.74772,"postcode":"DL15 9SW","la":"County Durham","era":"other","nn":508,"risk":37,"cat":"amber"},{"name":"Binchester Community Centre","lat":54.68249,"lon":-1.64516,"postcode":"DL14 8AT","la":"County Durham","era":"other","nn":1833,"risk":49,"cat":"amber"},{"name":"Bishop Auckland Cricket Club","lat":54.66059,"lon":-1.67312,"postcode":"DL14 7JU","la":"County Durham","era":"trad","nn":0,"risk":14,"cat":"green"},{"name":"Bishop Auckland Football Club","lat":54.63771,"lon":-1.69338,"postcode":"DL14 9AE","la":"County Durham","era":"trad","nn":0,"risk":19,"cat":"green"},{"name":"Bishop Auckland Hospital Social Club","lat":54.65605,"lon":-1.6858,"postcode":"DL14 6TZ","la":"County Durham","era":"other","nn":88,"risk":14,"cat":"green"},{"name":"Bishop Auckland Rugby Club","lat":54.66294,"lon":-1.68964,"postcode":"DL14 7PA","la":"County Durham","era":"trad","nn":650,"risk":18,"cat":"green"},{"name":"Bishop Auckland Snooker Club","lat":54.66477,"lon":-1.67691,"postcode":"DL14 7PL","la":"County Durham","era":"trad","nn":61,"risk":14,"cat":"green"},{"name":"Bishops Sports Bar","lat":54.66278,"lon":-1.67415,"postcode":"DL14 7JN","la":"County Durham","era":"trad","nn":215,"risk":15,"cat":"green"},{"name":"Black Horse","lat":54.58051,"lon":-1.73561,"postcode":"DL2 3HS","la":"County Durham","era":"trad","nn":3210,"risk":59,"cat":"amber"},{"name":"Black Horse Hotel","lat":54.54197,"lon":-1.92204,"postcode":"DL12 8NG","la":"County Durham","era":"trad","nn":107,"risk":15,"cat":"green"},{"name":"Black Lion Inn","lat":54.73116,"lon":-1.88229,"postcode":"DL13 3EN","la":"County Durham","era":"trad","nn":121,"risk":20,"cat":"green"},{"name":"Blacksmiths Arms","lat":54.60762,"lon":-2.04437,"postcode":"DL12 0JY","la":"County Durham","era":"trad","nn":468,"risk":37,"cat":"amber"},{"name":"Blakes Sports & Lounge Bar","lat":54.61862,"lon":-1.57246,"postcode":"DL5 4SB","la":"County Durham","era":"mod","nn":129,"risk":15,"cat":"green"},{"name":"Blu\u2019s Cocktail & Wine Bar","lat":54.71559,"lon":-1.74656,"postcode":"DL15 9HT","la":"County Durham","era":"other","nn":0,"risk":14,"cat":"green"},{"name":"Bowes Social Club","lat":54.51676,"lon":-2.00863,"postcode":"DL12 9HR","la":"County Durham","era":"mod","nn":124,"risk":35,"cat":"amber"},{"name":"Brown Horse Inn","lat":54.75717,"lon":-1.84017,"postcode":"DL13 4HJ","la":"County Durham","era":"trad","nn":1818,"risk":49,"cat":"amber"},{"name":"Byers Green Club Limited","lat":54.70165,"lon":-1.65412,"postcode":"DL16 7PU","la":"County Durham","era":"other","nn":258,"risk":36,"cat":"amber"},{"name":"Caps Off Ltd","lat":54.65728,"lon":-1.67758,"postcode":"DL14 7TL","la":"County Durham","era":"other","nn":126,"risk":15,"cat":"green"},{"name":"Chilton Catholic Club","lat":54.65861,"lon":-1.55334,"postcode":"DL17 0PW","la":"County Durham","era":"other","nn":497,"risk":37,"cat":"amber"},{"name":"Chilton Community Sports & Social Club","lat":54.65924,"lon":-1.56099,"postcode":"DL17 0EY","la":"County Durham","era":"mod","nn":497,"risk":37,"cat":"amber"},{"name":"Coach & Horses","lat":54.54571,"lon":-1.92344,"postcode":"DL12 8BH","la":"County Durham","era":"trad","nn":0,"risk":14,"cat":"green"},{"name":"Cockfield WMC","lat":54.61365,"lon":-1.81172,"postcode":"DL13 5ER","la":"County Durham","era":"other","nn":542,"risk":38,"cat":"amber"},{"name":"Cockton Hill WMC","lat":54.65401,"lon":-1.67797,"postcode":"DL14 6AH","la":"County Durham","era":"other","nn":262,"risk":16,"cat":"green"},{"name":"Commercial Hotel","lat":54.54511,"lon":-1.9248,"postcode":"DL12 8BG","la":"County Durham","era":"other","nn":110,"risk":15,"cat":"green"},{"name":"Conservative Club","lat":54.66251,"lon":-1.63267,"postcode":"DL14 8LG","la":"County Durham","era":"other","nn":0,"risk":14,"cat":"green"},{"name":"Cottles Bar","lat":54.71046,"lon":-1.69047,"postcode":"DL15 0AD","la":"County Durham","era":"other","nn":30,"risk":14,"cat":"green"},{"name":"Coundon Working Mens Club","lat":54.66263,"lon":-1.63114,"postcode":"DL14 8PG","la":"County Durham","era":"trad","nn":100,"risk":14,"cat":"green"},{"name":"Cowshill Hotel","lat":54.76044,"lon":-2.22572,"postcode":"DL13 1JQ","la":"County Durham","era":"other","nn":3766,"risk":63,"cat":"red"},{"name":"Cricketers Arms","lat":54.54571,"lon":-1.92344,"postcode":"DL12 8BH","la":"County Durham","era":"trad","nn":0,"risk":14,"cat":"green"},{"name":"CroBar","lat":54.54379,"lon":-1.92421,"postcode":"DL12 8LZ","la":"County Durham","era":"other","nn":0,"risk":14,"cat":"green"},{"name":"Crook Golf Club","lat":54.71129,"lon":-1.71387,"postcode":"DL15 0RW","la":"County Durham","era":"other","nn":868,"risk":37,"cat":"amber"},{"name":"Crook Masonic Hall","lat":54.71483,"lon":-1.74429,"postcode":"DL15 9BG","la":"County Durham","era":"trad","nn":0,"risk":14,"cat":"green"},{"name":"Crook Town AFC","lat":54.71376,"lon":-1.75024,"postcode":"DL15 9PW","la":"County Durham","era":"other","nn":39,"risk":14,"cat":"green"},{"name":"Crook Town Cricket Club","lat":54.71384,"lon":-1.74415,"postcode":"DL15 8NH","la":"County Durham","era":"other","nn":88,"risk":14,"cat":"green"},{"name":"Cross Keys","lat":54.54698,"lon":-1.73943,"postcode":"DL2 3DN","la":"County Durham","era":"trad","nn":2792,"risk":56,"cat":"amber"},{"name":"Cross Keys Inn","lat":54.67493,"lon":-1.82182,"postcode":"DL13 3PX","la":"County Durham","era":"trad","nn":207,"risk":35,"cat":"amber"},{"name":"Cross Keys Inn","lat":54.74365,"lon":-2.07598,"postcode":"DL13 2HW","la":"County Durham","era":"trad","nn":4030,"risk":64,"cat":"red"},{"name":"Cumberland Arms","lat":54.66049,"lon":-1.67547,"postcode":"DL14 7EN","la":"County Durham","era":"trad","nn":0,"risk":14,"cat":"green"},{"name":"Daleview Caravan Park","lat":54.61723,"lon":-2.08136,"postcode":"DL12 0NG","la":"County Durham","era":"other","nn":769,"risk":37,"cat":"amber"},{"name":"Diamond Inn","lat":54.62655,"lon":-1.83597,"postcode":"DL13 5NX","la":"County Durham","era":"trad","nn":0,"risk":34,"cat":"amber"},{"name":"Duke Of York Inn","lat":54.70597,"lon":-1.78544,"postcode":"DL15 8DG","la":"County Durham","era":"trad","nn":2421,"risk":53,"cat":"amber"},{"name":"Dun Cow Inn","lat":54.67638,"lon":-1.77544,"postcode":"DL14 0AY","la":"County Durham","era":"trad","nn":221,"risk":35,"cat":"amber"},{"name":"Durham Ox","lat":54.66251,"lon":-1.63267,"postcode":"DL14 8LG","la":"County Durham","era":"other","nn":0,"risk":14,"cat":"green"},{"name":"Eldon Lane WMC & Institute Ltd","lat":54.64575,"lon":-1.64832,"postcode":"DL14 8TL","la":"County Durham","era":"other","nn":1109,"risk":44,"cat":"amber"},{"name":"Elliot's Bar","lat":54.71436,"lon":-1.74815,"postcode":"DL15 9HR","la":"County Durham","era":"other","nn":0,"risk":14,"cat":"green"},{"name":"Elm Road Workingmens Club & Institute Ltd","lat":54.63624,"lon":-1.6554,"postcode":"DL4 1BH","la":"County Durham","era":"trad","nn":103,"risk":14,"cat":"green"},{"name":"Etherley Cricket Club","lat":54.65254,"lon":-1.74403,"postcode":"DL14 0HA","la":"County Durham","era":"other","nn":614,"risk":38,"cat":"amber"},{"name":"Evenwood Workingmens Club","lat":54.61941,"lon":-1.75949,"postcode":"DL14 9QB","la":"County Durham","era":"trad","nn":19,"risk":34,"cat":"amber"},{"name":"Ferryhill Catholic Club","lat":54.68385,"lon":-1.55523,"postcode":"DL17 8ET","la":"County Durham","era":"other","nn":0,"risk":14,"cat":"green"},{"name":"Ferryhill Community Sports and Social Club Ltd","lat":54.69006,"lon":-1.55399,"postcode":"DL17 8HX","la":"County Durham","era":"mod","nn":13,"risk":14,"cat":"green"},{"name":"Ferryhill Sports and Education Centre","lat":54.68538,"lon":-1.54284,"postcode":"DL17 8TB","la":"County Durham","era":"other","nn":244,"risk":15,"cat":"green"},{"name":"Ferryhill Station Workingmens Club","lat":54.68333,"lon":-1.54147,"postcode":"DL17 8BB","la":"County Durham","era":"trad","nn":244,"risk":15,"cat":"green"},{"name":"Firkin Alley","lat":54.54379,"lon":-1.92421,"postcode":"DL12 8LZ","la":"County Durham","era":"other","nn":0,"risk":14,"cat":"green"},{"name":"Four Alls Inn","lat":54.52716,"lon":-1.79929,"postcode":"DL11 7BP","la":"County Durham","era":"trad","nn":991,"risk":41,"cat":"amber"},{"name":"Fox and Hounds","lat":54.63484,"lon":-1.64251,"postcode":"DL4 2DP","la":"County Durham","era":"trad","nn":252,"risk":16,"cat":"green"},{"name":"Fox and Hounds Country Inn","lat":54.57343,"lon":-1.98552,"postcode":"DL12 9PF","la":"County Durham","era":"trad","nn":152,"risk":35,"cat":"amber"},{"name":"Frosterley Inn","lat":54.72742,"lon":-1.95609,"postcode":"DL13 2RH","la":"County Durham","era":"trad","nn":3267,"risk":59,"cat":"amber"},{"name":"Gentlemans Club","lat":54.71168,"lon":-1.69647,"postcode":"DL15 0DS","la":"County Durham","era":"other","nn":30,"risk":14,"cat":"green"},{"name":"GlaxoSmithKline Sports and Social Club","lat":54.55145,"lon":-1.91676,"postcode":"DL12 8DS","la":"County Durham","era":"mod","nn":283,"risk":16,"cat":"green"},{"name":"Grey Bull Inn","lat":54.74923,"lon":-2.01394,"postcode":"DL13 2PB","la":"County Durham","era":"trad","nn":517,"risk":20,"cat":"green"},{"name":"Half Moon","lat":54.67674,"lon":-1.59824,"postcode":"DL16 7JL","la":"County Durham","era":"other","nn":132,"risk":32,"cat":"amber"},{"name":"Hammer and Pincers","lat":54.61017,"lon":-1.53161,"postcode":"DL5 6JH","la":"County Durham","era":"other","nn":1926,"risk":50,"cat":"amber"},{"name":"Hamsterley Social Club","lat":54.67448,"lon":-1.82496,"postcode":"DL13 3QF","la":"County Durham","era":"mod","nn":207,"risk":35,"cat":"amber"},{"name":"Hare and Hounds Inn","lat":54.73736,"lon":-2.14408,"postcode":"DL13 1RX","la":"County Durham","era":"trad","nn":2315,"risk":52,"cat":"amber"},{"name":"Hudson Lodge Freemasons","lat":54.73069,"lon":-1.88761,"postcode":"DL13 3AN","la":"County Durham","era":"trad","nn":321,"risk":21,"cat":"green"},{"name":"Hunwick & District WMC & Institute","lat":54.69213,"lon":-1.70662,"postcode":"DL15 0LE","la":"County Durham","era":"other","nn":632,"risk":36,"cat":"amber"},{"name":"Hunwick Cricket Club","lat":54.69723,"lon":-1.70229,"postcode":"DL15 0RH","la":"County Durham","era":"other","nn":632,"risk":36,"cat":"amber"},{"name":"Ineos Sports & Social Club","lat":54.60939,"lon":-1.58645,"postcode":"DL5 6EA","la":"Darlington","era":"mod","nn":256,"risk":30,"cat":"green"},{"name":"Kirk Inn","lat":54.59348,"lon":-2.00781,"postcode":"DL12 9ED","la":"County Durham","era":"trad","nn":157,"risk":35,"cat":"amber"},{"name":"Lacey's","lat":54.66527,"lon":-1.67599,"postcode":"DL14 7PF","la":"County Durham","era":"other","nn":0,"risk":14,"cat":"green"},{"name":"Leeholme WMC","lat":54.66566,"lon":-1.61912,"postcode":"DL14 8HX","la":"County Durham","era":"other","nn":759,"risk":19,"cat":"green"},{"name":"Lisa's Food @ The Newmarket","lat":54.74665,"lon":-1.81497,"postcode":"DL13 4AA","la":"County Durham","era":"other","nn":0,"risk":16,"cat":"green"},{"name":"Looking Glass House","lat":54.7447,"lon":-1.81407,"postcode":"DL13 4DP","la":"County Durham","era":"trad","nn":225,"risk":18,"cat":"green"},{"name":"Mainsforth and District Community Assococation","lat":54.682,"lon":-1.53401,"postcode":"DL17 0AG","la":"County Durham","era":"other","nn":0,"risk":16,"cat":"green"},{"name":"Mainsforth Cricket Club","lat":54.68157,"lon":-1.52692,"postcode":"DL17 9DF","la":"County Durham","era":"other","nn":458,"risk":19,"cat":"green"},{"name":"March Hare","lat":54.63771,"lon":-1.69338,"postcode":"DL14 9AE","la":"County Durham","era":"other","nn":0,"risk":19,"cat":"green"},{"name":"Masons Arms","lat":54.65564,"lon":-1.70335,"postcode":"DL14 0JP","la":"County Durham","era":"trad","nn":936,"risk":40,"cat":"amber"},{"name":"Middlestone Moor Workingmens Club","lat":54.69156,"lon":-1.61247,"postcode":"DL16 7BP","la":"County Durham","era":"trad","nn":306,"risk":16,"cat":"green"},{"name":"Middleton In Teesdale Sports & Social Club","lat":54.62586,"lon":-2.08488,"postcode":"DL12 0QL","la":"County Durham","era":"mod","nn":246,"risk":33,"cat":"amber"},{"name":"Milbank Arms","lat":54.48852,"lon":-1.87043,"postcode":"DL11 7DW","la":"County Durham","era":"trad","nn":4942,"risk":71,"cat":"red"},{"name":"Mill House Inn","lat":54.7157,"lon":-1.74425,"postcode":"DL15 9AZ","la":"County Durham","era":"other","nn":0,"risk":14,"cat":"green"},{"name":"Miners Arms","lat":54.66251,"lon":-1.63267,"postcode":"DL14 8LG","la":"County Durham","era":"trad","nn":0,"risk":14,"cat":"green"},{"name":"Moorcock Inn","lat":54.61526,"lon":-2.00827,"postcode":"DL12 0AU","la":"County Durham","era":"trad","nn":2346,"risk":53,"cat":"amber"},{"name":"Mugsy's Manor @ The Manor House","lat":54.68962,"lon":-1.55343,"postcode":"DL17 8JH","la":"County Durham","era":"other","nn":61,"risk":14,"cat":"green"},{"name":"New Kings","lat":54.71559,"lon":-1.74656,"postcode":"DL15 9HT","la":"County Durham","era":"trad","nn":0,"risk":14,"cat":"green"},{"name":"Newfield WMC & Institute","lat":54.69781,"lon":-1.6816,"postcode":"DL14 8BQ","la":"County Durham","era":"other","nn":0,"risk":34,"cat":"amber"},{"name":"Newton Aycliffe Leisure Centre","lat":54.61913,"lon":-1.57426,"postcode":"DL5 4EH","la":"County Durham","era":"other","nn":73,"risk":14,"cat":"green"},{"name":"Newton Aycliffe Navy Club","lat":54.62467,"lon":-1.58763,"postcode":"DL5 7PW","la":"County Durham","era":"other","nn":23,"risk":14,"cat":"green"},{"name":"Newton Aycliffe Scout Supporters Assoc","lat":54.62483,"lon":-1.58786,"postcode":"DL5 7PW","la":"County Durham","era":"other","nn":23,"risk":16,"cat":"green"},{"name":"Newton Aycliffe Sports Club","lat":54.61721,"lon":-1.55893,"postcode":"DL5 5AG","la":"County Durham","era":"other","nn":718,"risk":36,"cat":"amber"},{"name":"Newton Aycliffe Working Mens Club & Institute Ltd","lat":54.6176,"lon":-1.57007,"postcode":"DL5 5NU","la":"County Durham","era":"trad","nn":191,"risk":15,"cat":"green"},{"name":"Oakleaf Sports Complex","lat":54.61137,"lon":-1.5885,"postcode":"DL5 6QF","la":"County Durham","era":"trad","nn":256,"risk":18,"cat":"green"},{"name":"Old Shildon Sports & Social Club Limited","lat":54.63242,"lon":-1.64986,"postcode":"DL4 1AH","la":"County Durham","era":"mod","nn":0,"risk":14,"cat":"green"},{"name":"Peases West Sports Centre","lat":54.71411,"lon":-1.75018,"postcode":"DL15 9AH","la":"County Durham","era":"other","nn":39,"risk":14,"cat":"green"},{"name":"Pollards Inn","lat":54.65676,"lon":-1.68639,"postcode":"DL14 6TU","la":"County Durham","era":"trad","nn":88,"risk":14,"cat":"green"},{"name":"Queens Head Hotel","lat":54.71436,"lon":-1.74815,"postcode":"DL15 9HR","la":"County Durham","era":"trad","nn":0,"risk":14,"cat":"green"},{"name":"Queens Head Inn","lat":54.69781,"lon":-1.6816,"postcode":"DL14 8BQ","la":"County Durham","era":"trad","nn":0,"risk":34,"cat":"amber"},{"name":"Quinns Inn","lat":54.69809,"lon":-1.60349,"postcode":"DL16 6DD","la":"County Durham","era":"trad","nn":108,"risk":15,"cat":"green"},{"name":"Raby Arms","lat":54.54258,"lon":-1.92333,"postcode":"DL12 8NF","la":"County Durham","era":"trad","nn":67,"risk":14,"cat":"green"},{"name":"Red Lion Hotel","lat":54.57268,"lon":-1.98354,"postcode":"DL12 9QE","la":"County Durham","era":"trad","nn":152,"risk":35,"cat":"amber"},{"name":"Riverview Caravan Park","lat":54.53473,"lon":-1.91536,"postcode":"DL12 9TJ","la":"County Durham","era":"other","nn":794,"risk":19,"cat":"green"},{"name":"Rookhope WMC","lat":54.77992,"lon":-2.09549,"postcode":"DL13 2AX","la":"County Durham","era":"other","nn":4223,"risk":66,"cat":"red"},{"name":"Rowlandson Freemason Hall Co Ltd","lat":54.69012,"lon":-1.55382,"postcode":"DL17 8HX","la":"County Durham","era":"trad","nn":0,"risk":14,"cat":"green"},{"name":"Royal Air Forces Association Club","lat":54.7157,"lon":-1.74425,"postcode":"DL15 9AZ","la":"County Durham","era":"trad","nn":0,"risk":14,"cat":"green"},{"name":"Royal Oak Inn","lat":54.62655,"lon":-1.83597,"postcode":"DL13 5NX","la":"County Durham","era":"trad","nn":0,"risk":34,"cat":"amber"},{"name":"Saxon Inn","lat":54.66597,"lon":-1.70907,"postcode":"DL14 7SY","la":"County Durham","era":"trad","nn":972,"risk":41,"cat":"amber"},{"name":"Shildon AFC","lat":54.63399,"lon":-1.64918,"postcode":"DL4 1HA","la":"County Durham","era":"other","nn":136,"risk":15,"cat":"green"},{"name":"Shildon Civic Hall","lat":54.63242,"lon":-1.64986,"postcode":"DL4 1AH","la":"County Durham","era":"other","nn":0,"risk":14,"cat":"green"},{"name":"Shildon Masonic Hall","lat":54.62756,"lon":-1.64463,"postcode":"DL4 1NJ","la":"County Durham","era":"trad","nn":235,"risk":15,"cat":"green"},{"name":"Shildon Railway Institute","lat":54.6246,"lon":-1.64368,"postcode":"DL4 2JJ","la":"County Durham","era":"trad","nn":335,"risk":16,"cat":"green"},{"name":"Shildon Railway Sports & Social Club","lat":54.62934,"lon":-1.64268,"postcode":"DL4 1LX","la":"County Durham","era":"other","nn":235,"risk":15,"cat":"green"},{"name":"Spennymoor Cricket Club","lat":54.69622,"lon":-1.60929,"postcode":"DL16 7LR","la":"County Durham","era":"other","nn":231,"risk":15,"cat":"green"},{"name":"Spennymoor Indoor Bowling Club","lat":54.69431,"lon":-1.61235,"postcode":"DL16 7LF","la":"County Durham","era":"other","nn":290,"risk":16,"cat":"green"},{"name":"Spennymoor Masonic Hall","lat":54.69891,"lon":-1.6044,"postcode":"DL16 6AS","la":"County Durham","era":"trad","nn":0,"risk":14,"cat":"green"},{"name":"Spennymoor Town Football Club","lat":54.70337,"lon":-1.59861,"postcode":"DL16 6JN","la":"County Durham","era":"other","nn":181,"risk":15,"cat":"green"},{"name":"Spennymoor Workingmens Club","lat":54.70095,"lon":-1.59825,"postcode":"DL16 6QG","la":"County Durham","era":"trad","nn":57,"risk":14,"cat":"green"},{"name":"Sportsman Inn","lat":54.6486,"lon":-1.76203,"postcode":"DL14 0JE","la":"County Durham","era":"trad","nn":761,"risk":39,"cat":"amber"},{"name":"Square & Compass","lat":54.70419,"lon":-1.51533,"postcode":"DL17 9JQ","la":"County Durham","era":"other","nn":372,"risk":36,"cat":"amber"},{"name":"Staindrop Masonic Hall","lat":54.57999,"lon":-1.80933,"postcode":"DL2 3JP","la":"County Durham","era":"trad","nn":216,"risk":35,"cat":"amber"},{"name":"Stanhope Masonic Club","lat":54.74573,"lon":-2.00315,"postcode":"DL13 2XF","la":"County Durham","era":"trad","nn":62,"risk":14,"cat":"green"},{"name":"Stanhope Sports & Social Club Ltd","lat":54.74554,"lon":-2.00224,"postcode":"DL13 2XH","la":"County Durham","era":"mod","nn":62,"risk":14,"cat":"green"},{"name":"Surtees Hotel","lat":54.7143,"lon":-1.74527,"postcode":"DL15 8NE","la":"County Durham","era":"other","nn":86,"risk":14,"cat":"green"},{"name":"Tap and Tun","lat":54.66472,"lon":-1.67429,"postcode":"DL14 7EP","la":"County Durham","era":"other","nn":31,"risk":14,"cat":"green"},{"name":"The Ash Tree","lat":54.70768,"lon":-1.61235,"postcode":"DL16 6XU","la":"County Durham","era":"other","nn":943,"risk":40,"cat":"amber"},{"name":"The Axe House","lat":54.70945,"lon":-1.57024,"postcode":"DL16 6JF","la":"County Durham","era":"other","nn":1216,"risk":45,"cat":"amber"},{"name":"The Bay Horse","lat":54.62989,"lon":-1.61312,"postcode":"DL5 7JD","la":"County Durham","era":"trad","nn":1721,"risk":48,"cat":"amber"},{"name":"The Bay Horse Hotel","lat":54.7358,"lon":-1.87932,"postcode":"DL13 3EX","la":"County Durham","era":"trad","nn":551,"risk":23,"cat":"green"},{"name":"The Bishops Lodge","lat":54.6744,"lon":-1.70507,"postcode":"DL14 7RJ","la":"County Durham","era":"trad","nn":972,"risk":41,"cat":"amber"},{"name":"The Black Horse","lat":54.70882,"lon":-1.68248,"postcode":"DL15 0BD","la":"County Durham","era":"trad","nn":363,"risk":16,"cat":"green"},{"name":"The Black Horse Inn","lat":54.71295,"lon":-1.58882,"postcode":"DL16 6TD","la":"County Durham","era":"trad","nn":280,"risk":21,"cat":"green"},{"name":"The Blacksmith Arms","lat":54.63483,"lon":-1.73633,"postcode":"DL14 9SL","la":"County Durham","era":"trad","nn":888,"risk":40,"cat":"amber"},{"name":"The Blue Bell","lat":54.54107,"lon":-1.92561,"postcode":"DL12 8QF","la":"County Durham","era":"other","nn":120,"risk":15,"cat":"green"},{"name":"The Blue Bell Inn","lat":54.73739,"lon":-2.18272,"postcode":"DL13 1QJ","la":"County Durham","era":"trad","nn":221,"risk":35,"cat":"amber"},{"name":"The Bonny Moorhen","lat":54.74703,"lon":-2.00544,"postcode":"DL13 2TS","la":"County Durham","era":"other","nn":86,"risk":14,"cat":"green"},{"name":"The Brewers Arms","lat":54.69946,"lon":-1.60123,"postcode":"DL16 6AG","la":"County Durham","era":"trad","nn":71,"risk":14,"cat":"green"},{"name":"The Bridge Inn","lat":54.52895,"lon":-1.83864,"postcode":"DL12 8XD","la":"County Durham","era":"trad","nn":2547,"risk":54,"cat":"amber"},{"name":"The Bridgewater Arms","lat":54.54688,"lon":-1.78272,"postcode":"DL2 3RN","la":"County Durham","era":"trad","nn":1629,"risk":48,"cat":"amber"},{"name":"The Brown Trout","lat":54.70169,"lon":-1.69574,"postcode":"DL15 0NQ","la":"County Durham","era":"other","nn":650,"risk":23,"cat":"green"},{"name":"The Burn Pub and Kitchen","lat":54.71362,"lon":-1.70097,"postcode":"DL15 0HW","la":"County Durham","era":"mod","nn":350,"risk":16,"cat":"green"},{"name":"The Cobblers Hall","lat":54.62974,"lon":-1.58036,"postcode":"DL5 4SE","la":"County Durham","era":"other","nn":496,"risk":20,"cat":"green"},{"name":"The Commercial Hotel","lat":54.682,"lon":-1.53401,"postcode":"DL17 0AG","la":"County Durham","era":"other","nn":0,"risk":16,"cat":"green"},{"name":"The Commercial Willington","lat":54.71027,"lon":-1.69081,"postcode":"DL15 0AA","la":"County Durham","era":"other","nn":30,"risk":14,"cat":"green"},{"name":"The Copper Mine","lat":54.71042,"lon":-1.7292,"postcode":"DL15 0UL","la":"County Durham","era":"other","nn":599,"risk":35,"cat":"amber"},{"name":"The Countryman","lat":54.59718,"lon":-1.69494,"postcode":"DL2 2UP","la":"County Durham","era":"other","nn":3210,"risk":59,"cat":"amber"},{"name":"The County Restaurant","lat":54.59704,"lon":-1.56127,"postcode":"DL5 6LX","la":"County Durham","era":"other","nn":124,"risk":35,"cat":"amber"},{"name":"The Craft House","lat":54.66471,"lon":-1.67478,"postcode":"DL14 7EG","la":"County Durham","era":"mod","nn":31,"risk":14,"cat":"green"},{"name":"The Crook Hotel","lat":54.71702,"lon":-1.74731,"postcode":"DL15 9HU","la":"County Durham","era":"other","nn":166,"risk":15,"cat":"green"},{"name":"The Cross Keys","lat":54.67758,"lon":-1.4871,"postcode":"DL17 9AR","la":"County Durham","era":"trad","nn":2598,"risk":54,"cat":"amber"},{"name":"The Crown at Mickleton","lat":54.60867,"lon":-2.0514,"postcode":"DL12 0JZ","la":"County Durham","era":"trad","nn":468,"risk":37,"cat":"amber"},{"name":"The Crown Inn","lat":54.71461,"lon":-1.748,"postcode":"DL15 9HP","la":"County Durham","era":"trad","nn":0,"risk":14,"cat":"green"},{"name":"The Dean & Chapter","lat":54.68884,"lon":-1.5579,"postcode":"DL17 8LA","la":"County Durham","era":"other","nn":99,"risk":14,"cat":"green"},{"name":"The Eden Arms","lat":54.62987,"lon":-1.72552,"postcode":"DL14 9JX","la":"County Durham","era":"trad","nn":382,"risk":21,"cat":"green"},{"name":"The Farrers Arms","lat":54.7215,"lon":-1.75078,"postcode":"DL15 9RL","la":"County Durham","era":"trad","nn":546,"risk":18,"cat":"green"},{"name":"The Flintlock Inn","lat":54.70292,"lon":-1.52069,"postcode":"DL17 9HS","la":"County Durham","era":"trad","nn":372,"risk":36,"cat":"amber"},{"name":"The Foodies Bistro and Wine Bar","lat":54.66527,"lon":-1.67599,"postcode":"DL14 7PF","la":"County Durham","era":"other","nn":0,"risk":14,"cat":"green"},{"name":"The Frog and Ferret","lat":54.69831,"lon":-1.58896,"postcode":"DL16 7RS","la":"County Durham","era":"other","nn":298,"risk":16,"cat":"green"},{"name":"The Golden Lion","lat":54.73613,"lon":-2.18008,"postcode":"DL13 1QF","la":"County Durham","era":"trad","nn":221,"risk":35,"cat":"amber"},{"name":"The Golden Lion","lat":54.54311,"lon":-1.92404,"postcode":"DL12 8NB","la":"County Durham","era":"trad","nn":39,"risk":14,"cat":"green"},{"name":"The Grand Electric Hall","lat":54.70019,"lon":-1.59943,"postcode":"DL16 6DJ","la":"County Durham","era":"other","nn":79,"risk":14,"cat":"green"},{"name":"The Grand Hotel","lat":54.65561,"lon":-1.6708,"postcode":"DL14 6DU","la":"County Durham","era":"other","nn":389,"risk":16,"cat":"green"},{"name":"The Green","lat":54.7302,"lon":-1.75105,"postcode":"DL15 9TA","la":"County Durham","era":"other","nn":508,"risk":35,"cat":"amber"},{"name":"The Green Tree","lat":54.65626,"lon":-1.67675,"postcode":"DL14 6EN","la":"County Durham","era":"other","nn":126,"risk":15,"cat":"green"},{"name":"The Green Tree 1727","lat":54.7142,"lon":-1.59647,"postcode":"DL16 6LE","la":"County Durham","era":"other","nn":511,"risk":22,"cat":"green"},{"name":"The Greyhound","lat":54.68902,"lon":-1.55639,"postcode":"DL17 8JN","la":"County Durham","era":"trad","nn":0,"risk":14,"cat":"green"},{"name":"The Horse Shoe Inn","lat":54.71483,"lon":-1.74429,"postcode":"DL15 9BG","la":"County Durham","era":"trad","nn":0,"risk":14,"cat":"green"},{"name":"The Huntsman","lat":54.63346,"lon":-1.56644,"postcode":"DL5 4UE","la":"County Durham","era":"other","nn":987,"risk":41,"cat":"amber"},{"name":"The Iron Horse","lat":54.6144,"lon":-1.57589,"postcode":"DL5 5HQ","la":"County Durham","era":"trad","nn":385,"risk":16,"cat":"green"},{"name":"The Joiners Arms","lat":54.68661,"lon":-1.70916,"postcode":"DL15 0JW","la":"County Durham","era":"trad","nn":634,"risk":38,"cat":"amber"},{"name":"The K G H Club","lat":54.69695,"lon":-1.60583,"postcode":"DL16 7LD","la":"County Durham","era":"other","nn":36,"risk":14,"cat":"green"},{"name":"The Kings Head","lat":54.65917,"lon":-1.67623,"postcode":"DL14 7EJ","la":"County Durham","era":"trad","nn":154,"risk":15,"cat":"green"},{"name":"The Little Tap","lat":54.70121,"lon":-1.59901,"postcode":"DL16 6QQ","la":"County Durham","era":"mod","nn":57,"risk":14,"cat":"green"},{"name":"The Locomotive Inn","lat":54.62633,"lon":-1.64818,"postcode":"DL4 1HL","la":"County Durham","era":"trad","nn":266,"risk":16,"cat":"green"},{"name":"The Manor","lat":54.64855,"lon":-1.677,"postcode":"DL14 6UR","la":"County Durham","era":"other","nn":611,"risk":18,"cat":"green"},{"name":"The Mitre","lat":54.66049,"lon":-1.67547,"postcode":"DL14 7EN","la":"County Durham","era":"other","nn":0,"risk":14,"cat":"green"},{"name":"The Moors Tavern","lat":54.7018,"lon":-1.59939,"postcode":"DL16 6QH","la":"County Durham","era":"other","nn":71,"risk":14,"cat":"green"},{"name":"The Moss Inn","lat":54.74089,"lon":-1.78325,"postcode":"DL13 4LW","la":"County Durham","era":"trad","nn":1877,"risk":49,"cat":"amber"},{"name":"The Newmarket","lat":54.74665,"lon":-1.81497,"postcode":"DL13 4AA","la":"County Durham","era":"other","nn":0,"risk":16,"cat":"green"},{"name":"The Old Well Inn","lat":54.54175,"lon":-1.92417,"postcode":"DL12 8PH","la":"County Durham","era":"trad","nn":107,"risk":15,"cat":"green"},{"name":"The Pack Horse Inn","lat":54.74711,"lon":-2.00677,"postcode":"DL13 2UJ","la":"County Durham","era":"trad","nn":86,"risk":14,"cat":"green"},{"name":"The Pavilion","lat":54.66059,"lon":-1.67312,"postcode":"DL14 7JU","la":"County Durham","era":"trad","nn":0,"risk":14,"cat":"green"},{"name":"The Penny Gill","lat":54.69999,"lon":-1.60062,"postcode":"DL16 6QE","la":"County Durham","era":"other","nn":71,"risk":14,"cat":"green"},{"name":"The Phoenix Club Ltd","lat":54.61932,"lon":-1.57576,"postcode":"DL5 4LG","la":"County Durham","era":"other","nn":73,"risk":14,"cat":"green"},{"name":"The Post Boy","lat":54.69012,"lon":-1.55382,"postcode":"DL17 8HX","la":"County Durham","era":"other","nn":0,"risk":14,"cat":"green"},{"name":"The Queens Head","lat":54.63564,"lon":-1.65662,"postcode":"DL4 1AZ","la":"County Durham","era":"trad","nn":103,"risk":14,"cat":"green"},{"name":"The Queens Head","lat":54.61354,"lon":-1.80329,"postcode":"DL13 5AA","la":"County Durham","era":"trad","nn":542,"risk":38,"cat":"amber"},{"name":"The Queens Head","lat":54.71166,"lon":-1.69532,"postcode":"DL15 0PF","la":"County Durham","era":"trad","nn":0,"risk":14,"cat":"green"},{"name":"The Railway","lat":54.69663,"lon":-1.60577,"postcode":"DL16 7SE","la":"County Durham","era":"trad","nn":36,"risk":14,"cat":"green"},{"name":"The Red Alligator","lat":54.65059,"lon":-1.66339,"postcode":"DL14 6SP","la":"County Durham","era":"other","nn":734,"risk":36,"cat":"amber"},{"name":"The Red Lion","lat":54.6342,"lon":-1.64626,"postcode":"DL4 1DX","la":"County Durham","era":"trad","nn":84,"risk":14,"cat":"green"},{"name":"The Red Lion","lat":54.68962,"lon":-1.73245,"postcode":"DL15 8AL","la":"County Durham","era":"trad","nn":1336,"risk":46,"cat":"amber"},{"name":"The Red Well Inn","lat":54.55382,"lon":-1.91838,"postcode":"DL12 8QJ","la":"County Durham","era":"trad","nn":283,"risk":18,"cat":"green"},{"name":"The Riverview  Bar & Grill","lat":54.73977,"lon":-2.00227,"postcode":"DL13 2PS","la":"County Durham","era":"mod","nn":642,"risk":21,"cat":"green"},{"name":"The Rose and Crown","lat":54.59419,"lon":-2.00994,"postcode":"DL12 9EB","la":"County Durham","era":"trad","nn":157,"risk":35,"cat":"amber"},{"name":"The Royal British Legion Club","lat":54.67282,"lon":-1.52909,"postcode":"DL17 0DQ","la":"County Durham","era":"trad","nn":33,"risk":31,"cat":"amber"},{"name":"The Royal George Tavern","lat":54.63275,"lon":-1.64896,"postcode":"DL4 1AJ","la":"County Durham","era":"trad","nn":69,"risk":14,"cat":"green"},{"name":"The Royal Oak","lat":54.69948,"lon":-1.65271,"postcode":"DL16 7NP","la":"County Durham","era":"trad","nn":258,"risk":36,"cat":"amber"},{"name":"The Royal Telegraph","lat":54.59811,"lon":-1.56184,"postcode":"DL5 6LG","la":"County Durham","era":"trad","nn":124,"risk":32,"cat":"amber"},{"name":"The Ship Inn","lat":54.67472,"lon":-1.60977,"postcode":"DL14 8AB","la":"County Durham","era":"trad","nn":760,"risk":37,"cat":"amber"},{"name":"The Stanley Jefferson","lat":54.66529,"lon":-1.67303,"postcode":"DL14 7NJ","la":"County Durham","era":"other","nn":103,"risk":14,"cat":"green"},{"name":"The Surtees Arms","lat":54.67266,"lon":-1.52952,"postcode":"DL17 0DH","la":"County Durham","era":"trad","nn":33,"risk":34,"cat":"amber"},{"name":"The Three Tuns","lat":54.64832,"lon":-1.7502,"postcode":"DL14 0JA","la":"County Durham","era":"other","nn":614,"risk":36,"cat":"amber"},{"name":"The Three Tuns","lat":54.63461,"lon":-1.64736,"postcode":"DL4 1EF","la":"County Durham","era":"other","nn":84,"risk":14,"cat":"green"},{"name":"The Timothy Hackworth","lat":54.63249,"lon":-1.6543,"postcode":"DL4 1AW","la":"County Durham","era":"other","nn":286,"risk":16,"cat":"green"},{"name":"The Top House","lat":54.66606,"lon":-1.64746,"postcode":"DL14 8QB","la":"County Durham","era":"other","nn":1030,"risk":43,"cat":"amber"},{"name":"The Turbinia","lat":54.62544,"lon":-1.58242,"postcode":"DL5 7PA","la":"County Durham","era":"other","nn":346,"risk":16,"cat":"green"},{"name":"The Turks Head","lat":54.54318,"lon":-1.92346,"postcode":"DL12 8NE","la":"County Durham","era":"trad","nn":39,"risk":14,"cat":"green"},{"name":"The Vault","lat":54.71559,"lon":-1.74656,"postcode":"DL15 9HT","la":"County Durham","era":"other","nn":0,"risk":14,"cat":"green"},{"name":"The Victoria","lat":54.70082,"lon":-1.60371,"postcode":"DL16 6AL","la":"County Durham","era":"trad","nn":217,"risk":15,"cat":"green"},{"name":"The Village Inn","lat":54.67557,"lon":-1.59805,"postcode":"DL16 7JQ","la":"County Durham","era":"trad","nn":132,"risk":32,"cat":"amber"},{"name":"The Voltigeur","lat":54.69891,"lon":-1.6044,"postcode":"DL16 6AS","la":"County Durham","era":"other","nn":0,"risk":14,"cat":"green"},{"name":"The White Horse","lat":54.68902,"lon":-1.55639,"postcode":"DL17 8JN","la":"County Durham","era":"trad","nn":0,"risk":14,"cat":"green"},{"name":"The White Swan","lat":54.71559,"lon":-1.74656,"postcode":"DL15 9HT","la":"County Durham","era":"trad","nn":0,"risk":14,"cat":"green"},{"name":"The Winning Post","lat":54.6959,"lon":-1.59099,"postcode":"DL16 7RY","la":"County Durham","era":"trad","nn":298,"risk":16,"cat":"green"},{"name":"Three Tuns Hotel","lat":54.66038,"lon":-1.6266,"postcode":"DL14 8LL","la":"County Durham","era":"other","nn":384,"risk":16,"cat":"green"},{"name":"Tindale Crossing","lat":54.63741,"lon":-1.68672,"postcode":"DL14 9TW","la":"County Durham","era":"trad","nn":430,"risk":22,"cat":"green"},{"name":"Tindale WMC & Institute","lat":54.64109,"lon":-1.6899,"postcode":"DL14 9SS","la":"County Durham","era":"other","nn":438,"risk":22,"cat":"green"},{"name":"Tow Law Masonic Hall","lat":54.74176,"lon":-1.81244,"postcode":"DL13 4LE","la":"County Durham","era":"trad","nn":343,"risk":19,"cat":"green"},{"name":"Tow Law Town AFC","lat":54.74656,"lon":-1.81862,"postcode":"DL13 4EQ","la":"County Durham","era":"other","nn":234,"risk":18,"cat":"green"},{"name":"Travellers Rest","lat":54.61953,"lon":-1.75969,"postcode":"DL14 9QD","la":"County Durham","era":"other","nn":19,"risk":34,"cat":"amber"},{"name":"Travellers Rest","lat":54.71289,"lon":-1.73748,"postcode":"DL15 9HB","la":"County Durham","era":"other","nn":441,"risk":17,"cat":"green"},{"name":"Tudhoe & District Victory Club & Institute Ltd","lat":54.71043,"lon":-1.58909,"postcode":"DL16 6LP","la":"County Durham","era":"other","nn":166,"risk":17,"cat":"green"},{"name":"Tudhoe Cricket & Social Club","lat":54.71007,"lon":-1.59159,"postcode":"DL16 6JY","la":"County Durham","era":"mod","nn":166,"risk":17,"cat":"green"},{"name":"Vale of Tees Masonic Hall","lat":54.62412,"lon":-2.08252,"postcode":"DL12 0SH","la":"County Durham","era":"trad","nn":246,"risk":33,"cat":"amber"},{"name":"Valhalla North Ltd","lat":54.59965,"lon":-1.57652,"postcode":"DL5 6YA","la":"County Durham","era":"other","nn":961,"risk":40,"cat":"amber"},{"name":"Victoria Inn","lat":54.6758,"lon":-1.77215,"postcode":"DL14 0AS","la":"County Durham","era":"trad","nn":221,"risk":35,"cat":"amber"},{"name":"Welcome Inn","lat":54.66247,"lon":-1.67957,"postcode":"DL14 7DS","la":"County Durham","era":"trad","nn":307,"risk":16,"cat":"green"},{"name":"West Auckland Town Football Club","lat":54.63003,"lon":-1.71893,"postcode":"DL14 9HU","la":"County Durham","era":"other","nn":273,"risk":33,"cat":"amber"},{"name":"West Auckland WMC & Institute Ltd","lat":54.63215,"lon":-1.72109,"postcode":"DL14 9HW","la":"County Durham","era":"other","nn":273,"risk":33,"cat":"amber"},{"name":"Wheatsheaf Inn","lat":54.57987,"lon":-1.80599,"postcode":"DL2 3LD","la":"County Durham","era":"trad","nn":216,"risk":35,"cat":"amber"},{"name":"Willington AFC","lat":54.70831,"lon":-1.69215,"postcode":"DL15 0QG","la":"County Durham","era":"other","nn":20,"risk":14,"cat":"green"},{"name":"Willington Cricket Club","lat":54.71207,"lon":-1.68293,"postcode":"DL15 0QX","la":"County Durham","era":"other","nn":363,"risk":16,"cat":"green"},{"name":"Willington Masonic Club","lat":54.71166,"lon":-1.69532,"postcode":"DL15 0PF","la":"County Durham","era":"trad","nn":0,"risk":14,"cat":"green"},{"name":"Willington Prospect WMC","lat":54.71155,"lon":-1.69687,"postcode":"DL15 0DT","la":"County Durham","era":"other","nn":30,"risk":14,"cat":"green"},{"name":"Willington WMC & Institute","lat":54.70845,"lon":-1.69196,"postcode":"DL15 0QG","la":"County Durham","era":"other","nn":20,"risk":14,"cat":"green"},{"name":"Winston Bridge Holiday Park","lat":54.53244,"lon":-1.78692,"postcode":"DL11 7BL","la":"County Durham","era":"other","nn":991,"risk":41,"cat":"amber"},{"name":"Wolsingham Constitutional Club & Institute","lat":54.7301,"lon":-1.88272,"postcode":"DL13 3AE","la":"County Durham","era":"other","nn":121,"risk":20,"cat":"green"},{"name":"Anchor Lodge 1337","lat":54.34116,"lon":-1.43274,"postcode":"DL6 1DP","la":"North Yorkshire","era":"trad","nn":109,"risk":15,"cat":"green"},{"name":"Bedale Riverside Club","lat":54.28981,"lon":-1.59034,"postcode":"DL8 1AH","la":"North Yorkshire","era":"other","nn":177,"risk":18,"cat":"green"},{"name":"Bolton Arms","lat":54.37637,"lon":-1.82678,"postcode":"DL11 6AE","la":"North Yorkshire","era":"trad","nn":3996,"risk":65,"cat":"red"},{"name":"Bolton Arms Hotel","lat":54.30975,"lon":-1.83121,"postcode":"DL8 5BW","la":"North Yorkshire","era":"trad","nn":62,"risk":20,"cat":"green"},{"name":"Cavern Music Bar","lat":54.40414,"lon":-1.73953,"postcode":"DL10 4DP","la":"North Yorkshire","era":"other","nn":99,"risk":15,"cat":"green"},{"name":"Club Amadeus","lat":54.33953,"lon":-1.43245,"postcode":"DL6 1NH","la":"North Yorkshire","era":"other","nn":100,"risk":15,"cat":"green"},{"name":"Comrades Richmond Ltd","lat":54.40391,"lon":-1.74101,"postcode":"DL10 4DT","la":"North Yorkshire","era":"other","nn":0,"risk":14,"cat":"green"},{"name":"Fox And Hounds","lat":54.24894,"lon":-1.52821,"postcode":"DL8 2LG","la":"North Yorkshire","era":"trad","nn":2652,"risk":55,"cat":"amber"},{"name":"Foxglove (Hungry Horse)","lat":54.37687,"lon":-1.72474,"postcode":"DL9 3BA","la":"North Yorkshire","era":"trad","nn":804,"risk":40,"cat":"amber"},{"name":"George And Dragon","lat":54.39749,"lon":-1.77685,"postcode":"DL11 6BL","la":"North Yorkshire","era":"trad","nn":2405,"risk":54,"cat":"amber"},{"name":"Half Moon","lat":54.47417,"lon":-1.64627,"postcode":"DL10 6JH","la":"North Yorkshire","era":"other","nn":3266,"risk":60,"cat":"amber"},{"name":"Hanson Sports And Social Club","lat":54.37823,"lon":-1.68531,"postcode":"DL9 4RG","la":"North Yorkshire","era":"mod","nn":1252,"risk":46,"cat":"amber"},{"name":"Hildyard Arms","lat":54.38673,"lon":-1.69798,"postcode":"DL9 4PD","la":"North Yorkshire","era":"other","nn":1252,"risk":46,"cat":"amber"},{"name":"Holly Hill Inn","lat":54.39778,"lon":-1.73709,"postcode":"DL10 4RJ","la":"North Yorkshire","era":"trad","nn":524,"risk":18,"cat":"green"},{"name":"J T's","lat":54.37555,"lon":-1.70828,"postcode":"DL9 4DH","la":"North Yorkshire","era":"other","nn":545,"risk":38,"cat":"amber"},{"name":"JD Wetherspoon - The Buck Inn","lat":54.34169,"lon":-1.43614,"postcode":"DL7 8LU","la":"North Yorkshire","era":"trad","nn":66,"risk":15,"cat":"green"},{"name":"Little Tanner","lat":54.34123,"lon":-1.43547,"postcode":"DL7 8LU","la":"North Yorkshire","era":"other","nn":66,"risk":15,"cat":"green"},{"name":"Lord Nelson Inn","lat":54.43735,"lon":-1.39984,"postcode":"DL6 2AD","la":"North Yorkshire","era":"trad","nn":2857,"risk":57,"cat":"amber"},{"name":"Louis Bar","lat":54.37249,"lon":-1.71487,"postcode":"DL9 4HE","la":"North Yorkshire","era":"other","nn":545,"risk":36,"cat":"amber"},{"name":"Milbank Arms","lat":54.23251,"lon":-1.59255,"postcode":"DL8 2PX","la":"North Yorkshire","era":"trad","nn":4308,"risk":67,"cat":"red"},{"name":"Nags Head Northallerton","lat":54.33696,"lon":-1.43351,"postcode":"DL7 8PE","la":"North Yorkshire","era":"trad","nn":53,"risk":15,"cat":"green"},{"name":"Northallerton Bowling Club","lat":54.33571,"lon":-1.43486,"postcode":"DL7 8SJ","la":"North Yorkshire","era":"other","nn":164,"risk":15,"cat":"green"},{"name":"Northallerton Rugby Club","lat":54.35383,"lon":-1.43357,"postcode":"DL6 2PZ","la":"North Yorkshire","era":"other","nn":1020,"risk":44,"cat":"amber"},{"name":"Number 29","lat":54.40355,"lon":-1.73576,"postcode":"DL10 4HZ","la":"North Yorkshire","era":"other","nn":148,"risk":15,"cat":"green"},{"name":"Oddfellows","lat":54.34132,"lon":-1.43776,"postcode":"DL7 8DJ","la":"North Yorkshire","era":"other","nn":113,"risk":15,"cat":"green"},{"name":"Penleys","lat":54.41487,"lon":-1.73953,"postcode":"DL10 5EX","la":"North Yorkshire","era":"other","nn":1045,"risk":44,"cat":"amber"},{"name":"Queen Catherine Hotel","lat":54.36841,"lon":-1.29987,"postcode":"DL6 3AG","la":"North Yorkshire","era":"trad","nn":61,"risk":35,"cat":"amber"},{"name":"Red Lion Inn","lat":54.4179,"lon":-1.9935,"postcode":"DL11 6RE","la":"North Yorkshire","era":"trad","nn":5785,"risk":72,"cat":"red"},{"name":"Richmond Rugby Club","lat":54.40036,"lon":-1.72731,"postcode":"DL10 4LL","la":"North Yorkshire","era":"other","nn":652,"risk":19,"cat":"green"},{"name":"Richmondshire Conservative Club","lat":54.40391,"lon":-1.74101,"postcode":"DL10 4DT","la":"North Yorkshire","era":"other","nn":0,"risk":14,"cat":"green"},{"name":"Richmondshire Cricket Club","lat":54.40562,"lon":-1.74242,"postcode":"DL10 4AR","la":"North Yorkshire","era":"other","nn":210,"risk":16,"cat":"green"},{"name":"Shoulder Of Mutton","lat":54.45387,"lon":-1.78574,"postcode":"DL11 7JH","la":"North Yorkshire","era":"other","nn":5267,"risk":72,"cat":"red"},{"name":"Swaledale Outdoor Club","lat":54.40234,"lon":-1.73914,"postcode":"DL10 4QS","la":"North Yorkshire","era":"other","nn":203,"risk":16,"cat":"green"},{"name":"The Bay Horse","lat":54.37621,"lon":-1.63192,"postcode":"DL10 7LP","la":"North Yorkshire","era":"trad","nn":2503,"risk":54,"cat":"amber"},{"name":"The Bay Horse Inn","lat":54.30474,"lon":-1.6274,"postcode":"DL8 1HP","la":"North Yorkshire","era":"trad","nn":2575,"risk":55,"cat":"amber"},{"name":"The Beeswing Inn LLP","lat":54.42336,"lon":-1.5267,"postcode":"DL7 0BD","la":"North Yorkshire","era":"trad","nn":4895,"risk":71,"cat":"red"},{"name":"The Black Bull","lat":54.42843,"lon":-1.63666,"postcode":"DL10 6QJ","la":"North Yorkshire","era":"trad","nn":3758,"risk":63,"cat":"red"},{"name":"The Black Bull","lat":54.47105,"lon":-1.69653,"postcode":"DL10 5ND","la":"North Yorkshire","era":"trad","nn":3266,"risk":60,"cat":"amber"},{"name":"The Black Bull Inn","lat":54.28534,"lon":-1.80465,"postcode":"DL8 4NX","la":"North Yorkshire","era":"trad","nn":81,"risk":35,"cat":"amber"},{"name":"The Black Horse Inn","lat":54.22676,"lon":-1.51318,"postcode":"DL8 2ND","la":"North Yorkshire","era":"trad","nn":2652,"risk":55,"cat":"amber"},{"name":"The Bridge Inn","lat":54.38158,"lon":-1.9295,"postcode":"DL11 6HH","la":"North Yorkshire","era":"trad","nn":5785,"risk":72,"cat":"red"},{"name":"The Brownlow Arms","lat":54.51595,"lon":-1.75356,"postcode":"DL11 7QH","la":"North Yorkshire","era":"trad","nn":2827,"risk":57,"cat":"amber"},{"name":"The Chequers Inn","lat":54.46643,"lon":-1.54226,"postcode":"DL2 2NT","la":"North Yorkshire","era":"trad","nn":2173,"risk":52,"cat":"amber"},{"name":"The Coore Arms","lat":54.32474,"lon":-1.53952,"postcode":"DL7 0QP","la":"North Yorkshire","era":"trad","nn":2680,"risk":56,"cat":"amber"},{"name":"The Countrymans Inn","lat":54.32837,"lon":-1.71014,"postcode":"DL8 1PY","la":"North Yorkshire","era":"trad","nn":3465,"risk":61,"cat":"red"},{"name":"The Cover Bridge Inn","lat":54.27893,"lon":-1.77995,"postcode":"DL8 4SQ","la":"North Yorkshire","era":"trad","nn":1755,"risk":49,"cat":"amber"},{"name":"The Crosby","lat":54.3081,"lon":-1.39096,"postcode":"DL6 3SP","la":"North Yorkshire","era":"other","nn":3320,"risk":60,"cat":"amber"},{"name":"The Crown","lat":54.39255,"lon":-1.66792,"postcode":"DL10 7HE","la":"North Yorkshire","era":"trad","nn":1950,"risk":50,"cat":"amber"},{"name":"The Crown Inn","lat":54.36176,"lon":-1.4239,"postcode":"DL6 2RE","la":"North Yorkshire","era":"trad","nn":1082,"risk":44,"cat":"amber"},{"name":"The Dalesmans Club","lat":54.31026,"lon":-1.83084,"postcode":"DL8 5BP","la":"North Yorkshire","era":"other","nn":62,"risk":20,"cat":"green"},{"name":"The Dante Arms","lat":54.28491,"lon":-1.80564,"postcode":"DL8 4NP","la":"North Yorkshire","era":"trad","nn":81,"risk":35,"cat":"amber"},{"name":"The Durham Ox","lat":54.33736,"lon":-1.43395,"postcode":"DL7 8JX","la":"North Yorkshire","era":"other","nn":53,"risk":15,"cat":"green"},{"name":"The Farmers Arms Inn","lat":54.39679,"lon":-1.61626,"postcode":"DL10 6DW","la":"North Yorkshire","era":"trad","nn":2503,"risk":54,"cat":"amber"},{"name":"The Foresters Arms","lat":54.25748,"lon":-1.89884,"postcode":"DL8 4BB","la":"North Yorkshire","era":"trad","nn":3875,"risk":64,"cat":"red"},{"name":"The Fox And Hounds","lat":54.34222,"lon":-1.39275,"postcode":"DL6 3QP","la":"North Yorkshire","era":"trad","nn":2130,"risk":52,"cat":"amber"},{"name":"The Grange Arms","lat":54.44408,"lon":-1.44249,"postcode":"DL6 2JQ","la":"North Yorkshire","era":"trad","nn":2857,"risk":57,"cat":"amber"},{"name":"The Green Dragon","lat":54.28868,"lon":-1.59266,"postcode":"DL8 1EQ","la":"North Yorkshire","era":"trad","nn":16,"risk":17,"cat":"green"},{"name":"The Green Dragon","lat":54.31619,"lon":-2.20506,"postcode":"DL8 3LZ","la":"North Yorkshire","era":"trad","nn":8116,"risk":72,"cat":"red"},{"name":"The Green Tree Inn","lat":54.31124,"lon":-1.6655,"postcode":"DL8 1JW","la":"North Yorkshire","era":"trad","nn":2575,"risk":55,"cat":"amber"},{"name":"The Greyhound Inn","lat":54.33342,"lon":-1.62826,"postcode":"DL8 1PB","la":"North Yorkshire","era":"trad","nn":3191,"risk":59,"cat":"amber"},{"name":"The Jolly Minster","lat":54.338,"lon":-1.42481,"postcode":"DL6 1EZ","la":"North Yorkshire","era":"other","nn":524,"risk":18,"cat":"green"},{"name":"The Katch","lat":54.33981,"lon":-1.43392,"postcode":"DL7 8PP","la":"North Yorkshire","era":"other","nn":100,"risk":15,"cat":"green"},{"name":"The Kings Arms","lat":54.31551,"lon":-2.07993,"postcode":"DL8 3HQ","la":"North Yorkshire","era":"trad","nn":8116,"risk":72,"cat":"red"},{"name":"The Kings Head","lat":54.31134,"lon":-1.83037,"postcode":"DL8 5AE","la":"North Yorkshire","era":"trad","nn":125,"risk":20,"cat":"green"},{"name":"The Masons Arms","lat":54.34116,"lon":-1.43443,"postcode":"DL7 8EG","la":"North Yorkshire","era":"trad","nn":68,"risk":15,"cat":"green"},{"name":"The Old Black Swan","lat":54.28922,"lon":-1.59287,"postcode":"DL8 1ED","la":"North Yorkshire","era":"trad","nn":26,"risk":17,"cat":"green"},{"name":"The Pheasant Inn","lat":54.3048,"lon":-1.80529,"postcode":"DL8 5PA","la":"North Yorkshire","era":"trad","nn":1765,"risk":49,"cat":"amber"},{"name":"The Reubens","lat":54.30423,"lon":-1.56122,"postcode":"DL7 9AY","la":"North Yorkshire","era":"other","nn":2479,"risk":54,"cat":"amber"},{"name":"The Shed","lat":54.28903,"lon":-1.5931,"postcode":"DL8 1EQ","la":"North Yorkshire","era":"other","nn":26,"risk":17,"cat":"green"},{"name":"The Standard","lat":54.34455,"lon":-1.43819,"postcode":"DL7 8EE","la":"North Yorkshire","era":"other","nn":206,"risk":16,"cat":"green"},{"name":"The Three Tuns Inn","lat":54.36845,"lon":-1.29893,"postcode":"DL6 3BN","la":"North Yorkshire","era":"trad","nn":61,"risk":35,"cat":"amber"},{"name":"The Thwaite Arms","lat":54.22727,"lon":-1.92856,"postcode":"DL8 4TS","la":"North Yorkshire","era":"trad","nn":3875,"risk":64,"cat":"red"},{"name":"The Tickle Toby","lat":54.33868,"lon":-1.43412,"postcode":"DL7 8JZ","la":"North Yorkshire","era":"other","nn":126,"risk":15,"cat":"green"},{"name":"The Travellers Rest","lat":54.41761,"lon":-1.69506,"postcode":"DL10 5DS","la":"North Yorkshire","era":"other","nn":2834,"risk":57,"cat":"amber"},{"name":"The Unicorn Inn Richmond","lat":54.40391,"lon":-1.74101,"postcode":"DL10 4DT","la":"North Yorkshire","era":"trad","nn":0,"risk":14,"cat":"green"},{"name":"The Willow Beck","lat":54.34566,"lon":-1.44074,"postcode":"DL7 8UB","la":"North Yorkshire","era":"trad","nn":206,"risk":16,"cat":"green"},{"name":"Three Horseshoes","lat":54.30245,"lon":-1.86027,"postcode":"DL8 4HJ","la":"North Yorkshire","era":"trad","nn":1394,"risk":47,"cat":"amber"},{"name":"Waggon And Horses","lat":54.28855,"lon":-1.59255,"postcode":"DL8 1EQ","la":"North Yorkshire","era":"trad","nn":16,"risk":17,"cat":"green"},{"name":"Wensleydale RUFC Clubhouse","lat":54.30824,"lon":-1.84121,"postcode":"DL8 5ED","la":"North Yorkshire","era":"other","nn":670,"risk":24,"cat":"green"},{"name":"Wetherspoon - Ralph Fitz Randal","lat":54.40483,"lon":-1.7364,"postcode":"DL10 4AE","la":"North Yorkshire","era":"other","nn":148,"risk":15,"cat":"green"}]