[{"name":"Ardbeg Bowling Club","lat":55.85711,"lon":-5.06638,"postcode":"PA20 0NP","la":"Argyll and Bute","era":"other","nn":2089,"risk":65,"cat":"red"},{"name":"Ardrishaig Bowling And Tennis Club","lat":56.01819,"lon":-5.4478,"postcode":"PA30 8EU","la":"Argyll and Bute","era":"other","nn":2219,"risk":66,"cat":"red"},{"name":"Argyll Hotel","lat":56.03563,"lon":-5.43043,"postcode":"PA31 8JN","la":"Argyll and Bute","era":"other","nn":561,"risk":52,"cat":"amber"},{"name":"Argyll Social Club","lat":55.95733,"lon":-4.92476,"postcode":"PA23 8ER","la":"Argyll and Bute","era":"mod","nn":687,"risk":33,"cat":"amber"},{"name":"Aulays Bar","lat":56.41249,"lon":-5.47175,"postcode":"PA34 5SQ","la":"Argyll and Bute","era":"other","nn":170,"risk":34,"cat":"amber"},{"name":"Burnside Bar","lat":55.42452,"lon":-5.60636,"postcode":"PA28 6JE","la":"Argyll and Bute","era":"other","nn":76,"risk":33,"cat":"amber"},{"name":"Campbeltown Town Hall","lat":55.42389,"lon":-5.6059,"postcode":"PA28 6AB","la":"Argyll and Bute","era":"other","nn":76,"risk":33,"cat":"amber"},{"name":"Clansman Bar","lat":55.94944,"lon":-4.92581,"postcode":"PA23 8AA","la":"Argyll and Bute","era":"other","nn":38,"risk":28,"cat":"green"},{"name":"Commercial Bar","lat":55.95114,"lon":-4.92771,"postcode":"PA23 7HA","la":"Argyll and Bute","era":"other","nn":161,"risk":29,"cat":"green"},{"name":"Dunoon Argyll Masonic Lodge No. 335","lat":55.94976,"lon":-4.9269,"postcode":"PA23 7DD","la":"Argyll and Bute","era":"trad","nn":74,"risk":28,"cat":"green"},{"name":"Fiddlers Inn","lat":55.427,"lon":-5.60827,"postcode":"PA28 6DL","la":"Argyll and Bute","era":"trad","nn":216,"risk":34,"cat":"amber"},{"name":"Grapes Bar","lat":55.83752,"lon":-5.0561,"postcode":"PA20 0HJ","la":"Argyll and Bute","era":"other","nn":105,"risk":31,"cat":"amber"},{"name":"Innellan Golf Club","lat":55.89846,"lon":-4.9563,"postcode":"PA23 7SG","la":"Argyll and Bute","era":"trad","nn":4844,"risk":84,"cat":"red"},{"name":"Kinloch Bar","lat":55.42876,"lon":-5.60678,"postcode":"PA28 6DN","la":"Argyll and Bute","era":"other","nn":216,"risk":34,"cat":"amber"},{"name":"Kirn & Hunters Quay Bowling Club","lat":55.96302,"lon":-4.92049,"postcode":"PA23 8LT","la":"Argyll and Bute","era":"other","nn":687,"risk":53,"cat":"amber"},{"name":"Lochgilphead Bowling Club","lat":56.03931,"lon":-5.4366,"postcode":"PA31 8NX","la":"Argyll and Bute","era":"trad","nn":561,"risk":52,"cat":"amber"},{"name":"Lodge Rothesay St John, No.292","lat":55.83859,"lon":-5.06073,"postcode":"PA20 0BJ","la":"Argyll and Bute","era":"other","nn":232,"risk":32,"cat":"amber"},{"name":"Oban Inn","lat":56.41498,"lon":-5.47346,"postcode":"PA34 5NJ","la":"Argyll and Bute","era":"trad","nn":135,"risk":34,"cat":"amber"},{"name":"Queen's Hall","lat":55.94745,"lon":-4.92412,"postcode":"PA23 7HH","la":"Argyll and Bute","era":"trad","nn":78,"risk":28,"cat":"green"},{"name":"Sinbad's Bar","lat":55.9492,"lon":-4.92625,"postcode":"PA23 7DH","la":"Argyll and Bute","era":"other","nn":38,"risk":28,"cat":"green"},{"name":"Soroba House","lat":56.3989,"lon":-5.47101,"postcode":"PA34 4SB","la":"Argyll and Bute","era":"other","nn":1512,"risk":61,"cat":"red"},{"name":"Strone Inn","lat":55.98401,"lon":-4.90366,"postcode":"PA23 8TA","la":"Argyll and Bute","era":"trad","nn":2558,"risk":68,"cat":"red"},{"name":"Tartan Tavern","lat":56.4171,"lon":-5.47346,"postcode":"PA34 5NY","la":"Argyll and Bute","era":"other","nn":236,"risk":34,"cat":"amber"},{"name":"Taverna Bar","lat":55.83749,"lon":-5.05304,"postcode":"PA20 9AB","la":"Argyll and Bute","era":"other","nn":36,"risk":30,"cat":"green"},{"name":"The Black Bull","lat":55.83764,"lon":-5.05255,"postcode":"PA20 9AG","la":"Argyll and Bute","era":"trad","nn":36,"risk":30,"cat":"green"},{"name":"The Islander Bar","lat":55.83735,"lon":-5.05774,"postcode":"PA20 0HU","la":"Argyll and Bute","era":"other","nn":105,"risk":31,"cat":"amber"},{"name":"The View","lat":56.41399,"lon":-5.4722,"postcode":"PA34 5SD","la":"Argyll and Bute","era":"other","nn":135,"risk":34,"cat":"amber"},{"name":"Tryst","lat":55.94747,"lon":-4.92537,"postcode":"PA23 7DL","la":"Argyll and Bute","era":"other","nn":78,"risk":28,"cat":"green"},{"name":"Victoria Bar","lat":55.94715,"lon":-4.92744,"postcode":"PA23 7DR","la":"Argyll and Bute","era":"trad","nn":134,"risk":29,"cat":"green"},{"name":"175 Masonic Club","lat":55.95166,"lon":-4.76621,"postcode":"PA16 8NF","la":"Inverclyde","era":"trad","nn":179,"risk":28,"cat":"green"},{"name":"Ardgowan Club","lat":55.95153,"lon":-4.76916,"postcode":"PA16 8EH","la":"Inverclyde","era":"other","nn":184,"risk":28,"cat":"green"},{"name":"Britannia Social Club","lat":55.94501,"lon":-4.75363,"postcode":"PA15 1DJ","la":"Inverclyde","era":"other","nn":198,"risk":29,"cat":"green"},{"name":"Broomhill Bar","lat":55.94189,"lon":-4.76586,"postcode":"PA15 4HF","la":"Inverclyde","era":"other","nn":422,"risk":30,"cat":"green"},{"name":"Burns Lounge","lat":55.93692,"lon":-4.82461,"postcode":"PA16 0RH","la":"Inverclyde","era":"mod","nn":2060,"risk":64,"cat":"red"},{"name":"Cafe Continental","lat":55.9619,"lon":-4.82008,"postcode":"PA19 1ND","la":"Inverclyde","era":"other","nn":94,"risk":28,"cat":"green"},{"name":"Carnock Bar","lat":55.94393,"lon":-4.7488,"postcode":"PA15 1HB","la":"Inverclyde","era":"other","nn":296,"risk":29,"cat":"green"},{"name":"Celtic Supporters Club","lat":55.95115,"lon":-4.76025,"postcode":"PA15 1LB","la":"Inverclyde","era":"other","nn":66,"risk":28,"cat":"green"},{"name":"Chaplins","lat":55.94773,"lon":-4.76583,"postcode":"PA15 1TF","la":"Inverclyde","era":"other","nn":73,"risk":28,"cat":"green"},{"name":"Cleats Bar Room","lat":55.96207,"lon":-4.81861,"postcode":"PA19 1NA","la":"Inverclyde","era":"mod","nn":31,"risk":27,"cat":"green"},{"name":"Connellys","lat":55.95004,"lon":-4.76029,"postcode":"PA15 1JU","la":"Inverclyde","era":"other","nn":56,"risk":28,"cat":"green"},{"name":"Donnachies Bar","lat":55.93573,"lon":-4.68914,"postcode":"PA14 5EY","la":"Inverclyde","era":"other","nn":235,"risk":34,"cat":"amber"},{"name":"Gourock Bowling Club","lat":55.96024,"lon":-4.82088,"postcode":"PA19 1JX","la":"Inverclyde","era":"other","nn":191,"risk":29,"cat":"green"},{"name":"Greenock Cricket Club","lat":55.95522,"lon":-4.77759,"postcode":"PA16 8NY","la":"Inverclyde","era":"other","nn":362,"risk":30,"cat":"green"},{"name":"Greenock Golf Club","lat":55.95198,"lon":-4.77696,"postcode":"PA16 8RE","la":"Inverclyde","era":"other","nn":362,"risk":30,"cat":"green"},{"name":"Greenock Morton Supporters","lat":55.94588,"lon":-4.75787,"postcode":"PA15 4PL","la":"Inverclyde","era":"other","nn":29,"risk":27,"cat":"green"},{"name":"Greenock Rangers Supporters Club","lat":55.94486,"lon":-4.75725,"postcode":"PA15 4QQ","la":"Inverclyde","era":"other","nn":120,"risk":28,"cat":"green"},{"name":"Greenock Wanderers Rugby Football Club","lat":55.96072,"lon":-4.79143,"postcode":"PA16 7PX","la":"Inverclyde","era":"other","nn":903,"risk":51,"cat":"amber"},{"name":"Grosvenor Bowling Club","lat":55.94298,"lon":-4.75937,"postcode":"PA15 4QE","la":"Inverclyde","era":"other","nn":247,"risk":29,"cat":"green"},{"name":"Hole In The Wa","lat":55.95051,"lon":-4.7619,"postcode":"PA15 1XA","la":"Inverclyde","era":"other","nn":74,"risk":28,"cat":"green"},{"name":"Horseshoe Bar","lat":55.94971,"lon":-4.76299,"postcode":"PA15 1SR","la":"Inverclyde","era":"trad","nn":68,"risk":28,"cat":"green"},{"name":"Inverclyde Navy Club","lat":55.94608,"lon":-4.75817,"postcode":"PA15 4PP","la":"Inverclyde","era":"other","nn":29,"risk":27,"cat":"green"},{"name":"Kellybank Caravan Park Clubhouse","lat":55.87754,"lon":-4.87678,"postcode":"PA18 6BB","la":"Inverclyde","era":"other","nn":822,"risk":50,"cat":"amber"},{"name":"Kempock Bar","lat":55.96181,"lon":-4.81846,"postcode":"PA19 1NB","la":"Inverclyde","era":"other","nn":31,"risk":27,"cat":"green"},{"name":"Lady Alice Bowling Club","lat":55.94719,"lon":-4.77075,"postcode":"PA16 9AF","la":"Inverclyde","era":"other","nn":122,"risk":28,"cat":"green"},{"name":"Lighthouse Bar","lat":55.9462,"lon":-4.75126,"postcode":"PA15 1DG","la":"Inverclyde","era":"mod","nn":198,"risk":29,"cat":"green"},{"name":"Lodge Doric Kilwinning No. 68","lat":55.93472,"lon":-4.69442,"postcode":"PA14 5BP","la":"Inverclyde","era":"trad","nn":347,"risk":35,"cat":"amber"},{"name":"Loreto Club","lat":55.95327,"lon":-4.7661,"postcode":"PA16 8DA","la":"Inverclyde","era":"other","nn":179,"risk":28,"cat":"green"},{"name":"MacGregors","lat":55.95882,"lon":-4.81551,"postcode":"PA19 1RD","la":"Inverclyde","era":"other","nn":169,"risk":28,"cat":"green"},{"name":"Masonic Temple","lat":55.94947,"lon":-4.76198,"postcode":"PA15 1SN","la":"Inverclyde","era":"trad","nn":62,"risk":28,"cat":"green"},{"name":"One Bruce Street","lat":55.94724,"lon":-4.76662,"postcode":"PA15 4LL","la":"Inverclyde","era":"other","nn":73,"risk":28,"cat":"green"},{"name":"Port Glasgow Bowling Club","lat":55.93388,"lon":-4.70431,"postcode":"PA14 5AR","la":"Inverclyde","era":"other","nn":623,"risk":37,"cat":"amber"},{"name":"Rankin Park Bowling Club","lat":55.94273,"lon":-4.78571,"postcode":"PA16 9EU","la":"Inverclyde","era":"other","nn":1055,"risk":57,"cat":"amber"},{"name":"Regent Club","lat":55.94979,"lon":-4.75927,"postcode":"PA15 1JR","la":"Inverclyde","era":"other","nn":47,"risk":28,"cat":"green"},{"name":"Royal Gourock Yacht Club","lat":55.95478,"lon":-4.83342,"postcode":"PA19 1DA","la":"Inverclyde","era":"trad","nn":989,"risk":54,"cat":"amber"},{"name":"Royalle Club","lat":55.95961,"lon":-4.81783,"postcode":"PA19 1PN","la":"Inverclyde","era":"trad","nn":116,"risk":28,"cat":"green"},{"name":"RWSA Boat Club","lat":55.96046,"lon":-4.77693,"postcode":"PA16 7SE","la":"Inverclyde","era":"other","nn":585,"risk":34,"cat":"amber"},{"name":"Station Bar","lat":55.87606,"lon":-4.88968,"postcode":"PA18 6AR","la":"Inverclyde","era":"other","nn":668,"risk":37,"cat":"amber"},{"name":"Text","lat":55.95184,"lon":-4.76099,"postcode":"PA15 1LE","la":"Inverclyde","era":"other","nn":89,"risk":28,"cat":"green"},{"name":"The Black Cat Bar","lat":55.95062,"lon":-4.76072,"postcode":"PA15 1LB","la":"Inverclyde","era":"other","nn":66,"risk":28,"cat":"green"},{"name":"The Caledonian","lat":55.93361,"lon":-4.68894,"postcode":"PA14 5JQ","la":"Inverclyde","era":"other","nn":235,"risk":34,"cat":"amber"},{"name":"The Cardwell Inn","lat":55.95654,"lon":-4.80403,"postcode":"PA19 1UW","la":"Inverclyde","era":"trad","nn":409,"risk":30,"cat":"green"},{"name":"The Green Oak Bar","lat":55.94843,"lon":-4.76334,"postcode":"PA15 1SZ","la":"Inverclyde","era":"trad","nn":143,"risk":28,"cat":"green"},{"name":"The Italian Club","lat":55.95323,"lon":-4.76995,"postcode":"PA16 8DD","la":"Inverclyde","era":"other","nn":195,"risk":29,"cat":"green"},{"name":"The Norseman","lat":55.94183,"lon":-4.72538,"postcode":"PA15 2EY","la":"Inverclyde","era":"other","nn":555,"risk":49,"cat":"amber"},{"name":"The Point","lat":55.94495,"lon":-4.734,"postcode":"PA15 2AD","la":"Inverclyde","era":"other","nn":310,"risk":34,"cat":"amber"},{"name":"The Victoria Bar","lat":55.96043,"lon":-4.8167,"postcode":"PA19 1RB","la":"Inverclyde","era":"trad","nn":116,"risk":28,"cat":"green"},{"name":"Tokyo Joe","lat":55.94958,"lon":-4.75992,"postcode":"PA15 1JR","la":"Inverclyde","era":"other","nn":47,"risk":28,"cat":"green"},{"name":"Torpedo Factory Club","lat":55.95612,"lon":-4.81056,"postcode":"PA19 1RW","la":"Inverclyde","era":"other","nn":409,"risk":30,"cat":"green"},{"name":"Upper Port Glasgow Social Club","lat":55.92012,"lon":-4.66738,"postcode":"PA14 5UN","la":"Inverclyde","era":"mod","nn":2013,"risk":64,"cat":"red"},{"name":"Victoria Bowling Club","lat":55.94217,"lon":-4.73428,"postcode":"PA15 4TA","la":"Inverclyde","era":"trad","nn":310,"risk":34,"cat":"amber"},{"name":"Westburn Bar","lat":55.94925,"lon":-4.76106,"postcode":"PA15 1RY","la":"Inverclyde","era":"other","nn":62,"risk":28,"cat":"green"},{"name":"Whinhill Clubhouse","lat":55.93566,"lon":-4.76289,"postcode":"PA16 9LN","la":"Inverclyde","era":"other","nn":717,"risk":50,"cat":"amber"},{"name":"Willow Bar","lat":55.94682,"lon":-4.76891,"postcode":"PA15 4DA","la":"Inverclyde","era":"trad","nn":122,"risk":28,"cat":"green"},{"name":"Eglinton Bar","lat":55.87087,"lon":-4.88428,"postcode":"PA17 5AH","la":"North Ayrshire","era":"other","nn":233,"risk":29,"cat":"green"},{"name":"Skelmorlie Bowling Club","lat":55.86926,"lon":-4.88665,"postcode":"PA17 5DX","la":"North Ayrshire","era":"trad","nn":233,"risk":31,"cat":"amber"},{"name":"Skelmorlie Golf Club","lat":55.86521,"lon":-4.87752,"postcode":"PA17 5ES","la":"North Ayrshire","era":"trad","nn":726,"risk":47,"cat":"amber"},{"name":"# Bar","lat":55.84465,"lon":-4.42663,"postcode":"PA1 1XY","la":"Renfrewshire","era":"other","nn":0,"risk":24,"cat":"green"},{"name":"Abercorn Bowling Club","lat":55.84824,"lon":-4.41622,"postcode":"PA1 3PZ","la":"Renfrewshire","era":"other","nn":199,"risk":25,"cat":"green"},{"name":"Anchor Bar","lat":55.84626,"lon":-4.41946,"postcode":"PA1 1ES","la":"Renfrewshire","era":"trad","nn":16,"risk":24,"cat":"green"},{"name":"Anchor Bowling Club","lat":55.84272,"lon":-4.41085,"postcode":"PA1 1JS","la":"Renfrewshire","era":"trad","nn":313,"risk":26,"cat":"green"},{"name":"Anderson Catering","lat":55.8828,"lon":-4.40267,"postcode":"PA4 9EG","la":"Renfrewshire","era":"other","nn":919,"risk":48,"cat":"amber"},{"name":"Argyll Bar","lat":55.84755,"lon":-4.42502,"postcode":"PA3 2AL","la":"Renfrewshire","era":"other","nn":86,"risk":25,"cat":"green"},{"name":"Balnagowan Arms","lat":55.83469,"lon":-4.42297,"postcode":"PA2 6NA","la":"Renfrewshire","era":"trad","nn":78,"risk":25,"cat":"green"},{"name":"Bar 20:10","lat":55.83753,"lon":-4.51574,"postcode":"PA5 8SP","la":"Renfrewshire","era":"mod","nn":111,"risk":25,"cat":"green"},{"name":"Bianco - E - Nero Function Suite","lat":55.8481,"lon":-4.42698,"postcode":"PA3 2HL","la":"Renfrewshire","era":"other","nn":0,"risk":24,"cat":"green"},{"name":"Bishopton Sports and Social Club","lat":55.90703,"lon":-4.50446,"postcode":"PA7 5JQ","la":"Renfrewshire","era":"other","nn":214,"risk":45,"cat":"amber"},{"name":"Blacklandmill Bowling Club","lat":55.8246,"lon":-4.43544,"postcode":"PA2 8DZ","la":"Renfrewshire","era":"trad","nn":379,"risk":47,"cat":"amber"},{"name":"Braehead Tavern","lat":55.88778,"lon":-4.42821,"postcode":"PA4 9NH","la":"Renfrewshire","era":"trad","nn":703,"risk":46,"cat":"amber"},{"name":"Brookfield Village Hall","lat":55.8481,"lon":-4.53085,"postcode":"PA5 8UB","la":"Renfrewshire","era":"other","nn":1507,"risk":57,"cat":"amber"},{"name":"Bull Inn","lat":55.84459,"lon":-4.42605,"postcode":"PA1 1XU","la":"Renfrewshire","era":"trad","nn":12,"risk":24,"cat":"green"},{"name":"Bungalow Bar","lat":55.84398,"lon":-4.42561,"postcode":"PA1 1YB","la":"Renfrewshire","era":"other","nn":65,"risk":24,"cat":"green"},{"name":"Burgh Bar","lat":55.84659,"lon":-4.40545,"postcode":"PA1 3PN","la":"Renfrewshire","era":"other","nn":61,"risk":24,"cat":"green"},{"name":"Burns Howff","lat":55.87989,"lon":-4.38839,"postcode":"PA4 8PD","la":"Renfrewshire","era":"other","nn":163,"risk":25,"cat":"green"},{"name":"Caledonia Bar","lat":55.8632,"lon":-4.42976,"postcode":"PA3 2TJ","la":"Renfrewshire","era":"other","nn":0,"risk":26,"cat":"green"},{"name":"Caledonia Bowling Club","lat":55.85271,"lon":-4.4312,"postcode":"PA3 2LA","la":"Renfrewshire","era":"other","nn":482,"risk":27,"cat":"green"},{"name":"Callums","lat":55.83649,"lon":-4.51032,"postcode":"PA5 8AH","la":"Renfrewshire","era":"other","nn":125,"risk":25,"cat":"green"},{"name":"Castle Social Club","lat":55.84304,"lon":-4.43742,"postcode":"PA1 2JP","la":"Renfrewshire","era":"mod","nn":66,"risk":24,"cat":"green"},{"name":"Charleston Arms Bar","lat":55.83235,"lon":-4.42319,"postcode":"PA2 6EW","la":"Renfrewshire","era":"trad","nn":41,"risk":24,"cat":"green"},{"name":"Charleston Bowling Club","lat":55.83632,"lon":-4.42721,"postcode":"PA2 6DF","la":"Renfrewshire","era":"other","nn":255,"risk":26,"cat":"green"},{"name":"Clippens Inn","lat":55.84701,"lon":-4.50354,"postcode":"PA3 3PU","la":"Renfrewshire","era":"trad","nn":866,"risk":48,"cat":"amber"},{"name":"Club 69","lat":55.84972,"lon":-4.42349,"postcode":"PA3 2AZ","la":"Renfrewshire","era":"other","nn":242,"risk":26,"cat":"green"},{"name":"Cochrane Castle Golf Club","lat":55.8228,"lon":-4.51629,"postcode":"PA5 0HF","la":"Renfrewshire","era":"other","nn":95,"risk":30,"cat":"green"},{"name":"Colliers","lat":55.83716,"lon":-4.51388,"postcode":"PA5 8SG","la":"Renfrewshire","era":"other","nn":32,"risk":24,"cat":"green"},{"name":"Columba Club","lat":55.88583,"lon":-4.38431,"postcode":"PA4 8SL","la":"Renfrewshire","era":"other","nn":0,"risk":24,"cat":"green"},{"name":"Cottons Bar","lat":55.88219,"lon":-4.38503,"postcode":"PA4 8SA","la":"Renfrewshire","era":"other","nn":0,"risk":24,"cat":"green"},{"name":"Cotton's Bar","lat":55.88219,"lon":-4.38503,"postcode":"PA4 8SA","la":"Renfrewshire","era":"other","nn":0,"risk":24,"cat":"green"},{"name":"Crown Bar","lat":55.84282,"lon":-4.44135,"postcode":"PA1 2NG","la":"Renfrewshire","era":"trad","nn":143,"risk":25,"cat":"green"},{"name":"David Lloyd Club","lat":55.86379,"lon":-4.40083,"postcode":"PA4 0RD","la":"Renfrewshire","era":"other","nn":601,"risk":31,"cat":"amber"},{"name":"Davidsons Bar","lat":55.87832,"lon":-4.38751,"postcode":"PA4 8QU","la":"Renfrewshire","era":"other","nn":0,"risk":24,"cat":"green"},{"name":"De Beers","lat":55.84486,"lon":-4.42916,"postcode":"PA1 2AS","la":"Renfrewshire","era":"other","nn":60,"risk":24,"cat":"green"},{"name":"Eastside Diner","lat":55.84694,"lon":-4.40621,"postcode":"PA1 3PE","la":"Renfrewshire","era":"other","nn":61,"risk":24,"cat":"green"},{"name":"Elderslie Golf Club","lat":55.83801,"lon":-4.47609,"postcode":"PA5 9AZ","la":"Renfrewshire","era":"other","nn":228,"risk":31,"cat":"amber"},{"name":"Elderslie Wallace Bowling Club","lat":55.83726,"lon":-4.4795,"postcode":"PA5 9AS","la":"Renfrewshire","era":"other","nn":52,"risk":29,"cat":"green"},{"name":"Erskine Bowling & Rec Club","lat":55.91151,"lon":-4.46172,"postcode":"PA8 6AB","la":"Renfrewshire","era":"other","nn":408,"risk":47,"cat":"amber"},{"name":"Erskine Golf Club (catering)","lat":55.91984,"lon":-4.50517,"postcode":"PA7 5PH","la":"Renfrewshire","era":"other","nn":1258,"risk":55,"cat":"amber"},{"name":"Ferguslie Bowling Club","lat":55.84143,"lon":-4.44617,"postcode":"PA1 2QP","la":"Renfrewshire","era":"other","nn":338,"risk":26,"cat":"green"},{"name":"Gabriels","lat":55.84665,"lon":-4.41769,"postcode":"PA1 1EX","la":"Renfrewshire","era":"other","nn":109,"risk":25,"cat":"green"},{"name":"Garthland Social Club","lat":55.79604,"lon":-4.6269,"postcode":"PA12 4AA","la":"Renfrewshire","era":"mod","nn":0,"risk":29,"cat":"green"},{"name":"Globe Bar","lat":55.83595,"lon":-4.50854,"postcode":"PA5 8JU","la":"Renfrewshire","era":"other","nn":0,"risk":24,"cat":"green"},{"name":"Habbies Bar & Grill","lat":55.83709,"lon":-4.55227,"postcode":"PA10 2LN","la":"Renfrewshire","era":"mod","nn":0,"risk":41,"cat":"amber"},{"name":"Harvies Bar","lat":55.84661,"lon":-4.40349,"postcode":"PA1 3NU","la":"Renfrewshire","era":"other","nn":0,"risk":24,"cat":"green"},{"name":"Harvies Bar","lat":55.84661,"lon":-4.40349,"postcode":"PA1 3NU","la":"Renfrewshire","era":"other","nn":0,"risk":24,"cat":"green"},{"name":"Hawkhead Bowling Club","lat":55.84439,"lon":-4.39472,"postcode":"PA1 3NQ","la":"Renfrewshire","era":"trad","nn":600,"risk":28,"cat":"green"},{"name":"Hazel Arms","lat":55.8282,"lon":-4.50525,"postcode":"PA5 0BP","la":"Renfrewshire","era":"trad","nn":512,"risk":28,"cat":"green"},{"name":"Horse Shoe","lat":55.84112,"lon":-4.43014,"postcode":"PA1 2HQ","la":"Renfrewshire","era":"trad","nn":308,"risk":26,"cat":"green"},{"name":"Houston Inn","lat":55.86993,"lon":-4.55006,"postcode":"PA6 7HF","la":"Renfrewshire","era":"trad","nn":2679,"risk":65,"cat":"red"},{"name":"Iconic Fitness","lat":55.8464,"lon":-4.41938,"postcode":"PA1 1HA","la":"Renfrewshire","era":"other","nn":16,"risk":24,"cat":"green"},{"name":"Inchinnan Community Association","lat":55.89204,"lon":-4.43654,"postcode":"PA4 9QG","la":"Renfrewshire","era":"trad","nn":328,"risk":44,"cat":"amber"},{"name":"Inkerman Bowling Club","lat":55.85366,"lon":-4.46117,"postcode":"PA3 3AA","la":"Renfrewshire","era":"other","nn":1441,"risk":57,"cat":"amber"},{"name":"Inn on the Corner","lat":55.84105,"lon":-4.42468,"postcode":"PA1 1YP","la":"Renfrewshire","era":"trad","nn":39,"risk":24,"cat":"green"},{"name":"Jaybees","lat":55.84173,"lon":-4.44004,"postcode":"PA1 2UB","la":"Renfrewshire","era":"other","nn":146,"risk":25,"cat":"green"},{"name":"Johnstone Bowling Club","lat":55.83163,"lon":-4.51072,"postcode":"PA5 8LR","la":"Renfrewshire","era":"other","nn":500,"risk":27,"cat":"green"},{"name":"Kelburne Cricket Club","lat":55.85029,"lon":-4.40756,"postcode":"PA1 3SF","la":"Renfrewshire","era":"other","nn":381,"risk":27,"cat":"green"},{"name":"Kennedy's Bar","lat":55.84349,"lon":-4.42329,"postcode":"PA1 1UL","la":"Renfrewshire","era":"other","nn":116,"risk":25,"cat":"green"},{"name":"Kilbarchan Bowling Club","lat":55.83067,"lon":-4.53896,"postcode":"PA10 2AS","la":"Renfrewshire","era":"other","nn":498,"risk":47,"cat":"amber"},{"name":"Kilmacolm Catering","lat":55.88982,"lon":-4.6212,"postcode":"PA13 4AD","la":"Inverclyde","era":"other","nn":0,"risk":47,"cat":"amber"},{"name":"Kilmacolm Golf Club","lat":55.88982,"lon":-4.6212,"postcode":"PA13 4AD","la":"Inverclyde","era":"other","nn":0,"risk":47,"cat":"amber"},{"name":"Kind Mans","lat":55.87832,"lon":-4.38751,"postcode":"PA4 8QU","la":"Renfrewshire","era":"other","nn":0,"risk":24,"cat":"green"},{"name":"Lilybank Sport & Social Club","lat":55.83807,"lon":-4.50946,"postcode":"PA5 8BQ","la":"Renfrewshire","era":"mod","nn":184,"risk":25,"cat":"green"},{"name":"Linwood Bowling Club","lat":55.84952,"lon":-4.48778,"postcode":"PA3 3AJ","la":"Renfrewshire","era":"other","nn":0,"risk":26,"cat":"green"},{"name":"Linwood Farm","lat":55.8427,"lon":-4.4735,"postcode":"PA3 3FE","la":"Renfrewshire","era":"other","nn":546,"risk":30,"cat":"green"},{"name":"Linwood Welfare Recreational & Social","lat":55.84952,"lon":-4.48778,"postcode":"PA3 3AJ","la":"Renfrewshire","era":"mod","nn":0,"risk":26,"cat":"green"},{"name":"Lochwinnoch Golf Club","lat":55.79589,"lon":-4.63741,"postcode":"PA12 4AN","la":"Renfrewshire","era":"trad","nn":535,"risk":33,"cat":"amber"},{"name":"Lodge Craigends","lat":55.84953,"lon":-4.49025,"postcode":"PA3 3DR","la":"Renfrewshire","era":"other","nn":78,"risk":25,"cat":"green"},{"name":"Lodge Georgetown Cardonald","lat":55.84862,"lon":-4.37974,"postcode":"PA1 3AX","la":"Renfrewshire","era":"trad","nn":465,"risk":45,"cat":"amber"},{"name":"Lodge Houston St. Johnstone","lat":55.83762,"lon":-4.5125,"postcode":"PA5 8AR","la":"Renfrewshire","era":"other","nn":100,"risk":25,"cat":"green"},{"name":"Lord of the Isles","lat":55.879,"lon":-4.3714,"postcode":"PA4 8XQ","la":"Renfrewshire","era":"other","nn":0,"risk":24,"cat":"green"},{"name":"Lorimers","lat":55.90855,"lon":-4.50657,"postcode":"PA7 5JB","la":"Renfrewshire","era":"other","nn":214,"risk":45,"cat":"amber"},{"name":"Masonic Hall","lat":55.89079,"lon":-4.44131,"postcode":"PA4 9QN","la":"Renfrewshire","era":"trad","nn":328,"risk":44,"cat":"amber"},{"name":"Masonic Halls","lat":55.87005,"lon":-4.39386,"postcode":"PA4 0SB","la":"Renfrewshire","era":"trad","nn":213,"risk":25,"cat":"green"},{"name":"Mecca Bingo","lat":55.8415,"lon":-4.42188,"postcode":"PA1 1UB","la":"Renfrewshire","era":"other","nn":147,"risk":25,"cat":"green"},{"name":"Meikleriggs Bowling Club","lat":55.83549,"lon":-4.44305,"postcode":"PA2 9PP","la":"Renfrewshire","era":"other","nn":688,"risk":29,"cat":"green"},{"name":"Mojito","lat":55.84341,"lon":-4.42538,"postcode":"PA1 1YD","la":"Renfrewshire","era":"other","nn":65,"risk":24,"cat":"green"},{"name":"Old Course Ranfurly Golf Club","lat":55.85235,"lon":-4.57941,"postcode":"PA11 3DE","la":"Renfrewshire","era":"other","nn":2397,"risk":63,"cat":"red"},{"name":"Paisley Golf Club","lat":55.81187,"lon":-4.4453,"postcode":"PA2 8TZ","la":"Renfrewshire","era":"other","nn":1167,"risk":55,"cat":"amber"},{"name":"Paisley Indoor Bowling Club","lat":55.85019,"lon":-4.41464,"postcode":"PA3 4BT","la":"Renfrewshire","era":"other","nn":239,"risk":26,"cat":"green"},{"name":"Paisley Rugby Club","lat":55.83976,"lon":-4.41252,"postcode":"PA1 1TD","la":"Renfrewshire","era":"other","nn":0,"risk":24,"cat":"green"},{"name":"Peter Scarff Social Club","lat":55.84765,"lon":-4.48396,"postcode":"PA3 3AP","la":"Renfrewshire","era":"mod","nn":317,"risk":26,"cat":"green"},{"name":"Pockets","lat":55.83538,"lon":-4.42285,"postcode":"PA2 6NL","la":"Renfrewshire","era":"other","nn":78,"risk":25,"cat":"green"},{"name":"Power League","lat":55.83976,"lon":-4.41252,"postcode":"PA1 1TD","la":"Renfrewshire","era":"other","nn":0,"risk":24,"cat":"green"},{"name":"Prince Of Wales Masonic Temple","lat":55.87696,"lon":-4.38511,"postcode":"PA4 8TR","la":"Renfrewshire","era":"trad","nn":152,"risk":25,"cat":"green"},{"name":"Priorscroft Bowling Club","lat":55.84464,"lon":-4.4145,"postcode":"PA1 1JY","la":"Renfrewshire","era":"other","nn":299,"risk":26,"cat":"green"},{"name":"Pro 5's","lat":55.85189,"lon":-4.42361,"postcode":"PA3 2BD","la":"Renfrewshire","era":"other","nn":242,"risk":26,"cat":"green"},{"name":"R B L S Paisley Comrades Club","lat":55.84928,"lon":-4.41968,"postcode":"PA3 4BD","la":"Renfrewshire","era":"other","nn":243,"risk":26,"cat":"green"},{"name":"Ralston Bowling Club","lat":55.84505,"lon":-4.37572,"postcode":"PA1 3BL","la":"Renfrewshire","era":"other","nn":469,"risk":30,"cat":"green"},{"name":"Ralston Golf Club","lat":55.84532,"lon":-4.38433,"postcode":"PA1 3DT","la":"Renfrewshire","era":"other","nn":465,"risk":32,"cat":"amber"},{"name":"Renfrew Bowling Club","lat":55.87463,"lon":-4.38725,"postcode":"PA4 0AA","la":"Renfrewshire","era":"other","nn":292,"risk":26,"cat":"green"},{"name":"Renfrew Golf Club (Bar)","lat":55.87852,"lon":-4.39008,"postcode":"PA4 8ND","la":"Renfrewshire","era":"other","nn":105,"risk":25,"cat":"green"},{"name":"Robertson Park Bowling Club","lat":55.8692,"lon":-4.40055,"postcode":"PA4 8DS","la":"Renfrewshire","era":"other","nn":335,"risk":29,"cat":"green"},{"name":"Sandpiper","lat":55.86466,"lon":-4.43211,"postcode":"PA3 2TD","la":"Renfrewshire","era":"other","nn":0,"risk":26,"cat":"green"},{"name":"Silver Tassie","lat":55.8349,"lon":-4.50007,"postcode":"PA5 8JB","la":"Renfrewshire","era":"other","nn":80,"risk":25,"cat":"green"},{"name":"Spateston","lat":55.81809,"lon":-4.53259,"postcode":"PA5 0SG","la":"Renfrewshire","era":"other","nn":311,"risk":46,"cat":"amber"},{"name":"Spateston Bowling Club","lat":55.82056,"lon":-4.53027,"postcode":"PA5 0SQ","la":"Renfrewshire","era":"other","nn":311,"risk":31,"cat":"amber"},{"name":"St Barchans Lodge","lat":55.83709,"lon":-4.55227,"postcode":"PA10 2LN","la":"Renfrewshire","era":"other","nn":0,"risk":41,"cat":"amber"},{"name":"St Peters Mens Club","lat":55.82137,"lon":-4.43736,"postcode":"PA2 8NG","la":"Renfrewshire","era":"other","nn":379,"risk":47,"cat":"amber"},{"name":"Tannahills","lat":55.83272,"lon":-4.42312,"postcode":"PA2 6EN","la":"Renfrewshire","era":"other","nn":41,"risk":24,"cat":"green"},{"name":"Tea Garden Tavern","lat":55.841,"lon":-4.42405,"postcode":"PA1 1YT","la":"Renfrewshire","era":"other","nn":39,"risk":24,"cat":"green"},{"name":"Tennents Bar","lat":55.86466,"lon":-4.43211,"postcode":"PA3 2TD","la":"Renfrewshire","era":"other","nn":0,"risk":26,"cat":"green"},{"name":"The Abbey Bar","lat":55.84636,"lon":-4.42013,"postcode":"PA1 1HA","la":"Renfrewshire","era":"trad","nn":44,"risk":24,"cat":"green"},{"name":"The Black Bull","lat":55.87938,"lon":-4.3857,"postcode":"PA4 8QD","la":"Renfrewshire","era":"trad","nn":65,"risk":24,"cat":"green"},{"name":"The Buddies Bar.","lat":55.84336,"lon":-4.43928,"postcode":"PA1 2LT","la":"Renfrewshire","era":"other","nn":116,"risk":25,"cat":"green"},{"name":"The Cave","lat":55.84465,"lon":-4.42663,"postcode":"PA1 1XY","la":"Renfrewshire","era":"other","nn":0,"risk":24,"cat":"green"},{"name":"The Chefs Bunker","lat":55.82213,"lon":-4.51723,"postcode":"PA5 0HF","la":"Renfrewshire","era":"other","nn":95,"risk":42,"cat":"amber"},{"name":"The Clachan Bar","lat":55.83322,"lon":-4.42309,"postcode":"PA2 6EL","la":"Renfrewshire","era":"other","nn":56,"risk":24,"cat":"green"},{"name":"The Club Bar.","lat":55.84629,"lon":-4.42508,"postcode":"PA1 1BE","la":"Renfrewshire","era":"other","nn":57,"risk":24,"cat":"green"},{"name":"The Corner Bar","lat":55.79604,"lon":-4.6269,"postcode":"PA12 4AA","la":"Renfrewshire","era":"other","nn":0,"risk":29,"cat":"green"},{"name":"The Court Bar","lat":55.8481,"lon":-4.42698,"postcode":"PA3 2HL","la":"Renfrewshire","era":"other","nn":0,"risk":24,"cat":"green"},{"name":"The Craig Dhu","lat":55.83852,"lon":-4.42605,"postcode":"PA2 6DA","la":"Renfrewshire","era":"other","nn":144,"risk":25,"cat":"green"},{"name":"The Eriskyne","lat":55.90839,"lon":-4.46514,"postcode":"PA8 6BS","la":"Renfrewshire","era":"other","nn":408,"risk":47,"cat":"amber"},{"name":"The Ferry Inn","lat":55.88583,"lon":-4.38431,"postcode":"PA4 8SL","la":"Renfrewshire","era":"trad","nn":0,"risk":24,"cat":"green"},{"name":"The Flying Scotsman","lat":55.87122,"lon":-4.39657,"postcode":"PA4 0SA","la":"Renfrewshire","era":"other","nn":137,"risk":25,"cat":"green"},{"name":"The Hagg Bar","lat":55.83376,"lon":-4.51974,"postcode":"PA5 8QY","la":"Renfrewshire","era":"other","nn":309,"risk":26,"cat":"green"},{"name":"The Heritage","lat":55.84884,"lon":-4.49005,"postcode":"PA3 3DL","la":"Renfrewshire","era":"other","nn":78,"risk":25,"cat":"green"},{"name":"The Howwood Inn","lat":55.80965,"lon":-4.55814,"postcode":"PA9 1AR","la":"Renfrewshire","era":"trad","nn":1852,"risk":59,"cat":"amber"},{"name":"The Inn","lat":55.83772,"lon":-4.47971,"postcode":"PA5 9AX","la":"Renfrewshire","era":"trad","nn":52,"risk":29,"cat":"green"},{"name":"The Keg","lat":55.84618,"lon":-4.42408,"postcode":"PA1 1DD","la":"Renfrewshire","era":"other","nn":64,"risk":24,"cat":"green"},{"name":"The Keystone Pub","lat":55.83612,"lon":-4.51221,"postcode":"PA5 8DT","la":"Renfrewshire","era":"other","nn":125,"risk":25,"cat":"green"},{"name":"The Last Post","lat":55.84678,"lon":-4.42483,"postcode":"PA1 1BP","la":"Renfrewshire","era":"other","nn":57,"risk":24,"cat":"green"},{"name":"The New County Bar","lat":55.83697,"lon":-4.51426,"postcode":"PA5 8QG","la":"Renfrewshire","era":"other","nn":32,"risk":24,"cat":"green"},{"name":"The New Globe Bingo & Social Club Ltd","lat":55.83595,"lon":-4.50854,"postcode":"PA5 8JU","la":"Renfrewshire","era":"mod","nn":0,"risk":24,"cat":"green"},{"name":"The Nineteenth","lat":55.87681,"lon":-4.38268,"postcode":"PA4 8UP","la":"Renfrewshire","era":"other","nn":152,"risk":25,"cat":"green"},{"name":"The Northern Way","lat":55.8445,"lon":-4.42283,"postcode":"PA1 1UW","la":"Renfrewshire","era":"other","nn":116,"risk":25,"cat":"green"},{"name":"The Old Swan Inn","lat":55.84659,"lon":-4.42152,"postcode":"PA1 1EB","la":"Renfrewshire","era":"trad","nn":0,"risk":24,"cat":"green"},{"name":"The Paddock Bar","lat":55.83541,"lon":-4.51576,"postcode":"PA5 8QJ","la":"Renfrewshire","era":"other","nn":197,"risk":25,"cat":"green"},{"name":"The Patter Bar","lat":55.84754,"lon":-4.42316,"postcode":"PA3 2AP","la":"Renfrewshire","era":"other","nn":0,"risk":24,"cat":"green"},{"name":"The Projectionist","lat":55.879,"lon":-4.3714,"postcode":"PA4 8XQ","la":"Renfrewshire","era":"other","nn":0,"risk":24,"cat":"green"},{"name":"The Tartan Rose","lat":55.84411,"lon":-4.43797,"postcode":"PA1 2LR","la":"Renfrewshire","era":"other","nn":116,"risk":25,"cat":"green"},{"name":"The Tile Bar","lat":55.84659,"lon":-4.42152,"postcode":"PA1 1EB","la":"Renfrewshire","era":"other","nn":0,"risk":24,"cat":"green"},{"name":"The Trust Inn","lat":55.83351,"lon":-4.54512,"postcode":"PA10 2ET","la":"Renfrewshire","era":"trad","nn":498,"risk":32,"cat":"amber"},{"name":"The Upper Deck","lat":55.86466,"lon":-4.43211,"postcode":"PA3 2TD","la":"Renfrewshire","era":"other","nn":0,"risk":26,"cat":"green"},{"name":"The Wee Howff","lat":55.84496,"lon":-4.42823,"postcode":"PA1 2AN","la":"Renfrewshire","era":"other","nn":60,"risk":24,"cat":"green"},{"name":"Thorn Inn","lat":55.83418,"lon":-4.4999,"postcode":"PA5 8JG","la":"Renfrewshire","era":"trad","nn":80,"risk":25,"cat":"green"},{"name":"Three Churches","lat":55.79449,"lon":-4.62922,"postcode":"PA12 4AD","la":"Renfrewshire","era":"other","nn":225,"risk":31,"cat":"amber"},{"name":"Victoria Bar","lat":55.87245,"lon":-4.39658,"postcode":"PA4 8EY","la":"Renfrewshire","era":"trad","nn":137,"risk":25,"cat":"green"},{"name":"Victoria Bowling Club","lat":55.84342,"lon":-4.43291,"postcode":"PA1 2LJ","la":"Renfrewshire","era":"trad","nn":223,"risk":26,"cat":"green"},{"name":"Wallace Bar.","lat":55.8788,"lon":-4.38584,"postcode":"PA4 8QL","la":"Renfrewshire","era":"other","nn":65,"risk":24,"cat":"green"},{"name":"Wellington","lat":55.83952,"lon":-4.4246,"postcode":"PA1 1TU","la":"Renfrewshire","era":"trad","nn":144,"risk":25,"cat":"green"},{"name":"Wellmeadow Bowling Club","lat":55.84292,"lon":-4.43637,"postcode":"PA1 2ER","la":"Renfrewshire","era":"other","nn":66,"risk":24,"cat":"green"},{"name":"Western Bar","lat":55.87842,"lon":-4.38841,"postcode":"PA4 8QY","la":"Renfrewshire","era":"other","nn":57,"risk":24,"cat":"green"},{"name":"Whisky Joe's","lat":55.8447,"lon":-4.4261,"postcode":"PA1 1XU","la":"Renfrewshire","era":"other","nn":12,"risk":24,"cat":"green"},{"name":"WIlliam Beardmore & Co","lat":55.8632,"lon":-4.42976,"postcode":"PA3 2TJ","la":"Renfrewshire","era":"other","nn":0,"risk":26,"cat":"green"},{"name":"Zambretto Italian","lat":55.84753,"lon":-4.42316,"postcode":"PA3 2AP","la":"Renfrewshire","era":"other","nn":0,"risk":24,"cat":"green"}]