[{"name":"Markyate Cricket & Football Club","lat":51.83793,"lon":-0.46527,"postcode":"AL3 8PT","la":"Dacorum","era":"other","nn":196,"risk":45,"cat":"amber"},{"name":"Rose & Crown","lat":51.81399,"lon":-0.44186,"postcode":"AL3 8DP","la":"Dacorum","era":"trad","nn":699,"risk":51,"cat":"amber"},{"name":"The Plume Of Feathers","lat":51.83304,"lon":-0.45443,"postcode":"AL3 8JP","la":"Dacorum","era":"other","nn":748,"risk":48,"cat":"amber"},{"name":"The Swan Inn","lat":51.83758,"lon":-0.46248,"postcode":"AL3 8PB","la":"Dacorum","era":"trad","nn":196,"risk":45,"cat":"amber"},{"name":"Three Blackbirds","lat":51.81951,"lon":-0.43699,"postcode":"AL3 8BS","la":"Dacorum","era":"other","nn":699,"risk":51,"cat":"amber"},{"name":"Plume Of Feathers","lat":51.8226,"lon":-0.15816,"postcode":"AL6 0LX","la":"East Hertfordshire","era":"other","nn":1448,"risk":57,"cat":"amber"},{"name":"White Horse","lat":51.8338,"lon":-0.16889,"postcode":"AL6 0HA","la":"East Hertfordshire","era":"trad","nn":1159,"risk":55,"cat":"amber"},{"name":"Robin Hood & Little John","lat":51.85562,"lon":-0.21325,"postcode":"AL6 9UB","la":"North Hertfordshire","era":"other","nn":1412,"risk":57,"cat":"amber"},{"name":"Abbey Theatre","lat":51.74514,"lon":-0.34507,"postcode":"AL1 2DL","la":"St Albans","era":"trad","nn":458,"risk":28,"cat":"green"},{"name":"Alban's Well","lat":51.75384,"lon":-0.33791,"postcode":"AL1 3DY","la":"St Albans","era":"other","nn":83,"risk":26,"cat":"green"},{"name":"Aldwickbury Park Golf Club","lat":51.81196,"lon":-0.33423,"postcode":"AL5 1AB","la":"St Albans","era":"other","nn":832,"risk":36,"cat":"amber"},{"name":"Amble Inn","lat":51.82238,"lon":-0.34021,"postcode":"AL5 4UL","la":"St Albans","era":"trad","nn":0,"risk":27,"cat":"green"},{"name":"Batchwood Hall Bowls Club","lat":51.76738,"lon":-0.35465,"postcode":"AL3 5XA","la":"St Albans","era":"other","nn":119,"risk":43,"cat":"amber"},{"name":"Batchwood Hall Golf Club","lat":51.76652,"lon":-0.35363,"postcode":"AL3 5XA","la":"St Albans","era":"other","nn":119,"risk":43,"cat":"amber"},{"name":"Bennet's Club","lat":51.81374,"lon":-0.35619,"postcode":"AL5 2HU","la":"St Albans","era":"other","nn":3,"risk":25,"cat":"green"},{"name":"Bistro Gautier","lat":51.82238,"lon":-0.34021,"postcode":"AL5 4UL","la":"St Albans","era":"other","nn":0,"risk":27,"cat":"green"},{"name":"Blackberry Jack","lat":51.76979,"lon":-0.29781,"postcode":"AL4 9RG","la":"St Albans","era":"other","nn":867,"risk":49,"cat":"amber"},{"name":"Bricket Wood Social Club","lat":51.70747,"lon":-0.36296,"postcode":"AL2 3LG","la":"St Albans","era":"mod","nn":427,"risk":33,"cat":"amber"},{"name":"Cawsburger catering @ The Snug Bar","lat":51.75164,"lon":-0.34043,"postcode":"AL3 5DU","la":"St Albans","era":"other","nn":44,"risk":25,"cat":"green"},{"name":"Chequers Inn","lat":51.79338,"lon":-0.39152,"postcode":"AL3 7AD","la":"St Albans","era":"trad","nn":654,"risk":50,"cat":"amber"},{"name":"County Constitutional Club","lat":51.74874,"lon":-0.32873,"postcode":"AL1 3AG","la":"St Albans","era":"other","nn":190,"risk":26,"cat":"green"},{"name":"Craft and Cleaver","lat":51.7556,"lon":-0.33762,"postcode":"AL3 5BU","la":"St Albans","era":"mod","nn":174,"risk":26,"cat":"green"},{"name":"Dylans","lat":51.7514,"lon":-0.34212,"postcode":"AL3 4ER","la":"St Albans","era":"other","nn":0,"risk":25,"cat":"green"},{"name":"Elliswick Lawn Tennis Club","lat":51.8193,"lon":-0.34664,"postcode":"AL5 4TP","la":"St Albans","era":"other","nn":559,"risk":29,"cat":"green"},{"name":"Eric Morecambe Centre","lat":51.81302,"lon":-0.35826,"postcode":"AL5 2FR","la":"St Albans","era":"other","nn":137,"risk":26,"cat":"green"},{"name":"Harpenden Bowling Club","lat":51.81377,"lon":-0.34637,"postcode":"AL5 5NN","la":"St Albans","era":"other","nn":520,"risk":29,"cat":"green"},{"name":"Harpenden Golf Club","lat":51.7992,"lon":-0.36601,"postcode":"AL5 2AX","la":"St Albans","era":"other","nn":548,"risk":49,"cat":"amber"},{"name":"Harpenden Lawn Tennis Club","lat":51.81397,"lon":-0.35953,"postcode":"AL5 2EF","la":"St Albans","era":"other","nn":137,"risk":26,"cat":"green"},{"name":"Harpenden Rugby Club","lat":51.80224,"lon":-0.37228,"postcode":"AL5 2BA","la":"St Albans","era":"other","nn":548,"risk":49,"cat":"amber"},{"name":"Hatfield Road Sports & Social Club","lat":51.75219,"lon":-0.32101,"postcode":"AL1 4JL","la":"St Albans","era":"mod","nn":102,"risk":26,"cat":"green"},{"name":"Havana Dance Club","lat":51.75125,"lon":-0.33587,"postcode":"AL1 3HZ","la":"St Albans","era":"other","nn":139,"risk":26,"cat":"green"},{"name":"Hoo House","lat":51.81783,"lon":-0.35807,"postcode":"AL5 2SP","la":"St Albans","era":"other","nn":0,"risk":25,"cat":"green"},{"name":"Horn of Plenty","lat":51.75045,"lon":-0.32891,"postcode":"AL1 3TE","la":"St Albans","era":"other","nn":161,"risk":26,"cat":"green"},{"name":"Inn On The Green","lat":51.81375,"lon":-0.35623,"postcode":"AL5 2HU","la":"St Albans","era":"trad","nn":3,"risk":25,"cat":"green"},{"name":"Jolly Sailor","lat":51.75786,"lon":-0.33303,"postcode":"AL1 4AA","la":"St Albans","era":"other","nn":396,"risk":28,"cat":"green"},{"name":"London Colney Football Club","lat":51.72847,"lon":-0.30732,"postcode":"AL2 1DW","la":"St Albans","era":"other","nn":0,"risk":30,"cat":"green"},{"name":"LRERA","lat":51.74032,"lon":-0.30863,"postcode":"AL1 5AS","la":"St Albans","era":"other","nn":845,"risk":51,"cat":"amber"},{"name":"Maltings Theatre","lat":51.75131,"lon":-0.3381,"postcode":"AL1 3HL","la":"St Albans","era":"other","nn":99,"risk":26,"cat":"green"},{"name":"Mid-Herts Golf Club","lat":51.83288,"lon":-0.30118,"postcode":"AL4 8RR","la":"St Albans","era":"other","nn":2068,"risk":62,"cat":"red"},{"name":"Miller & Carter - St Albans","lat":51.75218,"lon":-0.33787,"postcode":"AL1 3JJ","la":"St Albans","era":"trad","nn":35,"risk":25,"cat":"green"},{"name":"Miller & Carter - Wheathampstead","lat":51.81339,"lon":-0.2931,"postcode":"AL4 8BS","la":"St Albans","era":"trad","nn":219,"risk":47,"cat":"amber"},{"name":"Moor Mill Beefeater","lat":51.70656,"lon":-0.35231,"postcode":"AL2 3PN","la":"St Albans","era":"trad","nn":314,"risk":45,"cat":"amber"},{"name":"Must Wine Bar","lat":51.7514,"lon":-0.34212,"postcode":"AL3 4ER","la":"St Albans","era":"other","nn":0,"risk":25,"cat":"green"},{"name":"New Greens Community Centre","lat":51.77026,"lon":-0.3394,"postcode":"AL3 6DL","la":"St Albans","era":"other","nn":832,"risk":51,"cat":"amber"},{"name":"Oddfellows Arms","lat":51.81473,"lon":-0.35702,"postcode":"AL5 2TG","la":"St Albans","era":"trad","nn":80,"risk":26,"cat":"green"},{"name":"Old Albanians Sports Club","lat":51.77709,"lon":-0.33447,"postcode":"AL3 6BB","la":"St Albans","era":"other","nn":832,"risk":51,"cat":"amber"},{"name":"Old Bell","lat":51.82432,"lon":-0.36749,"postcode":"AL5 3BN","la":"St Albans","era":"other","nn":970,"risk":49,"cat":"amber"},{"name":"Old Cock Inn","lat":51.81783,"lon":-0.35807,"postcode":"AL5 2SP","la":"St Albans","era":"trad","nn":0,"risk":25,"cat":"green"},{"name":"Old Verulamians","lat":51.72847,"lon":-0.30732,"postcode":"AL2 1DW","la":"St Albans","era":"other","nn":0,"risk":30,"cat":"green"},{"name":"Phoenix Barber Co","lat":51.76366,"lon":-0.3056,"postcode":"AL4 9RD","la":"St Albans","era":"other","nn":148,"risk":44,"cat":"amber"},{"name":"Prae Wood Arms","lat":51.76273,"lon":-0.36509,"postcode":"AL3 6JZ","la":"St Albans","era":"trad","nn":885,"risk":49,"cat":"amber"},{"name":"Punchin Palooka","lat":51.75258,"lon":-0.34101,"postcode":"AL3 4DE","la":"St Albans","era":"other","nn":49,"risk":25,"cat":"green"},{"name":"Queens Head","lat":51.78088,"lon":-0.30377,"postcode":"AL4 9DL","la":"St Albans","era":"trad","nn":133,"risk":43,"cat":"amber"},{"name":"Redbourn Golf Club","lat":51.81204,"lon":-0.39145,"postcode":"AL3 7QA","la":"St Albans","era":"other","nn":1711,"risk":59,"cat":"amber"},{"name":"Slug & Lettuce","lat":51.75208,"lon":-0.33739,"postcode":"AL1 3JJ","la":"St Albans","era":"other","nn":35,"risk":25,"cat":"green"},{"name":"Snack Bar","lat":51.74048,"lon":-0.2617,"postcode":"AL4 0NP","la":"St Albans","era":"other","nn":1,"risk":42,"cat":"amber"},{"name":"St Albans City Football Club","lat":51.75353,"lon":-0.32405,"postcode":"AL1 4NF","la":"St Albans","era":"other","nn":59,"risk":25,"cat":"green"},{"name":"St Albans Conservative Club","lat":51.75181,"lon":-0.32236,"postcode":"AL1 4JE","la":"St Albans","era":"other","nn":86,"risk":26,"cat":"green"},{"name":"St Albans Irish Association","lat":51.72847,"lon":-0.30732,"postcode":"AL2 1DW","la":"St Albans","era":"other","nn":0,"risk":30,"cat":"green"},{"name":"St Albans Lawn Tennis Club","lat":51.76238,"lon":-0.30501,"postcode":"AL4 9AE","la":"St Albans","era":"other","nn":148,"risk":44,"cat":"amber"},{"name":"St Albans Townsend Tennis & Bowls Club","lat":51.76017,"lon":-0.33768,"postcode":"AL3 5PA","la":"St Albans","era":"other","nn":411,"risk":28,"cat":"green"},{"name":"Suckerpunch Bar","lat":51.75154,"lon":-0.34164,"postcode":"AL3 4ES","la":"St Albans","era":"other","nn":36,"risk":25,"cat":"green"},{"name":"The Alban Arena","lat":51.75294,"lon":-0.33638,"postcode":"AL1 3LD","la":"St Albans","era":"other","nn":67,"risk":25,"cat":"green"},{"name":"The Beehive Ph","lat":51.74944,"lon":-0.33572,"postcode":"AL1 1QL","la":"St Albans","era":"other","nn":80,"risk":26,"cat":"green"},{"name":"The Black Boy","lat":51.71009,"lon":-0.37639,"postcode":"AL2 3RU","la":"St Albans","era":"other","nn":970,"risk":52,"cat":"amber"},{"name":"The Boot","lat":51.75159,"lon":-0.3398,"postcode":"AL3 5DG","la":"St Albans","era":"other","nn":44,"risk":25,"cat":"green"},{"name":"The Bull","lat":51.71923,"lon":-0.28868,"postcode":"AL2 1QU","la":"St Albans","era":"trad","nn":145,"risk":31,"cat":"amber"},{"name":"The Carpenters Arms","lat":51.80651,"lon":-0.34251,"postcode":"AL5 1BD","la":"St Albans","era":"trad","nn":222,"risk":27,"cat":"green"},{"name":"The Cock Inn","lat":51.75438,"lon":-0.33603,"postcode":"AL1 3NF","la":"St Albans","era":"trad","nn":125,"risk":26,"cat":"green"},{"name":"The Colney Fox","lat":51.71902,"lon":-0.2866,"postcode":"AL2 1BL","la":"St Albans","era":"trad","nn":145,"risk":31,"cat":"amber"},{"name":"The Cricketers of Redbourn","lat":51.79528,"lon":-0.40052,"postcode":"AL3 7ND","la":"St Albans","era":"other","nn":654,"risk":50,"cat":"amber"},{"name":"The Crooked Billet","lat":51.74049,"lon":-0.26171,"postcode":"AL4 0NP","la":"St Albans","era":"other","nn":1,"risk":42,"cat":"amber"},{"name":"The Cross Keys","lat":51.81678,"lon":-0.35654,"postcode":"AL5 2SD","la":"St Albans","era":"trad","nn":157,"risk":26,"cat":"green"},{"name":"The Crown","lat":51.75116,"lon":-0.32304,"postcode":"AL1 4JA","la":"St Albans","era":"trad","nn":86,"risk":26,"cat":"green"},{"name":"The Elephant and Castle","lat":51.80502,"lon":-0.3081,"postcode":"AL4 8EA","la":"St Albans","era":"other","nn":1207,"risk":56,"cat":"amber"},{"name":"The Engineer","lat":51.80488,"lon":-0.34585,"postcode":"AL5 1DJ","la":"St Albans","era":"other","nn":293,"risk":27,"cat":"green"},{"name":"The Farmers Boy","lat":51.74844,"lon":-0.33348,"postcode":"AL1 1PQ","la":"St Albans","era":"other","nn":0,"risk":25,"cat":"green"},{"name":"The Farrier's Arms","lat":51.7529,"lon":-0.34323,"postcode":"AL3 4PT","la":"St Albans","era":"trad","nn":72,"risk":25,"cat":"green"},{"name":"The Fox","lat":51.83238,"lon":-0.3855,"postcode":"AL5 3QE","la":"St Albans","era":"trad","nn":1528,"risk":58,"cat":"amber"},{"name":"The Garibaldi","lat":51.74872,"lon":-0.33738,"postcode":"AL1 1RT","la":"St Albans","era":"other","nn":53,"risk":25,"cat":"green"},{"name":"The Gate","lat":51.70692,"lon":-0.35683,"postcode":"AL2 3PW","la":"St Albans","era":"other","nn":314,"risk":45,"cat":"amber"},{"name":"The George of Harpenden","lat":51.81499,"lon":-0.35594,"postcode":"AL5 2TB","la":"St Albans","era":"trad","nn":80,"risk":26,"cat":"green"},{"name":"The Gibraltar Castle","lat":51.82371,"lon":-0.3379,"postcode":"AL5 5AH","la":"St Albans","era":"other","nn":198,"risk":29,"cat":"green"},{"name":"The Goat Inn","lat":51.74835,"lon":-0.33787,"postcode":"AL1 1RN","la":"St Albans","era":"trad","nn":0,"risk":25,"cat":"green"},{"name":"The Great Northern","lat":51.74844,"lon":-0.33348,"postcode":"AL1 1PQ","la":"St Albans","era":"other","nn":0,"risk":25,"cat":"green"},{"name":"The Green Dragon","lat":51.71912,"lon":-0.29133,"postcode":"AL2 1RB","la":"St Albans","era":"trad","nn":183,"risk":31,"cat":"amber"},{"name":"The Green Man","lat":51.78072,"lon":-0.30568,"postcode":"AL4 9DD","la":"St Albans","era":"other","nn":69,"risk":43,"cat":"amber"},{"name":"The Hare and Hounds","lat":51.74787,"lon":-0.33714,"postcode":"AL1 1RL","la":"St Albans","era":"trad","nn":74,"risk":25,"cat":"green"},{"name":"The Harpenden Arms","lat":51.81437,"lon":-0.35461,"postcode":"AL5 2TR","la":"St Albans","era":"trad","nn":70,"risk":25,"cat":"green"},{"name":"The Hollybush","lat":51.73481,"lon":-0.38411,"postcode":"AL2 3NN","la":"St Albans","era":"trad","nn":1815,"risk":60,"cat":"amber"},{"name":"The John Bunyan","lat":51.79993,"lon":-0.27554,"postcode":"AL4 8ES","la":"St Albans","era":"other","nn":1807,"risk":60,"cat":"amber"},{"name":"The King Harry","lat":51.74205,"lon":-0.34949,"postcode":"AL3 4BL","la":"St Albans","era":"trad","nn":458,"risk":48,"cat":"amber"},{"name":"The King William IV","lat":51.76635,"lon":-0.32274,"postcode":"AL1 4AH","la":"St Albans","era":"trad","nn":1181,"risk":56,"cat":"amber"},{"name":"The Lower Red Lion","lat":51.752,"lon":-0.34792,"postcode":"AL3 4RX","la":"St Albans","era":"trad","nn":268,"risk":27,"cat":"green"},{"name":"The Malta","lat":51.82474,"lon":-0.34025,"postcode":"AL5 5AH","la":"St Albans","era":"other","nn":198,"risk":26,"cat":"green"},{"name":"The Mermaid","lat":51.75356,"lon":-0.33234,"postcode":"AL1 3RL","la":"St Albans","era":"other","nn":158,"risk":26,"cat":"green"},{"name":"The Overdraught","lat":51.72163,"lon":-0.33828,"postcode":"AL2 2JR","la":"St Albans","era":"other","nn":1667,"risk":59,"cat":"amber"},{"name":"The Peacock","lat":51.75437,"lon":-0.33422,"postcode":"AL1 3RR","la":"St Albans","era":"other","nn":125,"risk":26,"cat":"green"},{"name":"The Peahen","lat":51.75031,"lon":-0.33832,"postcode":"AL1 1NG","la":"St Albans","era":"other","nn":112,"risk":26,"cat":"green"},{"name":"The Plough","lat":51.74852,"lon":-0.25995,"postcode":"AL4 0SE","la":"St Albans","era":"trad","nn":901,"risk":36,"cat":"amber"},{"name":"The Plough","lat":51.73955,"lon":-0.28923,"postcode":"AL4 0RW","la":"St Albans","era":"trad","nn":1339,"risk":57,"cat":"amber"},{"name":"The Plough and Harrow","lat":51.80763,"lon":-0.34519,"postcode":"AL5 1PR","la":"St Albans","era":"trad","nn":222,"risk":27,"cat":"green"},{"name":"The Portland Arms","lat":51.75465,"lon":-0.34733,"postcode":"AL3 4RA","la":"St Albans","era":"trad","nn":292,"risk":27,"cat":"green"},{"name":"The Queens Head","lat":51.80931,"lon":-0.34861,"postcode":"AL5 1PQ","la":"St Albans","era":"trad","nn":300,"risk":27,"cat":"green"},{"name":"The Rats Castle","lat":51.75209,"lon":-0.30886,"postcode":"AL1 4UN","la":"St Albans","era":"other","nn":468,"risk":28,"cat":"green"},{"name":"The Red Cow","lat":51.83022,"lon":-0.34844,"postcode":"AL5 4ND","la":"St Albans","era":"other","nn":830,"risk":51,"cat":"amber"},{"name":"The Robin Hood","lat":51.75062,"lon":-0.33124,"postcode":"AL1 3TG","la":"St Albans","era":"other","nn":88,"risk":26,"cat":"green"},{"name":"The Rose and Crown","lat":51.78013,"lon":-0.306,"postcode":"AL4 9DA","la":"St Albans","era":"trad","nn":69,"risk":43,"cat":"amber"},{"name":"The Royston Club","lat":51.7479,"lon":-0.30951,"postcode":"AL1 5ND","la":"St Albans","era":"other","nn":468,"risk":28,"cat":"green"},{"name":"The Saint and Sinner","lat":51.75321,"lon":-0.33727,"postcode":"AL1 3NA","la":"St Albans","era":"trad","nn":66,"risk":25,"cat":"green"},{"name":"The Silver Cup","lat":51.81187,"lon":-0.35416,"postcode":"AL5 2JF","la":"St Albans","era":"other","nn":251,"risk":27,"cat":"green"},{"name":"The Six Bells","lat":51.75372,"lon":-0.35415,"postcode":"AL3 4SH","la":"St Albans","era":"other","nn":470,"risk":28,"cat":"green"},{"name":"The Speckled Hen","lat":51.75237,"lon":-0.29706,"postcode":"AL4 0XG","la":"St Albans","era":"other","nn":813,"risk":48,"cat":"amber"},{"name":"The St Albans Bowling Club","lat":51.75382,"lon":-0.32334,"postcode":"AL1 4NF","la":"St Albans","era":"other","nn":59,"risk":25,"cat":"green"},{"name":"The Swan","lat":51.8115,"lon":-0.294,"postcode":"AL4 8AR","la":"St Albans","era":"trad","nn":219,"risk":47,"cat":"amber"},{"name":"The Three Horseshoes","lat":51.75517,"lon":-0.26789,"postcode":"AL4 0HP","la":"St Albans","era":"trad","nn":920,"risk":51,"cat":"amber"},{"name":"The Verulam","lat":51.75284,"lon":-0.34428,"postcode":"AL3 4QE","la":"St Albans","era":"other","nn":72,"risk":25,"cat":"green"},{"name":"The Victoria","lat":51.75075,"lon":-0.3325,"postcode":"AL1 3TG","la":"St Albans","era":"trad","nn":88,"risk":26,"cat":"green"},{"name":"The Wheatsheaf","lat":51.815,"lon":-0.35466,"postcode":"AL5 2RT","la":"St Albans","era":"trad","nn":70,"risk":25,"cat":"green"},{"name":"The White Hart Tap","lat":51.74887,"lon":-0.33643,"postcode":"AL1 1QJ","la":"St Albans","era":"other","nn":67,"risk":25,"cat":"green"},{"name":"The White Horse also t/a Daddy's Dim Sum","lat":51.72439,"lon":-0.29583,"postcode":"AL2 1JY","la":"St Albans","era":"trad","nn":663,"risk":30,"cat":"green"},{"name":"The White Lion","lat":51.74835,"lon":-0.33787,"postcode":"AL1 1RN","la":"St Albans","era":"trad","nn":0,"risk":25,"cat":"green"},{"name":"Three Hammers","lat":51.72836,"lon":-0.3599,"postcode":"AL2 3EA","la":"St Albans","era":"other","nn":1667,"risk":59,"cat":"amber"},{"name":"Verulam Golf Club","lat":51.7431,"lon":-0.32656,"postcode":"AL1 1JG","la":"St Albans","era":"other","nn":645,"risk":29,"cat":"green"},{"name":"Wetherspoons","lat":51.75263,"lon":-0.33748,"postcode":"AL1 3LE","la":"St Albans","era":"other","nn":56,"risk":25,"cat":"green"},{"name":"White Swan","lat":51.75222,"lon":-0.34061,"postcode":"AL3 5EA","la":"St Albans","era":"trad","nn":49,"risk":25,"cat":"green"},{"name":"Attimore Hall","lat":51.79964,"lon":-0.18147,"postcode":"AL7 2AD","la":"Welwyn Hatfield","era":"other","nn":0,"risk":50,"cat":"amber"},{"name":"Eight Bells","lat":51.76264,"lon":-0.21353,"postcode":"AL9 5AX","la":"Welwyn Hatfield","era":"other","nn":45,"risk":30,"cat":"green"},{"name":"Franks Pool Club","lat":51.76361,"lon":-0.22705,"postcode":"AL10 0JW","la":"Welwyn Hatfield","era":"other","nn":157,"risk":31,"cat":"amber"},{"name":"Hatfield Social Club","lat":51.76447,"lon":-0.21455,"postcode":"AL9 5ER","la":"Welwyn Hatfield","era":"mod","nn":81,"risk":30,"cat":"green"},{"name":"Hatfield Tap","lat":51.74815,"lon":-0.23484,"postcode":"AL10 9BZ","la":"Welwyn Hatfield","era":"mod","nn":981,"risk":57,"cat":"amber"},{"name":"Horse And Groom","lat":51.76304,"lon":-0.21363,"postcode":"AL9 5AT","la":"Welwyn Hatfield","era":"trad","nn":45,"risk":30,"cat":"green"},{"name":"Pear Tree Inn","lat":51.79002,"lon":-0.19713,"postcode":"AL7 4JJ","la":"Welwyn Hatfield","era":"trad","nn":620,"risk":39,"cat":"amber"},{"name":"Rose and Crown","lat":51.76036,"lon":-0.15395,"postcode":"AL9 6HW","la":"Welwyn Hatfield","era":"trad","nn":1224,"risk":61,"cat":"red"},{"name":"Shamrock Club","lat":51.79964,"lon":-0.18147,"postcode":"AL7 2AD","la":"Welwyn Hatfield","era":"other","nn":0,"risk":50,"cat":"amber"},{"name":"Sibthorpe Arms","lat":51.73264,"lon":-0.21383,"postcode":"AL9 7PL","la":"Welwyn Hatfield","era":"trad","nn":1234,"risk":61,"cat":"red"},{"name":"Stanborough Beefeater & Premier Inn","lat":51.79263,"lon":-0.2098,"postcode":"AL8 6DQ","la":"Welwyn Hatfield","era":"trad","nn":831,"risk":53,"cat":"amber"},{"name":"The Airfield","lat":51.76801,"lon":-0.23196,"postcode":"AL10 0DA","la":"Welwyn Hatfield","era":"other","nn":595,"risk":37,"cat":"amber"},{"name":"The Bakehouse","lat":51.80588,"lon":-0.19736,"postcode":"AL7 1HH","la":"Welwyn Hatfield","era":"other","nn":814,"risk":41,"cat":"amber"},{"name":"The Brocket Arms","lat":51.83727,"lon":-0.26678,"postcode":"AL6 9BT","la":"Welwyn Hatfield","era":"trad","nn":2394,"risk":69,"cat":"red"},{"name":"The Candlestick","lat":51.75961,"lon":-0.17169,"postcode":"AL9 6BA","la":"Welwyn Hatfield","era":"other","nn":1224,"risk":61,"cat":"red"},{"name":"The Cavendish Arms","lat":51.75688,"lon":-0.23683,"postcode":"AL10 9HF","la":"Welwyn Hatfield","era":"trad","nn":679,"risk":52,"cat":"amber"},{"name":"The Chieftain","lat":51.79082,"lon":-0.18792,"postcode":"AL7 3JF","la":"Welwyn Hatfield","era":"other","nn":633,"risk":39,"cat":"amber"},{"name":"The Cowper Arms","lat":51.82438,"lon":-0.19256,"postcode":"AL6 0EA","la":"Welwyn Hatfield","era":"trad","nn":1253,"risk":61,"cat":"red"},{"name":"The Crooked Chimney","lat":51.79621,"lon":-0.24996,"postcode":"AL8 7XE","la":"Welwyn Hatfield","era":"other","nn":1408,"risk":62,"cat":"red"},{"name":"The Doctors Tonic","lat":51.8,"lon":-0.20772,"postcode":"AL8 6PR","la":"Welwyn Hatfield","era":"other","nn":266,"risk":37,"cat":"amber"},{"name":"The Great Northern","lat":51.76374,"lon":-0.21461,"postcode":"AL9 5AE","la":"Welwyn Hatfield","era":"other","nn":81,"risk":30,"cat":"green"},{"name":"The Grove","lat":51.78878,"lon":-0.17933,"postcode":"AL7 4PH","la":"Welwyn Hatfield","era":"other","nn":633,"risk":54,"cat":"amber"},{"name":"The Hedgehog","lat":51.81529,"lon":-0.20333,"postcode":"AL8 7RH","la":"Welwyn Hatfield","era":"other","nn":1029,"risk":60,"cat":"amber"},{"name":"The Hollybush","lat":51.78446,"lon":-0.19639,"postcode":"AL7 4JU","la":"Welwyn Hatfield","era":"trad","nn":620,"risk":52,"cat":"amber"},{"name":"The Hopfields","lat":51.77195,"lon":-0.2246,"postcode":"AL10 0QW","la":"Welwyn Hatfield","era":"other","nn":539,"risk":36,"cat":"amber"},{"name":"The North Star","lat":51.84219,"lon":-0.19407,"postcode":"AL6 0TA","la":"Welwyn Hatfield","era":"other","nn":1355,"risk":62,"cat":"red"},{"name":"The Red Lion","lat":51.81267,"lon":-0.22605,"postcode":"AL6 9AJ","la":"Welwyn Hatfield","era":"trad","nn":419,"risk":53,"cat":"amber"},{"name":"The Red Lion","lat":51.76668,"lon":-0.21482,"postcode":"AL9 5EU","la":"Welwyn Hatfield","era":"trad","nn":247,"risk":32,"cat":"amber"},{"name":"The Rose and Crown","lat":51.83156,"lon":-0.21391,"postcode":"AL6 9LX","la":"Welwyn Hatfield","era":"trad","nn":87,"risk":31,"cat":"amber"},{"name":"The Sheldan Inn","lat":51.81252,"lon":-0.18905,"postcode":"AL7 1NB","la":"Welwyn Hatfield","era":"trad","nn":934,"risk":56,"cat":"amber"},{"name":"The Steamer","lat":51.82756,"lon":-0.21461,"postcode":"AL6 9DP","la":"Welwyn Hatfield","era":"other","nn":242,"risk":32,"cat":"amber"},{"name":"The Sun Inn","lat":51.79724,"lon":-0.22956,"postcode":"AL8 7TN","la":"Welwyn Hatfield","era":"trad","nn":1369,"risk":62,"cat":"red"},{"name":"The Two Willows","lat":51.80239,"lon":-0.20777,"postcode":"AL8 6AL","la":"Welwyn Hatfield","era":"trad","nn":266,"risk":49,"cat":"amber"},{"name":"The Waggoners","lat":51.80955,"lon":-0.22948,"postcode":"AL6 9AA","la":"Welwyn Hatfield","era":"other","nn":419,"risk":53,"cat":"amber"},{"name":"The Wellington","lat":51.8313,"lon":-0.21538,"postcode":"AL6 9LZ","la":"Welwyn Hatfield","era":"trad","nn":105,"risk":31,"cat":"amber"},{"name":"The White Hart","lat":51.8297,"lon":-0.21397,"postcode":"AL6 9EN","la":"Welwyn Hatfield","era":"trad","nn":134,"risk":31,"cat":"amber"},{"name":"The White Hart","lat":51.76277,"lon":-0.22521,"postcode":"AL10 0LW","la":"Welwyn Hatfield","era":"trad","nn":157,"risk":31,"cat":"amber"},{"name":"The White Horse","lat":51.83085,"lon":-0.21338,"postcode":"AL6 9ET","la":"Welwyn Hatfield","era":"trad","nn":61,"risk":30,"cat":"green"},{"name":"The Woodman","lat":51.74575,"lon":-0.17308,"postcode":"AL9 6EA","la":"Welwyn Hatfield","era":"other","nn":1543,"risk":63,"cat":"red"},{"name":"The Woodman Inn","lat":51.72259,"lon":-0.22143,"postcode":"AL9 7TT","la":"Welwyn Hatfield","era":"trad","nn":1234,"risk":61,"cat":"red"},{"name":"The Wrestlers","lat":51.77101,"lon":-0.21691,"postcode":"AL9 5LP","la":"Welwyn Hatfield","era":"other","nn":502,"risk":33,"cat":"amber"},{"name":"Wetherspoon","lat":51.76253,"lon":-0.24054,"postcode":"AL10 9RQ","la":"Welwyn Hatfield","era":"other","nn":679,"risk":40,"cat":"amber"}]