[{"name":"Argyll Bar","lat":56.00246,"lon":-4.73024,"postcode":"G84 7PF","la":"Argyll and Bute","era":"other","nn":199,"risk":29,"cat":"green"},{"name":"Ashton Bar","lat":56.00462,"lon":-4.73682,"postcode":"G84 8UG","la":"Argyll and Bute","era":"other","nn":76,"risk":28,"cat":"green"},{"name":"Barremman Bowling Club","lat":56.02265,"lon":-4.8162,"postcode":"G84 0PP","la":"Argyll and Bute","era":"other","nn":2253,"risk":66,"cat":"red"},{"name":"Clyde Bar","lat":56.00381,"lon":-4.73868,"postcode":"G84 8AX","la":"Argyll and Bute","era":"other","nn":95,"risk":28,"cat":"green"},{"name":"Cove Sailing Club","lat":55.99165,"lon":-4.85389,"postcode":"G84 0NX","la":"Argyll and Bute","era":"other","nn":2245,"risk":66,"cat":"red"},{"name":"Garelochhead Station Trust","lat":56.08055,"lon":-4.8319,"postcode":"G84 0AT","la":"Argyll and Bute","era":"trad","nn":6512,"risk":85,"cat":"red"},{"name":"Helensburgh Bowling Club","lat":56.01082,"lon":-4.72948,"postcode":"G84 9QE","la":"Argyll and Bute","era":"other","nn":812,"risk":33,"cat":"amber"},{"name":"Helensburgh Golf Club - Quality Food Services","lat":56.01166,"lon":-4.71652,"postcode":"G84 9HZ","la":"Argyll and Bute","era":"other","nn":812,"risk":53,"cat":"amber"},{"name":"Lodge St George No. 503","lat":56.00458,"lon":-4.73804,"postcode":"G84 8BN","la":"Argyll and Bute","era":"trad","nn":76,"risk":28,"cat":"green"},{"name":"Royal Bar","lat":56.00309,"lon":-4.73451,"postcode":"G84 8SQ","la":"Argyll and Bute","era":"trad","nn":137,"risk":29,"cat":"green"},{"name":"Royal Northern Yacht Club - Sheilds Catering","lat":56.01677,"lon":-4.78151,"postcode":"G84 8NG","la":"Argyll and Bute","era":"trad","nn":2253,"risk":66,"cat":"red"},{"name":"The Creggans","lat":55.98537,"lon":-4.81958,"postcode":"G84 0JH","la":"Argyll and Bute","era":"other","nn":2245,"risk":66,"cat":"red"},{"name":"The Kitchen @ The Clubhouse","lat":55.96229,"lon":-4.65025,"postcode":"G82 5LB","la":"Argyll and Bute","era":"mod","nn":3819,"risk":77,"cat":"red"},{"name":"The Station Bar","lat":56.00368,"lon":-4.73257,"postcode":"G84 7QA","la":"Argyll and Bute","era":"other","nn":137,"risk":29,"cat":"green"},{"name":"Allan Glen's Sports Club","lat":55.90953,"lon":-4.22198,"postcode":"G64 2NE","la":"East Dunbartonshire","era":"other","nn":578,"risk":32,"cat":"amber"},{"name":"Auchinairn Bowling Club","lat":55.89839,"lon":-4.21701,"postcode":"G64 1NF","la":"East Dunbartonshire","era":"other","nn":731,"risk":35,"cat":"amber"},{"name":"Balmore Golf Club","lat":55.93756,"lon":-4.24518,"postcode":"G64 4AW","la":"East Dunbartonshire","era":"other","nn":2038,"risk":64,"cat":"red"},{"name":"Bar Bliss","lat":55.94119,"lon":-4.15882,"postcode":"G66 1HW","la":"East Dunbartonshire","era":"mod","nn":79,"risk":28,"cat":"green"},{"name":"Bearsden Bowling Club","lat":55.91523,"lon":-4.3365,"postcode":"G61 4AW","la":"East Dunbartonshire","era":"other","nn":832,"risk":39,"cat":"amber"},{"name":"Bearsden Golf Club","lat":55.91958,"lon":-4.34737,"postcode":"G61 4BP","la":"East Dunbartonshire","era":"other","nn":0,"risk":45,"cat":"amber"},{"name":"Bishopbriggs Bowling Club","lat":55.90487,"lon":-4.22627,"postcode":"G64 2RG","la":"East Dunbartonshire","era":"trad","nn":122,"risk":29,"cat":"green"},{"name":"Cadder Freestone Social Club","lat":55.9023,"lon":-4.22643,"postcode":"G64 1QT","la":"East Dunbartonshire","era":"mod","nn":102,"risk":28,"cat":"green"},{"name":"Caddyshack (within Bearsden Golf Club)","lat":55.91958,"lon":-4.34737,"postcode":"G61 4BP","la":"East Dunbartonshire","era":"other","nn":0,"risk":45,"cat":"amber"},{"name":"Campsie Bowling Club","lat":55.97606,"lon":-4.20157,"postcode":"G66 7HD","la":"East Dunbartonshire","era":"other","nn":320,"risk":47,"cat":"amber"},{"name":"Clober Golf Club","lat":55.94636,"lon":-4.32819,"postcode":"G62 7HP","la":"East Dunbartonshire","era":"other","nn":341,"risk":33,"cat":"amber"},{"name":"Crow Tavern","lat":55.90311,"lon":-4.22721,"postcode":"G64 2AB","la":"East Dunbartonshire","era":"other","nn":102,"risk":28,"cat":"green"},{"name":"Drookit Dug","lat":55.97339,"lon":-4.19961,"postcode":"G66 7DB","la":"East Dunbartonshire","era":"other","nn":84,"risk":46,"cat":"amber"},{"name":"Ellangowan Social Club","lat":55.94147,"lon":-4.31747,"postcode":"G62 6PA","la":"East Dunbartonshire","era":"mod","nn":159,"risk":29,"cat":"green"},{"name":"Friendship Circle","lat":55.94223,"lon":-4.31289,"postcode":"G62 8BZ","la":"East Dunbartonshire","era":"trad","nn":90,"risk":28,"cat":"green"},{"name":"Glasgow Golf Club","lat":55.90831,"lon":-4.30216,"postcode":"G61 2TW","la":"East Dunbartonshire","era":"other","nn":389,"risk":50,"cat":"amber"},{"name":"Hayston Golf Club","lat":55.94327,"lon":-4.17132,"postcode":"G66 1RN","la":"East Dunbartonshire","era":"other","nn":0,"risk":28,"cat":"green"},{"name":"Hilton Park Golf Club","lat":55.96842,"lon":-4.36301,"postcode":"G62 7HB","la":"East Dunbartonshire","era":"other","nn":2339,"risk":67,"cat":"red"},{"name":"I Que Cafe Bar And Cue Sports Ltd","lat":55.94047,"lon":-4.15886,"postcode":"G66 1HN","la":"East Dunbartonshire","era":"mod","nn":79,"risk":28,"cat":"green"},{"name":"Killermont Bowling Club","lat":55.91137,"lon":-4.30519,"postcode":"G61 2NX","la":"East Dunbartonshire","era":"other","nn":389,"risk":50,"cat":"amber"},{"name":"Kirkintilloch Bowling Club","lat":55.93715,"lon":-4.15826,"postcode":"G66 1HE","la":"East Dunbartonshire","era":"other","nn":232,"risk":29,"cat":"green"},{"name":"Kirkintilloch Golf Club","lat":55.94327,"lon":-4.17132,"postcode":"G66 1RN","la":"East Dunbartonshire","era":"other","nn":0,"risk":28,"cat":"green"},{"name":"Kirkintilloch Miners Welfare And Social Club","lat":55.93553,"lon":-4.15223,"postcode":"G66 3AA","la":"East Dunbartonshire","era":"mod","nn":289,"risk":30,"cat":"green"},{"name":"Kirkintilloch Rangers Supporters Club","lat":55.93866,"lon":-4.15297,"postcode":"G66 1LR","la":"East Dunbartonshire","era":"other","nn":113,"risk":28,"cat":"green"},{"name":"Lenzie Bowling Club","lat":55.91938,"lon":-4.15379,"postcode":"G66 5AE","la":"East Dunbartonshire","era":"other","nn":561,"risk":52,"cat":"amber"},{"name":"Lenzie Golf Club","lat":55.91475,"lon":-4.15022,"postcode":"G66 5DA","la":"East Dunbartonshire","era":"other","nn":561,"risk":37,"cat":"amber"},{"name":"Lux Nightclub","lat":55.94217,"lon":-4.15635,"postcode":"G66 1PN","la":"East Dunbartonshire","era":"other","nn":126,"risk":29,"cat":"green"},{"name":"Masonic Hall Board","lat":55.93895,"lon":-4.16016,"postcode":"G66 1JF","la":"East Dunbartonshire","era":"trad","nn":188,"risk":29,"cat":"green"},{"name":"McGinley's Bar","lat":55.94173,"lon":-4.15448,"postcode":"G66 1PY","la":"East Dunbartonshire","era":"other","nn":126,"risk":29,"cat":"green"},{"name":"Milngavie Bowling Club","lat":55.94164,"lon":-4.31189,"postcode":"G62 8BY","la":"East Dunbartonshire","era":"other","nn":90,"risk":28,"cat":"green"},{"name":"Milngavie Golf Club","lat":55.9565,"lon":-4.33203,"postcode":"G62 8EP","la":"East Dunbartonshire","era":"other","nn":1152,"risk":58,"cat":"amber"},{"name":"Milngavie Pipe Band","lat":55.93941,"lon":-4.31893,"postcode":"G62 6BT","la":"East Dunbartonshire","era":"other","nn":93,"risk":28,"cat":"green"},{"name":"Milton Of Campsie Bowling Club","lat":55.95845,"lon":-4.15874,"postcode":"G66 8BX","la":"East Dunbartonshire","era":"other","nn":1773,"risk":63,"cat":"red"},{"name":"Peppermint Lounge","lat":55.94284,"lon":-4.15291,"postcode":"G66 1QD","la":"East Dunbartonshire","era":"mod","nn":158,"risk":29,"cat":"green"},{"name":"Quin's Bar","lat":55.90452,"lon":-4.22443,"postcode":"G64 2LT","la":"East Dunbartonshire","era":"other","nn":122,"risk":29,"cat":"green"},{"name":"Talbot Arms","lat":55.94006,"lon":-4.31799,"postcode":"G62 6BU","la":"East Dunbartonshire","era":"trad","nn":93,"risk":28,"cat":"green"},{"name":"The Commercial Inn","lat":55.97271,"lon":-4.19904,"postcode":"G66 7DA","la":"East Dunbartonshire","era":"trad","nn":84,"risk":46,"cat":"amber"},{"name":"The Fort Theatre","lat":55.90551,"lon":-4.23163,"postcode":"G64 2DW","la":"East Dunbartonshire","era":"other","nn":342,"risk":30,"cat":"green"},{"name":"The Kirky Puffer","lat":55.9379,"lon":-4.15417,"postcode":"G66 1NG","la":"East Dunbartonshire","era":"other","nn":113,"risk":28,"cat":"green"},{"name":"The Wheatsheaf Inn","lat":55.93766,"lon":-4.21246,"postcode":"G64 4EN","la":"East Dunbartonshire","era":"trad","nn":534,"risk":51,"cat":"amber"},{"name":"Torrance Victoria Bowling Club","lat":55.9424,"lon":-4.211,"postcode":"G64 4BZ","la":"East Dunbartonshire","era":"trad","nn":534,"risk":51,"cat":"amber"},{"name":"Twechar Miners Welfare Club","lat":55.95711,"lon":-4.08391,"postcode":"G65 9QQ","la":"East Dunbartonshire","era":"other","nn":2593,"risk":68,"cat":"red"},{"name":"West Of Scotland Rugby Football Club","lat":55.93855,"lon":-4.311,"postcode":"G62 6HX","la":"East Dunbartonshire","era":"other","nn":348,"risk":30,"cat":"green"},{"name":"Westermains Bowling Club","lat":55.93719,"lon":-4.16257,"postcode":"G66 1DT","la":"East Dunbartonshire","era":"other","nn":247,"risk":29,"cat":"green"},{"name":"Westerton Bowling Club","lat":55.90706,"lon":-4.33683,"postcode":"G61 1NZ","la":"East Dunbartonshire","era":"other","nn":908,"risk":54,"cat":"amber"},{"name":"Windyhill Golf Club","lat":55.93318,"lon":-4.36598,"postcode":"G61 4QQ","la":"East Dunbartonshire","era":"other","nn":1906,"risk":64,"cat":"red"},{"name":"Flying Horse","lat":55.8019,"lon":-4.3864,"postcode":"G78 1SN","la":"East Renfrewshire","era":"trad","nn":390,"risk":55,"cat":"amber"},{"name":"Frankiez Cafe Bar","lat":55.80314,"lon":-4.39224,"postcode":"G78 1AD","la":"East Renfrewshire","era":"other","nn":390,"risk":55,"cat":"amber"},{"name":"Killoch Bar","lat":55.78442,"lon":-4.42653,"postcode":"G78 3NH","la":"East Renfrewshire","era":"other","nn":373,"risk":55,"cat":"amber"},{"name":"Maxwell's","lat":55.78569,"lon":-4.27464,"postcode":"G76 8BG","la":"East Renfrewshire","era":"other","nn":1060,"risk":63,"cat":"red"},{"name":"Olde House Inn","lat":55.7827,"lon":-4.43165,"postcode":"G78 3JU","la":"East Renfrewshire","era":"other","nn":373,"risk":55,"cat":"amber"},{"name":"The Overlee","lat":55.79068,"lon":-4.23648,"postcode":"G76 7XL","la":"East Renfrewshire","era":"other","nn":1900,"risk":68,"cat":"red"},{"name":"The Rowallan Bar","lat":55.80732,"lon":-4.31689,"postcode":"G46 7RX","la":"East Renfrewshire","era":"other","nn":2529,"risk":73,"cat":"red"},{"name":"The White Cart","lat":55.78032,"lon":-4.26064,"postcode":"G76 8HX","la":"East Renfrewshire","era":"other","nn":1060,"risk":63,"cat":"red"},{"name":"226 Gallowgate","lat":55.85506,"lon":-4.23694,"postcode":"G4 0TS","la":"Glasgow City","era":"other","nn":56,"risk":18,"cat":"green"},{"name":"26 Hope Street","lat":55.8593,"lon":-4.25821,"postcode":"G2 6AA","la":"Glasgow City","era":"other","nn":0,"risk":17,"cat":"green"},{"name":"7th Heaven","lat":55.86511,"lon":-4.27044,"postcode":"G2 4NQ","la":"Glasgow City","era":"other","nn":118,"risk":18,"cat":"green"},{"name":"Alexandra Bar","lat":55.85829,"lon":-4.21554,"postcode":"G31 1QN","la":"Glasgow City","era":"other","nn":70,"risk":18,"cat":"green"},{"name":"Alfie's Bar","lat":55.86393,"lon":-4.25389,"postcode":"G1 2RQ","la":"Glasgow City","era":"other","nn":118,"risk":18,"cat":"green"},{"name":"All Bar One","lat":55.86151,"lon":-4.25438,"postcode":"G2 5TS","la":"Glasgow City","era":"mod","nn":75,"risk":18,"cat":"green"},{"name":"Allison Arms","lat":55.83687,"lon":-4.26991,"postcode":"G41 2AD","la":"Glasgow City","era":"trad","nn":0,"risk":17,"cat":"green"},{"name":"Alpen Lodge","lat":55.85922,"lon":-4.25944,"postcode":"G2 6AB","la":"Glasgow City","era":"other","nn":25,"risk":17,"cat":"green"},{"name":"Aragon Bar","lat":55.87313,"lon":-4.2965,"postcode":"G12 8TT","la":"Glasgow City","era":"other","nn":147,"risk":18,"cat":"green"},{"name":"Argyle Tavern","lat":55.85003,"lon":-4.11149,"postcode":"G69 6SL","la":"Glasgow City","era":"other","nn":0,"risk":17,"cat":"green"},{"name":"Arlington Bar","lat":55.86928,"lon":-4.27391,"postcode":"G3 6HB","la":"Glasgow City","era":"other","nn":105,"risk":18,"cat":"green"},{"name":"Armstrong's","lat":55.82608,"lon":-4.26515,"postcode":"G42 9JT","la":"Glasgow City","era":"trad","nn":381,"risk":20,"cat":"green"},{"name":"Avalon Bar","lat":55.86452,"lon":-4.27253,"postcode":"G3 7EH","la":"Glasgow City","era":"other","nn":0,"risk":17,"cat":"green"},{"name":"Bacchus","lat":55.85951,"lon":-4.24848,"postcode":"G1 1UR","la":"Glasgow City","era":"other","nn":52,"risk":18,"cat":"green"},{"name":"Balmore Bar","lat":55.88433,"lon":-4.2546,"postcode":"G22 5JX","la":"Glasgow City","era":"other","nn":120,"risk":23,"cat":"green"},{"name":"Bananamoon","lat":55.87383,"lon":-4.27635,"postcode":"G4 9HT","la":"Glasgow City","era":"other","nn":41,"risk":17,"cat":"green"},{"name":"Bar 67","lat":55.85558,"lon":-4.2366,"postcode":"G4 0TP","la":"Glasgow City","era":"mod","nn":0,"risk":17,"cat":"green"},{"name":"Bar 91","lat":55.85884,"lon":-4.2458,"postcode":"G1 1NP","la":"Glasgow City","era":"mod","nn":62,"risk":18,"cat":"green"},{"name":"Bar Bloc","lat":55.86397,"lon":-4.25946,"postcode":"G2 2SZ","la":"Glasgow City","era":"mod","nn":103,"risk":18,"cat":"green"},{"name":"Bar Home","lat":55.85857,"lon":-4.24358,"postcode":"G1 1NY","la":"Glasgow City","era":"mod","nn":68,"risk":18,"cat":"green"},{"name":"Bar Soba","lat":55.85974,"lon":-4.25526,"postcode":"G1 3NU","la":"Glasgow City","era":"mod","nn":28,"risk":17,"cat":"green"},{"name":"Bar Square","lat":55.85855,"lon":-4.24489,"postcode":"G1 1NU","la":"Glasgow City","era":"mod","nn":39,"risk":17,"cat":"green"},{"name":"Barrachnie Inn","lat":55.84997,"lon":-4.13012,"postcode":"G69 6EU","la":"Glasgow City","era":"trad","nn":238,"risk":24,"cat":"green"},{"name":"Beechwood Tavern","lat":55.82335,"lon":-4.24781,"postcode":"G44 4PP","la":"Glasgow City","era":"other","nn":419,"risk":23,"cat":"green"},{"name":"Bells Bar","lat":55.84375,"lon":-4.17453,"postcode":"G32 8UP","la":"Glasgow City","era":"other","nn":75,"risk":18,"cat":"green"},{"name":"Ben Nevis Bar","lat":55.86482,"lon":-4.28522,"postcode":"G3 8TB","la":"Glasgow City","era":"other","nn":85,"risk":18,"cat":"green"},{"name":"Bigslope (Basement)","lat":55.86564,"lon":-4.28378,"postcode":"G3 7RZ","la":"Glasgow City","era":"other","nn":69,"risk":18,"cat":"green"},{"name":"Birdhouse Bar and Kitchen","lat":55.87127,"lon":-4.32216,"postcode":"G11 6RD","la":"Glasgow City","era":"mod","nn":75,"risk":18,"cat":"green"},{"name":"Black Bull","lat":55.85841,"lon":-4.24226,"postcode":"G1 1PH","la":"Glasgow City","era":"trad","nn":23,"risk":17,"cat":"green"},{"name":"Blackfriars","lat":55.85796,"lon":-4.2454,"postcode":"G1 1LG","la":"Glasgow City","era":"other","nn":23,"risk":17,"cat":"green"},{"name":"Blane Valley","lat":55.85905,"lon":-4.24859,"postcode":"G1 1UP","la":"Glasgow City","era":"other","nn":0,"risk":17,"cat":"green"},{"name":"Blue Dog","lat":55.86224,"lon":-4.25755,"postcode":"G2 2JJ","la":"Glasgow City","era":"other","nn":0,"risk":17,"cat":"green"},{"name":"Bon Accord","lat":55.86403,"lon":-4.27159,"postcode":"G3 7DA","la":"Glasgow City","era":"other","nn":80,"risk":18,"cat":"green"},{"name":"Boom Battle Bar","lat":55.85686,"lon":-4.25315,"postcode":"G1 4BW","la":"Glasgow City","era":"other","nn":86,"risk":18,"cat":"green"},{"name":"Boteco Do Brasil","lat":55.85728,"lon":-4.24576,"postcode":"G1 5EP","la":"Glasgow City","era":"other","nn":0,"risk":17,"cat":"green"},{"name":"Bowlarama","lat":55.85827,"lon":-4.24891,"postcode":"G1 1UL","la":"Glasgow City","era":"trad","nn":81,"risk":18,"cat":"green"},{"name":"Box","lat":55.86595,"lon":-4.26929,"postcode":"G2 3LG","la":"Glasgow City","era":"other","nn":14,"risk":17,"cat":"green"},{"name":"Brass Monkey","lat":55.86369,"lon":-4.28026,"postcode":"G3 8LU","la":"Glasgow City","era":"trad","nn":0,"risk":17,"cat":"green"},{"name":"Brechins Bar","lat":55.8634,"lon":-4.31362,"postcode":"G51 3DJ","la":"Glasgow City","era":"other","nn":200,"risk":19,"cat":"green"},{"name":"Brew Dog","lat":55.8683,"lon":-4.29236,"postcode":"G3 8AN","la":"Glasgow City","era":"other","nn":159,"risk":18,"cat":"green"},{"name":"Bristol Bar","lat":55.85802,"lon":-4.21007,"postcode":"G31 1JX","la":"Glasgow City","era":"other","nn":149,"risk":18,"cat":"green"},{"name":"Bunker","lat":55.86429,"lon":-4.2627,"postcode":"G2 4HU","la":"Glasgow City","era":"other","nn":59,"risk":18,"cat":"green"},{"name":"Butterfly And The Pig (and Tea Room)","lat":55.86419,"lon":-4.26115,"postcode":"G2 4SQ","la":"Glasgow City","era":"other","nn":98,"risk":18,"cat":"green"},{"name":"Butty Bar","lat":55.91082,"lon":-4.37294,"postcode":"G15 8NA","la":"Glasgow City","era":"other","nn":721,"risk":25,"cat":"green"},{"name":"By  The Way","lat":55.85048,"lon":-4.10949,"postcode":"G69 6AE","la":"Glasgow City","era":"other","nn":135,"risk":18,"cat":"green"},{"name":"Cafe Ibiza","lat":55.88235,"lon":-4.27939,"postcode":"G20 7TL","la":"Glasgow City","era":"other","nn":412,"risk":20,"cat":"green"},{"name":"Cairns Bar","lat":55.85801,"lon":-4.25163,"postcode":"G1 1EA","la":"Glasgow City","era":"other","nn":148,"risk":18,"cat":"green"},{"name":"Calton Bar","lat":55.85174,"lon":-4.23306,"postcode":"G40 1AG","la":"Glasgow City","era":"other","nn":224,"risk":19,"cat":"green"},{"name":"Campus","lat":55.8663,"lon":-4.26886,"postcode":"G2 3LW","la":"Glasgow City","era":"other","nn":43,"risk":17,"cat":"green"},{"name":"Castle Vaults","lat":55.8714,"lon":-4.26798,"postcode":"G20 7PZ","la":"Glasgow City","era":"other","nn":290,"risk":19,"cat":"green"},{"name":"Chinaskis","lat":55.86615,"lon":-4.27226,"postcode":"G3 7DL","la":"Glasgow City","era":"other","nn":0,"risk":17,"cat":"green"},{"name":"Clutha And Victoria Bar","lat":55.85491,"lon":-4.24974,"postcode":"G1 5HZ","la":"Glasgow City","era":"trad","nn":57,"risk":18,"cat":"green"},{"name":"Committee Room No. 9 / Speakeasy / FHQ","lat":55.86003,"lon":-4.24743,"postcode":"G1 1JQ","la":"Glasgow City","era":"other","nn":49,"risk":17,"cat":"green"},{"name":"Connolly's Irish Bar","lat":55.85801,"lon":-4.24401,"postcode":"G1 1NX","la":"Glasgow City","era":"other","nn":68,"risk":18,"cat":"green"},{"name":"Coopers","lat":55.87552,"lon":-4.28297,"postcode":"G12 8HN","la":"Glasgow City","era":"trad","nn":52,"risk":18,"cat":"green"},{"name":"Corryvrechan","lat":55.88325,"lon":-4.36523,"postcode":"G14 0YH","la":"Glasgow City","era":"other","nn":609,"risk":24,"cat":"green"},{"name":"Cottage Bar","lat":55.85223,"lon":-4.17565,"postcode":"G32 7NR","la":"Glasgow City","era":"other","nn":0,"risk":17,"cat":"green"},{"name":"Crown Creighton","lat":55.85826,"lon":-4.21441,"postcode":"G31 1QF","la":"Glasgow City","era":"trad","nn":56,"risk":18,"cat":"green"},{"name":"Crystal Bell","lat":55.85664,"lon":-4.24294,"postcode":"G1 5AA","la":"Glasgow City","era":"other","nn":36,"risk":17,"cat":"green"},{"name":"Curlers","lat":55.87537,"lon":-4.29332,"postcode":"G12 8SH","la":"Glasgow City","era":"other","nn":85,"risk":18,"cat":"green"},{"name":"Dalmarnock Inn","lat":55.8438,"lon":-4.21941,"postcode":"G40 4LH","la":"Glasgow City","era":"trad","nn":552,"risk":21,"cat":"green"},{"name":"Delmonica's / Club X","lat":55.85894,"lon":-4.24942,"postcode":"G1 1TX","la":"Glasgow City","era":"trad","nn":53,"risk":18,"cat":"green"},{"name":"Denholm's","lat":55.85909,"lon":-4.25976,"postcode":"G2 6AB","la":"Glasgow City","era":"other","nn":0,"risk":17,"cat":"green"},{"name":"Deoch An Dorus","lat":55.87062,"lon":-4.31,"postcode":"G11 6DD","la":"Glasgow City","era":"other","nn":41,"risk":17,"cat":"green"},{"name":"Diamond Dolls Cabaret Club","lat":55.85934,"lon":-4.25629,"postcode":"G1 3LN","la":"Glasgow City","era":"other","nn":0,"risk":17,"cat":"green"},{"name":"Dirty Duchess","lat":55.86423,"lon":-4.28201,"postcode":"G3 8LX","la":"Glasgow City","era":"other","nn":0,"risk":17,"cat":"green"},{"name":"Dows","lat":55.86208,"lon":-4.25267,"postcode":"G1 2AH","la":"Glasgow City","era":"other","nn":124,"risk":18,"cat":"green"},{"name":"Dram","lat":55.87145,"lon":-4.27711,"postcode":"G3 6ND","la":"Glasgow City","era":"trad","nn":173,"risk":18,"cat":"green"},{"name":"Driftwood","lat":55.86664,"lon":-4.27048,"postcode":"G3 6UJ","la":"Glasgow City","era":"other","nn":106,"risk":18,"cat":"green"},{"name":"Drouthy's","lat":55.86066,"lon":-4.25212,"postcode":"G1 3BJ","la":"Glasgow City","era":"other","nn":19,"risk":17,"cat":"green"},{"name":"Drover Bar","lat":55.85569,"lon":-4.2275,"postcode":"G40 2DX","la":"Glasgow City","era":"other","nn":66,"risk":18,"cat":"green"},{"name":"Drum And Monkey","lat":55.86111,"lon":-4.256,"postcode":"G2 5TF","la":"Glasgow City","era":"trad","nn":16,"risk":17,"cat":"green"},{"name":"Drury Street Bar and Kitchen","lat":55.86109,"lon":-4.25649,"postcode":"G2 5AA","la":"Glasgow City","era":"mod","nn":16,"risk":17,"cat":"green"},{"name":"Dubai Nights","lat":55.83681,"lon":-4.27031,"postcode":"G41 2PZ","la":"Glasgow City","era":"other","nn":26,"risk":17,"cat":"green"},{"name":"Dug 'n' Duck","lat":55.88323,"lon":-4.1635,"postcode":"G33 6ND","la":"Glasgow City","era":"other","nn":124,"risk":38,"cat":"amber"},{"name":"Dukes Bar","lat":55.86688,"lon":-4.29194,"postcode":"G3 8RD","la":"Glasgow City","era":"trad","nn":159,"risk":18,"cat":"green"},{"name":"Dukes Bar","lat":55.85857,"lon":-4.21371,"postcode":"G31 1QA","la":"Glasgow City","era":"trad","nn":56,"risk":18,"cat":"green"},{"name":"Eala Bhan","lat":55.82765,"lon":-4.29561,"postcode":"G43 1RF","la":"Glasgow City","era":"other","nn":179,"risk":18,"cat":"green"},{"name":"El Camino","lat":55.86019,"lon":-4.26008,"postcode":"G2 6AY","la":"Glasgow City","era":"other","nn":0,"risk":17,"cat":"green"},{"name":"Elders Bar","lat":55.84194,"lon":-4.1709,"postcode":"G32 8LU","la":"Glasgow City","era":"other","nn":190,"risk":23,"cat":"green"},{"name":"Fiddlers Bar","lat":55.87159,"lon":-4.30702,"postcode":"G11 5NS","la":"Glasgow City","era":"other","nn":69,"risk":18,"cat":"green"},{"name":"Finlays","lat":55.82766,"lon":-4.28393,"postcode":"G41 3YT","la":"Glasgow City","era":"other","nn":116,"risk":18,"cat":"green"},{"name":"Firewater","lat":55.86546,"lon":-4.26517,"postcode":"G2 3HW","la":"Glasgow City","era":"other","nn":0,"risk":17,"cat":"green"},{"name":"First And Last","lat":55.89743,"lon":-4.29994,"postcode":"G20 0EF","la":"Glasgow City","era":"other","nn":315,"risk":19,"cat":"green"},{"name":"Fore Play Crazy Golf","lat":55.85144,"lon":-4.28129,"postcode":"G41 1EJ","la":"Glasgow City","era":"other","nn":261,"risk":19,"cat":"green"},{"name":"G41 Bar","lat":55.82853,"lon":-4.28292,"postcode":"G41 3YR","la":"Glasgow City","era":"other","nn":0,"risk":17,"cat":"green"},{"name":"Gallaghers Bar","lat":55.85645,"lon":-4.25432,"postcode":"G1 4EE","la":"Glasgow City","era":"other","nn":23,"risk":17,"cat":"green"},{"name":"Gallus","lat":55.8703,"lon":-4.29787,"postcode":"G11 6NX","la":"Glasgow City","era":"other","nn":81,"risk":18,"cat":"green"},{"name":"Georgic","lat":55.83077,"lon":-4.27989,"postcode":"G41 3YG","la":"Glasgow City","era":"other","nn":49,"risk":17,"cat":"green"},{"name":"Glasgrow","lat":55.85621,"lon":-4.24723,"postcode":"G1 5QH","la":"Glasgow City","era":"other","nn":87,"risk":18,"cat":"green"},{"name":"Golf Fang","lat":55.85916,"lon":-4.27723,"postcode":"G3 8JD","la":"Glasgow City","era":"other","nn":537,"risk":21,"cat":"green"},{"name":"Grace's Irish Sports Bar","lat":55.85776,"lon":-4.24542,"postcode":"G1 1LD","la":"Glasgow City","era":"other","nn":0,"risk":17,"cat":"green"},{"name":"Granny Gibb's","lat":55.87485,"lon":-4.34071,"postcode":"G14 9UY","la":"Glasgow City","era":"other","nn":872,"risk":41,"cat":"amber"},{"name":"Grant Arms","lat":55.8593,"lon":-4.25821,"postcode":"G2 8HA","la":"Glasgow City","era":"trad","nn":0,"risk":17,"cat":"green"},{"name":"Griers Bar","lat":55.86836,"lon":-4.1204,"postcode":"G34 9DU","la":"Glasgow City","era":"other","nn":1141,"risk":48,"cat":"amber"},{"name":"Grosvenor Cinema Kiosk/Lane Bar/Grosvenor Cafe","lat":55.87463,"lon":-4.29299,"postcode":"G12 8SJ","la":"Glasgow City","era":"other","nn":0,"risk":17,"cat":"green"},{"name":"Hazel Wood","lat":55.81326,"lon":-4.36078,"postcode":"G53 7BW","la":"Glasgow City","era":"other","nn":1872,"risk":53,"cat":"amber"},{"name":"Heilan Jessie","lat":55.85537,"lon":-4.23426,"postcode":"G4 0TX","la":"Glasgow City","era":"other","nn":79,"risk":18,"cat":"green"},{"name":"Heraghty's Bar","lat":55.83687,"lon":-4.26991,"postcode":"G41 2AD","la":"Glasgow City","era":"other","nn":0,"risk":17,"cat":"green"},{"name":"Hillview Inn","lat":55.91698,"lon":-4.37654,"postcode":"G15 8QY","la":"Glasgow City","era":"trad","nn":721,"risk":42,"cat":"amber"},{"name":"Hoops Bar","lat":55.85555,"lon":-4.23548,"postcode":"G4 0TR","la":"Glasgow City","era":"other","nn":70,"risk":18,"cat":"green"},{"name":"Hootenanny","lat":55.8564,"lon":-4.25469,"postcode":"G1 4EE","la":"Glasgow City","era":"other","nn":23,"risk":17,"cat":"green"},{"name":"Intermezzo","lat":55.86537,"lon":-4.25479,"postcode":"G2 3BW","la":"Glasgow City","era":"other","nn":0,"risk":17,"cat":"green"},{"name":"International Bar","lat":55.8346,"lon":-4.24849,"postcode":"G42 0PP","la":"Glasgow City","era":"other","nn":587,"risk":24,"cat":"green"},{"name":"Jackson's","lat":55.86697,"lon":-4.25987,"postcode":"G3 6RU","la":"Glasgow City","era":"other","nn":195,"risk":19,"cat":"green"},{"name":"Jamie Davidson@The Lovat","lat":55.89101,"lon":-4.38542,"postcode":"G14 0PT","la":"Glasgow City","era":"other","nn":0,"risk":17,"cat":"green"},{"name":"Jarvies Inn","lat":55.88954,"lon":-4.37689,"postcode":"G14 0LF","la":"Glasgow City","era":"trad","nn":557,"risk":21,"cat":"green"},{"name":"Jinty's McGintys","lat":55.87463,"lon":-4.29299,"postcode":"G12 8SJ","la":"Glasgow City","era":"other","nn":0,"risk":17,"cat":"green"},{"name":"Katies Bar","lat":55.86023,"lon":-4.24813,"postcode":"G1 1HP","la":"Glasgow City","era":"other","nn":23,"risk":17,"cat":"green"},{"name":"Kelvin Dock Bar","lat":55.89377,"lon":-4.29684,"postcode":"G20 0HF","la":"Glasgow City","era":"other","nn":137,"risk":18,"cat":"green"},{"name":"Kensington","lat":55.85179,"lon":-4.29756,"postcode":"G51 1BE","la":"Glasgow City","era":"other","nn":0,"risk":17,"cat":"green"},{"name":"Kensington Bar","lat":55.85179,"lon":-4.29756,"postcode":"G51 1BE","la":"Glasgow City","era":"other","nn":0,"risk":17,"cat":"green"},{"name":"King Tuts Wah Wah Hut","lat":55.86263,"lon":-4.26497,"postcode":"G2 5RL","la":"Glasgow City","era":"trad","nn":223,"risk":19,"cat":"green"},{"name":"Kirkhouse","lat":55.85133,"lon":-4.15834,"postcode":"G32 9AT","la":"Glasgow City","era":"other","nn":51,"risk":17,"cat":"green"},{"name":"Kitty O'Shea","lat":55.86019,"lon":-4.26008,"postcode":"G2 6AY","la":"Glasgow City","era":"other","nn":0,"risk":17,"cat":"green"},{"name":"Kitty O'Shea's","lat":55.87598,"lon":-4.28287,"postcode":"G12 8EL","la":"Glasgow City","era":"other","nn":0,"risk":17,"cat":"green"},{"name":"La Cala Bar","lat":55.8636,"lon":-4.21374,"postcode":"G31 3DJ","la":"Glasgow City","era":"other","nn":559,"risk":21,"cat":"green"},{"name":"La Discoteca","lat":55.87695,"lon":-4.35444,"postcode":"G14 0AP","la":"Glasgow City","era":"other","nn":344,"risk":25,"cat":"green"},{"name":"Ladywell Bar","lat":55.85867,"lon":-4.23178,"postcode":"G4 0UE","la":"Glasgow City","era":"other","nn":368,"risk":20,"cat":"green"},{"name":"Lauder's","lat":55.86485,"lon":-4.25636,"postcode":"G2 3DE","la":"Glasgow City","era":"other","nn":73,"risk":18,"cat":"green"},{"name":"Laurieston Bar","lat":55.85334,"lon":-4.25903,"postcode":"G5 9HU","la":"Glasgow City","era":"other","nn":210,"risk":19,"cat":"green"},{"name":"Lebowski's","lat":55.86423,"lon":-4.28201,"postcode":"G3 8LX","la":"Glasgow City","era":"other","nn":0,"risk":17,"cat":"green"},{"name":"Levy Restaurants (Clyde Auditorium)","lat":55.86087,"lon":-4.28815,"postcode":"G3 8YW","la":"Glasgow City","era":"other","nn":386,"risk":20,"cat":"green"},{"name":"Lincoln Inn","lat":55.89939,"lon":-4.34819,"postcode":"G13 2XX","la":"Glasgow City","era":"trad","nn":1109,"risk":47,"cat":"amber"},{"name":"Linen 1906","lat":55.83085,"lon":-4.28066,"postcode":"G41 3XA","la":"Glasgow City","era":"other","nn":49,"risk":17,"cat":"green"},{"name":"Lismore Bar","lat":55.87102,"lon":-4.3012,"postcode":"G11 6UN","la":"Glasgow City","era":"other","nn":0,"risk":17,"cat":"green"},{"name":"Lloyds No. 1 Bar ( Society Rooms)","lat":55.86224,"lon":-4.25755,"postcode":"G2 2JJ","la":"Glasgow City","era":"mod","nn":0,"risk":17,"cat":"green"},{"name":"Louden Tavern","lat":55.85799,"lon":-4.21245,"postcode":"G31 1NG","la":"Glasgow City","era":"other","nn":102,"risk":18,"cat":"green"},{"name":"Lovat Arms","lat":55.89101,"lon":-4.38542,"postcode":"G14 0PT","la":"Glasgow City","era":"trad","nn":0,"risk":17,"cat":"green"},{"name":"MacConnells Bar","lat":55.86628,"lon":-4.25699,"postcode":"G2 3PT","la":"Glasgow City","era":"other","nn":156,"risk":18,"cat":"green"},{"name":"Mackinnons Bar","lat":55.85628,"lon":-4.24289,"postcode":"G1 5AB","la":"Glasgow City","era":"trad","nn":40,"risk":17,"cat":"green"},{"name":"Maggie Mays","lat":55.85728,"lon":-4.24576,"postcode":"G1 5EP","la":"Glasgow City","era":"other","nn":0,"risk":17,"cat":"green"},{"name":"Malone's","lat":55.86523,"lon":-4.26404,"postcode":"G2 4JD","la":"Glasgow City","era":"other","nn":75,"risk":18,"cat":"green"},{"name":"Mango","lat":55.8657,"lon":-4.26729,"postcode":"G2 3HU","la":"Glasgow City","era":"other","nn":0,"risk":17,"cat":"green"},{"name":"Maryhill Club 90","lat":55.89108,"lon":-4.28913,"postcode":"G20 9AQ","la":"Glasgow City","era":"other","nn":106,"risk":18,"cat":"green"},{"name":"Maryhill Tavern","lat":55.89495,"lon":-4.2975,"postcode":"G20 0HD","la":"Glasgow City","era":"other","nn":137,"risk":18,"cat":"green"},{"name":"Max's Bar And Grill","lat":55.85939,"lon":-4.25251,"postcode":"G1 3BZ","la":"Glasgow City","era":"mod","nn":124,"risk":18,"cat":"green"},{"name":"McChuills","lat":55.85697,"lon":-4.24302,"postcode":"G1 1NL","la":"Glasgow City","era":"other","nn":36,"risk":17,"cat":"green"},{"name":"McGuires Bar","lat":55.85835,"lon":-4.1355,"postcode":"G33 4PF","la":"Glasgow City","era":"other","nn":905,"risk":28,"cat":"green"},{"name":"McNabb's Bar","lat":55.87965,"lon":-4.35176,"postcode":"G14 9DB","la":"Glasgow City","era":"other","nn":344,"risk":25,"cat":"green"},{"name":"Merchant Pride","lat":55.85776,"lon":-4.24542,"postcode":"G1 1LD","la":"Glasgow City","era":"other","nn":0,"risk":17,"cat":"green"},{"name":"Miller's Bar","lat":55.85398,"lon":-4.15889,"postcode":"G32 0PE","la":"Glasgow City","era":"trad","nn":297,"risk":19,"cat":"green"},{"name":"Missoula","lat":55.86249,"lon":-4.25601,"postcode":"G2 1PS","la":"Glasgow City","era":"other","nn":39,"risk":17,"cat":"green"},{"name":"Mono","lat":55.85525,"lon":-4.24693,"postcode":"G1 5RB","la":"Glasgow City","era":"other","nn":89,"risk":18,"cat":"green"},{"name":"Munn's","lat":55.88066,"lon":-4.27352,"postcode":"G20 7ED","la":"Glasgow City","era":"other","nn":412,"risk":20,"cat":"green"},{"name":"Nice'n Sleazy","lat":55.86592,"lon":-4.26906,"postcode":"G2 3LG","la":"Glasgow City","era":"other","nn":0,"risk":17,"cat":"green"},{"name":"Nico's","lat":55.8657,"lon":-4.26729,"postcode":"G2 3HU","la":"Glasgow City","era":"other","nn":0,"risk":17,"cat":"green"},{"name":"No.16 Kitchen","lat":55.8593,"lon":-4.25821,"postcode":"G2 6AA","la":"Glasgow City","era":"mod","nn":0,"risk":17,"cat":"green"},{"name":"NYC Bar And Grill","lat":55.86306,"lon":-4.25811,"postcode":"G2 2UL","la":"Glasgow City","era":"mod","nn":37,"risk":17,"cat":"green"},{"name":"Oak Bar","lat":55.84917,"lon":-4.1999,"postcode":"G31 4HL","la":"Glasgow City","era":"trad","nn":214,"risk":19,"cat":"green"},{"name":"Oasis Lounge","lat":55.85292,"lon":-4.26231,"postcode":"G5 8DZ","la":"Glasgow City","era":"mod","nn":210,"risk":19,"cat":"green"},{"name":"Old Empire Bar","lat":55.85567,"lon":-4.24525,"postcode":"G1 5LD","la":"Glasgow City","era":"other","nn":97,"risk":18,"cat":"green"},{"name":"Old Harmony Bar","lat":55.86381,"lon":-4.31674,"postcode":"G51 3DN","la":"Glasgow City","era":"other","nn":33,"risk":17,"cat":"green"},{"name":"Old Shipbank Vault","lat":55.85456,"lon":-4.24619,"postcode":"G1 5LA","la":"Glasgow City","era":"trad","nn":89,"risk":18,"cat":"green"},{"name":"Old Smiddy Inn","lat":55.81484,"lon":-4.25726,"postcode":"G44 5TJ","la":"Glasgow City","era":"trad","nn":677,"risk":39,"cat":"amber"},{"name":"Old Stag Inn","lat":55.82621,"lon":-4.29434,"postcode":"G43 1SN","la":"Glasgow City","era":"trad","nn":179,"risk":18,"cat":"green"},{"name":"Olivers","lat":55.90593,"lon":-4.36287,"postcode":"G15 6QE","la":"Glasgow City","era":"other","nn":58,"risk":23,"cat":"green"},{"name":"O'Neills","lat":55.85833,"lon":-4.24537,"postcode":"G1 1NU","la":"Glasgow City","era":"other","nn":0,"risk":17,"cat":"green"},{"name":"O'Neills","lat":55.85904,"lon":-4.25623,"postcode":"G1 3QX","la":"Glasgow City","era":"other","nn":33,"risk":17,"cat":"green"},{"name":"Orwells Bar","lat":55.86393,"lon":-4.27532,"postcode":"G3 7AL","la":"Glasgow City","era":"other","nn":186,"risk":18,"cat":"green"},{"name":"Oswalds","lat":55.8578,"lon":-4.25947,"postcode":"G1 4PL","la":"Glasgow City","era":"other","nn":0,"risk":17,"cat":"green"},{"name":"Palaceum Bar","lat":55.85193,"lon":-4.17678,"postcode":"G32 7DN","la":"Glasgow City","era":"other","nn":78,"risk":18,"cat":"green"},{"name":"Park Lane Tavern","lat":55.84682,"lon":-4.22643,"postcode":"G40 1QB","la":"Glasgow City","era":"other","nn":30,"risk":17,"cat":"green"},{"name":"Phillies Of Shawlands","lat":55.8299,"lon":-4.28265,"postcode":"G41 3NG","la":"Glasgow City","era":"other","nn":27,"risk":17,"cat":"green"},{"name":"Platinum Lace","lat":55.86107,"lon":-4.25624,"postcode":"G2 5AA","la":"Glasgow City","era":"other","nn":16,"risk":17,"cat":"green"},{"name":"Pollok Inn","lat":55.82875,"lon":-4.34907,"postcode":"G53 5LB","la":"Glasgow City","era":"trad","nn":1636,"risk":51,"cat":"amber"},{"name":"Portland Arms","lat":55.85171,"lon":-4.16594,"postcode":"G32 7NB","la":"Glasgow City","era":"trad","nn":73,"risk":18,"cat":"green"},{"name":"Punch Bowl","lat":55.89132,"lon":-4.29102,"postcode":"G20 9AD","la":"Glasgow City","era":"other","nn":121,"risk":18,"cat":"green"},{"name":"QMU 1890","lat":55.87375,"lon":-4.2914,"postcode":"G12 8QH","la":"Glasgow City","era":"other","nn":139,"risk":18,"cat":"green"},{"name":"Quaich","lat":55.82545,"lon":-4.28735,"postcode":"G43 1UF","la":"Glasgow City","era":"other","nn":326,"risk":19,"cat":"green"},{"name":"Quarter Gill","lat":55.87103,"lon":-4.30343,"postcode":"G11 6TU","la":"Glasgow City","era":"mod","nn":0,"risk":17,"cat":"green"},{"name":"Quarter Gill Bar","lat":55.8578,"lon":-4.25947,"postcode":"G1 4PL","la":"Glasgow City","era":"mod","nn":0,"risk":17,"cat":"green"},{"name":"Quayside","lat":55.85396,"lon":-4.27784,"postcode":"G5 8RE","la":"Glasgow City","era":"other","nn":64,"risk":18,"cat":"green"},{"name":"Queen's Park Cafe","lat":55.83416,"lon":-4.26605,"postcode":"G42 8BG","la":"Glasgow City","era":"trad","nn":146,"risk":18,"cat":"green"},{"name":"Quo Vadis","lat":55.84571,"lon":-4.34591,"postcode":"G52 3TN","la":"Glasgow City","era":"other","nn":791,"risk":43,"cat":"amber"},{"name":"Rab Ha's","lat":55.85902,"lon":-4.24817,"postcode":"G1 1SH","la":"Glasgow City","era":"other","nn":0,"risk":17,"cat":"green"},{"name":"Railway Tavern","lat":55.85087,"lon":-4.1583,"postcode":"G32 9AL","la":"Glasgow City","era":"trad","nn":51,"risk":17,"cat":"green"},{"name":"Reardon's","lat":55.8593,"lon":-4.25821,"postcode":"G2 6AA","la":"Glasgow City","era":"other","nn":0,"risk":17,"cat":"green"},{"name":"Renfield Bar","lat":55.86348,"lon":-4.25561,"postcode":"G2 1NQ","la":"Glasgow City","era":"other","nn":54,"risk":18,"cat":"green"},{"name":"Revolution Glasgow","lat":55.86288,"lon":-4.25658,"postcode":"G2 1LF","la":"Glasgow City","era":"other","nn":0,"risk":17,"cat":"green"},{"name":"Rhoderick Dhu","lat":55.86015,"lon":-4.26027,"postcode":"G2 6BZ","la":"Glasgow City","era":"other","nn":13,"risk":17,"cat":"green"},{"name":"Richards","lat":55.86409,"lon":-4.31657,"postcode":"G51 3AJ","la":"Glasgow City","era":"other","nn":33,"risk":17,"cat":"green"},{"name":"Rosevale Tavern","lat":55.87059,"lon":-4.31208,"postcode":"G11 6EJ","la":"Glasgow City","era":"other","nn":17,"risk":17,"cat":"green"},{"name":"Ross's Original Bar","lat":55.85999,"lon":-4.25525,"postcode":"G1 3NA","la":"Glasgow City","era":"other","nn":0,"risk":17,"cat":"green"},{"name":"Route 50","lat":55.85364,"lon":-4.10809,"postcode":"G69 6DN","la":"Glasgow City","era":"other","nn":310,"risk":19,"cat":"green"},{"name":"Rufus T Firefly Inc.","lat":55.86367,"lon":-4.25791,"postcode":"G2 2UW","la":"Glasgow City","era":"other","nn":69,"risk":18,"cat":"green"},{"name":"Rum Bongo","lat":55.87203,"lon":-4.29779,"postcode":"G11 5HN","la":"Glasgow City","era":"other","nn":147,"risk":18,"cat":"green"},{"name":"Saint Judes","lat":55.86481,"lon":-4.26288,"postcode":"G2 4HG","la":"Glasgow City","era":"trad","nn":59,"risk":18,"cat":"green"},{"name":"Saracen Bar","lat":55.8833,"lon":-4.25399,"postcode":"G22 5ER","la":"Glasgow City","era":"other","nn":71,"risk":23,"cat":"green"},{"name":"Saracens Head","lat":55.85571,"lon":-4.23769,"postcode":"G1 5DX","la":"Glasgow City","era":"trad","nn":70,"risk":18,"cat":"green"},{"name":"Scotia Bar","lat":55.85513,"lon":-4.25057,"postcode":"G1 4LW","la":"Glasgow City","era":"other","nn":57,"risk":18,"cat":"green"},{"name":"Scotsman Bar","lat":55.84681,"lon":-4.22691,"postcode":"G40 1HD","la":"Glasgow City","era":"other","nn":30,"risk":17,"cat":"green"},{"name":"Scran N Swally","lat":55.85456,"lon":-4.23692,"postcode":"G40 2SB","la":"Glasgow City","era":"other","nn":56,"risk":18,"cat":"green"},{"name":"Sharkeys Bar","lat":55.85114,"lon":-4.25157,"postcode":"G5 9DT","la":"Glasgow City","era":"other","nn":404,"risk":20,"cat":"green"},{"name":"Sheddans Bar","lat":55.85272,"lon":-4.18101,"postcode":"G32 7EL","la":"Glasgow City","era":"other","nn":278,"risk":19,"cat":"green"},{"name":"Shevlane's Bar","lat":55.88242,"lon":-4.23061,"postcode":"G21 1DT","la":"Glasgow City","era":"other","nn":0,"risk":35,"cat":"amber"},{"name":"Shilling Brewery Company","lat":55.86236,"lon":-4.25516,"postcode":"G2 1PJ","la":"Glasgow City","era":"other","nn":40,"risk":17,"cat":"green"},{"name":"Slimming World","lat":55.90763,"lon":-4.36193,"postcode":"G15 6AS","la":"Glasgow City","era":"other","nn":197,"risk":24,"cat":"green"},{"name":"Sloan's","lat":55.85822,"lon":-4.25397,"postcode":"G2 8BG","la":"Glasgow City","era":"other","nn":148,"risk":18,"cat":"green"},{"name":"Smiddy Bar","lat":55.87064,"lon":-4.30626,"postcode":"G11 6AL","la":"Glasgow City","era":"other","nn":0,"risk":17,"cat":"green"},{"name":"Sparkle Horse","lat":55.87123,"lon":-4.30035,"postcode":"G11 5QS","la":"Glasgow City","era":"trad","nn":58,"risk":18,"cat":"green"},{"name":"Springcroft Sizzling Pub Co","lat":55.85677,"lon":-4.11988,"postcode":"G69 6SF","la":"Glasgow City","era":"other","nn":814,"risk":23,"cat":"green"},{"name":"Squirrel Bar","lat":55.85392,"lon":-4.23722,"postcode":"G40 2ST","la":"Glasgow City","era":"other","nn":74,"risk":18,"cat":"green"},{"name":"Standard Inn","lat":55.88267,"lon":-4.25399,"postcode":"G22 5EP","la":"Glasgow City","era":"trad","nn":71,"risk":20,"cat":"green"},{"name":"Star And Garter","lat":55.87795,"lon":-4.26781,"postcode":"G20 7JX","la":"Glasgow City","era":"other","nn":467,"risk":20,"cat":"green"},{"name":"Storm Queen","lat":55.87052,"lon":-4.30394,"postcode":"G11 6AB","la":"Glasgow City","era":"trad","nn":65,"risk":18,"cat":"green"},{"name":"Strath Union","lat":55.86132,"lon":-4.24399,"postcode":"G1 1XU","la":"Glasgow City","era":"other","nn":87,"risk":18,"cat":"green"},{"name":"Strathduie Bar","lat":55.85825,"lon":-4.24249,"postcode":"G1 1PG","la":"Glasgow City","era":"other","nn":23,"risk":17,"cat":"green"},{"name":"Strathspey Bar","lat":55.84339,"lon":-4.17249,"postcode":"G32 8UN","la":"Glasgow City","era":"other","nn":59,"risk":18,"cat":"green"},{"name":"Strip Joint","lat":55.86369,"lon":-4.28026,"postcode":"G3 8LU","la":"Glasgow City","era":"other","nn":0,"risk":17,"cat":"green"},{"name":"Stumps","lat":55.87097,"lon":-4.30982,"postcode":"G11 5LL","la":"Glasgow City","era":"other","nn":41,"risk":17,"cat":"green"},{"name":"Super Bario","lat":55.85674,"lon":-4.24622,"postcode":"G1 5QZ","la":"Glasgow City","era":"other","nn":66,"risk":18,"cat":"green"},{"name":"Sweeney's On The Park","lat":55.83326,"lon":-4.27636,"postcode":"G41 2ET","la":"Glasgow City","era":"other","nn":353,"risk":20,"cat":"green"},{"name":"Swinton Tavern","lat":55.85625,"lon":-4.10635,"postcode":"G69 6DP","la":"Glasgow City","era":"other","nn":310,"risk":19,"cat":"green"},{"name":"Tabac","lat":55.85999,"lon":-4.25525,"postcode":"G1 3NU","la":"Glasgow City","era":"other","nn":0,"risk":17,"cat":"green"},{"name":"Tall Cranes Bar","lat":55.85913,"lon":-4.32121,"postcode":"G51 3TB","la":"Glasgow City","era":"other","nn":591,"risk":24,"cat":"green"},{"name":"Taphouse Bar And Kitchen","lat":55.86474,"lon":-4.28349,"postcode":"G3 8LY","la":"Glasgow City","era":"mod","nn":40,"risk":17,"cat":"green"},{"name":"Tartan Coo","lat":55.82652,"lon":-4.25826,"postcode":"G42 9XW","la":"Glasgow City","era":"other","nn":263,"risk":19,"cat":"green"},{"name":"Tennents Bar","lat":55.87435,"lon":-4.29507,"postcode":"G12 8TN","la":"Glasgow City","era":"other","nn":133,"risk":18,"cat":"green"},{"name":"The  Baize","lat":55.84653,"lon":-4.3585,"postcode":"G52 2AA","la":"Glasgow City","era":"other","nn":425,"risk":25,"cat":"green"},{"name":"The 78","lat":55.86516,"lon":-4.28676,"postcode":"G3 8NU","la":"Glasgow City","era":"other","nn":55,"risk":18,"cat":"green"},{"name":"The Amethyst","lat":55.86413,"lon":-4.33225,"postcode":"G51 4PW","la":"Glasgow City","era":"other","nn":886,"risk":28,"cat":"green"},{"name":"The Ark Glasgow","lat":55.86203,"lon":-4.24841,"postcode":"G1 2BS","la":"Glasgow City","era":"other","nn":116,"risk":18,"cat":"green"},{"name":"The Atholl Arms","lat":55.86537,"lon":-4.25479,"postcode":"G2 3BW","la":"Glasgow City","era":"trad","nn":0,"risk":17,"cat":"green"},{"name":"The Auctioneers","lat":55.86071,"lon":-4.25243,"postcode":"G1 2DP","la":"Glasgow City","era":"other","nn":17,"risk":17,"cat":"green"},{"name":"The Auld Hoose","lat":55.82988,"lon":-4.15763,"postcode":"G32 8EE","la":"Glasgow City","era":"other","nn":618,"risk":41,"cat":"amber"},{"name":"The Bakehouse","lat":55.87598,"lon":-4.28287,"postcode":"G12 8EL","la":"Glasgow City","era":"other","nn":0,"risk":17,"cat":"green"},{"name":"The Bell Jar","lat":55.83543,"lon":-4.26414,"postcode":"G42 8EB","la":"Glasgow City","era":"other","nn":128,"risk":18,"cat":"green"},{"name":"The Belle","lat":55.87626,"lon":-4.2854,"postcode":"G12 8HX","la":"Glasgow City","era":"other","nn":161,"risk":18,"cat":"green"},{"name":"The Bellrock","lat":55.85178,"lon":-4.28763,"postcode":"G41 1AQ","la":"Glasgow City","era":"other","nn":92,"risk":18,"cat":"green"},{"name":"The Bells Bar","lat":55.88242,"lon":-4.23061,"postcode":"G21 1DT","la":"Glasgow City","era":"other","nn":0,"risk":35,"cat":"amber"},{"name":"The Black Horse","lat":55.90065,"lon":-4.29306,"postcode":"G23 5QA","la":"Glasgow City","era":"trad","nn":559,"risk":26,"cat":"green"},{"name":"The Brazen Head","lat":55.84799,"lon":-4.25479,"postcode":"G42 7BE","la":"Glasgow City","era":"trad","nn":404,"risk":20,"cat":"green"},{"name":"The Bridge Inn","lat":55.86077,"lon":-4.1081,"postcode":"G69 6BH","la":"Glasgow City","era":"trad","nn":515,"risk":26,"cat":"green"},{"name":"The Budgie","lat":55.87023,"lon":-4.21265,"postcode":"G21 2RL","la":"Glasgow City","era":"other","nn":740,"risk":42,"cat":"amber"},{"name":"The Bungo","lat":55.83657,"lon":-4.27168,"postcode":"G41 2AL","la":"Glasgow City","era":"other","nn":51,"risk":17,"cat":"green"},{"name":"The Caledonian Bar","lat":55.87446,"lon":-4.23633,"postcode":"G21 1RS","la":"Glasgow City","era":"other","nn":820,"risk":28,"cat":"green"},{"name":"The Carnarvon Bar","lat":55.8681,"lon":-4.27114,"postcode":"G3 6JA","la":"Glasgow City","era":"other","nn":157,"risk":18,"cat":"green"},{"name":"The Clachan","lat":55.85026,"lon":-4.13389,"postcode":"G32 0TN","la":"Glasgow City","era":"other","nn":238,"risk":36,"cat":"amber"},{"name":"The Clockwork Beer Company","lat":55.82312,"lon":-4.2587,"postcode":"G42 9HB","la":"Glasgow City","era":"other","nn":155,"risk":18,"cat":"green"},{"name":"The Corinthian Club","lat":55.85961,"lon":-4.25046,"postcode":"G1 1DQ","la":"Glasgow City","era":"other","nn":45,"risk":17,"cat":"green"},{"name":"The Counting House","lat":55.86082,"lon":-4.25224,"postcode":"G1 2DH","la":"Glasgow City","era":"other","nn":17,"risk":17,"cat":"green"},{"name":"The Crimson Star","lat":55.84962,"lon":-4.22738,"postcode":"G40 1NE","la":"Glasgow City","era":"other","nn":0,"risk":17,"cat":"green"},{"name":"The Croft Bar","lat":55.81525,"lon":-4.22761,"postcode":"G44 5HB","la":"Glasgow City","era":"other","nn":940,"risk":44,"cat":"amber"},{"name":"The Crystal Palace","lat":55.85798,"lon":-4.25772,"postcode":"G1 4QD","la":"Glasgow City","era":"other","nn":111,"risk":18,"cat":"green"},{"name":"The Devil Of Brooklyn / The Devil's Roast","lat":55.86267,"lon":-4.25548,"postcode":"G2 1NF","la":"Glasgow City","era":"other","nn":39,"risk":17,"cat":"green"},{"name":"The Dirty Dutchess","lat":55.86423,"lon":-4.28201,"postcode":"G3 8LX","la":"Glasgow City","era":"other","nn":0,"risk":17,"cat":"green"},{"name":"The District Bar","lat":55.85254,"lon":-4.28885,"postcode":"G51 1BS","la":"Glasgow City","era":"other","nn":42,"risk":17,"cat":"green"},{"name":"The Dolphin Bar","lat":55.87047,"lon":-4.30013,"postcode":"G11 6PT","la":"Glasgow City","era":"other","nn":67,"risk":18,"cat":"green"},{"name":"The Doublet Bar","lat":55.87313,"lon":-4.27941,"postcode":"G4 9JF","la":"Glasgow City","era":"other","nn":67,"risk":18,"cat":"green"},{"name":"The Drake","lat":55.86835,"lon":-4.27362,"postcode":"G3 6EF","la":"Glasgow City","era":"other","nn":105,"risk":18,"cat":"green"},{"name":"The Drum","lat":55.85183,"lon":-4.16709,"postcode":"G32 7PF","la":"Glasgow City","era":"other","nn":73,"risk":18,"cat":"green"},{"name":"The Elephant And Bugle Bar","lat":55.89023,"lon":-4.28991,"postcode":"G20 9AA","la":"Glasgow City","era":"other","nn":106,"risk":18,"cat":"green"},{"name":"The Esquire House","lat":55.88837,"lon":-4.32187,"postcode":"G12 0AU","la":"Glasgow City","era":"other","nn":764,"risk":40,"cat":"amber"},{"name":"The Five Ways Inn","lat":55.85161,"lon":-4.19792,"postcode":"G31 4EU","la":"Glasgow City","era":"trad","nn":18,"risk":17,"cat":"green"},{"name":"The Florida Park","lat":55.82435,"lon":-4.25989,"postcode":"G42 9JD","la":"Glasgow City","era":"other","nn":155,"risk":21,"cat":"green"},{"name":"The Flying Duck","lat":55.86545,"lon":-4.25496,"postcode":"G2 3AU","la":"Glasgow City","era":"other","nn":14,"risk":17,"cat":"green"},{"name":"The Gallery","lat":55.85901,"lon":-4.24726,"postcode":"G1 1TF","la":"Glasgow City","era":"other","nn":57,"risk":18,"cat":"green"},{"name":"The Gate","lat":55.85558,"lon":-4.2366,"postcode":"G4 0TP","la":"Glasgow City","era":"other","nn":0,"risk":17,"cat":"green"},{"name":"The Golf and Paloma Lounge","lat":55.86263,"lon":-4.26093,"postcode":"G2 2ND","la":"Glasgow City","era":"mod","nn":174,"risk":18,"cat":"green"},{"name":"The Granary","lat":55.82984,"lon":-4.28223,"postcode":"G41 3NH","la":"Glasgow City","era":"other","nn":27,"risk":17,"cat":"green"},{"name":"The Grapes Bar","lat":55.8526,"lon":-4.28778,"postcode":"G51 1BU","la":"Glasgow City","era":"other","nn":67,"risk":18,"cat":"green"},{"name":"The Griffin Bar","lat":55.86537,"lon":-4.26786,"postcode":"G2 4JP","la":"Glasgow City","era":"trad","nn":51,"risk":17,"cat":"green"},{"name":"The Grove","lat":55.86502,"lon":-4.28391,"postcode":"G3 7RX","la":"Glasgow City","era":"other","nn":40,"risk":17,"cat":"green"},{"name":"The Henglers Circus","lat":55.86546,"lon":-4.26517,"postcode":"G2 3HW","la":"Glasgow City","era":"other","nn":0,"risk":17,"cat":"green"},{"name":"The Horseshoe Bar","lat":55.86083,"lon":-4.25645,"postcode":"G2 5AE","la":"Glasgow City","era":"trad","nn":30,"risk":17,"cat":"green"},{"name":"The Howgait","lat":55.86415,"lon":-4.24038,"postcode":"G4 0PS","la":"Glasgow City","era":"other","nn":387,"risk":20,"cat":"green"},{"name":"The Hug And Pint","lat":55.87214,"lon":-4.27243,"postcode":"G4 9AW","la":"Glasgow City","era":"other","nn":58,"risk":18,"cat":"green"},{"name":"The Imperial Bar","lat":55.85694,"lon":-4.25692,"postcode":"G1 4AZ","la":"Glasgow City","era":"other","nn":75,"risk":18,"cat":"green"},{"name":"The Islay Inn","lat":55.86619,"lon":-4.28826,"postcode":"G3 8TJ","la":"Glasgow City","era":"trad","nn":131,"risk":18,"cat":"green"},{"name":"The James Tassie","lat":55.82853,"lon":-4.28292,"postcode":"G41 3YR","la":"Glasgow City","era":"other","nn":0,"risk":17,"cat":"green"},{"name":"The Jenny Burn","lat":55.83875,"lon":-4.23123,"postcode":"G5 0BJ","la":"Glasgow City","era":"other","nn":194,"risk":19,"cat":"green"},{"name":"The Lismore","lat":55.87102,"lon":-4.3012,"postcode":"G11 6UN","la":"Glasgow City","era":"other","nn":0,"risk":17,"cat":"green"},{"name":"The Locale","lat":55.86615,"lon":-4.27226,"postcode":"G3 7DL","la":"Glasgow City","era":"other","nn":0,"risk":17,"cat":"green"},{"name":"The Londoner","lat":55.85036,"lon":-4.23044,"postcode":"G40 1NQ","la":"Glasgow City","era":"other","nn":208,"risk":19,"cat":"green"},{"name":"The Louden Tavern","lat":55.85277,"lon":-4.28939,"postcode":"G51 1BW","la":"Glasgow City","era":"other","nn":42,"risk":17,"cat":"green"},{"name":"The Loveable Rogue","lat":55.87347,"lon":-4.27651,"postcode":"G4 9HS","la":"Glasgow City","era":"other","nn":41,"risk":17,"cat":"green"},{"name":"The Mailcoach","lat":55.83767,"lon":-4.11657,"postcode":"G71 7SG","la":"Glasgow City","era":"trad","nn":1013,"risk":47,"cat":"amber"},{"name":"The Maltman","lat":55.86288,"lon":-4.25658,"postcode":"G2 1LF","la":"Glasgow City","era":"other","nn":0,"risk":17,"cat":"green"},{"name":"The Marquis Bar","lat":55.85154,"lon":-4.16998,"postcode":"G32 7PW","la":"Glasgow City","era":"other","nn":183,"risk":18,"cat":"green"},{"name":"The Maverick","lat":55.86452,"lon":-4.27253,"postcode":"G3 7EH","la":"Glasgow City","era":"other","nn":0,"risk":17,"cat":"green"},{"name":"The Merchant","lat":55.86267,"lon":-4.25727,"postcode":"G2 2HG","la":"Glasgow City","era":"other","nn":34,"risk":17,"cat":"green"},{"name":"The Montford Bar","lat":55.82638,"lon":-4.2438,"postcode":"G44 4QD","la":"Glasgow City","era":"other","nn":419,"risk":20,"cat":"green"},{"name":"The Mulroy Bay Snooker Club And Bar","lat":55.8452,"lon":-4.36487,"postcode":"G52 3QH","la":"Glasgow City","era":"other","nn":425,"risk":25,"cat":"green"},{"name":"The Old Black Bull","lat":55.85207,"lon":-4.20055,"postcode":"G31 4DR","la":"Glasgow City","era":"trad","nn":172,"risk":18,"cat":"green"},{"name":"The Old Burnt Barns","lat":55.85456,"lon":-4.23855,"postcode":"G40 1PA","la":"Glasgow City","era":"other","nn":102,"risk":18,"cat":"green"},{"name":"The Old School House","lat":55.87256,"lon":-4.27904,"postcode":"G3 6NG","la":"Glasgow City","era":"other","nn":67,"risk":18,"cat":"green"},{"name":"The Park Bar","lat":55.86562,"lon":-4.28642,"postcode":"G3 8TE","la":"Glasgow City","era":"other","nn":40,"risk":17,"cat":"green"},{"name":"The Parlour","lat":55.8773,"lon":-4.29066,"postcode":"G12 8BE","la":"Glasgow City","era":"mod","nn":271,"risk":19,"cat":"green"},{"name":"The Pavement Bar","lat":55.85902,"lon":-4.24817,"postcode":"G1 1SH","la":"Glasgow City","era":"other","nn":0,"risk":17,"cat":"green"},{"name":"The Penny Farthing","lat":55.83641,"lon":-4.25733,"postcode":"G42 8YG","la":"Glasgow City","era":"other","nn":439,"risk":20,"cat":"green"},{"name":"The Pig and Whistle","lat":55.84691,"lon":-4.24099,"postcode":"G5 0NH","la":"Glasgow City","era":"other","nn":731,"risk":22,"cat":"green"},{"name":"The Pines","lat":55.84033,"lon":-4.36523,"postcode":"G52 3NF","la":"Glasgow City","era":"other","nn":542,"risk":26,"cat":"green"},{"name":"The Pinkston Bar","lat":55.87698,"lon":-4.24867,"postcode":"G21 1JE","la":"Glasgow City","era":"other","nn":713,"risk":22,"cat":"green"},{"name":"The Piper","lat":55.86033,"lon":-4.24846,"postcode":"G1 1HL","la":"Glasgow City","era":"other","nn":23,"risk":17,"cat":"green"},{"name":"The Pot Still","lat":55.86292,"lon":-4.25757,"postcode":"G2 2TH","la":"Glasgow City","era":"other","nn":34,"risk":17,"cat":"green"},{"name":"The Press Bar","lat":55.86053,"lon":-4.244,"postcode":"G1 1RU","la":"Glasgow City","era":"other","nn":87,"risk":18,"cat":"green"},{"name":"The Princess","lat":55.86819,"lon":-4.18848,"postcode":"G33 2RQ","la":"Glasgow City","era":"trad","nn":1525,"risk":50,"cat":"amber"},{"name":"The Raven","lat":55.86329,"lon":-4.25641,"postcode":"G2 1LP","la":"Glasgow City","era":"other","nn":47,"risk":17,"cat":"green"},{"name":"The Real MacKay","lat":55.88348,"lon":-4.16544,"postcode":"G33 1AA","la":"Glasgow City","era":"other","nn":124,"risk":38,"cat":"amber"},{"name":"The Real McCoy","lat":55.84803,"lon":-4.20283,"postcode":"G40 3HW","la":"Glasgow City","era":"other","nn":10,"risk":17,"cat":"green"},{"name":"The Record Factory","lat":55.87093,"lon":-4.29931,"postcode":"G11 5RD","la":"Glasgow City","era":"other","nn":72,"risk":18,"cat":"green"},{"name":"The Regent Bar","lat":55.83647,"lon":-4.27056,"postcode":"G41 2AE","la":"Glasgow City","era":"other","nn":41,"risk":17,"cat":"green"},{"name":"The Republic Bier Halle","lat":55.86021,"lon":-4.25516,"postcode":"G1 3PL","la":"Glasgow City","era":"other","nn":25,"risk":17,"cat":"green"},{"name":"The Rock","lat":55.87514,"lon":-4.30346,"postcode":"G12 9HE","la":"Glasgow City","era":"other","nn":453,"risk":20,"cat":"green"},{"name":"The Rose Reilly","lat":55.83411,"lon":-4.26371,"postcode":"G42 8DN","la":"Glasgow City","era":"trad","nn":146,"risk":18,"cat":"green"},{"name":"The Royalty Bar","lat":55.87391,"lon":-4.26988,"postcode":"G20 7QS","la":"Glasgow City","era":"trad","nn":246,"risk":19,"cat":"green"},{"name":"The Rum Shack","lat":55.83655,"lon":-4.26962,"postcode":"G41 2AB","la":"Glasgow City","era":"other","nn":40,"risk":17,"cat":"green"},{"name":"The Scallion","lat":55.87242,"lon":-4.27322,"postcode":"G4 9EB","la":"Glasgow City","era":"trad","nn":57,"risk":18,"cat":"green"},{"name":"The Seven Ways","lat":55.84962,"lon":-4.22738,"postcode":"G40 1NE","la":"Glasgow City","era":"other","nn":0,"risk":17,"cat":"green"},{"name":"The Signal Bar / Temple Burger Co.","lat":55.89596,"lon":-4.32997,"postcode":"G13 1ER","la":"Glasgow City","era":"mod","nn":983,"risk":44,"cat":"amber"},{"name":"The Sir John Moore","lat":55.8589,"lon":-4.26014,"postcode":"G2 8QW","la":"Glasgow City","era":"other","nn":32,"risk":17,"cat":"green"},{"name":"The Slouch Bar","lat":55.86455,"lon":-4.2639,"postcode":"G2 4HZ","la":"Glasgow City","era":"other","nn":70,"risk":18,"cat":"green"},{"name":"The Snaffle Bit","lat":55.86592,"lon":-4.28605,"postcode":"G3 7TQ","la":"Glasgow City","era":"other","nn":40,"risk":17,"cat":"green"},{"name":"The Snug","lat":55.85829,"lon":-4.21699,"postcode":"G31 1PX","la":"Glasgow City","era":"other","nn":91,"risk":18,"cat":"green"},{"name":"The Solid Rock Cafe","lat":55.85909,"lon":-4.25976,"postcode":"G2 6AB","la":"Glasgow City","era":"other","nn":0,"risk":17,"cat":"green"},{"name":"The Star Bar","lat":55.84354,"lon":-4.26196,"postcode":"G5 9RN","la":"Glasgow City","era":"other","nn":667,"risk":22,"cat":"green"},{"name":"The State Bar","lat":55.86543,"lon":-4.26616,"postcode":"G2 4NG","la":"Glasgow City","era":"other","nn":62,"risk":18,"cat":"green"},{"name":"The Station Bar","lat":55.86763,"lon":-4.25492,"postcode":"G4 0HF","la":"Glasgow City","era":"other","nn":198,"risk":19,"cat":"green"},{"name":"The Steps Bar","lat":55.85905,"lon":-4.24859,"postcode":"G1 1UP","la":"Glasgow City","era":"other","nn":0,"risk":17,"cat":"green"},{"name":"The Tap Yard","lat":55.85833,"lon":-4.24537,"postcode":"G1 1NU","la":"Glasgow City","era":"mod","nn":0,"risk":17,"cat":"green"},{"name":"The Tenement","lat":55.87064,"lon":-4.30626,"postcode":"G11 6AL","la":"Glasgow City","era":"other","nn":0,"risk":17,"cat":"green"},{"name":"The Thornwood Bar","lat":55.87108,"lon":-4.32101,"postcode":"G11 6RB","la":"Glasgow City","era":"other","nn":75,"risk":18,"cat":"green"},{"name":"The Three Craws","lat":55.8822,"lon":-4.32726,"postcode":"G11 7DN","la":"Glasgow City","era":"other","nn":764,"risk":42,"cat":"amber"},{"name":"The Three Judges","lat":55.87022,"lon":-4.29916,"postcode":"G11 6PR","la":"Glasgow City","era":"other","nn":0,"risk":17,"cat":"green"},{"name":"The Toby Jug","lat":55.86079,"lon":-4.25945,"postcode":"G2 6LL","la":"Glasgow City","era":"other","nn":78,"risk":18,"cat":"green"},{"name":"The Tower Bar","lat":55.87469,"lon":-4.26101,"postcode":"G4 9SY","la":"Glasgow City","era":"other","nn":558,"risk":21,"cat":"green"},{"name":"The Union (Strathclyde University)","lat":55.86152,"lon":-4.24672,"postcode":"G1 1JH","la":"Glasgow City","era":"other","nn":120,"risk":18,"cat":"green"},{"name":"The United Bar","lat":55.90561,"lon":-4.36359,"postcode":"G15 6QG","la":"Glasgow City","era":"other","nn":58,"risk":23,"cat":"green"},{"name":"The Variety Bar","lat":55.86592,"lon":-4.26906,"postcode":"G2 3LG","la":"Glasgow City","era":"other","nn":0,"risk":17,"cat":"green"},{"name":"The Viceroy Bar","lat":55.85373,"lon":-4.28035,"postcode":"G51 1LB","la":"Glasgow City","era":"other","nn":143,"risk":18,"cat":"green"},{"name":"The White Elephant","lat":55.81368,"lon":-4.2679,"postcode":"G44 3DL","la":"Glasgow City","era":"other","nn":677,"risk":42,"cat":"amber"},{"name":"The Winds","lat":55.85457,"lon":-4.24841,"postcode":"G1 5HY","la":"Glasgow City","era":"other","nn":91,"risk":18,"cat":"green"},{"name":"Thistle Bar","lat":55.85003,"lon":-4.11149,"postcode":"G69 6SL","la":"Glasgow City","era":"other","nn":0,"risk":17,"cat":"green"},{"name":"Thistle Tavern","lat":55.85173,"lon":-4.19771,"postcode":"G31 5QG","la":"Glasgow City","era":"other","nn":18,"risk":17,"cat":"green"},{"name":"Three Judges","lat":55.87022,"lon":-4.29916,"postcode":"G11 6PR","la":"Glasgow City","era":"other","nn":0,"risk":17,"cat":"green"},{"name":"Thundercat Bar And Diner","lat":55.8592,"lon":-4.25055,"postcode":"G1 1DT","la":"Glasgow City","era":"mod","nn":45,"risk":17,"cat":"green"},{"name":"Times Square","lat":55.85735,"lon":-4.25596,"postcode":"G1 4DH","la":"Glasgow City","era":"other","nn":75,"risk":18,"cat":"green"},{"name":"Tingle Bar","lat":55.85934,"lon":-4.25629,"postcode":"G1 3LN","la":"Glasgow City","era":"other","nn":0,"risk":17,"cat":"green"},{"name":"Titwood Bar","lat":55.83695,"lon":-4.27124,"postcode":"G41 2AN","la":"Glasgow City","era":"other","nn":51,"risk":17,"cat":"green"},{"name":"Tolbooth Bar","lat":55.85617,"lon":-4.24397,"postcode":"G1 5NA","la":"Glasgow City","era":"other","nn":36,"risk":17,"cat":"green"},{"name":"Town Tavern","lat":55.85223,"lon":-4.17565,"postcode":"G32 7NR","la":"Glasgow City","era":"other","nn":0,"risk":17,"cat":"green"},{"name":"Tricias Place (Quarter Gill Public House)","lat":55.87103,"lon":-4.30343,"postcode":"G11 6TU","la":"Glasgow City","era":"mod","nn":0,"risk":17,"cat":"green"},{"name":"Turnstyles Bar","lat":55.84802,"lon":-4.20266,"postcode":"G40 3HW","la":"Glasgow City","era":"other","nn":10,"risk":17,"cat":"green"},{"name":"Union Bar","lat":55.85341,"lon":-4.27813,"postcode":"G5 8RJ","la":"Glasgow City","era":"other","nn":64,"risk":18,"cat":"green"},{"name":"Unite Students Tramworks","lat":55.86396,"lon":-4.29097,"postcode":"G3 8PX","la":"Glasgow City","era":"other","nn":295,"risk":19,"cat":"green"},{"name":"Van Winkle","lat":55.86573,"lon":-4.2769,"postcode":"G3 7NG","la":"Glasgow City","era":"other","nn":223,"risk":19,"cat":"green"},{"name":"Victoria Bar","lat":55.87097,"lon":-4.30696,"postcode":"G11 6TG","la":"Glasgow City","era":"trad","nn":57,"risk":18,"cat":"green"},{"name":"Victoria Bar","lat":55.8364,"lon":-4.26523,"postcode":"G42 8YS","la":"Glasgow City","era":"trad","nn":128,"risk":18,"cat":"green"},{"name":"Viking Bar","lat":55.88694,"lon":-4.28447,"postcode":"G20 9BA","la":"Glasgow City","era":"trad","nn":499,"risk":21,"cat":"green"},{"name":"Vinyl Bar","lat":55.85603,"lon":-4.24345,"postcode":"G1 5NB","la":"Glasgow City","era":"other","nn":36,"risk":17,"cat":"green"},{"name":"Vodka Wodka","lat":55.87463,"lon":-4.29299,"postcode":"G12 8SJ","la":"Glasgow City","era":"other","nn":0,"risk":17,"cat":"green"},{"name":"Vroni","lat":55.86181,"lon":-4.25545,"postcode":"G1 2PT","la":"Glasgow City","era":"other","nn":64,"risk":18,"cat":"green"},{"name":"Walkabout","lat":55.86491,"lon":-4.2552,"postcode":"G2 3AL","la":"Glasgow City","era":"other","nn":57,"risk":18,"cat":"green"},{"name":"Waterloo Bar","lat":55.85903,"lon":-4.26171,"postcode":"G2 8LY","la":"Glasgow City","era":"other","nn":99,"risk":18,"cat":"green"},{"name":"Waverley Bar","lat":55.84355,"lon":-4.17339,"postcode":"G32 8UW","la":"Glasgow City","era":"other","nn":59,"risk":18,"cat":"green"},{"name":"Waxy O'Connors","lat":55.8618,"lon":-4.25024,"postcode":"G2 1DH","la":"Glasgow City","era":"other","nn":116,"risk":18,"cat":"green"},{"name":"Wee Mans Bar","lat":55.85593,"lon":-4.22847,"postcode":"G40 2DY","la":"Glasgow City","era":"other","nn":66,"risk":18,"cat":"green"},{"name":"Westburn Bar","lat":55.85545,"lon":-4.17889,"postcode":"G32 6AS","la":"Glasgow City","era":"other","nn":331,"risk":19,"cat":"green"},{"name":"Windsor Tavern","lat":55.87059,"lon":-4.31181,"postcode":"G11 6EJ","la":"Glasgow City","era":"other","nn":17,"risk":17,"cat":"green"},{"name":"Wintersgills","lat":55.87292,"lon":-4.27341,"postcode":"G4 9EJ","la":"Glasgow City","era":"other","nn":57,"risk":18,"cat":"green"},{"name":"Woodend Bar","lat":55.8399,"lon":-4.14768,"postcode":"G32 9QW","la":"Glasgow City","era":"other","nn":1276,"risk":49,"cat":"amber"},{"name":"Abronhill Bowling Club","lat":55.96272,"lon":-3.94352,"postcode":"G67 3NZ","la":"North Lanarkshire","era":"other","nn":1935,"risk":58,"cat":"amber"},{"name":"Auchengeich Miners Welfare Social Club Ltd","lat":55.91656,"lon":-4.08733,"postcode":"G69 0JD","la":"North Lanarkshire","era":"mod","nn":353,"risk":42,"cat":"amber"},{"name":"Auchinloch Bowling Club","lat":55.90898,"lon":-4.14956,"postcode":"G66 5DU","la":"North Lanarkshire","era":"other","nn":541,"risk":43,"cat":"amber"},{"name":"Banton Bowling Club","lat":55.98393,"lon":-3.9933,"postcode":"G65 0QH","la":"North Lanarkshire","era":"other","nn":2665,"risk":63,"cat":"red"},{"name":"Bar Yellow","lat":55.9473,"lon":-3.99094,"postcode":"G67 1EN","la":"North Lanarkshire","era":"mod","nn":253,"risk":24,"cat":"green"},{"name":"Bargeddie Orange Lodge","lat":55.85099,"lon":-4.07908,"postcode":"G69 7SG","la":"North Lanarkshire","era":"other","nn":1799,"risk":57,"cat":"amber"},{"name":"Boolers Cafe","lat":55.94639,"lon":-3.98722,"postcode":"G67 1BJ","la":"North Lanarkshire","era":"other","nn":253,"risk":24,"cat":"green"},{"name":"Brodens","lat":55.93671,"lon":-4.02651,"postcode":"G67 4BS","la":"North Lanarkshire","era":"other","nn":49,"risk":27,"cat":"green"},{"name":"Burnhead Bowling Club","lat":55.83026,"lon":-4.05589,"postcode":"G71 5EX","la":"North Lanarkshire","era":"trad","nn":524,"risk":28,"cat":"green"},{"name":"Burroughs Social Club","lat":55.94352,"lon":-3.97921,"postcode":"G67 2UQ","la":"North Lanarkshire","era":"mod","nn":187,"risk":23,"cat":"green"},{"name":"Calderbraes Golf Club","lat":55.83594,"lon":-4.10065,"postcode":"G71 6NG","la":"North Lanarkshire","era":"other","nn":1013,"risk":52,"cat":"amber"},{"name":"Chryston Bowling Club","lat":55.90241,"lon":-4.10402,"postcode":"G69 9DT","la":"North Lanarkshire","era":"other","nn":261,"risk":29,"cat":"green"},{"name":"Condorrat Bowling Club","lat":55.93136,"lon":-4.02393,"postcode":"G67 4LS","la":"North Lanarkshire","era":"other","nn":242,"risk":26,"cat":"green"},{"name":"Condorrat War Memorial and Social Club","lat":55.93629,"lon":-4.02625,"postcode":"G67 4BT","la":"North Lanarkshire","era":"mod","nn":49,"risk":27,"cat":"green"},{"name":"Coorie In @ The Black Bull","lat":55.96192,"lon":-3.97632,"postcode":"G67 2RT","la":"North Lanarkshire","era":"trad","nn":110,"risk":28,"cat":"green"},{"name":"Craigmarloch Lodge","lat":55.95495,"lon":-4.02237,"postcode":"G68 0EZ","la":"North Lanarkshire","era":"other","nn":781,"risk":47,"cat":"amber"},{"name":"Crowwood Golf Club Ltd","lat":55.89785,"lon":-4.11683,"postcode":"G69 9BS","la":"North Lanarkshire","era":"other","nn":672,"risk":32,"cat":"amber"},{"name":"Cumbernauld Bowling Club","lat":55.95977,"lon":-3.97979,"postcode":"G67 2RB","la":"North Lanarkshire","era":"other","nn":164,"risk":23,"cat":"green"},{"name":"Cumbernauld Rugby, Football & Sports Club","lat":55.9307,"lon":-4.01045,"postcode":"G67 4HA","la":"North Lanarkshire","era":"other","nn":843,"risk":48,"cat":"amber"},{"name":"Cumbernauld St Andrews Lodge No 199","lat":55.96104,"lon":-3.97846,"postcode":"G67 2SA","la":"North Lanarkshire","era":"other","nn":164,"risk":28,"cat":"green"},{"name":"Dullatur Golf Club","lat":55.96101,"lon":-4.01032,"postcode":"G68 0DW","la":"North Lanarkshire","era":"other","nn":1008,"risk":52,"cat":"amber"},{"name":"Gartcosh Works Social Club","lat":55.89117,"lon":-4.08067,"postcode":"G69 8AU","la":"North Lanarkshire","era":"mod","nn":1919,"risk":58,"cat":"amber"},{"name":"Glasgow (Cumbernauld) Premier Inn","lat":55.95111,"lon":-3.98402,"postcode":"G67 1AX","la":"North Lanarkshire","era":"trad","nn":0,"risk":22,"cat":"green"},{"name":"Glasgow WIne Club","lat":55.88462,"lon":-4.1473,"postcode":"G33 6FL","la":"North Lanarkshire","era":"other","nn":761,"risk":45,"cat":"amber"},{"name":"Golden Pheasant","lat":55.91155,"lon":-4.1422,"postcode":"G66 5DH","la":"North Lanarkshire","era":"other","nn":541,"risk":43,"cat":"amber"},{"name":"Greenfaulds Bowling Club","lat":55.93923,"lon":-3.994,"postcode":"G67 4BB","la":"North Lanarkshire","era":"other","nn":293,"risk":27,"cat":"green"},{"name":"Jack Snipe Bar","lat":55.93984,"lon":-3.98942,"postcode":"G67 2PE","la":"North Lanarkshire","era":"other","nn":293,"risk":24,"cat":"green"},{"name":"Kilsyth Bowling Club","lat":55.9794,"lon":-4.04824,"postcode":"G65 0HZ","la":"North Lanarkshire","era":"other","nn":312,"risk":27,"cat":"green"},{"name":"Kilsyth Curling Stone","lat":55.97674,"lon":-4.05161,"postcode":"G65 0NS","la":"North Lanarkshire","era":"other","nn":271,"risk":26,"cat":"green"},{"name":"Kilsyth Lennox Golf Club","lat":55.98182,"lon":-4.05079,"postcode":"G65 0RS","la":"North Lanarkshire","era":"other","nn":312,"risk":27,"cat":"green"},{"name":"Knights Of St. Columba Hall","lat":55.91359,"lon":-4.08267,"postcode":"G69 0EN","la":"North Lanarkshire","era":"other","nn":113,"risk":40,"cat":"amber"},{"name":"Masonic Lodge Cadder Argyle No","lat":55.90144,"lon":-4.10782,"postcode":"G69 9DR","la":"North Lanarkshire","era":"trad","nn":136,"risk":28,"cat":"green"},{"name":"Mollinsburn Inn","lat":55.92109,"lon":-4.05401,"postcode":"G67 4HN","la":"North Lanarkshire","era":"trad","nn":31,"risk":42,"cat":"amber"},{"name":"Muirhead Inn","lat":55.90031,"lon":-4.10698,"postcode":"G69 9DY","la":"North Lanarkshire","era":"trad","nn":136,"risk":28,"cat":"green"},{"name":"Parkfoot Social Club","lat":55.97848,"lon":-4.05904,"postcode":"G65 0SW","la":"North Lanarkshire","era":"mod","nn":305,"risk":24,"cat":"green"},{"name":"Scarecrow","lat":55.97636,"lon":-4.05591,"postcode":"G65 0AQ","la":"North Lanarkshire","era":"other","nn":271,"risk":24,"cat":"green"},{"name":"Smiddy Inn","lat":55.94796,"lon":-4.02355,"postcode":"G68 9DN","la":"North Lanarkshire","era":"trad","nn":781,"risk":47,"cat":"amber"},{"name":"Spur Hotel","lat":55.9621,"lon":-3.97459,"postcode":"G67 2RR","la":"North Lanarkshire","era":"other","nn":110,"risk":28,"cat":"green"},{"name":"Stepps Bowling Club","lat":55.89325,"lon":-4.1474,"postcode":"G33 6DU","la":"North Lanarkshire","era":"other","nn":703,"risk":44,"cat":"amber"},{"name":"Stewart Inn","lat":55.88936,"lon":-4.13851,"postcode":"G33 6AA","la":"North Lanarkshire","era":"trad","nn":703,"risk":44,"cat":"amber"},{"name":"Tannochside Miners Club","lat":55.82876,"lon":-4.07084,"postcode":"G71 6PJ","la":"North Lanarkshire","era":"other","nn":83,"risk":25,"cat":"green"},{"name":"Tannochside Olde Club","lat":55.82919,"lon":-4.07193,"postcode":"G71 6PJ","la":"North Lanarkshire","era":"other","nn":83,"risk":28,"cat":"green"},{"name":"The Broch","lat":55.9792,"lon":-4.07055,"postcode":"G65 9AZ","la":"North Lanarkshire","era":"other","nn":721,"risk":45,"cat":"amber"},{"name":"The Molly","lat":55.92108,"lon":-4.05351,"postcode":"G67 4HN","la":"North Lanarkshire","era":"other","nn":31,"risk":42,"cat":"amber"},{"name":"The Rolling Barrel","lat":55.82326,"lon":-4.05014,"postcode":"G71 6LA","la":"North Lanarkshire","era":"other","nn":220,"risk":24,"cat":"green"},{"name":"The Royal British Legion - Cumbernauld Branch","lat":55.95111,"lon":-3.98402,"postcode":"G67 1AX","la":"North Lanarkshire","era":"trad","nn":0,"risk":22,"cat":"green"},{"name":"The Silver Larch","lat":55.91383,"lon":-4.08443,"postcode":"G69 0EF","la":"North Lanarkshire","era":"other","nn":113,"risk":40,"cat":"amber"},{"name":"The Stables","lat":55.82686,"lon":-4.0617,"postcode":"G71 6HJ","la":"North Lanarkshire","era":"other","nn":520,"risk":26,"cat":"green"},{"name":"The Stables","lat":55.93543,"lon":-3.95762,"postcode":"G67 3HU","la":"North Lanarkshire","era":"other","nn":1618,"risk":56,"cat":"amber"},{"name":"The Windmill Tavern","lat":55.83142,"lon":-4.0777,"postcode":"G71 5QQ","la":"North Lanarkshire","era":"trad","nn":438,"risk":43,"cat":"amber"},{"name":"Thorniewood Park","lat":55.82465,"lon":-4.05436,"postcode":"G71 6HL","la":"North Lanarkshire","era":"other","nn":306,"risk":24,"cat":"green"},{"name":"Twa Corbies","lat":55.94383,"lon":-3.98217,"postcode":"G67 2PX","la":"North Lanarkshire","era":"other","nn":187,"risk":23,"cat":"green"},{"name":"Weavers Condorrat","lat":55.93286,"lon":-4.02673,"postcode":"G67 4DN","la":"North Lanarkshire","era":"other","nn":242,"risk":29,"cat":"green"},{"name":"Hillington Estate Bowling Club","lat":55.85852,"lon":-4.37241,"postcode":"G52 4JH","la":"Renfrewshire","era":"other","nn":1192,"risk":55,"cat":"amber"},{"name":"20 Social Club","lat":55.82543,"lon":-4.2263,"postcode":"G73 2DT","la":"South Lanarkshire","era":"mod","nn":188,"risk":23,"cat":"green"},{"name":"AH Sports & Social Club,DFID","lat":55.7619,"lon":-4.21881,"postcode":"G75 8RH","la":"South Lanarkshire","era":"mod","nn":658,"risk":44,"cat":"amber"},{"name":"An Ruadh Ghleann","lat":55.82809,"lon":-4.2168,"postcode":"G73 2HY","la":"South Lanarkshire","era":"other","nn":0,"risk":22,"cat":"green"},{"name":"Angels Hotel","lat":55.82252,"lon":-4.08387,"postcode":"G71 7HZ","la":"South Lanarkshire","era":"trad","nn":60,"risk":22,"cat":"green"},{"name":"Auld Cathkin / Braes","lat":55.81139,"lon":-4.18703,"postcode":"G73 5HD","la":"South Lanarkshire","era":"other","nn":211,"risk":23,"cat":"green"},{"name":"Barocco","lat":55.76535,"lon":-4.17648,"postcode":"G74 4JS","la":"South Lanarkshire","era":"other","nn":1,"risk":22,"cat":"green"},{"name":"Black Bull","lat":55.81922,"lon":-4.17037,"postcode":"G72 7EN","la":"South Lanarkshire","era":"trad","nn":84,"risk":23,"cat":"green"},{"name":"Blakeleys Bar","lat":55.78663,"lon":-4.10171,"postcode":"G72 0DP","la":"South Lanarkshire","era":"other","nn":135,"risk":23,"cat":"green"},{"name":"Blantyre Bowling Club","lat":55.79157,"lon":-4.10021,"postcode":"G72 9SA","la":"South Lanarkshire","era":"other","nn":368,"risk":25,"cat":"green"},{"name":"Blantyre Miners Welfare Society & Social Club","lat":55.79135,"lon":-4.08981,"postcode":"G72 0AU","la":"South Lanarkshire","era":"mod","nn":303,"risk":24,"cat":"green"},{"name":"Bonnie Prince Charlie","lat":55.7637,"lon":-4.15147,"postcode":"G74 2AU","la":"South Lanarkshire","era":"trad","nn":692,"risk":44,"cat":"amber"},{"name":"Bully Wee Bar","lat":55.83706,"lon":-4.23044,"postcode":"G73 1SZ","la":"South Lanarkshire","era":"trad","nn":0,"risk":22,"cat":"green"},{"name":"Burgh Bar","lat":55.82898,"lon":-4.21518,"postcode":"G73 1BZ","la":"South Lanarkshire","era":"other","nn":90,"risk":23,"cat":"green"},{"name":"Burnside Bowling Club","lat":55.81083,"lon":-4.1971,"postcode":"G73 4RF","la":"South Lanarkshire","era":"other","nn":632,"risk":31,"cat":"amber"},{"name":"Calderwood Inn","lat":55.76793,"lon":-4.16315,"postcode":"G74 3DX","la":"South Lanarkshire","era":"trad","nn":181,"risk":23,"cat":"green"},{"name":"Cambuslang Bowling Club","lat":55.81664,"lon":-4.175,"postcode":"G72 8AE","la":"South Lanarkshire","era":"other","nn":365,"risk":25,"cat":"green"},{"name":"Cambuslang Golf Club","lat":55.82438,"lon":-4.15904,"postcode":"G72 7NA","la":"South Lanarkshire","era":"other","nn":618,"risk":26,"cat":"green"},{"name":"Cambuslang Rugby/Sports Club","lat":55.81312,"lon":-4.18566,"postcode":"G72 8HG","la":"South Lanarkshire","era":"other","nn":211,"risk":23,"cat":"green"},{"name":"Carlton Bingo","lat":55.75984,"lon":-4.17788,"postcode":"G74 1LT","la":"South Lanarkshire","era":"other","nn":145,"risk":23,"cat":"green"},{"name":"Carrigan's","lat":55.79147,"lon":-4.10636,"postcode":"G72 9RN","la":"South Lanarkshire","era":"other","nn":217,"risk":24,"cat":"green"},{"name":"Castle Park","lat":55.79399,"lon":-4.08211,"postcode":"G72 0JP","la":"South Lanarkshire","era":"other","nn":564,"risk":26,"cat":"green"},{"name":"Castle Rooms","lat":55.82055,"lon":-4.0815,"postcode":"G71 7PF","la":"South Lanarkshire","era":"mod","nn":0,"risk":22,"cat":"green"},{"name":"Catering @ Old Quarry Bar","lat":55.8274,"lon":-4.22119,"postcode":"G73 2QZ","la":"South Lanarkshire","era":"other","nn":0,"risk":22,"cat":"green"},{"name":"Chapman`s","lat":55.82876,"lon":-4.21084,"postcode":"G73 2HN","la":"South Lanarkshire","era":"other","nn":63,"risk":22,"cat":"green"},{"name":"Coppertrees Bar & Grill","lat":55.7596,"lon":-4.22851,"postcode":"G74 5QG","la":"South Lanarkshire","era":"mod","nn":470,"risk":43,"cat":"amber"},{"name":"County Inn","lat":55.82286,"lon":-4.18398,"postcode":"G72 7DS","la":"South Lanarkshire","era":"trad","nn":660,"risk":27,"cat":"green"},{"name":"Doon Inn","lat":55.78967,"lon":-4.10503,"postcode":"G72 9SQ","la":"South Lanarkshire","era":"trad","nn":217,"risk":24,"cat":"green"},{"name":"Douglas Arms","lat":55.80326,"lon":-4.06869,"postcode":"G71 8EX","la":"South Lanarkshire","era":"trad","nn":1240,"risk":53,"cat":"amber"},{"name":"Downtown Sinatras","lat":55.7594,"lon":-4.17568,"postcode":"G74 1PG","la":"South Lanarkshire","era":"other","nn":145,"risk":23,"cat":"green"},{"name":"Downtown/Sinatras","lat":55.76092,"lon":-4.17626,"postcode":"G74 1JU","la":"South Lanarkshire","era":"other","nn":0,"risk":22,"cat":"green"},{"name":"East Kilbride Golf Club","lat":55.78308,"lon":-4.16144,"postcode":"G74 4PH","la":"South Lanarkshire","era":"other","nn":1541,"risk":55,"cat":"amber"},{"name":"East Kilbride Indoor Bowling Club","lat":55.76678,"lon":-4.1611,"postcode":"G74 3EU","la":"South Lanarkshire","era":"other","nn":181,"risk":23,"cat":"green"},{"name":"East Kilbride Sports Club","lat":55.74848,"lon":-4.14466,"postcode":"G75 0QZ","la":"South Lanarkshire","era":"other","nn":1746,"risk":57,"cat":"amber"},{"name":"Exchange","lat":55.76092,"lon":-4.17626,"postcode":"G74 1JU","la":"South Lanarkshire","era":"other","nn":0,"risk":22,"cat":"green"},{"name":"Finlays","lat":55.81945,"lon":-4.17165,"postcode":"G72 7EG","la":"South Lanarkshire","era":"other","nn":84,"risk":23,"cat":"green"},{"name":"Gardenhall Inn","lat":55.75598,"lon":-4.23239,"postcode":"G75 8SP","la":"South Lanarkshire","era":"trad","nn":470,"risk":45,"cat":"amber"},{"name":"Glencairn Juniors F.C.","lat":55.83328,"lon":-4.22511,"postcode":"G73 1SP","la":"South Lanarkshire","era":"other","nn":404,"risk":25,"cat":"green"},{"name":"Greenhills Bar","lat":55.74523,"lon":-4.20627,"postcode":"G75 8TT","la":"South Lanarkshire","era":"other","nn":1363,"risk":54,"cat":"amber"},{"name":"Halfway & District Bowling Club (Bar)","lat":55.81295,"lon":-4.14602,"postcode":"G72 7QG","la":"South Lanarkshire","era":"other","nn":169,"risk":41,"cat":"amber"},{"name":"Harleys Sky Bar","lat":55.82795,"lon":-4.21571,"postcode":"G73 2HZ","la":"South Lanarkshire","era":"other","nn":70,"risk":22,"cat":"green"},{"name":"Harvester East Kilbride","lat":55.76367,"lon":-4.206,"postcode":"G75 8LW","la":"South Lanarkshire","era":"trad","nn":785,"risk":45,"cat":"amber"},{"name":"Holepark Social Club","lat":55.81856,"lon":-4.16559,"postcode":"G72 8HP","la":"South Lanarkshire","era":"mod","nn":0,"risk":22,"cat":"green"},{"name":"Horseshoe Bar","lat":55.81912,"lon":-4.08249,"postcode":"G71 7EP","la":"South Lanarkshire","era":"trad","nn":77,"risk":23,"cat":"green"},{"name":"Hudsons","lat":55.76109,"lon":-4.17509,"postcode":"G74 1JR","la":"South Lanarkshire","era":"other","nn":75,"risk":23,"cat":"green"},{"name":"Hundred Acres & Trevi Function Room","lat":55.82348,"lon":-4.23099,"postcode":"G73 2EB","la":"South Lanarkshire","era":"other","nn":365,"risk":25,"cat":"green"},{"name":"Kirkhill Bar","lat":55.81505,"lon":-4.16189,"postcode":"G72 8LH","la":"South Lanarkshire","era":"other","nn":149,"risk":23,"cat":"green"},{"name":"Kirkhill Bowling Club","lat":55.81336,"lon":-4.17511,"postcode":"G72 8DG","la":"South Lanarkshire","era":"other","nn":365,"risk":25,"cat":"green"},{"name":"Kirkhill Golf Club","lat":55.8048,"lon":-4.17348,"postcode":"G72 8YN","la":"South Lanarkshire","era":"other","nn":585,"risk":44,"cat":"amber"},{"name":"Langlands Golf Club","lat":55.72666,"lon":-4.19074,"postcode":"G75 9DW","la":"South Lanarkshire","era":"other","nn":2283,"risk":60,"cat":"amber"},{"name":"Lawburn Inn","lat":55.80927,"lon":-4.1784,"postcode":"G72 8PE","la":"South Lanarkshire","era":"trad","nn":499,"risk":25,"cat":"green"},{"name":"Lodge Blantyre Kilwinning","lat":55.78544,"lon":-4.10131,"postcode":"G72 0DL","la":"South Lanarkshire","era":"trad","nn":135,"risk":23,"cat":"green"},{"name":"Lodge Douglas","lat":55.77089,"lon":-4.17318,"postcode":"G74 4DY","la":"South Lanarkshire","era":"other","nn":0,"risk":22,"cat":"green"},{"name":"Lodge St Bryde No 579","lat":55.82221,"lon":-4.08465,"postcode":"G71 7BX","la":"South Lanarkshire","era":"other","nn":60,"risk":22,"cat":"green"},{"name":"Lodge St. Andrew","lat":55.76588,"lon":-4.17681,"postcode":"G74 4JW","la":"South Lanarkshire","era":"other","nn":62,"risk":22,"cat":"green"},{"name":"Lounge 72","lat":55.81834,"lon":-4.08234,"postcode":"G71 7HE","la":"South Lanarkshire","era":"mod","nn":21,"risk":22,"cat":"green"},{"name":"McGoldricks Pool & Sports Bar","lat":55.82816,"lon":-4.21313,"postcode":"G73 2HW","la":"South Lanarkshire","era":"other","nn":157,"risk":23,"cat":"green"},{"name":"Mecca Bingo","lat":55.82809,"lon":-4.2168,"postcode":"G73 2HY","la":"South Lanarkshire","era":"other","nn":0,"risk":22,"cat":"green"},{"name":"Mo Chara","lat":55.76536,"lon":-4.1765,"postcode":"G74 4JS","la":"South Lanarkshire","era":"other","nn":0,"risk":22,"cat":"green"},{"name":"Montgomerie Arms","lat":55.76536,"lon":-4.1765,"postcode":"G74 4JS","la":"South Lanarkshire","era":"trad","nn":0,"risk":22,"cat":"green"},{"name":"Murray Bar","lat":55.75333,"lon":-4.18438,"postcode":"G75 0BH","la":"South Lanarkshire","era":"other","nn":8,"risk":22,"cat":"green"},{"name":"Murray Bar","lat":55.75337,"lon":-4.18427,"postcode":"G75 0BH","la":"South Lanarkshire","era":"other","nn":8,"risk":22,"cat":"green"},{"name":"Old Oak Inn","lat":55.81873,"lon":-4.19159,"postcode":"G73 3SU","la":"South Lanarkshire","era":"trad","nn":660,"risk":27,"cat":"green"},{"name":"Old Quarry Bar","lat":55.8274,"lon":-4.22119,"postcode":"G73 2QZ","la":"South Lanarkshire","era":"other","nn":0,"risk":22,"cat":"green"},{"name":"Overtoun Park Bowling Club","lat":55.82156,"lon":-4.20813,"postcode":"G73 3QZ","la":"South Lanarkshire","era":"other","nn":202,"risk":23,"cat":"green"},{"name":"Picture House","lat":55.82859,"lon":-4.21828,"postcode":"G73 2JF","la":"South Lanarkshire","era":"other","nn":46,"risk":22,"cat":"green"},{"name":"Red Burn Farm","lat":55.7809,"lon":-4.08426,"postcode":"G72 0JB","la":"South Lanarkshire","era":"other","nn":521,"risk":28,"cat":"green"},{"name":"Red Deer Bowling Club","lat":55.75765,"lon":-4.19203,"postcode":"G75 8AH","la":"South Lanarkshire","era":"other","nn":574,"risk":29,"cat":"green"},{"name":"Ritz Bar","lat":55.81888,"lon":-4.16864,"postcode":"G72 7EL","la":"South Lanarkshire","era":"other","nn":114,"risk":23,"cat":"green"},{"name":"Royal Arch Social Club","lat":55.82921,"lon":-4.21656,"postcode":"G73 1JP","la":"South Lanarkshire","era":"other","nn":90,"risk":23,"cat":"green"},{"name":"Royal British Legion","lat":55.77089,"lon":-4.17318,"postcode":"G74 4DY","la":"South Lanarkshire","era":"trad","nn":0,"risk":22,"cat":"green"},{"name":"Rutherglen Bowling Club","lat":55.82491,"lon":-4.2103,"postcode":"G73 3ED","la":"South Lanarkshire","era":"other","nn":73,"risk":23,"cat":"green"},{"name":"Sefton Bar","lat":55.81863,"lon":-4.1663,"postcode":"G72 7EP","la":"South Lanarkshire","era":"other","nn":45,"risk":22,"cat":"green"},{"name":"Smt Social Club","lat":55.76585,"lon":-4.17385,"postcode":"G74 4HG","la":"South Lanarkshire","era":"mod","nn":0,"risk":22,"cat":"green"},{"name":"Sportsmans Bar","lat":55.83014,"lon":-4.22105,"postcode":"G73 1LJ","la":"South Lanarkshire","era":"other","nn":244,"risk":24,"cat":"green"},{"name":"St. Johns Operative Lodge","lat":55.82528,"lon":-4.20933,"postcode":"G73 3BU","la":"South Lanarkshire","era":"other","nn":73,"risk":23,"cat":"green"},{"name":"Stonefield Tavern","lat":55.79364,"lon":-4.09246,"postcode":"G72 0YS","la":"South Lanarkshire","era":"other","nn":246,"risk":24,"cat":"green"},{"name":"Sweepers","lat":55.82133,"lon":-4.17371,"postcode":"G72 7EB","la":"South Lanarkshire","era":"other","nn":246,"risk":24,"cat":"green"},{"name":"Tabernacle Social Club","lat":55.81856,"lon":-4.16559,"postcode":"G72 8HP","la":"South Lanarkshire","era":"mod","nn":0,"risk":22,"cat":"green"},{"name":"Templeton Bowling Club","lat":55.82217,"lon":-4.20508,"postcode":"G73 3NZ","la":"South Lanarkshire","era":"other","nn":202,"risk":23,"cat":"green"},{"name":"The Cedarwood Bar","lat":55.82659,"lon":-4.22849,"postcode":"G73 1HQ","la":"South Lanarkshire","era":"other","nn":188,"risk":23,"cat":"green"},{"name":"The C'Mon Inn","lat":55.77517,"lon":-4.13782,"postcode":"G74 3SD","la":"South Lanarkshire","era":"trad","nn":1534,"risk":55,"cat":"amber"},{"name":"The Crafty Fox","lat":55.8186,"lon":-4.08168,"postcode":"G71 7LU","la":"South Lanarkshire","era":"other","nn":51,"risk":22,"cat":"green"},{"name":"The Hay Stook","lat":55.76092,"lon":-4.17626,"postcode":"G74 1JU","la":"South Lanarkshire","era":"other","nn":0,"risk":22,"cat":"green"},{"name":"The Hoolets","lat":55.79415,"lon":-4.1067,"postcode":"G72 9UH","la":"South Lanarkshire","era":"other","nn":298,"risk":24,"cat":"green"},{"name":"The Millcroft","lat":55.82788,"lon":-4.21818,"postcode":"G73 2NA","la":"South Lanarkshire","era":"trad","nn":79,"risk":23,"cat":"green"},{"name":"The Parkville Hotel","lat":55.79594,"lon":-4.0969,"postcode":"G72 9DG","la":"South Lanarkshire","era":"other","nn":204,"risk":23,"cat":"green"},{"name":"The Priory Inn","lat":55.79414,"lon":-4.09629,"postcode":"G72 9PQ","la":"South Lanarkshire","era":"trad","nn":204,"risk":23,"cat":"green"},{"name":"The Rowantree Inn","lat":55.82055,"lon":-4.0815,"postcode":"G71 7PF","la":"South Lanarkshire","era":"trad","nn":0,"risk":22,"cat":"green"},{"name":"The Vogue Bar","lat":55.8286,"lon":-4.21755,"postcode":"G73 2JH","la":"South Lanarkshire","era":"other","nn":46,"risk":22,"cat":"green"},{"name":"Topgolf Glasgow","lat":55.83084,"lon":-4.19928,"postcode":"G73 1DR","la":"South Lanarkshire","era":"other","nn":723,"risk":27,"cat":"green"},{"name":"Tudor Inn","lat":55.81205,"lon":-4.14383,"postcode":"G72 7PF","la":"South Lanarkshire","era":"trad","nn":169,"risk":43,"cat":"amber"},{"name":"Two Chimneys","lat":55.82284,"lon":-4.08478,"postcode":"G71 7BP","la":"South Lanarkshire","era":"other","nn":67,"risk":22,"cat":"green"},{"name":"Uddingston Bowling & Tennis Club","lat":55.81816,"lon":-4.08244,"postcode":"G71 7HF","la":"South Lanarkshire","era":"other","nn":21,"risk":22,"cat":"green"},{"name":"Uddingston Cricket and Sports Club","lat":55.81636,"lon":-4.08989,"postcode":"G71 7HU","la":"South Lanarkshire","era":"other","nn":507,"risk":26,"cat":"green"},{"name":"Victoria Bar","lat":55.8293,"lon":-4.21053,"postcode":"G73 1DN","la":"South Lanarkshire","era":"trad","nn":63,"risk":22,"cat":"green"},{"name":"Village Bar","lat":55.79854,"lon":-4.08667,"postcode":"G72 9BW","la":"South Lanarkshire","era":"other","nn":581,"risk":26,"cat":"green"},{"name":"Village Inn","lat":55.76487,"lon":-4.17404,"postcode":"G74 4NG","la":"South Lanarkshire","era":"trad","nn":110,"risk":23,"cat":"green"},{"name":"Village Theatre","lat":55.76585,"lon":-4.17385,"postcode":"G74 4HG","la":"South Lanarkshire","era":"other","nn":0,"risk":22,"cat":"green"},{"name":"West Of Scotland Bowling Club","lat":55.83598,"lon":-4.22945,"postcode":"G73 1SX","la":"South Lanarkshire","era":"other","nn":135,"risk":23,"cat":"green"},{"name":"Westwood Bar","lat":55.75715,"lon":-4.20117,"postcode":"G75 8YQ","la":"South Lanarkshire","era":"other","nn":574,"risk":44,"cat":"amber"},{"name":"Whitefield Bowling & Recreation Club","lat":55.81619,"lon":-4.16061,"postcode":"G72 8LB","la":"South Lanarkshire","era":"other","nn":149,"risk":23,"cat":"green"},{"name":"Whitehills Farm","lat":55.74858,"lon":-4.18401,"postcode":"G75 9JL","la":"South Lanarkshire","era":"other","nn":529,"risk":43,"cat":"amber"},{"name":"Winning Post","lat":55.83706,"lon":-4.23044,"postcode":"G73 1SZ","la":"South Lanarkshire","era":"trad","nn":0,"risk":22,"cat":"green"},{"name":"Balfron Bowling Club","lat":56.06923,"lon":-4.33602,"postcode":"G63 0RN","la":"Stirling","era":"other","nn":131,"risk":48,"cat":"amber"},{"name":"Fintry Bowling Club","lat":56.05389,"lon":-4.22615,"postcode":"G63 0XB","la":"Stirling","era":"other","nn":6902,"risk":85,"cat":"red"},{"name":"Lodge Strathendrick","lat":56.06875,"lon":-4.33409,"postcode":"G63 0TP","la":"Stirling","era":"other","nn":131,"risk":48,"cat":"amber"},{"name":"Strathblane Bowling Club","lat":55.94522,"lon":-4.33328,"postcode":"G63 9BP","la":"Stirling","era":"other","nn":341,"risk":50,"cat":"amber"},{"name":"The Old Mill","lat":56.04441,"lon":-4.37229,"postcode":"G63 9NJ","la":"Stirling","era":"trad","nn":3562,"risk":75,"cat":"red"},{"name":"Alexanders Bar","lat":55.9005,"lon":-4.40517,"postcode":"G81 1SQ","la":"West Dunbartonshire","era":"other","nn":41,"risk":28,"cat":"green"},{"name":"Atlantis Public House","lat":55.9078,"lon":-4.40351,"postcode":"G81 2JG","la":"West Dunbartonshire","era":"other","nn":266,"risk":29,"cat":"green"},{"name":"Awestruck Academy","lat":55.90191,"lon":-4.40489,"postcode":"G81 1EA","la":"West Dunbartonshire","era":"other","nn":78,"risk":28,"cat":"green"},{"name":"Bernie's Bar","lat":55.91253,"lon":-4.43232,"postcode":"G81 4BS","la":"West Dunbartonshire","era":"other","nn":315,"risk":30,"cat":"green"},{"name":"Boatyard Bar & Grill","lat":55.94365,"lon":-4.57296,"postcode":"G82 1LB","la":"West Dunbartonshire","era":"mod","nn":21,"risk":28,"cat":"green"},{"name":"Brock Bowling & Social Club","lat":55.96629,"lon":-4.58278,"postcode":"G82 2BU","la":"West Dunbartonshire","era":"mod","nn":306,"risk":50,"cat":"amber"},{"name":"Burgh Bar","lat":55.94326,"lon":-4.57187,"postcode":"G82 1LF","la":"West Dunbartonshire","era":"other","nn":62,"risk":28,"cat":"green"},{"name":"Chandlers","lat":55.9008,"lon":-4.40556,"postcode":"G81 1TH","la":"West Dunbartonshire","era":"other","nn":41,"risk":28,"cat":"green"},{"name":"Dalmuir Bowling Club","lat":55.91278,"lon":-4.4225,"postcode":"G81 3LJ","la":"West Dunbartonshire","era":"other","nn":385,"risk":30,"cat":"green"},{"name":"Dilly Bar","lat":55.97816,"lon":-4.57195,"postcode":"G83 9HY","la":"West Dunbartonshire","era":"other","nn":814,"risk":38,"cat":"amber"},{"name":"Dumbarton Harp Social Club","lat":55.94363,"lon":-4.57262,"postcode":"G82 1LE","la":"West Dunbartonshire","era":"mod","nn":0,"risk":28,"cat":"green"},{"name":"Dumbuck Bowling Club","lat":55.9382,"lon":-4.54129,"postcode":"G82 1EU","la":"West Dunbartonshire","era":"other","nn":938,"risk":54,"cat":"amber"},{"name":"Eastfield Bowling Club","lat":55.94255,"lon":-4.55573,"postcode":"G82 1RQ","la":"West Dunbartonshire","era":"other","nn":88,"risk":46,"cat":"amber"},{"name":"Fentons Lounge Bar","lat":55.99899,"lon":-4.57102,"postcode":"G83 8PN","la":"West Dunbartonshire","era":"mod","nn":753,"risk":50,"cat":"amber"},{"name":"Glen Lusset","lat":55.92208,"lon":-4.45627,"postcode":"G60 5DA","la":"West Dunbartonshire","era":"other","nn":429,"risk":48,"cat":"amber"},{"name":"Glencairn Lounge","lat":55.94441,"lon":-4.57379,"postcode":"G82 1NY","la":"West Dunbartonshire","era":"mod","nn":100,"risk":28,"cat":"green"},{"name":"Glenhead Social Club","lat":55.9284,"lon":-4.41766,"postcode":"G81 6LB","la":"West Dunbartonshire","era":"other","nn":465,"risk":33,"cat":"amber"},{"name":"Glenhead Tavern","lat":55.92452,"lon":-4.41487,"postcode":"G81 6HD","la":"West Dunbartonshire","era":"trad","nn":179,"risk":29,"cat":"green"},{"name":"Haveli Indian Restaurant","lat":55.94596,"lon":-4.56902,"postcode":"G82 1NH","la":"West Dunbartonshire","era":"other","nn":342,"risk":30,"cat":"green"},{"name":"Horse and Barge","lat":55.91056,"lon":-4.42791,"postcode":"G81 4BB","la":"West Dunbartonshire","era":"trad","nn":64,"risk":28,"cat":"green"},{"name":"Jack Dempsey's Lounge/Bar","lat":55.99401,"lon":-4.58655,"postcode":"G83 0QD","la":"West Dunbartonshire","era":"mod","nn":577,"risk":37,"cat":"amber"},{"name":"Lodge Cochno","lat":55.9246,"lon":-4.39924,"postcode":"G81 5PJ","la":"West Dunbartonshire","era":"other","nn":0,"risk":33,"cat":"amber"},{"name":"Mackintosh's","lat":55.91114,"lon":-4.42793,"postcode":"G81 4HR","la":"West Dunbartonshire","era":"other","nn":64,"risk":28,"cat":"green"},{"name":"McKenzie's Bar","lat":55.98924,"lon":-4.58294,"postcode":"G83 0DY","la":"West Dunbartonshire","era":"other","nn":170,"risk":29,"cat":"green"},{"name":"Radnor Park Bowling Club","lat":55.9104,"lon":-4.41361,"postcode":"G81 3AY","la":"West Dunbartonshire","era":"other","nn":579,"risk":32,"cat":"amber"},{"name":"Renton Bowling Club","lat":55.96878,"lon":-4.58486,"postcode":"G82 4NP","la":"West Dunbartonshire","era":"other","nn":306,"risk":50,"cat":"amber"},{"name":"Shipyard Bar","lat":55.90123,"lon":-4.40522,"postcode":"G81 1RT","la":"West Dunbartonshire","era":"other","nn":53,"risk":28,"cat":"green"},{"name":"Sixty Ate Bar","lat":55.90197,"lon":-4.40898,"postcode":"G81 1UG","la":"West Dunbartonshire","era":"other","nn":248,"risk":29,"cat":"green"},{"name":"Stags Head","lat":55.94198,"lon":-4.55476,"postcode":"G82 1JN","la":"West Dunbartonshire","era":"trad","nn":88,"risk":33,"cat":"amber"},{"name":"Station Bar","lat":55.98525,"lon":-4.57519,"postcode":"G83 0UL","la":"West Dunbartonshire","era":"other","nn":267,"risk":29,"cat":"green"},{"name":"The Bay Inn","lat":55.93069,"lon":-4.48458,"postcode":"G60 5AQ","la":"West Dunbartonshire","era":"trad","nn":1660,"risk":62,"cat":"red"},{"name":"The Cabin Inn","lat":55.90844,"lon":-4.42302,"postcode":"G81 4DN","la":"West Dunbartonshire","era":"trad","nn":257,"risk":29,"cat":"green"},{"name":"The Cleddans","lat":55.91019,"lon":-4.40361,"postcode":"G81 2TU","la":"West Dunbartonshire","era":"other","nn":266,"risk":32,"cat":"amber"},{"name":"The Dog House","lat":56.00373,"lon":-4.57967,"postcode":"G83 8LE","la":"West Dunbartonshire","era":"other","nn":0,"risk":45,"cat":"amber"},{"name":"The Duntiglennan","lat":55.92377,"lon":-4.41742,"postcode":"G81 6DN","la":"West Dunbartonshire","era":"other","nn":172,"risk":31,"cat":"amber"},{"name":"The Ettrick","lat":55.92545,"lon":-4.45963,"postcode":"G60 5JQ","la":"West Dunbartonshire","era":"other","nn":64,"risk":46,"cat":"amber"},{"name":"The Fountain Tavern","lat":55.98789,"lon":-4.58167,"postcode":"G83 0NG","la":"West Dunbartonshire","era":"other","nn":170,"risk":29,"cat":"green"},{"name":"The Goldenhill","lat":55.92496,"lon":-4.40469,"postcode":"G81 6AX","la":"West Dunbartonshire","era":"other","nn":342,"risk":30,"cat":"green"},{"name":"The Laughing Fox","lat":55.98462,"lon":-4.57933,"postcode":"G83 0TA","la":"West Dunbartonshire","era":"trad","nn":204,"risk":29,"cat":"green"},{"name":"The Lennox Bar","lat":55.94363,"lon":-4.57262,"postcode":"G82 1LE","la":"West Dunbartonshire","era":"other","nn":0,"risk":28,"cat":"green"},{"name":"The Old Vale Bar","lat":55.98324,"lon":-4.5815,"postcode":"G83 0AJ","la":"West Dunbartonshire","era":"other","nn":204,"risk":29,"cat":"green"},{"name":"The Park Bar","lat":55.90674,"lon":-4.42023,"postcode":"G81 4DU","la":"West Dunbartonshire","era":"other","nn":257,"risk":29,"cat":"green"},{"name":"The Pawn","lat":55.98591,"lon":-4.58243,"postcode":"G83 0DL","la":"West Dunbartonshire","era":"other","nn":225,"risk":29,"cat":"green"},{"name":"The Twisted Thistle","lat":55.92574,"lon":-4.45873,"postcode":"G60 5JH","la":"West Dunbartonshire","era":"other","nn":64,"risk":46,"cat":"amber"},{"name":"The Village Tavern","lat":55.92339,"lon":-4.4201,"postcode":"G81 6DP","la":"West Dunbartonshire","era":"other","nn":172,"risk":31,"cat":"amber"},{"name":"The Waterhouse","lat":56.00373,"lon":-4.57967,"postcode":"G83 8LE","la":"West Dunbartonshire","era":"other","nn":0,"risk":45,"cat":"amber"},{"name":"Townend Bowling Club","lat":55.95195,"lon":-4.55861,"postcode":"G82 2AU","la":"West Dunbartonshire","era":"other","nn":929,"risk":54,"cat":"amber"},{"name":"Waverley Bar","lat":55.94443,"lon":-4.57746,"postcode":"G82 4AB","la":"West Dunbartonshire","era":"other","nn":228,"risk":29,"cat":"green"},{"name":"Westhills Hotel","lat":55.9246,"lon":-4.39924,"postcode":"G81 5PJ","la":"West Dunbartonshire","era":"other","nn":0,"risk":33,"cat":"amber"}]