[{"name":"Best Parties Ever","lat":51.60118,"lon":0.4454,"postcode":"CM11 2UD","la":"Basildon","era":"other","nn":1073,"risk":58,"cat":"amber"},{"name":"Billericay Constitutional Club","lat":51.6279,"lon":0.41894,"postcode":"CM12 9BE","la":"Basildon","era":"other","nn":0,"risk":28,"cat":"green"},{"name":"Billericay Cricket Club","lat":51.62251,"lon":0.40064,"postcode":"CM12 9SA","la":"Basildon","era":"other","nn":1128,"risk":59,"cat":"amber"},{"name":"Chequers","lat":51.62699,"lon":0.41904,"postcode":"CM12 9BQ","la":"Basildon","era":"other","nn":0,"risk":28,"cat":"green"},{"name":"Dunton Park Country Club","lat":51.56925,"lon":0.39523,"postcode":"CM13 3SX","la":"Basildon","era":"other","nn":1005,"risk":58,"cat":"amber"},{"name":"Hackers","lat":51.62699,"lon":0.41904,"postcode":"CM12 9BQ","la":"Basildon","era":"other","nn":0,"risk":28,"cat":"green"},{"name":"Helen Arber Performing Arts","lat":51.63047,"lon":0.41398,"postcode":"CM12 0DX","la":"Basildon","era":"other","nn":158,"risk":29,"cat":"green"},{"name":"Inn on the Green","lat":51.63225,"lon":0.40725,"postcode":"CM12 0EH","la":"Basildon","era":"trad","nn":351,"risk":31,"cat":"amber"},{"name":"J D Wetherspoon","lat":51.62724,"lon":0.41872,"postcode":"CM12 9BA","la":"Basildon","era":"other","nn":36,"risk":28,"cat":"green"},{"name":"Kings Head","lat":51.60978,"lon":0.43837,"postcode":"CM11 2PS","la":"Basildon","era":"trad","nn":1073,"risk":58,"cat":"amber"},{"name":"Red Lion","lat":51.62476,"lon":0.41656,"postcode":"CM12 9AJ","la":"Basildon","era":"trad","nn":119,"risk":29,"cat":"green"},{"name":"Shepherd & Dog","lat":51.60342,"lon":0.47578,"postcode":"CM11 2XY","la":"Basildon","era":"other","nn":1614,"risk":62,"cat":"red"},{"name":"Stock Brook Manor Golf Club","lat":51.64855,"lon":0.41458,"postcode":"CM12 0SP","la":"Basildon","era":"other","nn":1247,"risk":59,"cat":"amber"},{"name":"The Burstead Golf Club","lat":51.60539,"lon":0.40151,"postcode":"CM12 9SS","la":"Basildon","era":"other","nn":757,"risk":53,"cat":"amber"},{"name":"The Coach and Horses","lat":51.62506,"lon":0.41823,"postcode":"CM12 9LU","la":"Basildon","era":"trad","nn":119,"risk":29,"cat":"green"},{"name":"The Crown Pub and Dining","lat":51.62622,"lon":0.41846,"postcode":"CM12 9BQ","la":"Basildon","era":"trad","nn":94,"risk":29,"cat":"green"},{"name":"The Dukes Head","lat":51.60706,"lon":0.41214,"postcode":"CM12 9TA","la":"Basildon","era":"trad","nn":757,"risk":53,"cat":"amber"},{"name":"The Forge","lat":51.63735,"lon":0.41373,"postcode":"CM12 0UA","la":"Basildon","era":"trad","nn":685,"risk":38,"cat":"amber"},{"name":"The Railway Hotel","lat":51.6279,"lon":0.41894,"postcode":"CM12 9BE","la":"Basildon","era":"trad","nn":0,"risk":28,"cat":"green"},{"name":"The Warehouse","lat":51.63127,"lon":0.41208,"postcode":"CM12 0BT","la":"Basildon","era":"other","nn":158,"risk":29,"cat":"green"},{"name":"47 Bar & Restaurant","lat":51.87526,"lon":0.50619,"postcode":"CM77 6RU","la":"Braintree","era":"mod","nn":213,"risk":45,"cat":"amber"},{"name":"Bocking Sports Club","lat":51.9023,"lon":0.55477,"postcode":"CM7 5JY","la":"Braintree","era":"trad","nn":0,"risk":31,"cat":"amber"},{"name":"Bocking Village Hall","lat":51.90339,"lon":0.55595,"postcode":"CM7 5LA","la":"Braintree","era":"trad","nn":146,"risk":32,"cat":"amber"},{"name":"Braintree And Bocking Constitutional Club","lat":51.87875,"lon":0.55229,"postcode":"CM7 1TY","la":"Braintree","era":"trad","nn":31,"risk":26,"cat":"green"},{"name":"Braintree Bowls Club","lat":51.87677,"lon":0.5452,"postcode":"CM7 2PA","la":"Braintree","era":"other","nn":442,"risk":29,"cat":"green"},{"name":"Braintree Cricket Club","lat":51.88257,"lon":0.55139,"postcode":"CM7 9AW","la":"Braintree","era":"other","nn":203,"risk":27,"cat":"green"},{"name":"Braintree Hockey Club","lat":51.90493,"lon":0.56591,"postcode":"CM7 5LJ","la":"Braintree","era":"other","nn":704,"risk":36,"cat":"amber"},{"name":"Braintree Rugby Club","lat":51.87293,"lon":0.58195,"postcode":"CM7 3PR","la":"Braintree","era":"other","nn":403,"risk":34,"cat":"amber"},{"name":"Braintree Town Football Club","lat":51.87412,"lon":0.57093,"postcode":"CM7 3DE","la":"Braintree","era":"other","nn":321,"risk":28,"cat":"green"},{"name":"Braintree, Bocking And District Liberal Club","lat":51.88003,"lon":0.55609,"postcode":"CM7 9ES","la":"Braintree","era":"trad","nn":282,"risk":28,"cat":"green"},{"name":"Caesar At Dolphin","lat":51.87886,"lon":0.61092,"postcode":"CM77 8EU","la":"Braintree","era":"other","nn":1496,"risk":59,"cat":"amber"},{"name":"Crittall Athletic Social Club","lat":51.84672,"lon":0.62239,"postcode":"CM8 3RQ","la":"Braintree","era":"mod","nn":69,"risk":31,"cat":"amber"},{"name":"Cross Keys","lat":51.78892,"lon":0.6365,"postcode":"CM8 1RU","la":"Braintree","era":"trad","nn":681,"risk":33,"cat":"amber"},{"name":"Dean Fierheller T/A The Woolpack Inn","lat":51.80945,"lon":0.6345,"postcode":"CM8 2JP","la":"Braintree","era":"trad","nn":227,"risk":28,"cat":"green"},{"name":"Hatfield Peverel Football Club","lat":51.77346,"lon":0.6204,"postcode":"CM3 2JL","la":"Braintree","era":"other","nn":950,"risk":38,"cat":"amber"},{"name":"Il Salice","lat":51.85633,"lon":0.60218,"postcode":"CM77 8DQ","la":"Braintree","era":"other","nn":1513,"risk":59,"cat":"amber"},{"name":"King William IV PH","lat":51.86547,"lon":0.53856,"postcode":"CM77 7PU","la":"Braintree","era":"trad","nn":1337,"risk":58,"cat":"amber"},{"name":"Lipstick And Locks","lat":51.87889,"lon":0.55165,"postcode":"CM7 1UT","la":"Braintree","era":"other","nn":46,"risk":26,"cat":"green"},{"name":"Little Elms PH","lat":51.81426,"lon":0.63998,"postcode":"CM8 2LX","la":"Braintree","era":"trad","nn":406,"risk":31,"cat":"amber"},{"name":"Nags Head Wine Bar","lat":51.87862,"lon":0.55269,"postcode":"CM7 3HG","la":"Braintree","era":"trad","nn":0,"risk":26,"cat":"green"},{"name":"O'Grady's","lat":51.88435,"lon":0.54234,"postcode":"CM7 5RL","la":"Braintree","era":"other","nn":652,"risk":31,"cat":"amber"},{"name":"RAFA Club","lat":51.79494,"lon":0.63464,"postcode":"CM8 1BX","la":"Braintree","era":"other","nn":339,"risk":28,"cat":"green"},{"name":"Silver End Bowling Club","lat":51.8494,"lon":0.62114,"postcode":"CM8 3RA","la":"Braintree","era":"other","nn":243,"risk":33,"cat":"amber"},{"name":"Silver End United Football Club","lat":51.84734,"lon":0.62232,"postcode":"CM8 3RQ","la":"Braintree","era":"other","nn":69,"risk":31,"cat":"amber"},{"name":"Sir Charlie Lockrams Drinking Parlour","lat":51.80091,"lon":0.6355,"postcode":"CM8 2BJ","la":"Braintree","era":"other","nn":255,"risk":28,"cat":"green"},{"name":"Stepfield Snooker Club","lat":51.80281,"lon":0.64804,"postcode":"CM8 3TH","la":"Braintree","era":"other","nn":323,"risk":28,"cat":"green"},{"name":"Swan Inn PH","lat":51.77543,"lon":0.59248,"postcode":"CM3 2DW","la":"Braintree","era":"trad","nn":432,"risk":47,"cat":"amber"},{"name":"Terling Cricket Club","lat":51.8054,"lon":0.56268,"postcode":"CM3 2PY","la":"Braintree","era":"other","nn":2298,"risk":65,"cat":"red"},{"name":"The Battesford Court","lat":51.79907,"lon":0.63879,"postcode":"CM8 1AH","la":"Braintree","era":"other","nn":192,"risk":27,"cat":"green"},{"name":"The Bell","lat":51.94718,"lon":0.43492,"postcode":"CM7 4SA","la":"Braintree","era":"other","nn":195,"risk":47,"cat":"amber"},{"name":"The Bell","lat":51.89871,"lon":0.51974,"postcode":"CM7 5AQ","la":"Braintree","era":"other","nn":2226,"risk":64,"cat":"red"},{"name":"The Bell","lat":51.88611,"lon":0.5698,"postcode":"CM7 9UL","la":"Braintree","era":"other","nn":823,"risk":52,"cat":"amber"},{"name":"The Bull PH","lat":51.87826,"lon":0.55222,"postcode":"CM7 3HJ","la":"Braintree","era":"trad","nn":51,"risk":26,"cat":"green"},{"name":"The Cherry Tree","lat":51.81355,"lon":0.63419,"postcode":"CM8 2NW","la":"Braintree","era":"other","nn":406,"risk":31,"cat":"amber"},{"name":"The Compasses At Pattiswick","lat":51.89062,"lon":0.64397,"postcode":"CM77 8BG","la":"Braintree","era":"other","nn":2040,"risk":63,"cat":"red"},{"name":"The Cross Keys PH","lat":51.77072,"lon":0.60733,"postcode":"CM3 2JQ","la":"Braintree","era":"trad","nn":199,"risk":30,"cat":"green"},{"name":"The Duke Of Wellington","lat":51.77717,"lon":0.59809,"postcode":"CM3 2EA","la":"Braintree","era":"trad","nn":432,"risk":32,"cat":"amber"},{"name":"The Fox On The Green","lat":51.96858,"lon":0.45013,"postcode":"CM7 4JX","la":"Braintree","era":"trad","nn":430,"risk":49,"cat":"amber"},{"name":"The George","lat":51.80108,"lon":0.64123,"postcode":"CM8 2AQ","la":"Braintree","era":"trad","nn":59,"risk":26,"cat":"green"},{"name":"The George Inn Shalford Ltd","lat":51.93392,"lon":0.50427,"postcode":"CM7 5HH","la":"Braintree","era":"trad","nn":2436,"risk":66,"cat":"red"},{"name":"The Green Dragon","lat":51.84677,"lon":0.52296,"postcode":"CM77 8QN","la":"Braintree","era":"trad","nn":1731,"risk":61,"cat":"red"},{"name":"The Hare And Hounds PH","lat":51.91078,"lon":0.57839,"postcode":"CM7 5NT","la":"Braintree","era":"trad","nn":1075,"risk":56,"cat":"amber"},{"name":"The Horse And Groom PH","lat":51.87956,"lon":0.54979,"postcode":"CM7 2QA","la":"Braintree","era":"trad","nn":148,"risk":27,"cat":"green"},{"name":"The Institute","lat":51.88078,"lon":0.5519,"postcode":"CM7 9AE","la":"Braintree","era":"other","nn":198,"risk":27,"cat":"green"},{"name":"The Kavern","lat":51.88015,"lon":0.56269,"postcode":"CM7 3JJ","la":"Braintree","era":"other","nn":453,"risk":29,"cat":"green"},{"name":"The Lounge","lat":51.87862,"lon":0.55269,"postcode":"CM7 3HG","la":"Braintree","era":"mod","nn":0,"risk":26,"cat":"green"},{"name":"The Mulberry Tree","lat":51.86931,"lon":0.58185,"postcode":"CM77 8GG","la":"Braintree","era":"other","nn":403,"risk":34,"cat":"amber"},{"name":"The Onley","lat":51.89215,"lon":0.61435,"postcode":"CM77 8AW","la":"Braintree","era":"other","nn":1496,"risk":59,"cat":"amber"},{"name":"The Orange Tree","lat":51.87578,"lon":0.57476,"postcode":"CM7 3PH","la":"Braintree","era":"other","nn":321,"risk":28,"cat":"green"},{"name":"The Picture Palace","lat":51.87698,"lon":0.55381,"postcode":"CM7 3HA","la":"Braintree","era":"other","nn":179,"risk":27,"cat":"green"},{"name":"The Railway","lat":51.80596,"lon":0.63652,"postcode":"CM8 2DE","la":"Braintree","era":"trad","nn":187,"risk":27,"cat":"green"},{"name":"The Red Lion PH","lat":51.80056,"lon":0.64138,"postcode":"CM8 2AF","la":"Braintree","era":"trad","nn":59,"risk":26,"cat":"green"},{"name":"The Retreat PH","lat":51.9023,"lon":0.55477,"postcode":"CM7 5JY","la":"Braintree","era":"other","nn":0,"risk":31,"cat":"amber"},{"name":"The Sportsman","lat":51.87516,"lon":0.56547,"postcode":"CM7 3RU","la":"Braintree","era":"other","nn":392,"risk":29,"cat":"green"},{"name":"The Square And Compasses","lat":51.81622,"lon":0.5342,"postcode":"CM3 2BB","la":"Braintree","era":"other","nn":2251,"risk":64,"cat":"red"},{"name":"The Swan","lat":51.87607,"lon":0.51366,"postcode":"CM77 6RQ","la":"Braintree","era":"trad","nn":308,"risk":46,"cat":"amber"},{"name":"The Swan","lat":51.7975,"lon":0.6373,"postcode":"CM8 1BE","la":"Braintree","era":"trad","nn":202,"risk":27,"cat":"green"},{"name":"The Three Tuns Inn","lat":51.96852,"lon":0.4564,"postcode":"CM7 4NR","la":"Braintree","era":"trad","nn":430,"risk":49,"cat":"amber"},{"name":"The Vine","lat":51.94851,"lon":0.43677,"postcode":"CM7 4SR","la":"Braintree","era":"other","nn":195,"risk":47,"cat":"amber"},{"name":"The Welsh Princess","lat":51.87554,"lon":0.50926,"postcode":"CM77 6RW","la":"Braintree","era":"trad","nn":213,"risk":45,"cat":"amber"},{"name":"The Wethersfield Club","lat":51.95339,"lon":0.48797,"postcode":"CM7 4EB","la":"Braintree","era":"other","nn":2436,"risk":66,"cat":"red"},{"name":"The Wheatsheaf","lat":51.77251,"lon":0.60649,"postcode":"CM3 2JF","la":"Braintree","era":"trad","nn":31,"risk":29,"cat":"green"},{"name":"The White Horse PH","lat":51.80747,"lon":0.63532,"postcode":"CM8 2JL","la":"Braintree","era":"trad","nn":187,"risk":27,"cat":"green"},{"name":"Western Arms","lat":51.8436,"lon":0.62901,"postcode":"CM8 3SD","la":"Braintree","era":"trad","nn":572,"risk":35,"cat":"amber"},{"name":"White Notley Football Club","lat":51.82616,"lon":0.60091,"postcode":"CM8 1SF","la":"Braintree","era":"other","nn":2683,"risk":67,"cat":"red"},{"name":"Witham Bowls Club","lat":51.80078,"lon":0.63921,"postcode":"CM8 2DY","la":"Braintree","era":"other","nn":143,"risk":27,"cat":"green"},{"name":"Witham Cricket Club","lat":51.79679,"lon":0.64281,"postcode":"CM8 1HN","la":"Braintree","era":"other","nn":0,"risk":26,"cat":"green"},{"name":"Witham Hockey Club","lat":51.79679,"lon":0.64281,"postcode":"CM8 1HN","la":"Braintree","era":"other","nn":0,"risk":26,"cat":"green"},{"name":"Witham Legion Mess","lat":51.80272,"lon":0.64335,"postcode":"CM8 2AZ","la":"Braintree","era":"other","nn":233,"risk":28,"cat":"green"},{"name":"Witham Rugby Club","lat":51.77235,"lon":0.60612,"postcode":"CM3 2JG","la":"Braintree","era":"other","nn":31,"risk":26,"cat":"green"},{"name":"Witham Town Football And Social Club","lat":51.79923,"lon":0.62554,"postcode":"CM8 1UN","la":"Braintree","era":"mod","nn":710,"risk":31,"cat":"amber"},{"name":"124 (Essex) Transport Squadron Rlc Army Reserve Centre","lat":51.5994,"lon":0.29669,"postcode":"CM13 3UJ","la":"Brentwood","era":"other","nn":437,"risk":35,"cat":"amber"},{"name":"Baptist Church","lat":51.69259,"lon":0.31949,"postcode":"CM4 0RT","la":"Brentwood","era":"other","nn":0,"risk":31,"cat":"amber"},{"name":"Baptist Church","lat":51.61608,"lon":0.29921,"postcode":"CM14 4DR","la":"Brentwood","era":"other","nn":50,"risk":27,"cat":"green"},{"name":"Bardswell Social Club (Bar Only)","lat":51.62132,"lon":0.2969,"postcode":"CM14 4TJ","la":"Brentwood","era":"mod","nn":220,"risk":28,"cat":"green"},{"name":"Bentley Cricket Club","lat":51.63936,"lon":0.27502,"postcode":"CM14 5PN","la":"Brentwood","era":"other","nn":169,"risk":33,"cat":"amber"},{"name":"Bentley District Village Club","lat":51.64083,"lon":0.27566,"postcode":"CM15 9RZ","la":"Brentwood","era":"other","nn":169,"risk":33,"cat":"amber"},{"name":"Blackmore Sports And Social Club","lat":51.69345,"lon":0.31613,"postcode":"CM4 0QW","la":"Brentwood","era":"mod","nn":169,"risk":33,"cat":"amber"},{"name":"Brave Nelson","lat":51.60896,"lon":0.3075,"postcode":"CM14 5AL","la":"Brentwood","era":"trad","nn":328,"risk":29,"cat":"green"},{"name":"Brentwood County Cricket Club (CHATS)","lat":51.62323,"lon":0.30861,"postcode":"CM15 8AJ","la":"Brentwood","era":"other","nn":0,"risk":26,"cat":"green"},{"name":"Brentwood Golf Club","lat":51.64103,"lon":0.24342,"postcode":"CM14 5RJ","la":"Brentwood","era":"other","nn":1041,"risk":56,"cat":"amber"},{"name":"Brentwood Rugby Club","lat":51.62065,"lon":0.30574,"postcode":"CM15 8AT","la":"Brentwood","era":"other","nn":72,"risk":27,"cat":"green"},{"name":"Brentwood Tennis Club","lat":51.62323,"lon":0.30861,"postcode":"CM15 8AJ","la":"Brentwood","era":"other","nn":0,"risk":26,"cat":"green"},{"name":"Brookweald Cricket Club","lat":51.6237,"lon":0.26042,"postcode":"CM14 5QS","la":"Brentwood","era":"other","nn":1467,"risk":59,"cat":"amber"},{"name":"Charlies Bar Ltd","lat":51.60712,"lon":0.29763,"postcode":"CM14 5HE","la":"Brentwood","era":"mod","nn":314,"risk":29,"cat":"green"},{"name":"Christ Church Hall","lat":51.60307,"lon":0.29446,"postcode":"CM13 3AA","la":"Brentwood","era":"other","nn":437,"risk":35,"cat":"amber"},{"name":"Dairyman","lat":51.6207,"lon":0.3047,"postcode":"CM14 4AB","la":"Brentwood","era":"other","nn":72,"risk":27,"cat":"green"},{"name":"Essex Arms","lat":51.61177,"lon":0.29903,"postcode":"CM14 5HA","la":"Brentwood","era":"trad","nn":396,"risk":29,"cat":"green"},{"name":"George Inns Ltd","lat":51.56847,"lon":0.34154,"postcode":"CM13 3TL","la":"Brentwood","era":"trad","nn":1598,"risk":60,"cat":"amber"},{"name":"Great Danes Youth Football Club","lat":51.62869,"lon":0.30356,"postcode":"CM15 9BY","la":"Brentwood","era":"other","nn":436,"risk":30,"cat":"green"},{"name":"Hartswood Golf Club","lat":51.61074,"lon":0.31129,"postcode":"CM14 5AE","la":"Brentwood","era":"trad","nn":328,"risk":29,"cat":"green"},{"name":"Herongate Athletic Football Club","lat":51.59498,"lon":0.35694,"postcode":"CM13 3PU","la":"Brentwood","era":"other","nn":170,"risk":33,"cat":"amber"},{"name":"Herongate Cricket Club","lat":51.60672,"lon":0.33481,"postcode":"CM13 3QH","la":"Brentwood","era":"other","nn":827,"risk":52,"cat":"amber"},{"name":"Hollands Wine Bar","lat":51.6312,"lon":0.32964,"postcode":"CM15 8PA","la":"Brentwood","era":"other","nn":208,"risk":28,"cat":"green"},{"name":"Hutton All Saints Scout Group","lat":51.63408,"lon":0.35369,"postcode":"CM13 1BS","la":"Brentwood","era":"trad","nn":125,"risk":47,"cat":"amber"},{"name":"Hutton Cricket Club( Windmill Ground)","lat":51.65549,"lon":0.35747,"postcode":"CM15 0UG","la":"Brentwood","era":"trad","nn":1,"risk":31,"cat":"amber"},{"name":"Hutton Football Club","lat":51.6121,"lon":0.32272,"postcode":"CM13 2EH","la":"Brentwood","era":"other","nn":206,"risk":33,"cat":"amber"},{"name":"Ingatestone & Fryerning Community Association","lat":51.67218,"lon":0.38792,"postcode":"CM4 9ED","la":"Brentwood","era":"other","nn":0,"risk":29,"cat":"green"},{"name":"Ingatestone Bowling Club","lat":51.67218,"lon":0.38792,"postcode":"CM4 9ED","la":"Brentwood","era":"other","nn":0,"risk":29,"cat":"green"},{"name":"Kelvedon Hatch Senior Citizen Lunch Club","lat":51.66688,"lon":0.26171,"postcode":"CM14 5TJ","la":"Brentwood","era":"other","nn":544,"risk":50,"cat":"amber"},{"name":"Kings Chase Sports And Social Club Ltd","lat":51.61552,"lon":0.29574,"postcode":"CM14 4LD","la":"Brentwood","era":"other","nn":247,"risk":28,"cat":"green"},{"name":"Luncheon Club","lat":51.65336,"lon":0.25746,"postcode":"CM14 5SD","la":"Brentwood","era":"other","nn":0,"risk":46,"cat":"amber"},{"name":"Mavericks RFC","lat":51.60494,"lon":0.30052,"postcode":"CM14 5LF","la":"Brentwood","era":"other","nn":314,"risk":29,"cat":"green"},{"name":"Mount Avenue Banqueting Suite","lat":51.6308,"lon":0.33258,"postcode":"CM13 2NS","la":"Brentwood","era":"other","nn":113,"risk":27,"cat":"green"},{"name":"Navestock Cricket Club","lat":51.65336,"lon":0.25746,"postcode":"CM14 5SD","la":"Brentwood","era":"other","nn":0,"risk":46,"cat":"amber"},{"name":"Olde Dog Inn","lat":51.59363,"lon":0.36843,"postcode":"CM13 3SD","la":"Brentwood","era":"trad","nn":808,"risk":50,"cat":"amber"},{"name":"Playroom","lat":51.62017,"lon":0.30259,"postcode":"CM14 4AJ","la":"Brentwood","era":"other","nn":157,"risk":28,"cat":"green"},{"name":"Prince Albert","lat":51.69259,"lon":0.31949,"postcode":"CM4 0RT","la":"Brentwood","era":"trad","nn":0,"risk":31,"cat":"amber"},{"name":"Prince Of Wales","lat":51.6555,"lon":0.35746,"postcode":"CM15 0UG","la":"Brentwood","era":"trad","nn":0,"risk":31,"cat":"amber"},{"name":"Provocative Lounge","lat":51.62165,"lon":0.30525,"postcode":"CM15 9AX","la":"Brentwood","era":"mod","nn":113,"risk":27,"cat":"green"},{"name":"Rendezvous At Pilgrims Hall","lat":51.64433,"lon":0.27132,"postcode":"CM15 9SA","la":"Brentwood","era":"other","nn":491,"risk":32,"cat":"amber"},{"name":"Rumours","lat":51.6153,"lon":0.29982,"postcode":"CM14 4EA","la":"Brentwood","era":"other","nn":47,"risk":27,"cat":"green"},{"name":"Shenfield Cricket Club","lat":51.63118,"lon":0.32235,"postcode":"CM15 8RQ","la":"Brentwood","era":"other","nn":239,"risk":28,"cat":"green"},{"name":"South Weald Cricket Club","lat":51.62893,"lon":0.27994,"postcode":"CM14 5QE","la":"Brentwood","era":"other","nn":1003,"risk":56,"cat":"amber"},{"name":"South Weald Parish Hall","lat":51.61295,"lon":0.2773,"postcode":"CM14 4NP","la":"Brentwood","era":"other","nn":231,"risk":48,"cat":"amber"},{"name":"Spread Eagle","lat":51.61789,"lon":0.3025,"postcode":"CM14 4HD","la":"Brentwood","era":"trad","nn":168,"risk":28,"cat":"green"},{"name":"Sugar Hut","lat":51.61998,"lon":0.30026,"postcode":"CM14 4RR","la":"Brentwood","era":"other","nn":68,"risk":27,"cat":"green"},{"name":"Thatchers Arms","lat":51.59308,"lon":0.28423,"postcode":"CM13 3HU","la":"Brentwood","era":"trad","nn":1111,"risk":57,"cat":"amber"},{"name":"The Bell","lat":51.67017,"lon":0.38444,"postcode":"CM4 0AT","la":"Brentwood","era":"other","nn":120,"risk":30,"cat":"green"},{"name":"The Black Horse","lat":51.63791,"lon":0.27858,"postcode":"CM15 9JN","la":"Brentwood","era":"trad","nn":294,"risk":34,"cat":"amber"},{"name":"The Boars Head (Herongate)","lat":51.59485,"lon":0.35449,"postcode":"CM13 3PS","la":"Brentwood","era":"trad","nn":170,"risk":33,"cat":"amber"},{"name":"The Brewery Tap","lat":51.61723,"lon":0.30032,"postcode":"CM14 4LT","la":"Brentwood","era":"mod","nn":149,"risk":28,"cat":"green"},{"name":"The Bricklayers Arms","lat":51.6813,"lon":0.29034,"postcode":"CM15 0EQ","la":"Brentwood","era":"trad","nn":673,"risk":51,"cat":"amber"},{"name":"The Bull","lat":51.61196,"lon":0.27435,"postcode":"CM14 5LZ","la":"Brentwood","era":"trad","nn":231,"risk":46,"cat":"amber"},{"name":"The Chequers","lat":51.63318,"lon":0.35259,"postcode":"CM13 1PJ","la":"Brentwood","era":"other","nn":125,"risk":47,"cat":"amber"},{"name":"The Chough Public House","lat":51.61284,"lon":0.32799,"postcode":"CM13 2BG","la":"Brentwood","era":"other","nn":373,"risk":34,"cat":"amber"},{"name":"The Cricketers","lat":51.68568,"lon":0.36928,"postcode":"CM4 0RH","la":"Brentwood","era":"other","nn":1951,"risk":63,"cat":"red"},{"name":"The Eagle","lat":51.66598,"lon":0.26946,"postcode":"CM15 0AA","la":"Brentwood","era":"trad","nn":544,"risk":50,"cat":"amber"},{"name":"The Gardeners Arms","lat":51.61948,"lon":0.29968,"postcode":"CM14 4AX","la":"Brentwood","era":"trad","nn":0,"risk":26,"cat":"green"},{"name":"The George And Dragon","lat":51.65216,"lon":0.35026,"postcode":"CM15 0TZ","la":"Brentwood","era":"trad","nn":620,"risk":33,"cat":"amber"},{"name":"The Green Man","lat":51.5965,"lon":0.35085,"postcode":"CM13 3PZ","la":"Brentwood","era":"other","nn":311,"risk":46,"cat":"amber"},{"name":"The Greyhound","lat":51.59028,"lon":0.31539,"postcode":"CM13 3DZ","la":"Brentwood","era":"trad","nn":599,"risk":51,"cat":"amber"},{"name":"The Halfway House","lat":51.57991,"lon":0.35554,"postcode":"CM13 3LL","la":"Brentwood","era":"other","nn":700,"risk":51,"cat":"amber"},{"name":"The Hermit Club","lat":51.62213,"lon":0.30711,"postcode":"CM15 8AG","la":"Brentwood","era":"other","nn":139,"risk":27,"cat":"green"},{"name":"The Hutton Junction","lat":51.63175,"lon":0.33316,"postcode":"CM13 1AB","la":"Brentwood","era":"other","nn":113,"risk":27,"cat":"green"},{"name":"The Leather Bottle","lat":51.69304,"lon":0.31849,"postcode":"CM4 0RL","la":"Brentwood","era":"other","nn":85,"risk":32,"cat":"amber"},{"name":"The Lounge Wine Bar","lat":51.67249,"lon":0.38793,"postcode":"CM4 9EE","la":"Brentwood","era":"mod","nn":34,"risk":29,"cat":"green"},{"name":"The Merchant","lat":51.61964,"lon":0.29861,"postcode":"CM14 4RX","la":"Brentwood","era":"other","nn":44,"risk":27,"cat":"green"},{"name":"The Nags Head","lat":51.60754,"lon":0.26533,"postcode":"CM14 5ND","la":"Brentwood","era":"trad","nn":793,"risk":52,"cat":"amber"},{"name":"The Old Green Dragon","lat":51.62988,"lon":0.31959,"postcode":"CM15 8EZ","la":"Brentwood","era":"trad","nn":239,"risk":28,"cat":"green"},{"name":"The Peasants Revolt Micropub","lat":51.61567,"lon":0.29951,"postcode":"CM14 4DR","la":"Brentwood","era":"other","nn":47,"risk":27,"cat":"green"},{"name":"The Plough","lat":51.6555,"lon":0.35746,"postcode":"CM15 0UG","la":"Brentwood","era":"trad","nn":0,"risk":31,"cat":"amber"},{"name":"The Rising Sun","lat":51.62519,"lon":0.30073,"postcode":"CM15 9DJ","la":"Brentwood","era":"other","nn":369,"risk":29,"cat":"green"},{"name":"The Robin","lat":51.6283,"lon":0.29485,"postcode":"CM15 9EB","la":"Brentwood","era":"other","nn":534,"risk":30,"cat":"green"},{"name":"The Rose","lat":51.63731,"lon":0.32635,"postcode":"CM15 8RN","la":"Brentwood","era":"other","nn":717,"risk":31,"cat":"amber"},{"name":"The South Essex Golf Club ( Heron Country Club)","lat":51.5846,"lon":0.3623,"postcode":"CM13 3LW","la":"Brentwood","era":"other","nn":700,"risk":51,"cat":"amber"},{"name":"The Star Inn","lat":51.67087,"lon":0.38577,"postcode":"CM4 9DU","la":"Brentwood","era":"trad","nn":120,"risk":30,"cat":"green"},{"name":"The Swan","lat":51.61989,"lon":0.2991,"postcode":"CM14 4RX","la":"Brentwood","era":"trad","nn":43,"risk":27,"cat":"green"},{"name":"The Teriss Bar","lat":51.61948,"lon":0.29968,"postcode":"CM14 4AX","la":"Brentwood","era":"other","nn":0,"risk":26,"cat":"green"},{"name":"The Vine Brentwood","lat":51.61953,"lon":0.29935,"postcode":"CM14 4AP","la":"Brentwood","era":"other","nn":24,"risk":27,"cat":"green"},{"name":"The White Horse (Wet Side ONLY)","lat":51.64031,"lon":0.25846,"postcode":"CM14 5PX","la":"Brentwood","era":"trad","nn":994,"risk":53,"cat":"amber"},{"name":"Thriftwood Scout Campsite","lat":51.61395,"lon":0.32262,"postcode":"CM13 2DY","la":"Brentwood","era":"other","nn":206,"risk":33,"cat":"amber"},{"name":"Tipps Cross Remembrance Hall","lat":51.67565,"lon":0.29382,"postcode":"CM15 0DT","la":"Brentwood","era":"trad","nn":673,"risk":51,"cat":"amber"},{"name":"Toby Carvery","lat":51.61892,"lon":0.30877,"postcode":"CM15 8DZ","la":"Brentwood","era":"other","nn":284,"risk":28,"cat":"green"},{"name":"Vault","lat":51.64446,"lon":0.34342,"postcode":"CM15 8SD","la":"Brentwood","era":"other","nn":978,"risk":53,"cat":"amber"},{"name":"Victoria Arms","lat":51.62255,"lon":0.30398,"postcode":"CM15 9AX","la":"Brentwood","era":"trad","nn":132,"risk":27,"cat":"green"},{"name":"Warley Park Golf Club","lat":51.5886,"lon":0.30714,"postcode":"CM13 3DX","la":"Brentwood","era":"other","nn":599,"risk":51,"cat":"amber"},{"name":"44","lat":51.72955,"lon":0.47213,"postcode":"CM2 0HY","la":"Chelmsford","era":"other","nn":0,"risk":26,"cat":"green"},{"name":"Bakers Arms","lat":51.66537,"lon":0.44872,"postcode":"CM4 9NF","la":"Chelmsford","era":"trad","nn":0,"risk":31,"cat":"amber"},{"name":"Bar 7","lat":51.73104,"lon":0.47448,"postcode":"CM2 0HR","la":"Chelmsford","era":"mod","nn":27,"risk":26,"cat":"green"},{"name":"Bar And Beyond / Absurd Bird / KBOX","lat":51.73121,"lon":0.47474,"postcode":"CM2 0HR","la":"Chelmsford","era":"mod","nn":0,"risk":26,"cat":"green"},{"name":"Bar Vino Ltd","lat":51.64459,"lon":0.61992,"postcode":"CM3 5XA","la":"Chelmsford","era":"mod","nn":117,"risk":32,"cat":"amber"},{"name":"Be At One","lat":51.73134,"lon":0.47392,"postcode":"CM2 0LR","la":"Chelmsford","era":"other","nn":30,"risk":26,"cat":"green"},{"name":"Chelmer Inn","lat":51.7366,"lon":0.50653,"postcode":"CM2 6RF","la":"Chelmsford","era":"trad","nn":850,"risk":50,"cat":"amber"},{"name":"Chelmsford Conservative Club","lat":51.72503,"lon":0.46518,"postcode":"CM2 0JG","la":"Chelmsford","era":"trad","nn":372,"risk":29,"cat":"green"},{"name":"Chelmsford Golf Club Ltd","lat":51.71839,"lon":0.45527,"postcode":"CM2 9AP","la":"Chelmsford","era":"trad","nn":375,"risk":49,"cat":"amber"},{"name":"Club Bar And Grill @ Club Woodham","lat":51.64474,"lon":0.61754,"postcode":"CM3 5XQ","la":"Chelmsford","era":"mod","nn":70,"risk":29,"cat":"green"},{"name":"Club Tantalize","lat":51.73113,"lon":0.47364,"postcode":"CM2 0UU","la":"Chelmsford","era":"other","nn":26,"risk":26,"cat":"green"},{"name":"Ditto","lat":51.72863,"lon":0.47045,"postcode":"CM2 0JA","la":"Chelmsford","era":"other","nn":31,"risk":26,"cat":"green"},{"name":"Eagle And Hind","lat":51.7166,"lon":0.47513,"postcode":"CM2 9LG","la":"Chelmsford","era":"trad","nn":1007,"risk":56,"cat":"amber"},{"name":"Fox & Raven","lat":51.73148,"lon":0.49737,"postcode":"CM2 6NL","la":"Chelmsford","era":"trad","nn":850,"risk":52,"cat":"amber"},{"name":"Fox And Goose/The Bakehouse","lat":51.72142,"lon":0.37115,"postcode":"CM1 3SN","la":"Chelmsford","era":"trad","nn":2970,"risk":69,"cat":"red"},{"name":"Fox And Hounds","lat":51.7179,"lon":0.46065,"postcode":"CM2 9BQ","la":"Chelmsford","era":"trad","nn":375,"risk":46,"cat":"amber"},{"name":"Galleywood & District Social Club","lat":51.69742,"lon":0.46726,"postcode":"CM2 8QL","la":"Chelmsford","era":"mod","nn":545,"risk":35,"cat":"amber"},{"name":"Galleywood Cricket And Football Club","lat":51.70213,"lon":0.46504,"postcode":"CM2 8RW","la":"Chelmsford","era":"other","nn":447,"risk":34,"cat":"amber"},{"name":"Galvin Green Man","lat":51.80519,"lon":0.45977,"postcode":"CM3 1BG","la":"Chelmsford","era":"other","nn":1220,"risk":57,"cat":"amber"},{"name":"Gardeners","lat":51.75399,"lon":0.49421,"postcode":"CM1 6XW","la":"Chelmsford","era":"other","nn":942,"risk":53,"cat":"amber"},{"name":"GoldenFleece/88th/ValueM/SinCity/PizzaAmore/DoughMaster","lat":51.73519,"lon":0.47038,"postcode":"CM1 1JP","la":"Chelmsford","era":"trad","nn":56,"risk":27,"cat":"green"},{"name":"Grange","lat":51.75673,"lon":0.52351,"postcode":"CM3 3HJ","la":"Chelmsford","era":"other","nn":1354,"risk":58,"cat":"amber"},{"name":"Great Baddow Millennium Community Centre","lat":51.71851,"lon":0.49553,"postcode":"CM2 9RL","la":"Chelmsford","era":"trad","nn":235,"risk":30,"cat":"green"},{"name":"Hoppily","lat":51.73044,"lon":0.4748,"postcode":"CM2 0DG","la":"Chelmsford","era":"other","nn":71,"risk":27,"cat":"green"},{"name":"Horse And Groom P H","lat":51.69967,"lon":0.45992,"postcode":"CM2 8PL","la":"Chelmsford","era":"trad","nn":447,"risk":34,"cat":"amber"},{"name":"Ivory Peg","lat":51.73304,"lon":0.4736,"postcode":"CM2 0NA","la":"Chelmsford","era":"other","nn":190,"risk":27,"cat":"green"},{"name":"New Sports Centre","lat":51.77947,"lon":0.45606,"postcode":"CM1 7EY","la":"Chelmsford","era":"other","nn":659,"risk":51,"cat":"amber"},{"name":"Old Chelmsfordians","lat":51.73988,"lon":0.4402,"postcode":"CM1 2NS","la":"Chelmsford","era":"trad","nn":1001,"risk":56,"cat":"amber"},{"name":"Popworld","lat":51.73294,"lon":0.47673,"postcode":"CM2 6JE","la":"Chelmsford","era":"other","nn":0,"risk":26,"cat":"green"},{"name":"Q Balls Snooker Centre","lat":51.73127,"lon":0.47335,"postcode":"CM2 0UU","la":"Chelmsford","era":"other","nn":26,"risk":26,"cat":"green"},{"name":"Queens Head","lat":51.75806,"lon":0.54307,"postcode":"CM3 3EG","la":"Chelmsford","era":"trad","nn":789,"risk":52,"cat":"amber"},{"name":"Queens Head PH","lat":51.72915,"lon":0.46527,"postcode":"CM2 0AS","la":"Chelmsford","era":"trad","nn":198,"risk":28,"cat":"green"},{"name":"R A F A Club","lat":51.7298,"lon":0.4734,"postcode":"CM2 0HG","la":"Chelmsford","era":"other","nn":92,"risk":27,"cat":"green"},{"name":"Radio City Social","lat":51.73556,"lon":0.46667,"postcode":"CM1 1TS","la":"Chelmsford","era":"mod","nn":24,"risk":26,"cat":"green"},{"name":"Railway Tavern","lat":51.73577,"lon":0.46913,"postcode":"CM1 1LW","la":"Chelmsford","era":"trad","nn":107,"risk":27,"cat":"green"},{"name":"Red Beret","lat":51.74942,"lon":0.45486,"postcode":"CM1 2DX","la":"Chelmsford","era":"other","nn":873,"risk":50,"cat":"amber"},{"name":"Rettendon Bell","lat":51.65509,"lon":0.5484,"postcode":"CM3 8DY","la":"Chelmsford","era":"other","nn":2185,"risk":64,"cat":"red"},{"name":"Rose And Crown","lat":51.73003,"lon":0.42633,"postcode":"CM1 3DT","la":"Chelmsford","era":"trad","nn":120,"risk":29,"cat":"green"},{"name":"Rose And Crown","lat":51.79011,"lon":0.4653,"postcode":"CM3 1AG","la":"Chelmsford","era":"trad","nn":665,"risk":33,"cat":"amber"},{"name":"Royal Engineers Social Club","lat":51.73592,"lon":0.48108,"postcode":"CM2 6LN","la":"Chelmsford","era":"other","nn":119,"risk":27,"cat":"green"},{"name":"Royal Steamer","lat":51.73769,"lon":0.46812,"postcode":"CM1 1QJ","la":"Chelmsford","era":"trad","nn":126,"risk":27,"cat":"green"},{"name":"Rumours","lat":51.72955,"lon":0.47213,"postcode":"CM2 0HY","la":"Chelmsford","era":"other","nn":0,"risk":26,"cat":"green"},{"name":"Sandon Sports Club","lat":51.71369,"lon":0.52064,"postcode":"CM2 7SQ","la":"Chelmsford","era":"other","nn":1375,"risk":58,"cat":"amber"},{"name":"Six Bells","lat":51.76446,"lon":0.54799,"postcode":"CM3 3JE","la":"Chelmsford","era":"other","nn":789,"risk":52,"cat":"amber"},{"name":"Slug And Lettuce","lat":51.73224,"lon":0.47691,"postcode":"CM2 6FL","la":"Chelmsford","era":"other","nn":79,"risk":27,"cat":"green"},{"name":"South Woodham Ferrers Rugby, Sports And Social Pavillion","lat":51.64354,"lon":0.61981,"postcode":"CM3 5XH","la":"Chelmsford","era":"other","nn":117,"risk":32,"cat":"amber"},{"name":"Springfield Cricket Club","lat":51.74164,"lon":0.4957,"postcode":"CM2 6AG","la":"Chelmsford","era":"other","nn":164,"risk":27,"cat":"green"},{"name":"Stock & Buttsbury Bowling Club","lat":51.66537,"lon":0.44872,"postcode":"CM4 9NF","la":"Chelmsford","era":"other","nn":0,"risk":31,"cat":"amber"},{"name":"Tap Room 19","lat":51.64824,"lon":0.60428,"postcode":"CM3 5ZA","la":"Chelmsford","era":"other","nn":994,"risk":53,"cat":"amber"},{"name":"The Ale House","lat":51.73543,"lon":0.46639,"postcode":"CM1 1TS","la":"Chelmsford","era":"other","nn":24,"risk":26,"cat":"green"},{"name":"The Anchor","lat":51.72868,"lon":0.46997,"postcode":"CM2 0LD","la":"Chelmsford","era":"trad","nn":5,"risk":26,"cat":"green"},{"name":"The Anchor PH","lat":51.71785,"lon":0.5991,"postcode":"CM3 4QZ","la":"Chelmsford","era":"trad","nn":1077,"risk":56,"cat":"amber"},{"name":"The Angel","lat":51.76239,"lon":0.47348,"postcode":"CM1 7AH","la":"Chelmsford","era":"trad","nn":441,"risk":34,"cat":"amber"},{"name":"The Bakers Arms","lat":51.71657,"lon":0.58361,"postcode":"CM3 4QH","la":"Chelmsford","era":"trad","nn":802,"risk":52,"cat":"amber"},{"name":"The Beehive","lat":51.79472,"lon":0.45452,"postcode":"CM3 1ES","la":"Chelmsford","era":"other","nn":236,"risk":45,"cat":"amber"},{"name":"The Bell Inn","lat":51.66393,"lon":0.59746,"postcode":"CM3 8RF","la":"Chelmsford","era":"trad","nn":1807,"risk":61,"cat":"red"},{"name":"The Black Bull","lat":51.74022,"lon":0.45473,"postcode":"CM1 2PN","la":"Chelmsford","era":"trad","nn":448,"risk":29,"cat":"green"},{"name":"The Black Horse","lat":51.7287,"lon":0.47002,"postcode":"CM2 0LD","la":"Chelmsford","era":"trad","nn":5,"risk":26,"cat":"green"},{"name":"The Blue Lion","lat":51.71844,"lon":0.49894,"postcode":"CM2 7BT","la":"Chelmsford","era":"trad","nn":235,"risk":33,"cat":"amber"},{"name":"The Bootmaker","lat":51.73121,"lon":0.47474,"postcode":"CM2 0HR","la":"Chelmsford","era":"other","nn":0,"risk":26,"cat":"green"},{"name":"The Castle","lat":51.82367,"lon":0.50375,"postcode":"CM3 1NE","la":"Chelmsford","era":"other","nn":1157,"risk":57,"cat":"amber"},{"name":"The Chelmsford Club","lat":51.72948,"lon":0.4681,"postcode":"CM2 0RG","la":"Chelmsford","era":"trad","nn":95,"risk":27,"cat":"green"},{"name":"The Chequers","lat":51.72838,"lon":0.41279,"postcode":"CM1 3NG","la":"Chelmsford","era":"other","nn":260,"risk":45,"cat":"amber"},{"name":"The Compasses","lat":51.74455,"lon":0.46649,"postcode":"CM1 1RY","la":"Chelmsford","era":"other","nn":706,"risk":31,"cat":"amber"},{"name":"The Compasses","lat":51.82631,"lon":0.463,"postcode":"CM3 1BU","la":"Chelmsford","era":"other","nn":2359,"risk":65,"cat":"red"},{"name":"The Cricketers Arms","lat":51.71291,"lon":0.57357,"postcode":"CM3 4ED","la":"Chelmsford","era":"trad","nn":802,"risk":52,"cat":"amber"},{"name":"The Cricketers Inn","lat":51.7277,"lon":0.46843,"postcode":"CM2 0JT","la":"Chelmsford","era":"trad","nn":152,"risk":27,"cat":"green"},{"name":"The Dog And Partridge","lat":51.83302,"lon":0.51115,"postcode":"CM3 1NR","la":"Chelmsford","era":"other","nn":1157,"risk":57,"cat":"amber"},{"name":"The Endeavour","lat":51.74324,"lon":0.49581,"postcode":"CM2 6AW","la":"Chelmsford","era":"other","nn":45,"risk":29,"cat":"green"},{"name":"The Flyer","lat":51.75462,"lon":0.44534,"postcode":"CM1 4UU","la":"Chelmsford","era":"other","nn":873,"risk":52,"cat":"amber"},{"name":"The Fox And Hounds","lat":51.62618,"lon":0.48086,"postcode":"CM11 1PW","la":"Chelmsford","era":"trad","nn":1225,"risk":57,"cat":"amber"},{"name":"The Globe ATMS Management Services Ltd","lat":51.7389,"lon":0.46088,"postcode":"CM1 2QJ","la":"Chelmsford","era":"other","nn":382,"risk":29,"cat":"green"},{"name":"The Harvard Inn","lat":51.66365,"lon":0.4421,"postcode":"CM4 9BJ","la":"Chelmsford","era":"trad","nn":270,"risk":33,"cat":"amber"},{"name":"The Hoop","lat":51.66459,"lon":0.44571,"postcode":"CM4 9BD","la":"Chelmsford","era":"other","nn":225,"risk":33,"cat":"amber"},{"name":"The Kings Arms","lat":51.76616,"lon":0.47153,"postcode":"CM1 7AU","la":"Chelmsford","era":"trad","nn":0,"risk":31,"cat":"amber"},{"name":"The Kings Arms","lat":51.76616,"lon":0.47153,"postcode":"CM1 7AU","la":"Chelmsford","era":"trad","nn":0,"risk":31,"cat":"amber"},{"name":"The Leather Bottle","lat":51.8049,"lon":0.41435,"postcode":"CM3 1HG","la":"Chelmsford","era":"other","nn":2985,"risk":70,"cat":"red"},{"name":"The Nags Head","lat":51.6356,"lon":0.46635,"postcode":"CM11 1HS","la":"Chelmsford","era":"trad","nn":434,"risk":49,"cat":"amber"},{"name":"The Oddfellows Arms","lat":51.73636,"lon":0.48266,"postcode":"CM2 6JP","la":"Chelmsford","era":"trad","nn":119,"risk":27,"cat":"green"},{"name":"The Old Windmill","lat":51.65019,"lon":0.51772,"postcode":"CM3 8HT","la":"Chelmsford","era":"trad","nn":2185,"risk":64,"cat":"red"},{"name":"The Original Plough","lat":51.73659,"lon":0.46773,"postcode":"CM1 1HY","la":"Chelmsford","era":"trad","nn":126,"risk":27,"cat":"green"},{"name":"The Pig And Whistle","lat":51.77426,"lon":0.42905,"postcode":"CM1 4SZ","la":"Chelmsford","era":"other","nn":1947,"risk":62,"cat":"red"},{"name":"The Plough Harvester","lat":51.74306,"lon":0.49639,"postcode":"CM2 6BA","la":"Chelmsford","era":"trad","nn":45,"risk":29,"cat":"green"},{"name":"The Rodney Inn","lat":51.742,"lon":0.57547,"postcode":"CM3 4TQ","la":"Chelmsford","era":"trad","nn":2857,"risk":69,"cat":"red"},{"name":"The Royal British Legion","lat":51.72322,"lon":0.48851,"postcode":"CM2 7RA","la":"Chelmsford","era":"trad","nn":296,"risk":33,"cat":"amber"},{"name":"The Royal British Legion","lat":51.75765,"lon":0.47582,"postcode":"CM1 7YA","la":"Chelmsford","era":"trad","nn":551,"risk":35,"cat":"amber"},{"name":"The Royal British Legion Hall","lat":51.79355,"lon":0.45738,"postcode":"CM3 1DE","la":"Chelmsford","era":"trad","nn":236,"risk":33,"cat":"amber"},{"name":"The Ship","lat":51.7382,"lon":0.46631,"postcode":"CM1 1SW","la":"Chelmsford","era":"trad","nn":137,"risk":27,"cat":"green"},{"name":"The Star","lat":51.7242,"lon":0.4845,"postcode":"CM2 7PZ","la":"Chelmsford","era":"other","nn":296,"risk":28,"cat":"green"},{"name":"The Tulip P H","lat":51.74422,"lon":0.48473,"postcode":"CM1 7SF","la":"Chelmsford","era":"other","nn":367,"risk":29,"cat":"green"},{"name":"The Two Saxons P.H.","lat":51.74614,"lon":0.48908,"postcode":"CM1 6LJ","la":"Chelmsford","era":"other","nn":367,"risk":29,"cat":"green"},{"name":"The United Brethren","lat":51.73031,"lon":0.46832,"postcode":"CM2 0LF","la":"Chelmsford","era":"other","nn":95,"risk":27,"cat":"green"},{"name":"The Walnut Tree","lat":51.7852,"lon":0.45366,"postcode":"CM3 1DT","la":"Chelmsford","era":"other","nn":659,"risk":36,"cat":"amber"},{"name":"The Wheatsheaf","lat":51.73591,"lon":0.47319,"postcode":"CM1 1NT","la":"Chelmsford","era":"trad","nn":115,"risk":27,"cat":"green"},{"name":"The Wheatsheaf","lat":51.73086,"lon":0.42745,"postcode":"CM1 3DU","la":"Chelmsford","era":"trad","nn":120,"risk":32,"cat":"amber"},{"name":"The White Hart","lat":51.79065,"lon":0.47606,"postcode":"CM3 3NY","la":"Chelmsford","era":"trad","nn":743,"risk":51,"cat":"amber"},{"name":"The White Horse","lat":51.63593,"lon":0.47261,"postcode":"CM11 1NA","la":"Chelmsford","era":"trad","nn":434,"risk":49,"cat":"amber"},{"name":"The White Swan And Cygnet Tearooms","lat":51.69494,"lon":0.58619,"postcode":"CM3 4EX","la":"Chelmsford","era":"other","nn":2179,"risk":64,"cat":"red"},{"name":"The Wine Cellar","lat":51.73536,"lon":0.47115,"postcode":"CM1 1HL","la":"Chelmsford","era":"other","nn":56,"risk":27,"cat":"green"},{"name":"The Woolpack","lat":51.72923,"lon":0.47503,"postcode":"CM2 0DN","la":"Chelmsford","era":"trad","nn":129,"risk":27,"cat":"green"},{"name":"Three Compasses","lat":51.67042,"lon":0.498,"postcode":"CM2 8UQ","la":"Chelmsford","era":"other","nn":2629,"risk":67,"cat":"red"},{"name":"Town Crier","lat":51.64419,"lon":0.61803,"postcode":"CM3 5TB","la":"Chelmsford","era":"other","nn":70,"risk":32,"cat":"amber"},{"name":"Two Brewers","lat":51.73342,"lon":0.47865,"postcode":"CM2 6JY","la":"Chelmsford","era":"other","nn":142,"risk":27,"cat":"green"},{"name":"Voodoo Keller Bar","lat":51.73489,"lon":0.47348,"postcode":"CM1 1NE","la":"Chelmsford","era":"other","nn":115,"risk":27,"cat":"green"},{"name":"Walkabout Chelmsford/KT/CB/L\\\\&L/LL/ER/BB","lat":51.73294,"lon":0.47673,"postcode":"CM2 6JE","la":"Chelmsford","era":"trad","nn":0,"risk":26,"cat":"green"},{"name":"White Bear P H","lat":51.70105,"lon":0.47365,"postcode":"CM2 8NH","la":"Chelmsford","era":"other","nn":597,"risk":35,"cat":"amber"},{"name":"White Horse","lat":51.71581,"lon":0.50098,"postcode":"CM2 7HH","la":"Chelmsford","era":"trad","nn":324,"risk":46,"cat":"amber"},{"name":"Woodham Watersports Ass. Clubhouse And Premises","lat":51.63524,"lon":0.6139,"postcode":"CM3 5WP","la":"Chelmsford","era":"mod","nn":797,"risk":34,"cat":"amber"},{"name":"Writtle Bowling Club","lat":51.72922,"lon":0.42872,"postcode":"CM1 3JD","la":"Chelmsford","era":"other","nn":188,"risk":32,"cat":"amber"},{"name":"Writtle Community Association","lat":51.72895,"lon":0.41645,"postcode":"CM1 3LY","la":"Chelmsford","era":"other","nn":260,"risk":30,"cat":"green"},{"name":"Age Concern","lat":51.86952,"lon":0.15785,"postcode":"CM23 3SN","la":"East Hertfordshire","era":"other","nn":157,"risk":25,"cat":"green"},{"name":"Bacchus Bar","lat":51.86727,"lon":0.16224,"postcode":"CM23 3BP","la":"East Hertfordshire","era":"other","nn":75,"risk":25,"cat":"green"},{"name":"Bishops Stortford Rugby Club","lat":51.87739,"lon":0.14353,"postcode":"CM23 2QE","la":"East Hertfordshire","era":"trad","nn":0,"risk":42,"cat":"amber"},{"name":"Bishops Stortford Social Club","lat":51.86759,"lon":0.16054,"postcode":"CM23 3BG","la":"East Hertfordshire","era":"other","nn":0,"risk":24,"cat":"green"},{"name":"Bishops Stortford Sports Trust Ltd","lat":51.87694,"lon":0.15002,"postcode":"CM23 2TD","la":"East Hertfordshire","era":"trad","nn":448,"risk":27,"cat":"green"},{"name":"Bishops Stortford Squash Club","lat":51.87739,"lon":0.14353,"postcode":"CM23 2QE","la":"East Hertfordshire","era":"trad","nn":0,"risk":42,"cat":"amber"},{"name":"Castle","lat":51.86714,"lon":0.15918,"postcode":"CM23 3TG","la":"East Hertfordshire","era":"other","nn":106,"risk":25,"cat":"green"},{"name":"Drinks Boutique Ltd","lat":51.86781,"lon":0.16159,"postcode":"CM23 3BL","la":"East Hertfordshire","era":"other","nn":55,"risk":24,"cat":"green"},{"name":"Dusty Miller","lat":51.78314,"lon":0.09578,"postcode":"CM20 2QS","la":"East Hertfordshire","era":"trad","nn":326,"risk":26,"cat":"green"},{"name":"George Fourth","lat":51.81391,"lon":0.15183,"postcode":"CM21 9AT","la":"East Hertfordshire","era":"trad","nn":0,"risk":24,"cat":"green"},{"name":"Havers Park Bowls Club","lat":51.8643,"lon":0.16147,"postcode":"CM23 3HZ","la":"East Hertfordshire","era":"other","nn":120,"risk":25,"cat":"green"},{"name":"King William IV","lat":51.8118,"lon":0.15201,"postcode":"CM21 9AJ","la":"East Hertfordshire","era":"trad","nn":187,"risk":25,"cat":"green"},{"name":"PAISA WINE BAR","lat":51.87283,"lon":0.15838,"postcode":"CM23 2LR","la":"East Hertfordshire","era":"other","nn":71,"risk":25,"cat":"green"},{"name":"Queens Head","lat":51.81391,"lon":0.15183,"postcode":"CM21 9AT","la":"East Hertfordshire","era":"trad","nn":0,"risk":24,"cat":"green"},{"name":"Sawbridgeworth Bowling Club","lat":51.81,"lon":0.14771,"postcode":"CM21 9ET","la":"East Hertfordshire","era":"other","nn":0,"risk":24,"cat":"green"},{"name":"Sawbridgeworth Cricket Club","lat":51.81,"lon":0.14771,"postcode":"CM21 9ET","la":"East Hertfordshire","era":"other","nn":0,"risk":24,"cat":"green"},{"name":"Sawbridgeworth Football Club","lat":51.83104,"lon":-0.21254,"postcode":"CM21 0DE","la":"East Hertfordshire","era":"other","nn":61,"risk":24,"cat":"green"},{"name":"Star Inn","lat":51.87141,"lon":0.15925,"postcode":"CM23 2JU","la":"East Hertfordshire","era":"trad","nn":31,"risk":24,"cat":"green"},{"name":"The Black Lion","lat":51.87126,"lon":0.15963,"postcode":"CM23 2JY","la":"East Hertfordshire","era":"trad","nn":31,"risk":24,"cat":"green"},{"name":"The Bridge House","lat":51.86759,"lon":0.16054,"postcode":"CM23 3BG","la":"East Hertfordshire","era":"other","nn":0,"risk":24,"cat":"green"},{"name":"The Bull Inn","lat":51.82051,"lon":0.15019,"postcode":"CM21 9BX","la":"East Hertfordshire","era":"trad","nn":599,"risk":28,"cat":"green"},{"name":"The Coach And Horses","lat":51.84833,"lon":0.1597,"postcode":"CM23 4AS","la":"East Hertfordshire","era":"trad","nn":1300,"risk":56,"cat":"amber"},{"name":"The Cock Inn","lat":51.87026,"lon":0.16738,"postcode":"CM23 2DX","la":"East Hertfordshire","era":"trad","nn":429,"risk":27,"cat":"green"},{"name":"The Dog Head","lat":51.87066,"lon":0.15921,"postcode":"CM23 3UU","la":"East Hertfordshire","era":"trad","nn":73,"risk":25,"cat":"green"},{"name":"The Gate Public House","lat":51.81489,"lon":0.14793,"postcode":"CM21 9JJ","la":"East Hertfordshire","era":"other","nn":207,"risk":25,"cat":"green"},{"name":"The Harvest Moon","lat":51.86105,"lon":0.14207,"postcode":"CM23 4RF","la":"East Hertfordshire","era":"trad","nn":314,"risk":44,"cat":"amber"},{"name":"The Horn At The Half Moon","lat":51.8722,"lon":0.15822,"postcode":"CM23 2LD","la":"East Hertfordshire","era":"other","nn":71,"risk":25,"cat":"green"},{"name":"The Jolly Brewers","lat":51.8653,"lon":0.16081,"postcode":"CM23 3BQ","la":"East Hertfordshire","era":"other","nn":120,"risk":25,"cat":"green"},{"name":"The Lion","lat":51.78567,"lon":0.07815,"postcode":"CM20 2QY","la":"East Hertfordshire","era":"trad","nn":1231,"risk":55,"cat":"amber"},{"name":"The Marne Inn","lat":51.85865,"lon":0.14448,"postcode":"CM23 4EG","la":"East Hertfordshire","era":"trad","nn":0,"risk":42,"cat":"amber"},{"name":"The Nags Head","lat":51.87106,"lon":0.18906,"postcode":"CM23 5HP","la":"East Hertfordshire","era":"trad","nn":1031,"risk":54,"cat":"amber"},{"name":"The Old Bell","lat":51.81241,"lon":0.14947,"postcode":"CM21 9AN","la":"East Hertfordshire","era":"other","nn":134,"risk":25,"cat":"green"},{"name":"The Orange Tree","lat":51.81781,"lon":0.13464,"postcode":"CM21 0BP","la":"East Hertfordshire","era":"other","nn":970,"risk":51,"cat":"amber"},{"name":"The Plume Of Feathers P. H.","lat":51.79108,"lon":0.10083,"postcode":"CM20 2RD","la":"East Hertfordshire","era":"other","nn":949,"risk":51,"cat":"amber"},{"name":"The Port Jackson","lat":51.86827,"lon":0.16131,"postcode":"CM23 3AJ","la":"East Hertfordshire","era":"other","nn":55,"risk":24,"cat":"green"},{"name":"The Queens Head","lat":51.83287,"lon":0.11154,"postcode":"CM21 0LS","la":"East Hertfordshire","era":"trad","nn":1853,"risk":59,"cat":"amber"},{"name":"The Rising Sun","lat":51.80689,"lon":0.12273,"postcode":"CM21 0HZ","la":"East Hertfordshire","era":"other","nn":1427,"risk":57,"cat":"amber"},{"name":"The Rose & Crown","lat":51.86671,"lon":0.16492,"postcode":"CM23 3BL","la":"East Hertfordshire","era":"trad","nn":88,"risk":25,"cat":"green"},{"name":"The Three Horseshoes","lat":51.83664,"lon":0.15913,"postcode":"CM22 7SE","la":"East Hertfordshire","era":"trad","nn":1300,"risk":56,"cat":"amber"},{"name":"The Wheatsheaf","lat":51.87435,"lon":0.15907,"postcode":"CM23 2EU","la":"East Hertfordshire","era":"trad","nn":176,"risk":25,"cat":"green"},{"name":"The White Lion","lat":51.81281,"lon":0.14763,"postcode":"CM21 9EN","la":"East Hertfordshire","era":"trad","nn":134,"risk":25,"cat":"green"},{"name":"Thirst Youth Cafe","lat":51.8684,"lon":0.16052,"postcode":"CM23 3AZ","la":"East Hertfordshire","era":"other","nn":56,"risk":24,"cat":"green"},{"name":"Thorley Cricket Club","lat":51.85865,"lon":0.14448,"postcode":"CM23 4EG","la":"East Hertfordshire","era":"other","nn":0,"risk":42,"cat":"amber"},{"name":"Three Tuns","lat":51.86627,"lon":0.16598,"postcode":"CM23 5NF","la":"East Hertfordshire","era":"other","nn":88,"risk":25,"cat":"green"},{"name":"United Services Club","lat":51.81514,"lon":0.15092,"postcode":"CM21 9AY","la":"East Hertfordshire","era":"other","nn":151,"risk":25,"cat":"green"},{"name":"WGM Catering At Herts And Essex Sports Bar","lat":51.86333,"lon":0.17783,"postcode":"CM23 5LH","la":"East Hertfordshire","era":"other","nn":877,"risk":48,"cat":"amber"},{"name":"Bantham & Ongar Bowls Club","lat":51.72567,"lon":0.18324,"postcode":"CM16 6GP","la":"Epping Forest","era":"other","nn":185,"risk":45,"cat":"amber"},{"name":"Blakes Leisure Limited","lat":51.72457,"lon":0.18652,"postcode":"CM16 6RZ","la":"Epping Forest","era":"other","nn":257,"risk":45,"cat":"amber"},{"name":"Blooming Pub Co.","lat":51.6954,"lon":0.13167,"postcode":"CM16 7QJ","la":"Epping Forest","era":"mod","nn":758,"risk":51,"cat":"amber"},{"name":"Epping Cricket Club Sports Field","lat":51.6957,"lon":0.10242,"postcode":"CM16 5HA","la":"Epping Forest","era":"other","nn":412,"risk":29,"cat":"green"},{"name":"Epping Public Hall","lat":51.69938,"lon":0.1083,"postcode":"CM16 5JU","la":"Epping Forest","era":"other","nn":93,"risk":26,"cat":"green"},{"name":"First Theydon Bois Scout Group","lat":51.6675,"lon":0.09155,"postcode":"CM16 7JZ","la":"Epping Forest","era":"other","nn":469,"risk":34,"cat":"amber"},{"name":"Fyfield Village Hall","lat":51.73804,"lon":0.26959,"postcode":"CM5 0RG","la":"Epping Forest","era":"other","nn":263,"risk":45,"cat":"amber"},{"name":"Harvester","lat":51.72432,"lon":0.18169,"postcode":"CM16 6EE","la":"Epping Forest","era":"trad","nn":185,"risk":45,"cat":"amber"},{"name":"Hemnall Social Club","lat":51.69693,"lon":0.11046,"postcode":"CM16 4LS","la":"Epping Forest","era":"mod","nn":159,"risk":27,"cat":"green"},{"name":"Hobbs Cross Golf Centre","lat":51.68301,"lon":0.13555,"postcode":"CM16 7NQ","la":"Epping Forest","era":"trad","nn":699,"risk":51,"cat":"amber"},{"name":"Horns And Horseshoes","lat":51.75885,"lon":0.15365,"postcode":"CM17 9HX","la":"Epping Forest","era":"trad","nn":1256,"risk":57,"cat":"amber"},{"name":"John Barleycorn Public House","lat":51.76255,"lon":0.17089,"postcode":"CM17 0NS","la":"Epping Forest","era":"other","nn":1256,"risk":57,"cat":"amber"},{"name":"Kasha","lat":51.69929,"lon":0.11109,"postcode":"CM16 4BL","la":"Epping Forest","era":"other","nn":99,"risk":27,"cat":"green"},{"name":"Lindsey Street Community Association","lat":51.70794,"lon":0.11284,"postcode":"CM16 6RP","la":"Epping Forest","era":"other","nn":784,"risk":34,"cat":"amber"},{"name":"Merry Fiddlers Public House","lat":51.6886,"lon":0.13092,"postcode":"CM16 7PY","la":"Epping Forest","era":"other","nn":699,"risk":36,"cat":"amber"},{"name":"Miller & Carter","lat":51.75154,"lon":0.13364,"postcode":"CM17 9NG","la":"Epping Forest","era":"trad","nn":531,"risk":30,"cat":"green"},{"name":"North Weald Par 3 Golf Course","lat":51.71255,"lon":0.15226,"postcode":"CM16 6BH","la":"Epping Forest","era":"other","nn":921,"risk":52,"cat":"amber"},{"name":"Rainbow And Dove PH","lat":51.74459,"lon":0.14432,"postcode":"CM17 9JX","la":"Epping Forest","era":"other","nn":1067,"risk":56,"cat":"amber"},{"name":"Roydon Village Hall","lat":51.77025,"lon":0.04231,"postcode":"CM19 5HH","la":"Epping Forest","era":"other","nn":169,"risk":32,"cat":"amber"},{"name":"The Black Bull Inn Hotel","lat":51.74219,"lon":0.27642,"postcode":"CM5 0NN","la":"Epping Forest","era":"trad","nn":428,"risk":46,"cat":"amber"},{"name":"The Black Lion","lat":51.7009,"lon":0.11347,"postcode":"CM16 4DA","la":"Epping Forest","era":"trad","nn":163,"risk":27,"cat":"green"},{"name":"The Box","lat":51.69938,"lon":0.10965,"postcode":"CM16 5DN","la":"Epping Forest","era":"other","nn":93,"risk":26,"cat":"green"},{"name":"The Bull PH","lat":51.67165,"lon":0.102,"postcode":"CM16 7HR","la":"Epping Forest","era":"trad","nn":141,"risk":32,"cat":"amber"},{"name":"The Chequers PH","lat":51.7763,"lon":0.22447,"postcode":"CM17 0PZ","la":"Epping Forest","era":"other","nn":2049,"risk":63,"cat":"red"},{"name":"The Club House","lat":51.6829,"lon":0.0945,"postcode":"CM16 4EH","la":"Epping Forest","era":"other","nn":932,"risk":52,"cat":"amber"},{"name":"The Cock (Ongar) Ltd","lat":51.70553,"lon":0.24565,"postcode":"CM5 9AB","la":"Epping Forest","era":"other","nn":274,"risk":33,"cat":"amber"},{"name":"The Cock Inn","lat":51.80394,"lon":0.1863,"postcode":"CM22 7LT","la":"Epping Forest","era":"trad","nn":1670,"risk":60,"cat":"amber"},{"name":"The Crusader","lat":51.77135,"lon":0.0406,"postcode":"CM19 5EA","la":"Epping Forest","era":"other","nn":0,"risk":31,"cat":"amber"},{"name":"The Dog and Pickle","lat":51.74328,"lon":0.23433,"postcode":"CM5 0HZ","la":"Epping Forest","era":"other","nn":1019,"risk":55,"cat":"amber"},{"name":"The Dog House","lat":51.68941,"lon":0.16736,"postcode":"CM16 7PU","la":"Epping Forest","era":"other","nn":2048,"risk":63,"cat":"red"},{"name":"The Duke of Wellington","lat":51.69658,"lon":0.10823,"postcode":"CM16 4AE","la":"Epping Forest","era":"trad","nn":159,"risk":27,"cat":"green"},{"name":"The Epping Golf Course Ltd","lat":51.68721,"lon":0.11811,"postcode":"CM16 7NJ","la":"Epping Forest","era":"other","nn":897,"risk":52,"cat":"amber"},{"name":"The Forest Gate Inn","lat":51.69097,"lon":0.09815,"postcode":"CM16 4DZ","la":"Epping Forest","era":"trad","nn":602,"risk":35,"cat":"amber"},{"name":"The Forresters Arms","lat":51.71095,"lon":0.26613,"postcode":"CM5 9NH","la":"Epping Forest","era":"trad","nn":1534,"risk":59,"cat":"amber"},{"name":"The Fox Inn","lat":51.77934,"lon":0.1951,"postcode":"CM17 0QS","la":"Epping Forest","era":"trad","nn":2049,"risk":63,"cat":"red"},{"name":"The George and Dragon","lat":51.69958,"lon":0.11245,"postcode":"CM16 4AQ","la":"Epping Forest","era":"trad","nn":99,"risk":27,"cat":"green"},{"name":"The Green Man","lat":51.70002,"lon":0.19166,"postcode":"CM5 9SD","la":"Epping Forest","era":"other","nn":2048,"risk":63,"cat":"red"},{"name":"The Kings Head PH","lat":51.71422,"lon":0.16535,"postcode":"CM16 6BU","la":"Epping Forest","era":"trad","nn":921,"risk":52,"cat":"amber"},{"name":"The New Inn","lat":51.77193,"lon":0.03988,"postcode":"CM19 5EE","la":"Epping Forest","era":"trad","nn":82,"risk":31,"cat":"amber"},{"name":"The Queen Victoria","lat":51.67187,"lon":0.09998,"postcode":"CM16 7ES","la":"Epping Forest","era":"trad","nn":141,"risk":32,"cat":"amber"},{"name":"The Queens Head","lat":51.73891,"lon":0.27314,"postcode":"CM5 0RY","la":"Epping Forest","era":"trad","nn":263,"risk":45,"cat":"amber"},{"name":"The Royal Oak","lat":51.70314,"lon":0.24474,"postcode":"CM5 9DX","la":"Epping Forest","era":"trad","nn":274,"risk":33,"cat":"amber"},{"name":"The Stag","lat":51.69657,"lon":0.2454,"postcode":"CM5 9DH","la":"Epping Forest","era":"trad","nn":553,"risk":35,"cat":"amber"},{"name":"The White Hart Inn","lat":51.74073,"lon":0.22011,"postcode":"CM5 0LF","la":"Epping Forest","era":"trad","nn":1019,"risk":55,"cat":"amber"},{"name":"The White Hart P H","lat":51.77135,"lon":0.0406,"postcode":"CM19 5EA","la":"Epping Forest","era":"trad","nn":0,"risk":31,"cat":"amber"},{"name":"The Woodman","lat":51.67656,"lon":0.21384,"postcode":"CM5 9QF","la":"Epping Forest","era":"other","nn":3024,"risk":69,"cat":"red"},{"name":"Theydon Bois Cricket Club","lat":51.67114,"lon":0.095,"postcode":"CM16 7JY","la":"Epping Forest","era":"other","nn":353,"risk":33,"cat":"amber"},{"name":"Two Brewers Public House","lat":51.70062,"lon":0.24075,"postcode":"CM5 9HD","la":"Epping Forest","era":"other","nn":392,"risk":34,"cat":"amber"},{"name":"Upper Clapton Rugby Football Club","lat":51.72565,"lon":0.12295,"postcode":"CM16 6NL","la":"Epping Forest","era":"other","nn":2089,"risk":63,"cat":"red"},{"name":"Canons Brook Golf Club House","lat":51.77314,"lon":0.07157,"postcode":"CM19 5BE","la":"Harlow","era":"other","nn":0,"risk":32,"cat":"amber"},{"name":"Cashino","lat":51.77057,"lon":0.09339,"postcode":"CM20 1HP","la":"Harlow","era":"other","nn":125,"risk":28,"cat":"green"},{"name":"Elbow Grease","lat":51.75894,"lon":0.09759,"postcode":"CM18 6RN","la":"Harlow","era":"other","nn":648,"risk":32,"cat":"amber"},{"name":"Essex Skipper","lat":51.77571,"lon":0.11492,"postcode":"CM20 3AS","la":"Harlow","era":"other","nn":70,"risk":28,"cat":"green"},{"name":"Golden Swift Public House","lat":51.7671,"lon":0.08422,"postcode":"CM19 4AY","la":"Harlow","era":"other","nn":213,"risk":29,"cat":"green"},{"name":"GPCA The Link","lat":51.74387,"lon":0.08117,"postcode":"CM19 4RT","la":"Harlow","era":"other","nn":0,"risk":32,"cat":"amber"},{"name":"Great Parndon Community Association","lat":51.75523,"lon":0.09033,"postcode":"CM18 6YJ","la":"Harlow","era":"other","nn":356,"risk":30,"cat":"green"},{"name":"Griffin Bowls Club","lat":51.75333,"lon":0.10744,"postcode":"CM18 7BL","la":"Harlow","era":"trad","nn":0,"risk":27,"cat":"green"},{"name":"Harlow Bowling Club","lat":51.78276,"lon":0.13855,"postcode":"CM17 0ER","la":"Harlow","era":"other","nn":233,"risk":29,"cat":"green"},{"name":"Harlow Cricket Club","lat":51.78242,"lon":0.13478,"postcode":"CM17 0DH","la":"Harlow","era":"other","nn":212,"risk":29,"cat":"green"},{"name":"Harlow District Scouts","lat":51.75226,"lon":0.09228,"postcode":"CM18 7NL","la":"Harlow","era":"other","nn":356,"risk":35,"cat":"amber"},{"name":"Harlow Labour Social Club","lat":51.77465,"lon":0.07985,"postcode":"CM20 1SX","la":"Harlow","era":"mod","nn":98,"risk":28,"cat":"green"},{"name":"Harlow Lawn Tennis Club","lat":51.75333,"lon":0.10744,"postcode":"CM18 7BL","la":"Harlow","era":"other","nn":0,"risk":27,"cat":"green"},{"name":"Harlow Masonic Hall Club","lat":51.75618,"lon":0.13179,"postcode":"CM17 9EL","la":"Harlow","era":"trad","nn":0,"risk":27,"cat":"green"},{"name":"Harlow Mill Restaurant & Premier Inn","lat":51.79522,"lon":0.13136,"postcode":"CM20 2EP","la":"Harlow","era":"trad","nn":1221,"risk":58,"cat":"amber"},{"name":"Harlow Playhouse Cafe Bar","lat":51.76861,"lon":0.09261,"postcode":"CM20 1LS","la":"Harlow","era":"mod","nn":92,"risk":28,"cat":"green"},{"name":"Harlow Rugby Union Football Club (Bar)","lat":51.77667,"lon":0.12347,"postcode":"CM20 3FD","la":"Harlow","era":"other","nn":153,"risk":28,"cat":"green"},{"name":"Harlow Town Cricket Club","lat":51.77314,"lon":0.07157,"postcode":"CM19 5BE","la":"Harlow","era":"other","nn":0,"risk":32,"cat":"amber"},{"name":"Harlow War Memorial Institute","lat":51.78438,"lon":0.13414,"postcode":"CM17 0AT","la":"Harlow","era":"other","nn":183,"risk":28,"cat":"green"},{"name":"Janet Causton Catering","lat":51.75617,"lon":0.13178,"postcode":"CM17 9EL","la":"Harlow","era":"other","nn":0,"risk":27,"cat":"green"},{"name":"JP's Snooker Centre","lat":51.77508,"lon":0.1148,"postcode":"CM20 3AP","la":"Harlow","era":"other","nn":70,"risk":28,"cat":"green"},{"name":"Marquis (Harlow)","lat":51.78334,"lon":0.13208,"postcode":"CM17 0AA","la":"Harlow","era":"other","nn":30,"risk":27,"cat":"green"},{"name":"Mecca Bingo Club","lat":51.77034,"lon":0.09593,"postcode":"CM20 1XA","la":"Harlow","era":"other","nn":135,"risk":28,"cat":"green"},{"name":"Paringdon Sports Club","lat":51.75017,"lon":0.08229,"postcode":"CM19 4QT","la":"Harlow","era":"other","nn":703,"risk":32,"cat":"amber"},{"name":"Phoenix Live","lat":51.7692,"lon":0.09357,"postcode":"CM20 1XR","la":"Harlow","era":"other","nn":82,"risk":28,"cat":"green"},{"name":"Poplar Kitten","lat":51.75765,"lon":0.11052,"postcode":"CM18 6PN","la":"Harlow","era":"other","nn":237,"risk":29,"cat":"green"},{"name":"Potter Street Baptist Church","lat":51.75654,"lon":0.13292,"postcode":"CM17 9AW","la":"Harlow","era":"other","nn":88,"risk":30,"cat":"green"},{"name":"Potters Arms Cookhouse And Pub","lat":51.76713,"lon":0.13092,"postcode":"CM17 9TD","la":"Harlow","era":"other","nn":902,"risk":51,"cat":"amber"},{"name":"Q Bar","lat":51.7691,"lon":0.09475,"postcode":"CM20 1HF","la":"Harlow","era":"other","nn":36,"risk":27,"cat":"green"},{"name":"Queens Head Pub","lat":51.78189,"lon":0.14916,"postcode":"CM17 0JT","la":"Harlow","era":"trad","nn":737,"risk":37,"cat":"amber"},{"name":"Rileys Sports Bars (2014) Limited","lat":51.76878,"lon":0.09464,"postcode":"CM20 1YU","la":"Harlow","era":"other","nn":36,"risk":27,"cat":"green"},{"name":"The Burnt Mill Snooker & Social Club","lat":51.78062,"lon":0.0982,"postcode":"CM20 2DQ","la":"Harlow","era":"other","nn":119,"risk":30,"cat":"green"},{"name":"The Chequers","lat":51.78355,"lon":0.13178,"postcode":"CM17 0AH","la":"Harlow","era":"other","nn":30,"risk":27,"cat":"green"},{"name":"The Clock House","lat":51.77131,"lon":0.09475,"postcode":"CM20 1BD","la":"Harlow","era":"other","nn":125,"risk":28,"cat":"green"},{"name":"The Cock Inn Public House","lat":51.75757,"lon":0.07916,"postcode":"CM19 4HW","la":"Harlow","era":"trad","nn":225,"risk":34,"cat":"amber"},{"name":"The Crown","lat":51.78334,"lon":0.13028,"postcode":"CM17 0AQ","la":"Harlow","era":"trad","nn":106,"risk":28,"cat":"green"},{"name":"The Greyhound","lat":51.77688,"lon":0.10223,"postcode":"CM20 2QB","la":"Harlow","era":"trad","nn":500,"risk":31,"cat":"amber"},{"name":"The Hare Public House","lat":51.76895,"lon":0.08502,"postcode":"CM19 4AS","la":"Harlow","era":"other","nn":213,"risk":29,"cat":"green"},{"name":"The Heart And Club","lat":51.76878,"lon":0.11232,"postcode":"CM20 3NG","la":"Harlow","era":"other","nn":581,"risk":34,"cat":"amber"},{"name":"The Herald Public House","lat":51.74887,"lon":0.0723,"postcode":"CM19 5RD","la":"Harlow","era":"other","nn":703,"risk":37,"cat":"amber"},{"name":"The Link Burger Bar (GPCA Out Building)","lat":51.74387,"lon":0.08117,"postcode":"CM19 4RT","la":"Harlow","era":"mod","nn":0,"risk":32,"cat":"amber"},{"name":"The Phoenix Pub","lat":51.76256,"lon":0.11426,"postcode":"CM18 6EN","la":"Harlow","era":"other","nn":422,"risk":35,"cat":"amber"},{"name":"The Purple Emperor","lat":51.77132,"lon":0.1197,"postcode":"CM20 3EH","la":"Harlow","era":"other","nn":537,"risk":31,"cat":"amber"},{"name":"The Red Lion Public House","lat":51.75828,"lon":0.13284,"postcode":"CM17 9AH","la":"Harlow","era":"trad","nn":193,"risk":28,"cat":"green"},{"name":"The Royal British Legion","lat":51.75265,"lon":0.11969,"postcode":"CM18 7GY","la":"Harlow","era":"trad","nn":809,"risk":33,"cat":"amber"},{"name":"The Shark Public House","lat":51.77389,"lon":0.08058,"postcode":"CM20 1TH","la":"Harlow","era":"other","nn":98,"risk":28,"cat":"green"},{"name":"The Small Copper Pub","lat":51.77543,"lon":0.12443,"postcode":"CM20 3DE","la":"Harlow","era":"other","nn":153,"risk":28,"cat":"green"},{"name":"The White Admiral Public House","lat":51.77983,"lon":0.11981,"postcode":"CM20 2NB","la":"Harlow","era":"other","nn":432,"risk":30,"cat":"green"},{"name":"The William Aylmer (J D Wetherspoon)","lat":51.77119,"lon":0.09169,"postcode":"CM20 1DG","la":"Harlow","era":"other","nn":135,"risk":28,"cat":"green"},{"name":"Three Horseshoes Public House","lat":51.75908,"lon":0.08133,"postcode":"CM19 4HB","la":"Harlow","era":"trad","nn":225,"risk":31,"cat":"amber"},{"name":"Toby Carvery","lat":51.78024,"lon":0.09657,"postcode":"CM20 2LQ","la":"Harlow","era":"other","nn":119,"risk":30,"cat":"green"},{"name":"Tye Green Indoor Bowls Club","lat":51.7588,"lon":0.11342,"postcode":"CM18 6LU","la":"Harlow","era":"other","nn":237,"risk":29,"cat":"green"},{"name":"Victoria Hall Performing Arts Association","lat":51.78462,"lon":0.13698,"postcode":"CM17 0ED","la":"Harlow","era":"trad","nn":197,"risk":28,"cat":"green"},{"name":"Willow","lat":51.77523,"lon":0.09157,"postcode":"CM20 1NN","la":"Harlow","era":"trad","nn":450,"risk":30,"cat":"green"},{"name":"Black Rabbit","lat":51.72961,"lon":0.68393,"postcode":"CM9 5BX","la":"Maldon","era":"other","nn":0,"risk":30,"cat":"green"},{"name":"Blackwater Leisure Centre","lat":51.72337,"lon":0.69021,"postcode":"CM9 5UR","la":"Maldon","era":"other","nn":656,"risk":37,"cat":"amber"},{"name":"Carpenters Arms","lat":51.73203,"lon":0.67507,"postcode":"CM9 5QF","la":"Maldon","era":"trad","nn":79,"risk":31,"cat":"amber"},{"name":"Farmers Yard","lat":51.72961,"lon":0.68393,"postcode":"CM9 5BX","la":"Maldon","era":"mod","nn":0,"risk":30,"cat":"green"},{"name":"Ferry Boat Inn","lat":51.63876,"lon":0.67644,"postcode":"CM3 6LR","la":"Maldon","era":"trad","nn":3245,"risk":75,"cat":"red"},{"name":"Fox And Hounds","lat":51.69722,"lon":0.88298,"postcode":"CM0 7SU","la":"Maldon","era":"trad","nn":183,"risk":51,"cat":"amber"},{"name":"Fox And Hounds","lat":51.69377,"lon":0.62621,"postcode":"CM3 6RF","la":"Maldon","era":"trad","nn":1844,"risk":66,"cat":"red"},{"name":"Green Man","lat":51.78568,"lon":0.67965,"postcode":"CM8 3LB","la":"Maldon","era":"other","nn":1445,"risk":63,"cat":"red"},{"name":"Green Man Inn","lat":51.73382,"lon":0.88833,"postcode":"CM0 7QX","la":"Maldon","era":"trad","nn":2091,"risk":67,"cat":"red"},{"name":"Hardy's","lat":51.68684,"lon":0.75729,"postcode":"CM3 6AQ","la":"Maldon","era":"other","nn":1868,"risk":66,"cat":"red"},{"name":"Haus At The Muddy Duck","lat":51.73499,"lon":0.67887,"postcode":"CM9 4LE","la":"Maldon","era":"other","nn":0,"risk":30,"cat":"green"},{"name":"Heybridge Inn","lat":51.73998,"lon":0.68695,"postcode":"CM9 4NB","la":"Maldon","era":"trad","nn":82,"risk":36,"cat":"amber"},{"name":"Huntsman And Hounds","lat":51.67011,"lon":0.75498,"postcode":"CM3 6BJ","la":"Maldon","era":"trad","nn":1766,"risk":65,"cat":"red"},{"name":"Hurdlemakers Arms","lat":51.71029,"lon":0.62381,"postcode":"CM9 6ST","la":"Maldon","era":"trad","nn":1844,"risk":66,"cat":"red"},{"name":"Kings Head Hotel","lat":51.75847,"lon":0.83184,"postcode":"CM9 8RG","la":"Maldon","era":"trad","nn":1035,"risk":60,"cat":"amber"},{"name":"Maltsters Arms","lat":51.73945,"lon":0.68778,"postcode":"CM9 4NJ","la":"Maldon","era":"trad","nn":82,"risk":36,"cat":"amber"},{"name":"Mighty Oak Tap Room","lat":51.73138,"lon":0.67554,"postcode":"CM9 5PJ","la":"Maldon","era":"other","nn":0,"risk":30,"cat":"green"},{"name":"New Welcome Sailor","lat":51.63004,"lon":0.81535,"postcode":"CM0 8HF","la":"Maldon","era":"other","nn":489,"risk":34,"cat":"amber"},{"name":"Oakhouse Bar Cafe","lat":51.73158,"lon":0.67772,"postcode":"CM9 5PF","la":"Maldon","era":"other","nn":152,"risk":31,"cat":"amber"},{"name":"Prince Of Wales","lat":51.77044,"lon":0.68481,"postcode":"CM9 8PX","la":"Maldon","era":"trad","nn":637,"risk":55,"cat":"amber"},{"name":"Prince Of Wales","lat":51.66292,"lon":0.64567,"postcode":"CM3 6SA","la":"Maldon","era":"trad","nn":2098,"risk":67,"cat":"red"},{"name":"Queens Head","lat":51.77373,"lon":0.79644,"postcode":"CM9 8TF","la":"Maldon","era":"trad","nn":2969,"risk":73,"cat":"red"},{"name":"Queens Head","lat":51.62637,"lon":0.81926,"postcode":"CM0 8JU","la":"Maldon","era":"trad","nn":96,"risk":31,"cat":"amber"},{"name":"Queens Head","lat":51.66336,"lon":0.82012,"postcode":"CM0 7BB","la":"Maldon","era":"trad","nn":684,"risk":40,"cat":"amber"},{"name":"Rose And Crown","lat":51.73126,"lon":0.68028,"postcode":"CM9 5EP","la":"Maldon","era":"trad","nn":0,"risk":30,"cat":"green"},{"name":"St Cedd's Clubhouse","lat":51.73107,"lon":0.91836,"postcode":"CM0 7PP","la":"Maldon","era":"other","nn":2091,"risk":67,"cat":"red"},{"name":"Swan Hotel, Bar And Grill","lat":51.73126,"lon":0.68028,"postcode":"CM9 5EP","la":"Maldon","era":"other","nn":0,"risk":30,"cat":"green"},{"name":"The Anchor Hotel","lat":51.62461,"lon":0.81947,"postcode":"CM0 8AT","la":"Maldon","era":"trad","nn":102,"risk":31,"cat":"amber"},{"name":"The Bell","lat":51.68628,"lon":0.66247,"postcode":"CM3 6QJ","la":"Maldon","era":"other","nn":1449,"risk":63,"cat":"red"},{"name":"The Bell","lat":51.73202,"lon":0.61787,"postcode":"CM9 6RF","la":"Maldon","era":"other","nn":753,"risk":55,"cat":"amber"},{"name":"The Bell Inn","lat":51.76836,"lon":0.75303,"postcode":"CM9 8LL","la":"Maldon","era":"trad","nn":1113,"risk":60,"cat":"amber"},{"name":"The Bull And Willow Ltd","lat":51.77473,"lon":0.69096,"postcode":"CM9 8NH","la":"Maldon","era":"trad","nn":637,"risk":55,"cat":"amber"},{"name":"The Cap And Feathers","lat":51.69563,"lon":0.88226,"postcode":"CM0 7TJ","la":"Maldon","era":"other","nn":183,"risk":51,"cat":"amber"},{"name":"The Cats","lat":51.73677,"lon":0.62565,"postcode":"CM9 6LS","la":"Maldon","era":"other","nn":753,"risk":55,"cat":"amber"},{"name":"The Chequers Inn","lat":51.74669,"lon":0.758,"postcode":"CM9 8AS","la":"Maldon","era":"trad","nn":2434,"risk":70,"cat":"red"},{"name":"The Deck House","lat":51.73396,"lon":0.72776,"postcode":"CM9 4SA","la":"Maldon","era":"other","nn":1340,"risk":62,"cat":"red"},{"name":"The Jolly Sailor","lat":51.72994,"lon":0.70942,"postcode":"CM9 4RS","la":"Maldon","era":"other","nn":89,"risk":51,"cat":"amber"},{"name":"The Jolly Sailor","lat":51.72879,"lon":0.68644,"postcode":"CM9 5HP","la":"Maldon","era":"other","nn":127,"risk":31,"cat":"amber"},{"name":"The Kings Head","lat":51.66266,"lon":0.82997,"postcode":"CM0 7DE","la":"Maldon","era":"trad","nn":209,"risk":37,"cat":"amber"},{"name":"The Muddy Duck Maldon","lat":51.73499,"lon":0.67887,"postcode":"CM9 4LE","la":"Maldon","era":"other","nn":0,"risk":30,"cat":"green"},{"name":"The Old Ship","lat":51.72923,"lon":0.70879,"postcode":"CM9 4RX","la":"Maldon","era":"trad","nn":89,"risk":51,"cat":"amber"},{"name":"The Queen Victoria","lat":51.72827,"lon":0.66936,"postcode":"CM9 6ED","la":"Maldon","era":"trad","nn":548,"risk":34,"cat":"amber"},{"name":"The Queens Head","lat":51.7295,"lon":0.68788,"postcode":"CM9 5HN","la":"Maldon","era":"trad","nn":127,"risk":31,"cat":"amber"},{"name":"The Red Lion Inn","lat":51.67145,"lon":0.72034,"postcode":"CM3 6JR","la":"Maldon","era":"trad","nn":2393,"risk":69,"cat":"red"},{"name":"The Roundbush Pub","lat":51.68494,"lon":0.68337,"postcode":"CM9 6NN","la":"Maldon","era":"other","nn":1449,"risk":63,"cat":"red"},{"name":"The Royal Oak","lat":51.71108,"lon":0.67483,"postcode":"CM9 6PE","la":"Maldon","era":"trad","nn":1729,"risk":65,"cat":"red"},{"name":"The Ship Inn","lat":51.62551,"lon":0.81923,"postcode":"CM0 8AA","la":"Maldon","era":"trad","nn":96,"risk":31,"cat":"amber"},{"name":"The Star Inn","lat":51.62529,"lon":0.81691,"postcode":"CM0 8AG","la":"Maldon","era":"trad","nn":162,"risk":31,"cat":"amber"},{"name":"The Star Inn","lat":51.69312,"lon":0.80283,"postcode":"CM0 7LF","la":"Maldon","era":"trad","nn":3215,"risk":75,"cat":"red"},{"name":"The Station Arms","lat":51.66188,"lon":0.83326,"postcode":"CM0 7EW","la":"Maldon","era":"trad","nn":243,"risk":37,"cat":"amber"},{"name":"The Stone Inn Public House Ltd","lat":51.71989,"lon":0.8241,"postcode":"CM0 7NA","la":"Maldon","era":"other","nn":72,"risk":51,"cat":"amber"},{"name":"The Stone Water Sports Club Ltd","lat":51.71934,"lon":0.82464,"postcode":"CM0 7NA","la":"Maldon","era":"other","nn":72,"risk":51,"cat":"amber"},{"name":"The Swan","lat":51.77158,"lon":0.73771,"postcode":"CM9 8LB","la":"Maldon","era":"trad","nn":1113,"risk":60,"cat":"amber"},{"name":"The White Horse","lat":51.73138,"lon":0.67554,"postcode":"CM9 5PJ","la":"Maldon","era":"trad","nn":0,"risk":30,"cat":"green"},{"name":"Three Horseshoes","lat":51.65528,"lon":0.76417,"postcode":"CM3 6DP","la":"Maldon","era":"trad","nn":1766,"risk":65,"cat":"red"},{"name":"Tollesbury Cafe","lat":51.75927,"lon":0.84682,"postcode":"CM9 8SE","la":"Maldon","era":"other","nn":1035,"risk":60,"cat":"amber"},{"name":"Victoria Inn","lat":51.62402,"lon":0.82241,"postcode":"CM0 8AJ","la":"Maldon","era":"trad","nn":213,"risk":32,"cat":"amber"},{"name":"White Horse Hotel","lat":51.66422,"lon":0.83167,"postcode":"CM0 7DG","la":"Maldon","era":"trad","nn":209,"risk":37,"cat":"amber"},{"name":"White Horse Inn","lat":51.69186,"lon":0.70339,"postcode":"CM9 6PB","la":"Maldon","era":"trad","nn":1580,"risk":64,"cat":"red"},{"name":"Wine And Kitchen @ The Norton","lat":51.67209,"lon":0.67226,"postcode":"CM3 6JB","la":"Maldon","era":"mod","nn":1621,"risk":64,"cat":"red"},{"name":"Angel And Harp","lat":51.87998,"lon":0.36502,"postcode":"CM6 2AD","la":"Uttlesford","era":"trad","nn":859,"risk":40,"cat":"amber"},{"name":"Axe And Compasses","lat":51.81286,"lon":0.30818,"postcode":"CM6 1PP","la":"Uttlesford","era":"other","nn":2061,"risk":66,"cat":"red"},{"name":"Barn Theatre","lat":51.88729,"lon":0.33058,"postcode":"CM6 2JN","la":"Uttlesford","era":"other","nn":619,"risk":53,"cat":"amber"},{"name":"Barnston Football Club","lat":51.85195,"lon":0.38271,"postcode":"CM6 1LZ","la":"Uttlesford","era":"other","nn":1658,"risk":63,"cat":"red"},{"name":"Berden Social Club","lat":51.94775,"lon":0.1359,"postcode":"CM23 1AE","la":"Uttlesford","era":"mod","nn":2268,"risk":67,"cat":"red"},{"name":"Boars Head Tavern","lat":51.87233,"lon":0.36335,"postcode":"CM6 1AB","la":"Uttlesford","era":"trad","nn":88,"risk":32,"cat":"amber"},{"name":"Cricket Club","lat":51.95036,"lon":0.41153,"postcode":"CM7 4TS","la":"Uttlesford","era":"other","nn":1642,"risk":63,"cat":"red"},{"name":"Dunmow Club","lat":51.87155,"lon":0.36315,"postcode":"CM6 1AH","la":"Uttlesford","era":"other","nn":88,"risk":32,"cat":"amber"},{"name":"Dunmow Cricket Club","lat":51.87364,"lon":0.37366,"postcode":"CM6 3AT","la":"Uttlesford","era":"other","nn":723,"risk":39,"cat":"amber"},{"name":"Essex Boys And Girls Clubs","lat":51.86863,"lon":0.2612,"postcode":"CM22 6QJ","la":"Uttlesford","era":"other","nn":293,"risk":48,"cat":"amber"},{"name":"Farmhouse Inn","lat":51.93404,"lon":0.3434,"postcode":"CM6 2NR","la":"Uttlesford","era":"other","nn":1868,"risk":64,"cat":"red"},{"name":"Farnham Cricket Club","lat":51.89796,"lon":0.1706,"postcode":"CM23 1HG","la":"Uttlesford","era":"other","nn":113,"risk":50,"cat":"amber"},{"name":"Farnham Social Club","lat":51.90215,"lon":0.14482,"postcode":"CM23 1HT","la":"Uttlesford","era":"mod","nn":1829,"risk":64,"cat":"red"},{"name":"Food In The Shoes","lat":51.91678,"lon":0.33509,"postcode":"CM6 2DT","la":"Uttlesford","era":"other","nn":1550,"risk":62,"cat":"red"},{"name":"High Roding Cricket Club","lat":51.83752,"lon":0.32959,"postcode":"CM6 1NL","la":"Uttlesford","era":"other","nn":1054,"risk":59,"cat":"amber"},{"name":"Kicking Dickey","lat":51.8643,"lon":0.36919,"postcode":"CM6 1ES","la":"Uttlesford","era":"trad","nn":907,"risk":53,"cat":"amber"},{"name":"Mix","lat":51.90258,"lon":0.2,"postcode":"CM24 8LP","la":"Uttlesford","era":"other","nn":108,"risk":30,"cat":"green"},{"name":"Rose And Crown","lat":51.90815,"lon":0.18876,"postcode":"CM24 8HX","la":"Uttlesford","era":"trad","nn":498,"risk":35,"cat":"amber"},{"name":"Stansted Bowls Club","lat":51.90127,"lon":0.19466,"postcode":"CM24 8BD","la":"Uttlesford","era":"other","nn":327,"risk":31,"cat":"amber"},{"name":"Stansted Football Club","lat":51.90511,"lon":0.19409,"postcode":"CM24 8BX","la":"Uttlesford","era":"other","nn":429,"risk":32,"cat":"amber"},{"name":"Thaxted Bowling Club","lat":51.95083,"lon":0.34408,"postcode":"CM6 2NE","la":"Uttlesford","era":"other","nn":220,"risk":48,"cat":"amber"},{"name":"The Ash","lat":51.8908,"lon":0.22679,"postcode":"CM24 8UQ","la":"Uttlesford","era":"other","nn":2186,"risk":67,"cat":"red"},{"name":"The Black Lion","lat":51.82891,"lon":0.32317,"postcode":"CM6 1NT","la":"Uttlesford","era":"trad","nn":1054,"risk":59,"cat":"amber"},{"name":"The Cock Inn","lat":51.93387,"lon":0.24713,"postcode":"CM22 6AL","la":"Uttlesford","era":"trad","nn":3179,"risk":74,"cat":"red"},{"name":"The Cock Inn","lat":51.82617,"lon":0.24181,"postcode":"CM22 7HF","la":"Uttlesford","era":"trad","nn":228,"risk":50,"cat":"amber"},{"name":"The Dog And Duck","lat":51.90404,"lon":0.20109,"postcode":"CM24 8LR","la":"Uttlesford","era":"other","nn":178,"risk":30,"cat":"green"},{"name":"The Dukes Head","lat":51.82662,"lon":0.24504,"postcode":"CM22 7HH","la":"Uttlesford","era":"trad","nn":228,"risk":50,"cat":"amber"},{"name":"The Four Ashes","lat":51.86814,"lon":0.26538,"postcode":"CM22 6SB","la":"Uttlesford","era":"other","nn":293,"risk":51,"cat":"amber"},{"name":"The Green Man","lat":51.90899,"lon":0.35383,"postcode":"CM6 2DN","la":"Uttlesford","era":"other","nn":1550,"risk":62,"cat":"red"},{"name":"The Green Man","lat":51.86839,"lon":0.24674,"postcode":"CM22 6QU","la":"Uttlesford","era":"other","nn":992,"risk":56,"cat":"amber"},{"name":"The Kings Arms","lat":51.90169,"lon":0.19937,"postcode":"CM24 8BE","la":"Uttlesford","era":"trad","nn":108,"risk":32,"cat":"amber"},{"name":"The Maypole","lat":51.95251,"lon":0.34578,"postcode":"CM6 2LT","la":"Uttlesford","era":"other","nn":0,"risk":46,"cat":"amber"},{"name":"The Prince Of Wales","lat":51.91022,"lon":0.28261,"postcode":"CM6 2BJ","la":"Uttlesford","era":"trad","nn":2964,"risk":72,"cat":"red"},{"name":"The Stag Inn","lat":51.89171,"lon":0.33607,"postcode":"CM6 2JE","la":"Uttlesford","era":"trad","nn":619,"risk":53,"cat":"amber"},{"name":"The Star Pub Thaxted","lat":51.95251,"lon":0.34578,"postcode":"CM6 2LT","la":"Uttlesford","era":"other","nn":0,"risk":46,"cat":"amber"},{"name":"The Thatchers","lat":51.81457,"lon":0.20346,"postcode":"CM22 7DU","la":"Uttlesford","era":"other","nn":416,"risk":52,"cat":"amber"},{"name":"The Three Willows","lat":51.87862,"lon":0.19775,"postcode":"CM23 5QR","la":"Uttlesford","era":"trad","nn":1031,"risk":59,"cat":"amber"},{"name":"The White Hart","lat":51.89281,"lon":0.4124,"postcode":"CM6 3SQ","la":"Uttlesford","era":"trad","nn":3408,"risk":75,"cat":"red"},{"name":"Three Horseshoes","lat":51.89876,"lon":0.17161,"postcode":"CM23 1HB","la":"Uttlesford","era":"trad","nn":113,"risk":50,"cat":"amber"},{"name":"White Horse Inn","lat":51.81297,"lon":0.20892,"postcode":"CM22 7EB","la":"Uttlesford","era":"trad","nn":416,"risk":52,"cat":"amber"},{"name":"Windmill Wetherspoon","lat":51.88816,"lon":0.25835,"postcode":"CM24 1QW","la":"Uttlesford","era":"trad","nn":2181,"risk":67,"cat":"red"}]