[{"name":"HALES AND DISTRICT CLUB","lat":52.90143,"lon":-2.42544,"postcode":"TF9 2PP","la":"Newcastle-under-Lyme","era":"other","nn":3135,"risk":70,"cat":"red"},{"name":"PEEL ARMS","lat":52.92529,"lon":-2.36202,"postcode":"TF9 4JY","la":"Newcastle-under-Lyme","era":"trad","nn":1930,"risk":62,"cat":"red"},{"name":"THE LOGGERHEADS","lat":52.91895,"lon":-2.38882,"postcode":"TF9 4NX","la":"Newcastle-under-Lyme","era":"trad","nn":1930,"risk":62,"cat":"red"},{"name":"Bell Inn","lat":52.6701,"lon":-2.30975,"postcode":"TF11 8PS","la":"Shropshire","era":"trad","nn":3240,"risk":63,"cat":"red"},{"name":"Broseley Cricket Club","lat":52.62083,"lon":-2.48477,"postcode":"TF12 5PX","la":"Shropshire","era":"other","nn":771,"risk":23,"cat":"green"},{"name":"Chetwode Arms","lat":52.96133,"lon":-2.39186,"postcode":"TF9 4HD","la":"Shropshire","era":"trad","nn":3120,"risk":62,"cat":"red"},{"name":"Clive And Coffyne","lat":52.90359,"lon":-2.48483,"postcode":"TF9 3BY","la":"Shropshire","era":"other","nn":34,"risk":18,"cat":"green"},{"name":"Gaskell Arms","lat":52.5944,"lon":-2.56092,"postcode":"TF13 6AQ","la":"Shropshire","era":"trad","nn":87,"risk":23,"cat":"green"},{"name":"Hinds Head Inn","lat":52.94268,"lon":-2.44543,"postcode":"TF9 4AT","la":"Shropshire","era":"trad","nn":4144,"risk":69,"cat":"red"},{"name":"Hundred House Hotel","lat":52.59998,"lon":-2.40225,"postcode":"TF11 9EE","la":"Shropshire","era":"mod","nn":3126,"risk":62,"cat":"red"},{"name":"Joiners Arms","lat":52.90148,"lon":-2.49176,"postcode":"TF9 3DN","la":"Shropshire","era":"trad","nn":457,"risk":21,"cat":"green"},{"name":"Kings Arms","lat":52.90288,"lon":-2.48535,"postcode":"TF9 3DA","la":"Shropshire","era":"trad","nn":86,"risk":18,"cat":"green"},{"name":"Kings Head","lat":52.89993,"lon":-2.4997,"postcode":"TF9 3EH","la":"Shropshire","era":"trad","nn":559,"risk":42,"cat":"amber"},{"name":"Masons Arms","lat":52.63756,"lon":-2.40431,"postcode":"TF11 9LQ","la":"Shropshire","era":"trad","nn":2080,"risk":55,"cat":"amber"},{"name":"Red Lion Inn","lat":52.85566,"lon":-2.50072,"postcode":"TF9 2BB","la":"Shropshire","era":"trad","nn":3331,"risk":64,"cat":"red"},{"name":"Sandbrook Vaults","lat":52.90371,"lon":-2.48437,"postcode":"TF9 3BY","la":"Shropshire","era":"other","nn":34,"risk":18,"cat":"green"},{"name":"The Anvil Shifnal","lat":52.66746,"lon":-2.36756,"postcode":"TF11 8DU","la":"Shropshire","era":"other","nn":283,"risk":20,"cat":"green"},{"name":"The Bear Inn","lat":52.85436,"lon":-2.57528,"postcode":"TF9 3NH","la":"Shropshire","era":"trad","nn":5009,"risk":75,"cat":"red"},{"name":"The Crown","lat":52.90497,"lon":-2.48288,"postcode":"TF9 1HX","la":"Shropshire","era":"trad","nn":172,"risk":19,"cat":"green"},{"name":"The Crown","lat":52.66886,"lon":-2.37271,"postcode":"TF11 8AZ","la":"Shropshire","era":"trad","nn":0,"risk":18,"cat":"green"},{"name":"The Falcon Inn Community Pub","lat":52.84063,"lon":-2.45782,"postcode":"TF9 2TA","la":"Shropshire","era":"trad","nn":2843,"risk":60,"cat":"amber"},{"name":"The Four Alls Inn","lat":52.88591,"lon":-2.47311,"postcode":"TF9 2AG","la":"Shropshire","era":"trad","nn":2048,"risk":55,"cat":"amber"},{"name":"The Fox","lat":52.5949,"lon":-2.55992,"postcode":"TF13 6AD","la":"Shropshire","era":"trad","nn":87,"risk":23,"cat":"green"},{"name":"The Fox And Hounds Pub Limited","lat":52.86435,"lon":-2.4178,"postcode":"TF9 2RS","la":"Shropshire","era":"trad","nn":1275,"risk":49,"cat":"amber"},{"name":"The George And Dragon","lat":52.59569,"lon":-2.55742,"postcode":"TF13 6AA","la":"Shropshire","era":"trad","nn":46,"risk":23,"cat":"green"},{"name":"The Gingerbread Man","lat":52.91203,"lon":-2.49143,"postcode":"TF9 3SW","la":"Shropshire","era":"other","nn":793,"risk":41,"cat":"amber"},{"name":"The Hippodrome","lat":52.90585,"lon":-2.48552,"postcode":"TF9 1PS","la":"Shropshire","era":"other","nn":202,"risk":19,"cat":"green"},{"name":"The Ironmaster","lat":52.61376,"lon":-2.48383,"postcode":"TF12 5EZ","la":"Shropshire","era":"other","nn":33,"risk":23,"cat":"green"},{"name":"The Kings Yard","lat":52.66695,"lon":-2.37328,"postcode":"TF11 8BN","la":"Shropshire","era":"other","nn":137,"risk":19,"cat":"green"},{"name":"The Lion Hotel","lat":52.61347,"lon":-2.4838,"postcode":"TF12 5EZ","la":"Shropshire","era":"trad","nn":33,"risk":23,"cat":"green"},{"name":"The Pipe Maker Arms","lat":52.61319,"lon":-2.48235,"postcode":"TF12 5EY","la":"Shropshire","era":"trad","nn":103,"risk":24,"cat":"green"},{"name":"The Plough Inn","lat":52.66886,"lon":-2.3727,"postcode":"TF11 8AZ","la":"Shropshire","era":"trad","nn":0,"risk":18,"cat":"green"},{"name":"The Red Lion","lat":52.90337,"lon":-2.48283,"postcode":"TF9 1JP","la":"Shropshire","era":"trad","nn":110,"risk":19,"cat":"green"},{"name":"The Shifnal War Memorial Club","lat":52.66739,"lon":-2.37886,"postcode":"TF11 8AD","la":"Shropshire","era":"other","nn":379,"risk":20,"cat":"green"},{"name":"The Smokey Cow","lat":52.61083,"lon":-2.35229,"postcode":"TF11 9DN","la":"Shropshire","era":"other","nn":2704,"risk":59,"cat":"amber"},{"name":"The Talbot Inn","lat":52.59542,"lon":-2.55793,"postcode":"TF13 6AA","la":"Shropshire","era":"trad","nn":46,"risk":23,"cat":"green"},{"name":"Wharf Tavern","lat":52.86276,"lon":-2.4366,"postcode":"TF9 2LP","la":"Shropshire","era":"other","nn":1275,"risk":49,"cat":"amber"},{"name":"Wheatsheaf Inn","lat":52.66959,"lon":-2.37314,"postcode":"TF11 8BB","la":"Shropshire","era":"trad","nn":86,"risk":18,"cat":"green"},{"name":"Wilderhope Manor Youth Hostel","lat":52.53189,"lon":-2.67177,"postcode":"TF13 6EG","la":"Shropshire","era":"other","nn":4584,"risk":72,"cat":"red"},{"name":"Winking Frog","lat":52.66646,"lon":-2.37141,"postcode":"TF11 8DW","la":"Shropshire","era":"trad","nn":137,"risk":19,"cat":"green"},{"name":"Woodbridge Inn","lat":52.61505,"lon":-2.44134,"postcode":"TF8 7JF","la":"Shropshire","era":"trad","nn":339,"risk":38,"cat":"amber"},{"name":"Weston Park Enterprises Ltd T/a Granary Brasserie \\\\& Stables","lat":52.69103,"lon":-2.2763,"postcode":"TF11 8NA","la":"South Staffordshire","era":"other","nn":2330,"risk":65,"cat":"red"},{"name":"Forton Cricket Club","lat":52.78741,"lon":-2.36574,"postcode":"TF10 8BY","la":"Stafford","era":"other","nn":0,"risk":45,"cat":"amber"},{"name":"Swan at Forton","lat":52.78741,"lon":-2.36574,"postcode":"TF10 8BY","la":"Stafford","era":"trad","nn":0,"risk":45,"cat":"amber"},{"name":"The Red Lion","lat":52.79567,"lon":-2.35064,"postcode":"TF10 8DQ","la":"Stafford","era":"trad","nn":1369,"risk":57,"cat":"amber"},{"name":"Albert & Co FAIRGROUND","lat":52.67307,"lon":-2.44644,"postcode":"TF3 4BF","la":"Telford and Wrekin","era":"other","nn":30,"risk":26,"cat":"green"},{"name":"Alberts Shed","lat":52.67331,"lon":-2.44624,"postcode":"TF3 4BF","la":"Telford and Wrekin","era":"other","nn":30,"risk":26,"cat":"green"},{"name":"Albion Inn","lat":52.69568,"lon":-2.44263,"postcode":"TF2 9AD","la":"Telford and Wrekin","era":"trad","nn":457,"risk":29,"cat":"green"},{"name":"All Nations Inn","lat":52.63032,"lon":-2.45238,"postcode":"TF7 5DP","la":"Telford and Wrekin","era":"trad","nn":841,"risk":49,"cat":"amber"},{"name":"Aqualate Golf Centre","lat":52.7693,"lon":-2.3581,"postcode":"TF10 9BY","la":"Telford and Wrekin","era":"other","nn":1185,"risk":57,"cat":"amber"},{"name":"Bell And Bails","lat":52.69478,"lon":-2.43201,"postcode":"TF2 9LT","la":"Telford and Wrekin","era":"other","nn":140,"risk":29,"cat":"green"},{"name":"Billy the Bums","lat":52.67402,"lon":-2.44759,"postcode":"TF3 4JJ","la":"Telford and Wrekin","era":"other","nn":44,"risk":26,"cat":"green"},{"name":"Black Swan","lat":52.62493,"lon":-2.46857,"postcode":"TF8 7LZ","la":"Telford and Wrekin","era":"trad","nn":405,"risk":34,"cat":"amber"},{"name":"Booteez Cafe & Cocktails","lat":52.70832,"lon":-2.45502,"postcode":"TF2 6RJ","la":"Telford and Wrekin","era":"other","nn":590,"risk":30,"cat":"green"},{"name":"Boscobel Tavern Limited","lat":52.65936,"lon":-2.42841,"postcode":"TF3 1FG","la":"Telford and Wrekin","era":"other","nn":886,"risk":52,"cat":"amber"},{"name":"Bowring Social Club","lat":52.69586,"lon":-2.53571,"postcode":"TF1 2BN","la":"Telford and Wrekin","era":"mod","nn":687,"risk":51,"cat":"amber"},{"name":"Bridge Builder","lat":52.69338,"lon":-2.49173,"postcode":"TF1 2DE","la":"Telford and Wrekin","era":"other","nn":454,"risk":34,"cat":"amber"},{"name":"Britannia inn","lat":52.64769,"lon":-2.45132,"postcode":"TF3 1BX","la":"Telford and Wrekin","era":"trad","nn":660,"risk":51,"cat":"amber"},{"name":"Bulls Head Dawley Ltd","lat":52.67279,"lon":-2.47046,"postcode":"TF4 2LJ","la":"Telford and Wrekin","era":"trad","nn":103,"risk":27,"cat":"green"},{"name":"Carriages At The Station Hotel","lat":52.70119,"lon":-2.51761,"postcode":"TF1 1BY","la":"Telford and Wrekin","era":"other","nn":82,"risk":27,"cat":"green"},{"name":"Church Wickets","lat":52.66937,"lon":-2.4628,"postcode":"TF4 2AS","la":"Telford and Wrekin","era":"other","nn":190,"risk":27,"cat":"green"},{"name":"Coalbrookdale Inn","lat":52.63913,"lon":-2.4916,"postcode":"TF8 7DX","la":"Telford and Wrekin","era":"trad","nn":1063,"risk":56,"cat":"amber"},{"name":"Cuckoo Oak","lat":52.64035,"lon":-2.43853,"postcode":"TF7 4JD","la":"Telford and Wrekin","era":"trad","nn":313,"risk":28,"cat":"green"},{"name":"Donnington Community Sports And Social Club","lat":52.71793,"lon":-2.43527,"postcode":"TF2 8HE","la":"Telford and Wrekin","era":"mod","nn":739,"risk":49,"cat":"amber"},{"name":"Duke Of York","lat":52.695,"lon":-2.44931,"postcode":"TF2 6DU","la":"Telford and Wrekin","era":"trad","nn":0,"risk":26,"cat":"green"},{"name":"Dun Cow","lat":52.71475,"lon":-2.45009,"postcode":"TF2 7DU","la":"Telford and Wrekin","era":"other","nn":252,"risk":30,"cat":"green"},{"name":"Edgmond Bowling Club","lat":52.77576,"lon":-2.41306,"postcode":"TF10 8ES","la":"Telford and Wrekin","era":"other","nn":169,"risk":32,"cat":"amber"},{"name":"Euston Way Beefeater","lat":52.6813,"lon":-2.43927,"postcode":"TF3 4LY","la":"Telford and Wrekin","era":"other","nn":729,"risk":36,"cat":"amber"},{"name":"Fallowfield","lat":52.71736,"lon":-2.47573,"postcode":"TF1 6QJ","la":"Telford and Wrekin","era":"other","nn":1278,"risk":57,"cat":"amber"},{"name":"FireFly","lat":52.69517,"lon":-2.44974,"postcode":"TF2 6EJ","la":"Telford and Wrekin","era":"other","nn":17,"risk":26,"cat":"green"},{"name":"Forester Arms","lat":52.65883,"lon":-2.48995,"postcode":"TF4 3BS","la":"Telford and Wrekin","era":"trad","nn":312,"risk":48,"cat":"amber"},{"name":"Foresters Arms","lat":52.63721,"lon":-2.44438,"postcode":"TF7 5AS","la":"Telford and Wrekin","era":"trad","nn":216,"risk":27,"cat":"green"},{"name":"Fusion Cocktail & Wine Bar Ltd","lat":52.76983,"lon":-2.3765,"postcode":"TF10 7LU","la":"Telford and Wrekin","era":"mod","nn":59,"risk":26,"cat":"green"},{"name":"Hare & Hounds","lat":52.69071,"lon":-2.44932,"postcode":"TF2 6DJ","la":"Telford and Wrekin","era":"trad","nn":477,"risk":29,"cat":"green"},{"name":"Hop & Vine","lat":52.70507,"lon":-2.48542,"postcode":"TF1 5NG","la":"Telford and Wrekin","era":"other","nn":614,"risk":48,"cat":"amber"},{"name":"Kings Head","lat":52.77309,"lon":-2.38136,"postcode":"TF10 7JJ","la":"Telford and Wrekin","era":"trad","nn":243,"risk":28,"cat":"green"},{"name":"Lord Hill Inn","lat":52.69049,"lon":-2.45991,"postcode":"TF2 0DH","la":"Telford and Wrekin","era":"trad","nn":672,"risk":31,"cat":"amber"},{"name":"Malt Shovel","lat":52.71647,"lon":-2.49465,"postcode":"TF1 6QG","la":"Telford and Wrekin","era":"other","nn":1278,"risk":57,"cat":"amber"},{"name":"Newport Literary & Social Institute","lat":52.76747,"lon":-2.37805,"postcode":"TF10 7AR","la":"Telford and Wrekin","era":"mod","nn":53,"risk":26,"cat":"green"},{"name":"Newport Rugby Club","lat":52.77697,"lon":-2.37754,"postcode":"TF10 8BU","la":"Telford and Wrekin","era":"other","nn":502,"risk":29,"cat":"green"},{"name":"Novella Craft & Cocktails Ltd","lat":52.76876,"lon":-2.37875,"postcode":"TF10 7AU","la":"Telford and Wrekin","era":"mod","nn":69,"risk":26,"cat":"green"},{"name":"Old Fighting Cocks","lat":52.695,"lon":-2.44931,"postcode":"TF2 6DU","la":"Telford and Wrekin","era":"other","nn":0,"risk":26,"cat":"green"},{"name":"Ozzy Sports Bar","lat":52.76968,"lon":-2.3785,"postcode":"TF10 7AB","la":"Telford and Wrekin","era":"other","nn":72,"risk":26,"cat":"green"},{"name":"Park Hotel","lat":52.7052,"lon":-2.51737,"postcode":"TF1 3AG","la":"Telford and Wrekin","era":"other","nn":446,"risk":29,"cat":"green"},{"name":"Railway Inn","lat":52.69643,"lon":-2.50743,"postcode":"TF1 1SD","la":"Telford and Wrekin","era":"trad","nn":458,"risk":29,"cat":"green"},{"name":"Railway Tavern","lat":52.76622,"lon":-2.3768,"postcode":"TF10 7EJ","la":"Telford and Wrekin","era":"trad","nn":40,"risk":26,"cat":"green"},{"name":"Randlay Farmhouse Kitchen","lat":52.66457,"lon":-2.43834,"postcode":"TF3 2LH","la":"Telford and Wrekin","era":"mod","nn":886,"risk":52,"cat":"amber"},{"name":"Red Lion Hotel","lat":52.69317,"lon":-2.52654,"postcode":"TF1 2EW","la":"Telford and Wrekin","era":"trad","nn":473,"risk":29,"cat":"green"},{"name":"Ring O Bells","lat":52.66812,"lon":-2.46472,"postcode":"TF4 2AH","la":"Telford and Wrekin","era":"other","nn":190,"risk":27,"cat":"green"},{"name":"Rose and Crown","lat":52.65687,"lon":-2.44664,"postcode":"TF3 1DY","la":"Telford and Wrekin","era":"trad","nn":926,"risk":50,"cat":"amber"},{"name":"Severn Gorge Restaurant","lat":52.67648,"lon":-2.45357,"postcode":"TF3 4NL","la":"Telford and Wrekin","era":"other","nn":482,"risk":29,"cat":"green"},{"name":"Shakespeare Inn","lat":52.62021,"lon":-2.45262,"postcode":"TF8 7HT","la":"Telford and Wrekin","era":"trad","nn":140,"risk":29,"cat":"green"},{"name":"Society Newport","lat":52.76919,"lon":-2.37782,"postcode":"TF10 7LU","la":"Telford and Wrekin","era":"mod","nn":43,"risk":26,"cat":"green"},{"name":"Students Union","lat":52.78001,"lon":-2.42539,"postcode":"TF10 8NB","la":"Telford and Wrekin","era":"other","nn":935,"risk":50,"cat":"amber"},{"name":"Tap And Barrell","lat":52.71381,"lon":-2.4535,"postcode":"TF2 7DP","la":"Telford and Wrekin","era":"other","nn":252,"risk":28,"cat":"green"},{"name":"Tayleur arms","lat":52.73863,"lon":-2.57259,"postcode":"TF6 6LJ","la":"Telford and Wrekin","era":"trad","nn":2155,"risk":64,"cat":"red"},{"name":"Telford Naturist Club","lat":52.69985,"lon":-2.41375,"postcode":"TF2 9PB","la":"Telford and Wrekin","era":"other","nn":1353,"risk":58,"cat":"amber"},{"name":"The Arleston Inn","lat":52.68705,"lon":-2.49047,"postcode":"TF1 2LA","la":"Telford and Wrekin","era":"trad","nn":709,"risk":48,"cat":"amber"},{"name":"The Barley","lat":52.7688,"lon":-2.37772,"postcode":"TF10 7AQ","la":"Telford and Wrekin","era":"other","nn":43,"risk":26,"cat":"green"},{"name":"The Barley Mow","lat":52.6377,"lon":-2.44974,"postcode":"TF7 5EB","la":"Telford and Wrekin","era":"other","nn":365,"risk":28,"cat":"green"},{"name":"The Beacon","lat":52.70114,"lon":-2.51882,"postcode":"TF1 1BP","la":"Telford and Wrekin","era":"other","nn":12,"risk":26,"cat":"green"},{"name":"The Blue Pig","lat":52.70761,"lon":-2.4637,"postcode":"TF2 6QQ","la":"Telford and Wrekin","era":"other","nn":590,"risk":35,"cat":"amber"},{"name":"The Boat Inn","lat":52.61947,"lon":-2.45431,"postcode":"TF8 7LS","la":"Telford and Wrekin","era":"trad","nn":140,"risk":32,"cat":"amber"},{"name":"The Boot Micropub","lat":52.70103,"lon":-2.51879,"postcode":"TF1 1BP","la":"Telford and Wrekin","era":"other","nn":12,"risk":26,"cat":"green"},{"name":"The Brewery Inn","lat":52.61712,"lon":-2.44502,"postcode":"TF8 7HZ","la":"Telford and Wrekin","era":"trad","nn":339,"risk":33,"cat":"amber"},{"name":"The Clock Tower","lat":52.72457,"lon":-2.43568,"postcode":"TF2 8JY","la":"Telford and Wrekin","era":"other","nn":739,"risk":51,"cat":"amber"},{"name":"The Coalport Tavern","lat":52.69515,"lon":-2.45357,"postcode":"TF2 6AH","la":"Telford and Wrekin","era":"other","nn":188,"risk":27,"cat":"green"},{"name":"The Compasses Inn","lat":52.69559,"lon":-2.46661,"postcode":"TF2 6SD","la":"Telford and Wrekin","era":"trad","nn":725,"risk":36,"cat":"amber"},{"name":"The Coracle Micropub","lat":52.62773,"lon":-2.48366,"postcode":"TF8 7AD","la":"Telford and Wrekin","era":"other","nn":105,"risk":27,"cat":"green"},{"name":"The Crown Inn","lat":52.69524,"lon":-2.44952,"postcode":"TF2 6EA","la":"Telford and Wrekin","era":"trad","nn":17,"risk":26,"cat":"green"},{"name":"The Dun Cow","lat":52.70071,"lon":-2.51874,"postcode":"TF1 1BJ","la":"Telford and Wrekin","era":"other","nn":32,"risk":26,"cat":"green"},{"name":"The Edgmond Lion","lat":52.7741,"lon":-2.40928,"postcode":"TF10 8HH","la":"Telford and Wrekin","era":"trad","nn":314,"risk":46,"cat":"amber"},{"name":"The Elizabethan","lat":52.6394,"lon":-2.47257,"postcode":"TF7 5LJ","la":"Telford and Wrekin","era":"other","nn":1236,"risk":57,"cat":"amber"},{"name":"The Foresters Arms","lat":52.70455,"lon":-2.47634,"postcode":"TF1 5RG","la":"Telford and Wrekin","era":"trad","nn":614,"risk":48,"cat":"amber"},{"name":"The Golden Ball Inn","lat":52.62841,"lon":-2.47526,"postcode":"TF8 7BA","la":"Telford and Wrekin","era":"trad","nn":194,"risk":27,"cat":"green"},{"name":"The Grazing Cow","lat":52.67728,"lon":-2.4789,"postcode":"TF3 5ES","la":"Telford and Wrekin","era":"other","nn":707,"risk":48,"cat":"amber"},{"name":"The Half Moon","lat":52.62213,"lon":-2.45874,"postcode":"TF8 7LP","la":"Telford and Wrekin","era":"other","nn":420,"risk":34,"cat":"amber"},{"name":"The Honeysuckle Inn","lat":52.76835,"lon":-2.38181,"postcode":"TF10 7BN","la":"Telford and Wrekin","era":"trad","nn":211,"risk":27,"cat":"green"},{"name":"The Horseshoes Inn","lat":52.69631,"lon":-2.48704,"postcode":"TF1 5AE","la":"Telford and Wrekin","era":"trad","nn":454,"risk":34,"cat":"amber"},{"name":"The Huntsman Inn","lat":52.65996,"lon":-2.52213,"postcode":"TF6 5BJ","la":"Telford and Wrekin","era":"trad","nn":2174,"risk":64,"cat":"red"},{"name":"The Lamb Inn","lat":52.70613,"lon":-2.4393,"postcode":"TF2 7BH","la":"Telford and Wrekin","era":"trad","nn":454,"risk":34,"cat":"amber"},{"name":"The Lamb Inn","lat":52.77721,"lon":-2.41229,"postcode":"TF10 8HU","la":"Telford and Wrekin","era":"trad","nn":169,"risk":32,"cat":"amber"},{"name":"The Lion Inn","lat":52.68201,"lon":-2.42852,"postcode":"TF2 9NN","la":"Telford and Wrekin","era":"trad","nn":576,"risk":47,"cat":"amber"},{"name":"The Liquor Lab","lat":52.67438,"lon":-2.44731,"postcode":"TF3 4JG","la":"Telford and Wrekin","era":"other","nn":44,"risk":26,"cat":"green"},{"name":"The Madebrook Carvery","lat":52.63321,"lon":-2.4343,"postcode":"TF7 4JF","la":"Telford and Wrekin","era":"other","nn":532,"risk":32,"cat":"amber"},{"name":"The Mallard","lat":52.65105,"lon":-2.43573,"postcode":"TF3 1LE","la":"Telford and Wrekin","era":"other","nn":963,"risk":50,"cat":"amber"},{"name":"The Malthouse","lat":52.62941,"lon":-2.49053,"postcode":"TF8 7NH","la":"Telford and Wrekin","era":"other","nn":72,"risk":29,"cat":"green"},{"name":"The Miners Arms","lat":52.63867,"lon":-2.44226,"postcode":"TF7 4DY","la":"Telford and Wrekin","era":"trad","nn":216,"risk":27,"cat":"green"},{"name":"The New Cottage Springs","lat":52.69494,"lon":-2.43407,"postcode":"TF2 9JY","la":"Telford and Wrekin","era":"other","nn":132,"risk":29,"cat":"green"},{"name":"The New Inn","lat":52.77001,"lon":-2.37567,"postcode":"TF10 7LX","la":"Telford and Wrekin","era":"trad","nn":59,"risk":26,"cat":"green"},{"name":"The Oddfellows Arms","lat":52.69894,"lon":-2.51282,"postcode":"TF1 1JT","la":"Telford and Wrekin","era":"trad","nn":325,"risk":28,"cat":"green"},{"name":"The Pheasant","lat":52.76669,"lon":-2.37708,"postcode":"TF10 7AW","la":"Telford and Wrekin","era":"other","nn":16,"risk":26,"cat":"green"},{"name":"The Pheasant Inn","lat":52.71416,"lon":-2.54156,"postcode":"TF5 0AD","la":"Telford and Wrekin","era":"trad","nn":1196,"risk":57,"cat":"amber"},{"name":"The Pheasant Inn","lat":52.70448,"lon":-2.4472,"postcode":"TF2 6LF","la":"Telford and Wrekin","era":"trad","nn":458,"risk":32,"cat":"amber"},{"name":"The Pheasant Inn","lat":52.70085,"lon":-2.5208,"postcode":"TF1 1DT","la":"Telford and Wrekin","era":"trad","nn":137,"risk":27,"cat":"green"},{"name":"The Place Bar","lat":52.69565,"lon":-2.4509,"postcode":"TF2 6EP","la":"Telford and Wrekin","era":"other","nn":95,"risk":27,"cat":"green"},{"name":"The Priorslee","lat":52.68717,"lon":-2.42769,"postcode":"TF2 9SW","la":"Telford and Wrekin","era":"other","nn":576,"risk":32,"cat":"amber"},{"name":"The Queens Head","lat":52.66461,"lon":-2.46662,"postcode":"TF4 2AA","la":"Telford and Wrekin","era":"trad","nn":138,"risk":27,"cat":"green"},{"name":"The Raven (Rasputins)","lat":52.70009,"lon":-2.51845,"postcode":"TF1 1BD","la":"Telford and Wrekin","era":"other","nn":43,"risk":26,"cat":"green"},{"name":"The Shakespeare Inn","lat":52.76655,"lon":-2.37702,"postcode":"TF10 7AW","la":"Telford and Wrekin","era":"trad","nn":16,"risk":26,"cat":"green"},{"name":"The Snuggery Tap","lat":52.76723,"lon":-2.37737,"postcode":"TF10 7AD","la":"Telford and Wrekin","era":"mod","nn":53,"risk":26,"cat":"green"},{"name":"The Station Hotel","lat":52.695,"lon":-2.44931,"postcode":"TF2 6DU","la":"Telford and Wrekin","era":"other","nn":0,"risk":26,"cat":"green"},{"name":"The Sutherland Arms","lat":52.77858,"lon":-2.47224,"postcode":"TF10 8NN","la":"Telford and Wrekin","era":"trad","nn":3155,"risk":71,"cat":"red"},{"name":"The Swan Inn","lat":52.77091,"lon":-2.3814,"postcode":"TF10 7BQ","la":"Telford and Wrekin","era":"trad","nn":238,"risk":28,"cat":"green"},{"name":"The Swan Taphouse","lat":52.62957,"lon":-2.49156,"postcode":"TF8 7NH","la":"Telford and Wrekin","era":"other","nn":72,"risk":29,"cat":"green"},{"name":"The Talbot","lat":52.66427,"lon":-2.46858,"postcode":"TF4 2EX","la":"Telford and Wrekin","era":"trad","nn":138,"risk":27,"cat":"green"},{"name":"The Three Furnaces","lat":52.6439,"lon":-2.44379,"postcode":"TF7 4JB","la":"Telford and Wrekin","era":"other","nn":530,"risk":30,"cat":"green"},{"name":"The Three Horseshoes","lat":52.81811,"lon":-2.42974,"postcode":"TF10 8AP","la":"Telford and Wrekin","era":"trad","nn":3134,"risk":70,"cat":"red"},{"name":"The Tontine Hotel","lat":52.62791,"lon":-2.48518,"postcode":"TF8 7AL","la":"Telford and Wrekin","era":"other","nn":105,"risk":27,"cat":"green"},{"name":"The Turf","lat":52.69382,"lon":-2.43469,"postcode":"TF2 9JW","la":"Telford and Wrekin","era":"other","nn":132,"risk":27,"cat":"green"},{"name":"The Unicorn Inn","lat":52.65165,"lon":-2.4691,"postcode":"TF4 3HZ","la":"Telford and Wrekin","era":"trad","nn":984,"risk":53,"cat":"amber"},{"name":"The Venue","lat":52.63692,"lon":-2.43927,"postcode":"TF7 4BL","la":"Telford and Wrekin","era":"other","nn":280,"risk":28,"cat":"green"},{"name":"The Wheatsheaf Inn (Including Murase's Pizza)","lat":52.75455,"lon":-2.36723,"postcode":"TF10 9LF","la":"Telford and Wrekin","era":"trad","nn":1449,"risk":59,"cat":"amber"},{"name":"The White Lion","lat":52.70048,"lon":-2.51845,"postcode":"TF1 1LP","la":"Telford and Wrekin","era":"trad","nn":32,"risk":26,"cat":"green"},{"name":"The Wickets Inn","lat":52.69414,"lon":-2.5197,"postcode":"TF1 2EB","la":"Telford and Wrekin","era":"trad","nn":389,"risk":29,"cat":"green"},{"name":"The Wrekin Giant","lat":52.67315,"lon":-2.44804,"postcode":"TF3 4JG","la":"Telford and Wrekin","era":"other","nn":101,"risk":27,"cat":"green"},{"name":"The Wrekin Inn","lat":52.69764,"lon":-2.51968,"postcode":"TF1 1RH","la":"Telford and Wrekin","era":"trad","nn":267,"risk":28,"cat":"green"},{"name":"Three Crowns Inn","lat":52.65922,"lon":-2.45981,"postcode":"TF4 3PB","la":"Telford and Wrekin","era":"trad","nn":196,"risk":30,"cat":"green"},{"name":"Toby Carvery Telford (Apley Arms)","lat":52.7171,"lon":-2.52449,"postcode":"TF1 3QA","la":"Telford and Wrekin","era":"trad","nn":1196,"risk":57,"cat":"amber"},{"name":"Travellers Joy Pub","lat":52.6599,"lon":-2.48567,"postcode":"TF4 3BJ","la":"Telford and Wrekin","era":"other","nn":312,"risk":48,"cat":"amber"},{"name":"Ugly Duckling","lat":52.73732,"lon":-2.54065,"postcode":"TF6 6HA","la":"Telford and Wrekin","era":"other","nn":2155,"risk":64,"cat":"red"},{"name":"Whispers Venus   Pussycats","lat":52.69973,"lon":-2.51772,"postcode":"TF1 1HJ","la":"Telford and Wrekin","era":"other","nn":63,"risk":26,"cat":"green"},{"name":"White Hart Inn","lat":52.62841,"lon":-2.48786,"postcode":"TF8 7AW","la":"Telford and Wrekin","era":"trad","nn":189,"risk":27,"cat":"green"},{"name":"White Horse","lat":52.65959,"lon":-2.46265,"postcode":"TF4 3JX","la":"Telford and Wrekin","era":"trad","nn":196,"risk":27,"cat":"green"},{"name":"White Horse Tavern","lat":52.70836,"lon":-2.44494,"postcode":"TF2 7AB","la":"Telford and Wrekin","era":"trad","nn":358,"risk":28,"cat":"green"},{"name":"William Withering (J D Weatherspoon Plc)","lat":52.70056,"lon":-2.51684,"postcode":"TF1 1LU","la":"Telford and Wrekin","era":"other","nn":87,"risk":27,"cat":"green"},{"name":"Wrekinview ltd","lat":52.67371,"lon":-2.47022,"postcode":"TF4 2JH","la":"Telford and Wrekin","era":"other","nn":103,"risk":29,"cat":"green"},{"name":"Wrens Nest PH","lat":52.6922,"lon":-2.47968,"postcode":"TF1 5HJ","la":"Telford and Wrekin","era":"other","nn":674,"risk":33,"cat":"amber"},{"name":"Wrockwardine Wood & Trench Labour Club","lat":52.71158,"lon":-2.4447,"postcode":"TF2 7JP","la":"Telford and Wrekin","era":"other","nn":358,"risk":28,"cat":"green"},{"name":"Ye Olde Robin Hood","lat":52.62706,"lon":-2.47344,"postcode":"TF8 7HQ","la":"Telford and Wrekin","era":"other","nn":194,"risk":27,"cat":"green"}]