[{"name":"99 Perk Cocktail Bar","lat":50.71986,"lon":-1.88455,"postcode":"BH2 5RT","la":"Bournemouth, Christchurch and Poole","era":"other","nn":0,"risk":22,"cat":"green"},{"name":"Academy Snooker Club","lat":50.72795,"lon":-1.83534,"postcode":"BH7 6BY","la":"Bournemouth, Christchurch and Poole","era":"other","nn":234,"risk":24,"cat":"green"},{"name":"Admiral","lat":50.72671,"lon":-1.83802,"postcode":"BH1 4AP","la":"Bournemouth, Christchurch and Poole","era":"other","nn":131,"risk":23,"cat":"green"},{"name":"Alderney West Comm Cen Soc Cl","lat":50.75245,"lon":-1.94217,"postcode":"BH12 4PR","la":"Bournemouth, Christchurch and Poole","era":"other","nn":704,"risk":47,"cat":"amber"},{"name":"Ambassador and Greenbaize Snooker Club","lat":50.74603,"lon":-1.90722,"postcode":"BH10 4HZ","la":"Bournemouth, Christchurch and Poole","era":"other","nn":0,"risk":22,"cat":"green"},{"name":"Amity Lodge","lat":50.71551,"lon":-1.98717,"postcode":"BH15 1NQ","la":"Bournemouth, Christchurch and Poole","era":"other","nn":46,"risk":23,"cat":"green"},{"name":"Antelope Hotel","lat":50.71338,"lon":-1.98779,"postcode":"BH15 1BP","la":"Bournemouth, Christchurch and Poole","era":"other","nn":0,"risk":22,"cat":"green"},{"name":"Aruba Bar and Restaurant","lat":50.71632,"lon":-1.87665,"postcode":"BH2 5AA","la":"Bournemouth, Christchurch and Poole","era":"mod","nn":289,"risk":24,"cat":"green"},{"name":"Avon Social Club","lat":50.73412,"lon":-1.85229,"postcode":"BH8 8SE","la":"Bournemouth, Christchurch and Poole","era":"mod","nn":240,"risk":24,"cat":"green"},{"name":"Bar Republiq","lat":50.72203,"lon":-1.87214,"postcode":"BH1 1NU","la":"Bournemouth, Christchurch and Poole","era":"mod","nn":0,"risk":22,"cat":"green"},{"name":"Be At One","lat":50.72056,"lon":-1.8791,"postcode":"BH2 6HE","la":"Bournemouth, Christchurch and Poole","era":"other","nn":44,"risk":23,"cat":"green"},{"name":"Bear's Bar & Venue","lat":50.72276,"lon":-1.86523,"postcode":"BH8 8AD","la":"Bournemouth, Christchurch and Poole","era":"mod","nn":0,"risk":22,"cat":"green"},{"name":"Bermuda Triangle","lat":50.72372,"lon":-1.95369,"postcode":"BH14 0JY","la":"Bournemouth, Christchurch and Poole","era":"other","nn":49,"risk":23,"cat":"green"},{"name":"Boscombe Cliff Bowling Club","lat":50.72354,"lon":-1.82618,"postcode":"BH5 2DJ","la":"Bournemouth, Christchurch and Poole","era":"other","nn":656,"risk":27,"cat":"green"},{"name":"Bournemouth & District Constitutional Club","lat":50.72091,"lon":-1.87938,"postcode":"BH2 6EJ","la":"Bournemouth, Christchurch and Poole","era":"other","nn":0,"risk":22,"cat":"green"},{"name":"Bournemouth East Conservative Club","lat":50.73197,"lon":-1.85265,"postcode":"BH8 8BX","la":"Bournemouth, Christchurch and Poole","era":"other","nn":144,"risk":23,"cat":"green"},{"name":"Bournemouth Electric Sports and Social Club Ltd","lat":50.75581,"lon":-1.8556,"postcode":"BH8 0AA","la":"Bournemouth, Christchurch and Poole","era":"mod","nn":211,"risk":44,"cat":"amber"},{"name":"Bournemouth Masonic Club","lat":50.72654,"lon":-1.84968,"postcode":"BH1 4DH","la":"Bournemouth, Christchurch and Poole","era":"trad","nn":401,"risk":25,"cat":"green"},{"name":"Branksome Conservative Club","lat":50.72843,"lon":-1.93749,"postcode":"BH14 9DS","la":"Bournemouth, Christchurch and Poole","era":"other","nn":69,"risk":23,"cat":"green"},{"name":"Brass Haus","lat":50.71934,"lon":-1.8759,"postcode":"BH1 2BY","la":"Bournemouth, Christchurch and Poole","era":"other","nn":191,"risk":24,"cat":"green"},{"name":"BrewDog","lat":50.71878,"lon":-1.87951,"postcode":"BH2 5DD","la":"Bournemouth, Christchurch and Poole","era":"other","nn":70,"risk":23,"cat":"green"},{"name":"Brewhouse & Kitchen","lat":50.7196,"lon":-1.88577,"postcode":"BH2 5LU","la":"Bournemouth, Christchurch and Poole","era":"mod","nn":91,"risk":23,"cat":"green"},{"name":"Brewhouse and Kitchen - Southbourne","lat":50.72797,"lon":-1.81846,"postcode":"BH5 2BW","la":"Bournemouth, Christchurch and Poole","era":"mod","nn":201,"risk":24,"cat":"green"},{"name":"Brewhouse and Kitchen Ltd - Poole","lat":50.71563,"lon":-1.98507,"postcode":"BH15 1NZ","la":"Bournemouth, Christchurch and Poole","era":"mod","nn":66,"risk":23,"cat":"green"},{"name":"Broadstone Conservative Club","lat":50.7633,"lon":-1.99331,"postcode":"BH18 8AW","la":"Bournemouth, Christchurch and Poole","era":"other","nn":0,"risk":25,"cat":"green"},{"name":"Broadstone Golf Club","lat":50.76875,"lon":-1.99412,"postcode":"BH18 8DQ","la":"Bournemouth, Christchurch and Poole","era":"other","nn":572,"risk":29,"cat":"green"},{"name":"Camden","lat":50.7246,"lon":-1.94935,"postcode":"BH14 0ES","la":"Bournemouth, Christchurch and Poole","era":"other","nn":0,"risk":22,"cat":"green"},{"name":"Camel","lat":50.72203,"lon":-1.87214,"postcode":"BH1 1NU","la":"Bournemouth, Christchurch and Poole","era":"other","nn":0,"risk":22,"cat":"green"},{"name":"Cameo & Myu Bar","lat":50.72186,"lon":-1.87371,"postcode":"BH1 2JA","la":"Bournemouth, Christchurch and Poole","era":"other","nn":0,"risk":22,"cat":"green"},{"name":"Canford Heath Residents & Comm","lat":50.74174,"lon":-1.96435,"postcode":"BH17 8UE","la":"Bournemouth, Christchurch and Poole","era":"other","nn":62,"risk":40,"cat":"amber"},{"name":"Canvas","lat":50.71954,"lon":-1.88733,"postcode":"BH2 5PW","la":"Bournemouth, Christchurch and Poole","era":"other","nn":0,"risk":22,"cat":"green"},{"name":"Champions Bar","lat":50.73559,"lon":-1.86752,"postcode":"BH8 8UH","la":"Bournemouth, Christchurch and Poole","era":"other","nn":61,"risk":23,"cat":"green"},{"name":"Champs","lat":50.72277,"lon":-1.97939,"postcode":"BH15 2BP","la":"Bournemouth, Christchurch and Poole","era":"other","nn":228,"risk":24,"cat":"green"},{"name":"Christchurch Conservative Club","lat":50.7362,"lon":-1.77973,"postcode":"BH23 1QL","la":"Bournemouth, Christchurch and Poole","era":"other","nn":80,"risk":23,"cat":"green"},{"name":"Christchurch Rowing Club","lat":50.73132,"lon":-1.78004,"postcode":"BH23 1HU","la":"Bournemouth, Christchurch and Poole","era":"other","nn":317,"risk":25,"cat":"green"},{"name":"Christchurch Sailing Club CIC","lat":50.73053,"lon":-1.77386,"postcode":"BH23 1BY","la":"Bournemouth, Christchurch and Poole","era":"other","nn":345,"risk":25,"cat":"green"},{"name":"Cobham Sports & Social Club","lat":50.78272,"lon":-1.98171,"postcode":"BH21 3DA","la":"Bournemouth, Christchurch and Poole","era":"mod","nn":522,"risk":44,"cat":"amber"},{"name":"Cricketers Arms","lat":50.7288,"lon":-1.85412,"postcode":"BH1 4RN","la":"Bournemouth, Christchurch and Poole","era":"trad","nn":263,"risk":24,"cat":"green"},{"name":"Diva","lat":50.72043,"lon":-1.88544,"postcode":"BH2 5RY","la":"Bournemouth, Christchurch and Poole","era":"other","nn":89,"risk":23,"cat":"green"},{"name":"Dylan's Kitchen and Bar","lat":50.74298,"lon":-1.89717,"postcode":"BH12 5BB","la":"Bournemouth, Christchurch and Poole","era":"mod","nn":784,"risk":45,"cat":"amber"},{"name":"DYMK","lat":50.71954,"lon":-1.88733,"postcode":"BH2 5PW","la":"Bournemouth, Christchurch and Poole","era":"other","nn":0,"risk":22,"cat":"green"},{"name":"East Christchurch Sports And Social Club","lat":50.7411,"lon":-1.73466,"postcode":"BH23 4JE","la":"Bournemouth, Christchurch and Poole","era":"mod","nn":702,"risk":47,"cat":"amber"},{"name":"Eden Garden","lat":50.71935,"lon":-1.88062,"postcode":"BH2 5AQ","la":"Bournemouth, Christchurch and Poole","era":"other","nn":101,"risk":23,"cat":"green"},{"name":"Fiveways","lat":50.74369,"lon":-1.86183,"postcode":"BH8 9QY","la":"Bournemouth, Christchurch and Poole","era":"other","nn":474,"risk":31,"cat":"amber"},{"name":"Foundry Arms","lat":50.71543,"lon":-1.98385,"postcode":"BH15 1QG","la":"Bournemouth, Christchurch and Poole","era":"other","nn":89,"risk":23,"cat":"green"},{"name":"Fourcorners DSP","lat":50.72002,"lon":-1.88418,"postcode":"BH2 5RT","la":"Bournemouth, Christchurch and Poole","era":"other","nn":32,"risk":23,"cat":"green"},{"name":"FYEO","lat":50.72228,"lon":-1.87325,"postcode":"BH1 1NL","la":"Bournemouth, Christchurch and Poole","era":"other","nn":0,"risk":22,"cat":"green"},{"name":"Genting Casino Bournemouth","lat":50.72137,"lon":-1.87766,"postcode":"BH1 1DA","la":"Bournemouth, Christchurch and Poole","era":"other","nn":0,"risk":22,"cat":"green"},{"name":"George Hotel","lat":50.71955,"lon":-1.97944,"postcode":"BH15 1DY","la":"Bournemouth, Christchurch and Poole","era":"trad","nn":130,"risk":23,"cat":"green"},{"name":"Goat & Tricycle","lat":50.71946,"lon":-1.88777,"postcode":"BH2 5PF","la":"Bournemouth, Christchurch and Poole","era":"other","nn":32,"risk":23,"cat":"green"},{"name":"Grasshopper","lat":50.72485,"lon":-1.93386,"postcode":"BH14 9HT","la":"Bournemouth, Christchurch and Poole","era":"other","nn":444,"risk":26,"cat":"green"},{"name":"Hamworthy Labour Club","lat":50.71703,"lon":-2.01261,"postcode":"BH15 4LF","la":"Bournemouth, Christchurch and Poole","era":"other","nn":380,"risk":25,"cat":"green"},{"name":"Hamworthy Liberal Club","lat":50.71594,"lon":-2.00749,"postcode":"BH15 4AZ","la":"Bournemouth, Christchurch and Poole","era":"other","nn":380,"risk":25,"cat":"green"},{"name":"Hamworthy United Football Club","lat":50.71432,"lon":-2.00161,"postcode":"BH15 4BF","la":"Bournemouth, Christchurch and Poole","era":"other","nn":451,"risk":26,"cat":"green"},{"name":"Harry Paye","lat":50.71504,"lon":-1.9851,"postcode":"BH15 1DB","la":"Bournemouth, Christchurch and Poole","era":"other","nn":66,"risk":23,"cat":"green"},{"name":"Harvester","lat":50.73978,"lon":-1.91304,"postcode":"BH12 4AY","la":"Bournemouth, Christchurch and Poole","era":"trad","nn":806,"risk":33,"cat":"amber"},{"name":"Haven House Inn","lat":50.72442,"lon":-1.74201,"postcode":"BH23 4AB","la":"Bournemouth, Christchurch and Poole","era":"other","nn":0,"risk":25,"cat":"green"},{"name":"Highcliffe Sailing Club Limited","lat":50.72442,"lon":-1.74201,"postcode":"BH23 4AB","la":"Bournemouth, Christchurch and Poole","era":"other","nn":0,"risk":25,"cat":"green"},{"name":"Highcliffe Sports & Social Club","lat":50.74184,"lon":-1.69707,"postcode":"BH23 5EG","la":"Bournemouth, Christchurch and Poole","era":"mod","nn":165,"risk":41,"cat":"amber"},{"name":"Hurn Bridge Sports Club","lat":50.77288,"lon":-1.8189,"postcode":"BH23 6DY","la":"Bournemouth, Christchurch and Poole","era":"other","nn":2293,"risk":61,"cat":"red"},{"name":"Iford Bridge Tavern","lat":50.7408,"lon":-1.80692,"postcode":"BH6 5RG","la":"Bournemouth, Christchurch and Poole","era":"other","nn":455,"risk":43,"cat":"amber"},{"name":"Jenkins & Sons","lat":50.72309,"lon":-1.92593,"postcode":"BH14 9NB","la":"Bournemouth, Christchurch and Poole","era":"other","nn":545,"risk":29,"cat":"green"},{"name":"Kasbah Club","lat":50.73471,"lon":-1.81743,"postcode":"BH7 6DT","la":"Bournemouth, Christchurch and Poole","era":"other","nn":661,"risk":27,"cat":"green"},{"name":"King Charles Inn","lat":50.71307,"lon":-1.98962,"postcode":"BH15 1JN","la":"Bournemouth, Christchurch and Poole","era":"trad","nn":122,"risk":23,"cat":"green"},{"name":"Kinson Conservative Club","lat":50.76758,"lon":-1.89535,"postcode":"BH10 7AR","la":"Bournemouth, Christchurch and Poole","era":"other","nn":128,"risk":26,"cat":"green"},{"name":"La Mamma","lat":50.73535,"lon":-1.76729,"postcode":"BH23 1EH","la":"Bournemouth, Christchurch and Poole","era":"other","nn":232,"risk":24,"cat":"green"},{"name":"Lake Yard","lat":50.7148,"lon":-2.02309,"postcode":"BH15 4LR","la":"Bournemouth, Christchurch and Poole","era":"mod","nn":530,"risk":31,"cat":"amber"},{"name":"Lark Rise","lat":50.74382,"lon":-1.87817,"postcode":"BH9 2AN","la":"Bournemouth, Christchurch and Poole","era":"other","nn":0,"risk":22,"cat":"green"},{"name":"Live Lounge","lat":50.71998,"lon":-2.02935,"postcode":"BH15 4LZ","la":"Bournemouth, Christchurch and Poole","era":"mod","nn":725,"risk":48,"cat":"amber"},{"name":"Lord Nelson","lat":50.71229,"lon":-1.98643,"postcode":"BH15 1HJ","la":"Bournemouth, Christchurch and Poole","era":"trad","nn":0,"risk":22,"cat":"green"},{"name":"Lost Temple","lat":50.71807,"lon":-1.8805,"postcode":"BH2 5AQ","la":"Bournemouth, Christchurch and Poole","era":"other","nn":67,"risk":23,"cat":"green"},{"name":"Lynton Court Table Table","lat":50.72273,"lon":-1.85203,"postcode":"BH1 3PA","la":"Bournemouth, Christchurch and Poole","era":"other","nn":455,"risk":26,"cat":"green"},{"name":"Madding Crowd","lat":50.7204,"lon":-1.88149,"postcode":"BH2 5LP","la":"Bournemouth, Christchurch and Poole","era":"other","nn":132,"risk":23,"cat":"green"},{"name":"Masonic Hall AKA Alfresco Catering","lat":50.73006,"lon":-1.74852,"postcode":"BH23 3JY","la":"Bournemouth, Christchurch and Poole","era":"trad","nn":244,"risk":24,"cat":"green"},{"name":"Masonic Hall Branksome","lat":50.72798,"lon":-1.92636,"postcode":"BH14 9BT","la":"Bournemouth, Christchurch and Poole","era":"trad","nn":351,"risk":25,"cat":"green"},{"name":"Merley House","lat":50.78496,"lon":-1.98823,"postcode":"BH21 3AA","la":"Bournemouth, Christchurch and Poole","era":"other","nn":522,"risk":44,"cat":"amber"},{"name":"Michelle White Catering at Southbourne Bowls Club","lat":50.72423,"lon":-1.7996,"postcode":"BH6 3EX","la":"Bournemouth, Christchurch and Poole","era":"other","nn":640,"risk":32,"cat":"amber"},{"name":"Miller & Carter","lat":50.75327,"lon":-1.93225,"postcode":"BH12 5AD","la":"Bournemouth, Christchurch and Poole","era":"trad","nn":704,"risk":45,"cat":"amber"},{"name":"Moordown Bowling Club","lat":50.75067,"lon":-1.87197,"postcode":"BH9 1TH","la":"Bournemouth, Christchurch and Poole","era":"other","nn":524,"risk":29,"cat":"green"},{"name":"Mudeford Dailing Club","lat":50.72795,"lon":-1.75417,"postcode":"BH23 3NP","la":"Bournemouth, Christchurch and Poole","era":"other","nn":154,"risk":24,"cat":"green"},{"name":"NADSS Club","lat":50.73505,"lon":-1.77056,"postcode":"BH23 1EB","la":"Bournemouth, Christchurch and Poole","era":"other","nn":232,"risk":24,"cat":"green"},{"name":"New Inn","lat":50.72888,"lon":-1.9761,"postcode":"BH15 2EL","la":"Bournemouth, Christchurch and Poole","era":"trad","nn":717,"risk":27,"cat":"green"},{"name":"New Star","lat":50.73874,"lon":-1.92943,"postcode":"BH12 4HU","la":"Bournemouth, Christchurch and Poole","era":"other","nn":296,"risk":45,"cat":"amber"},{"name":"Newtown Conservative Club","lat":50.73694,"lon":-1.9507,"postcode":"BH12 3LT","la":"Bournemouth, Christchurch and Poole","era":"other","nn":549,"risk":44,"cat":"amber"},{"name":"Nexus","lat":50.72215,"lon":-1.8697,"postcode":"BH1 1PE","la":"Bournemouth, Christchurch and Poole","era":"other","nn":126,"risk":23,"cat":"green"},{"name":"North Haven Yacht Club","lat":50.68891,"lon":-1.94064,"postcode":"BH13 7QB","la":"Bournemouth, Christchurch and Poole","era":"other","nn":2240,"risk":61,"cat":"red"},{"name":"Northwick Club","lat":50.72337,"lon":-1.8419,"postcode":"BH5 1AF","la":"Bournemouth, Christchurch and Poole","era":"other","nn":398,"risk":25,"cat":"green"},{"name":"O2 Academy Bournemouth","lat":50.72671,"lon":-1.83988,"postcode":"BH1 4BH","la":"Bournemouth, Christchurch and Poole","era":"other","nn":0,"risk":22,"cat":"green"},{"name":"Oakdale Conservative Club","lat":50.73652,"lon":-1.97643,"postcode":"BH15 3EU","la":"Bournemouth, Christchurch and Poole","era":"trad","nn":680,"risk":32,"cat":"amber"},{"name":"Oakmeadians","lat":50.72935,"lon":-1.88165,"postcode":"BH2 6LJ","la":"Bournemouth, Christchurch and Poole","era":"trad","nn":838,"risk":28,"cat":"green"},{"name":"O'Neill's","lat":50.72237,"lon":-1.86794,"postcode":"BH1 1JZ","la":"Bournemouth, Christchurch and Poole","era":"other","nn":0,"risk":22,"cat":"green"},{"name":"Ox","lat":50.72351,"lon":-1.95467,"postcode":"BH14 0JB","la":"Bournemouth, Christchurch and Poole","era":"other","nn":73,"risk":23,"cat":"green"},{"name":"Parkstone & Heatherlands","lat":50.74382,"lon":-1.87817,"postcode":"BH9 2AN","la":"Bournemouth, Christchurch and Poole","era":"other","nn":0,"risk":22,"cat":"green"},{"name":"Parkstone Conservative Club","lat":50.72393,"lon":-1.95308,"postcode":"BH14 0JX","la":"Bournemouth, Christchurch and Poole","era":"other","nn":15,"risk":23,"cat":"green"},{"name":"Parkstone Trades & Labour Hall","lat":50.72933,"lon":-1.94648,"postcode":"BH14 0BB","la":"Bournemouth, Christchurch and Poole","era":"other","nn":264,"risk":24,"cat":"green"},{"name":"Pokesdown & Southbourne Ex-Servicemens Club","lat":50.73103,"lon":-1.81007,"postcode":"BH6 5DR","la":"Bournemouth, Christchurch and Poole","era":"other","nn":651,"risk":27,"cat":"green"},{"name":"Poole Amateur Rowing Clubhouse","lat":50.713,"lon":-1.99243,"postcode":"BH15 1JD","la":"Bournemouth, Christchurch and Poole","era":"other","nn":198,"risk":24,"cat":"green"},{"name":"Poole Arms","lat":50.71229,"lon":-1.98643,"postcode":"BH15 1HJ","la":"Bournemouth, Christchurch and Poole","era":"trad","nn":0,"risk":22,"cat":"green"},{"name":"Poole Ex Servicemans Club","lat":50.72497,"lon":-1.95718,"postcode":"BH14 0LY","la":"Bournemouth, Christchurch and Poole","era":"other","nn":240,"risk":24,"cat":"green"},{"name":"Poole Labour Club","lat":50.72072,"lon":-1.97954,"postcode":"BH15 2BU","la":"Bournemouth, Christchurch and Poole","era":"other","nn":130,"risk":23,"cat":"green"},{"name":"Popworld","lat":50.72228,"lon":-1.87325,"postcode":"BH1 1NL","la":"Bournemouth, Christchurch and Poole","era":"other","nn":0,"risk":22,"cat":"green"},{"name":"Portfield Hall Catering","lat":50.74064,"lon":-1.78521,"postcode":"BH23 2AQ","la":"Bournemouth, Christchurch and Poole","era":"other","nn":285,"risk":24,"cat":"green"},{"name":"Portsmouth Hoy","lat":50.71229,"lon":-1.98643,"postcode":"BH15 1HJ","la":"Bournemouth, Christchurch and Poole","era":"other","nn":0,"risk":22,"cat":"green"},{"name":"Pottery Hotel","lat":50.73409,"lon":-1.95705,"postcode":"BH14 0RS","la":"Bournemouth, Christchurch and Poole","era":"other","nn":549,"risk":29,"cat":"green"},{"name":"Queen Mary Inn","lat":50.71456,"lon":-1.98966,"postcode":"BH15 1LD","la":"Bournemouth, Christchurch and Poole","era":"trad","nn":120,"risk":23,"cat":"green"},{"name":"Queens Park Hotel","lat":50.73532,"lon":-1.84462,"postcode":"BH8 9AR","la":"Bournemouth, Christchurch and Poole","era":"trad","nn":556,"risk":29,"cat":"green"},{"name":"Red Lion","lat":50.72088,"lon":-2.01056,"postcode":"BH15 4JQ","la":"Bournemouth, Christchurch and Poole","era":"trad","nn":452,"risk":28,"cat":"green"},{"name":"Richmond Arms","lat":50.73597,"lon":-1.86688,"postcode":"BH8 8UH","la":"Bournemouth, Christchurch and Poole","era":"trad","nn":61,"risk":23,"cat":"green"},{"name":"Riverside Inn","lat":50.72931,"lon":-1.79045,"postcode":"BH6 3BA","la":"Bournemouth, Christchurch and Poole","era":"trad","nn":491,"risk":31,"cat":"amber"},{"name":"Riviera Bar & Restaurant","lat":50.72671,"lon":-1.83988,"postcode":"BH1 4BH","la":"Bournemouth, Christchurch and Poole","era":"mod","nn":0,"risk":22,"cat":"green"},{"name":"Royal British Legion","lat":50.7633,"lon":-1.99331,"postcode":"BH18 8AW","la":"Bournemouth, Christchurch and Poole","era":"trad","nn":0,"risk":25,"cat":"green"},{"name":"Royal British Legion Club","lat":50.74753,"lon":-1.87752,"postcode":"BH9 2AR","la":"Bournemouth, Christchurch and Poole","era":"trad","nn":344,"risk":25,"cat":"green"},{"name":"Royal British Legion Club","lat":50.7374,"lon":-1.78045,"postcode":"BH23 1QE","la":"Bournemouth, Christchurch and Poole","era":"trad","nn":143,"risk":23,"cat":"green"},{"name":"Russell Up Pickle Co","lat":50.76443,"lon":-1.77268,"postcode":"BH23 7AS","la":"Bournemouth, Christchurch and Poole","era":"other","nn":273,"risk":44,"cat":"amber"},{"name":"Shah Of Persia","lat":50.72535,"lon":-1.9675,"postcode":"BH15 2HS","la":"Bournemouth, Christchurch and Poole","era":"other","nn":505,"risk":26,"cat":"green"},{"name":"Sharkey's Sports Bar","lat":50.72237,"lon":-1.86794,"postcode":"BH1 1JZ","la":"Bournemouth, Christchurch and Poole","era":"other","nn":0,"risk":22,"cat":"green"},{"name":"Shika Lounge AKA Chicken Run","lat":50.71661,"lon":-1.88895,"postcode":"BH2 5EX","la":"Bournemouth, Christchurch and Poole","era":"mod","nn":328,"risk":25,"cat":"green"},{"name":"Shoulder of Mutton","lat":50.76117,"lon":-1.92548,"postcode":"BH11 9LA","la":"Bournemouth, Christchurch and Poole","era":"other","nn":999,"risk":49,"cat":"amber"},{"name":"Sixty Million Postcards","lat":50.71815,"lon":-1.87956,"postcode":"BH2 5AF","la":"Bournemouth, Christchurch and Poole","era":"trad","nn":67,"risk":23,"cat":"green"},{"name":"Slug & Lettuce AKA K-Town, Chik Box & Locked & Loaded","lat":50.72315,"lon":-1.8749,"postcode":"BH1 1HL","la":"Bournemouth, Christchurch and Poole","era":"other","nn":150,"risk":24,"cat":"green"},{"name":"Slug & Lettuce AKA Loco Loco, El Rodeo Mexicano, Burrito Bandits","lat":50.71297,"lon":-1.98789,"postcode":"BH15 1AB","la":"Bournemouth, Christchurch and Poole","era":"other","nn":47,"risk":23,"cat":"green"},{"name":"Slug & Lettuce AKA Loco Loco, El Rodeo Mexicano, Burrito Bandits","lat":50.72091,"lon":-1.87938,"postcode":"BH2 6EJ","la":"Bournemouth, Christchurch and Poole","era":"other","nn":0,"risk":22,"cat":"green"},{"name":"Smokin Aces","lat":50.71986,"lon":-1.88455,"postcode":"BH2 5RT","la":"Bournemouth, Christchurch and Poole","era":"other","nn":0,"risk":22,"cat":"green"},{"name":"Sobo:Sommelier","lat":50.72855,"lon":-1.82125,"postcode":"BH5 2HG","la":"Bournemouth, Christchurch and Poole","era":"other","nn":206,"risk":24,"cat":"green"},{"name":"Spyglass and Kettle","lat":50.72255,"lon":-1.80983,"postcode":"BH6 3PW","la":"Bournemouth, Christchurch and Poole","era":"other","nn":519,"risk":26,"cat":"green"},{"name":"Stourvale Inn","lat":50.74277,"lon":-1.80032,"postcode":"BH23 2AY","la":"Bournemouth, Christchurch and Poole","era":"trad","nn":514,"risk":44,"cat":"amber"},{"name":"Suttoners Sports and Social Club","lat":50.7686,"lon":-1.8945,"postcode":"BH10 7JA","la":"Bournemouth, Christchurch and Poole","era":"mod","nn":128,"risk":26,"cat":"green"},{"name":"Sweet Home Inn","lat":50.72909,"lon":-1.96342,"postcode":"BH14 0RF","la":"Bournemouth, Christchurch and Poole","era":"trad","nn":505,"risk":26,"cat":"green"},{"name":"Taka Taka Bournemouth Limited","lat":50.72104,"lon":-1.8763,"postcode":"BH1 1LL","la":"Bournemouth, Christchurch and Poole","era":"other","nn":24,"risk":23,"cat":"green"},{"name":"Talbot Rise Club","lat":50.75208,"lon":-1.90349,"postcode":"BH10 4DR","la":"Bournemouth, Christchurch and Poole","era":"trad","nn":327,"risk":27,"cat":"green"},{"name":"Tapas Plus","lat":50.72148,"lon":-1.8805,"postcode":"BH2 6DW","la":"Bournemouth, Christchurch and Poole","era":"other","nn":101,"risk":23,"cat":"green"},{"name":"Temple","lat":50.7246,"lon":-1.94935,"postcode":"BH14 0ES","la":"Bournemouth, Christchurch and Poole","era":"other","nn":0,"risk":22,"cat":"green"},{"name":"Temptation","lat":50.72137,"lon":-1.87766,"postcode":"BH1 1DA","la":"Bournemouth, Christchurch and Poole","era":"other","nn":0,"risk":22,"cat":"green"},{"name":"The Acorn","lat":50.74244,"lon":-2.00646,"postcode":"BH17 7XZ","la":"Bournemouth, Christchurch and Poole","era":"other","nn":1533,"risk":56,"cat":"amber"},{"name":"The Acorn","lat":50.7689,"lon":-1.90302,"postcode":"BH11 9AD","la":"Bournemouth, Christchurch and Poole","era":"other","nn":559,"risk":44,"cat":"amber"},{"name":"The Amberwood","lat":50.75147,"lon":-1.70059,"postcode":"BH23 5RQ","la":"Bournemouth, Christchurch and Poole","era":"other","nn":915,"risk":49,"cat":"amber"},{"name":"The Angel","lat":50.71425,"lon":-1.98803,"postcode":"BH15 1NF","la":"Bournemouth, Christchurch and Poole","era":"trad","nn":31,"risk":23,"cat":"green"},{"name":"The Anvil","lat":50.72277,"lon":-1.86604,"postcode":"BH8 8EH","la":"Bournemouth, Christchurch and Poole","era":"other","nn":57,"risk":23,"cat":"green"},{"name":"The Athelstan Arms","lat":50.72981,"lon":-1.79738,"postcode":"BH6 5JZ","la":"Bournemouth, Christchurch and Poole","era":"trad","nn":491,"risk":31,"cat":"amber"},{"name":"The Avocet","lat":50.72312,"lon":-1.94817,"postcode":"BH14 8UD","la":"Bournemouth, Christchurch and Poole","era":"other","nn":185,"risk":24,"cat":"green"},{"name":"The Barking Cat Alehouse","lat":50.7285,"lon":-1.93128,"postcode":"BH14 9BY","la":"Bournemouth, Christchurch and Poole","era":"trad","nn":351,"risk":25,"cat":"green"},{"name":"The Bear Cross","lat":50.7697,"lon":-1.9204,"postcode":"BH11 9LU","la":"Bournemouth, Christchurch and Poole","era":"trad","nn":1013,"risk":52,"cat":"amber"},{"name":"The Bear of Burton","lat":50.74493,"lon":-1.75988,"postcode":"BH23 7JG","la":"Bournemouth, Christchurch and Poole","era":"other","nn":518,"risk":44,"cat":"amber"},{"name":"The Bell","lat":50.73052,"lon":-1.82548,"postcode":"BH7 6AX","la":"Bournemouth, Christchurch and Poole","era":"other","nn":370,"risk":25,"cat":"green"},{"name":"The Blackwater Stream","lat":50.76017,"lon":-1.99411,"postcode":"BH18 8DP","la":"Bournemouth, Christchurch and Poole","era":"other","nn":352,"risk":27,"cat":"green"},{"name":"The Blue Boar Inn","lat":50.71573,"lon":-1.98662,"postcode":"BH15 1NE","la":"Bournemouth, Christchurch and Poole","era":"trad","nn":46,"risk":23,"cat":"green"},{"name":"The Branksome Railway Hotel","lat":50.72685,"lon":-1.92098,"postcode":"BH12 1DQ","la":"Bournemouth, Christchurch and Poole","era":"trad","nn":399,"risk":28,"cat":"green"},{"name":"The Brew Crew","lat":50.78052,"lon":-1.86399,"postcode":"BH23 6BP","la":"Bournemouth, Christchurch and Poole","era":"other","nn":857,"risk":48,"cat":"amber"},{"name":"The Brewhouse","lat":50.71438,"lon":-1.98613,"postcode":"BH15 1DA","la":"Bournemouth, Christchurch and Poole","era":"other","nn":103,"risk":23,"cat":"green"},{"name":"The Bricklayers","lat":50.72418,"lon":-1.95273,"postcode":"BH14 0JX","la":"Bournemouth, Christchurch and Poole","era":"trad","nn":23,"risk":23,"cat":"green"},{"name":"The Britannia","lat":50.72199,"lon":-1.95491,"postcode":"BH14 8BB","la":"Bournemouth, Christchurch and Poole","era":"trad","nn":170,"risk":24,"cat":"green"},{"name":"The Broadway","lat":50.75391,"lon":-1.85555,"postcode":"BH8 9TG","la":"Bournemouth, Christchurch and Poole","era":"other","nn":211,"risk":44,"cat":"amber"},{"name":"The Brunswick Hotel","lat":50.73425,"lon":-1.86543,"postcode":"BH8 8PX","la":"Bournemouth, Christchurch and Poole","era":"other","nn":209,"risk":24,"cat":"green"},{"name":"The Buffalo","lat":50.7395,"lon":-1.8793,"postcode":"BH9 2AA","la":"Bournemouth, Christchurch and Poole","era":"other","nn":126,"risk":23,"cat":"green"},{"name":"The Butcher's Dog","lat":50.72405,"lon":-1.95298,"postcode":"BH14 0JX","la":"Bournemouth, Christchurch and Poole","era":"other","nn":15,"risk":23,"cat":"green"},{"name":"The Churchill","lat":50.72894,"lon":-1.93803,"postcode":"BH14 9DQ","la":"Bournemouth, Christchurch and Poole","era":"other","nn":69,"risk":23,"cat":"green"},{"name":"The Cliff","lat":50.70407,"lon":-1.91968,"postcode":"BH13 7HX","la":"Bournemouth, Christchurch and Poole","era":"other","nn":2137,"risk":60,"cat":"amber"},{"name":"The Cockleshell","lat":50.71385,"lon":-1.98426,"postcode":"BH15 1QD","la":"Bournemouth, Christchurch and Poole","era":"other","nn":144,"risk":23,"cat":"green"},{"name":"The Cooper Dean Harvester","lat":50.74795,"lon":-1.83044,"postcode":"BH8 9UQ","la":"Bournemouth, Christchurch and Poole","era":"trad","nn":1723,"risk":57,"cat":"amber"},{"name":"The Cranleigh","lat":50.73676,"lon":-1.80802,"postcode":"BH6 5PY","la":"Bournemouth, Christchurch and Poole","era":"other","nn":455,"risk":28,"cat":"green"},{"name":"The Crown","lat":50.76167,"lon":-1.88567,"postcode":"BH10 6JW","la":"Bournemouth, Christchurch and Poole","era":"trad","nn":690,"risk":32,"cat":"amber"},{"name":"The Firkin Shed (Micro pub)","lat":50.73116,"lon":-1.85426,"postcode":"BH8 8BZ","la":"Bournemouth, Christchurch and Poole","era":"other","nn":144,"risk":23,"cat":"green"},{"name":"The Four Horsemen","lat":50.71986,"lon":-1.88455,"postcode":"BH2 5RT","la":"Bournemouth, Christchurch and Poole","era":"trad","nn":0,"risk":22,"cat":"green"},{"name":"The George Tapps aka Soul Chicken and Flip the Bird","lat":50.72237,"lon":-1.86794,"postcode":"BH1 1JZ","la":"Bournemouth, Christchurch and Poole","era":"other","nn":0,"risk":22,"cat":"green"},{"name":"The Globe Inn","lat":50.74124,"lon":-1.70185,"postcode":"BH23 5ET","la":"Bournemouth, Christchurch and Poole","era":"trad","nn":179,"risk":41,"cat":"amber"},{"name":"The Goods Yard","lat":50.76362,"lon":-1.9947,"postcode":"BH18 8AX","la":"Bournemouth, Christchurch and Poole","era":"mod","nn":103,"risk":26,"cat":"green"},{"name":"The Governor","lat":50.74166,"lon":-1.69939,"postcode":"BH23 5EY","la":"Bournemouth, Christchurch and Poole","era":"other","nn":165,"risk":41,"cat":"amber"},{"name":"The Grove Tavern","lat":50.72631,"lon":-1.81735,"postcode":"BH6 3QS","la":"Bournemouth, Christchurch and Poole","era":"other","nn":183,"risk":24,"cat":"green"},{"name":"The Guildhall Tavern","lat":50.714,"lon":-1.98782,"postcode":"BH15 1NB","la":"Bournemouth, Christchurch and Poole","era":"other","nn":31,"risk":23,"cat":"green"},{"name":"The Hamworthy Club","lat":50.7849,"lon":-1.95558,"postcode":"BH21 3AE","la":"Bournemouth, Christchurch and Poole","era":"other","nn":1306,"risk":54,"cat":"amber"},{"name":"The Haymoor","lat":50.75154,"lon":-1.96662,"postcode":"BH17 9DW","la":"Bournemouth, Christchurch and Poole","era":"other","nn":1083,"risk":53,"cat":"amber"},{"name":"The Jolly Sailor","lat":50.71229,"lon":-1.98643,"postcode":"BH15 1HJ","la":"Bournemouth, Christchurch and Poole","era":"other","nn":0,"risk":22,"cat":"green"},{"name":"The Kings Arms aka South Coast Wings","lat":50.74603,"lon":-1.90722,"postcode":"BH10 4HZ","la":"Bournemouth, Christchurch and Poole","era":"trad","nn":0,"risk":22,"cat":"green"},{"name":"The King's Head","lat":50.71338,"lon":-1.98779,"postcode":"BH15 1BP","la":"Bournemouth, Christchurch and Poole","era":"trad","nn":0,"risk":22,"cat":"green"},{"name":"The Lamb Inn","lat":50.76509,"lon":-1.76895,"postcode":"BH23 7AN","la":"Bournemouth, Christchurch and Poole","era":"trad","nn":273,"risk":44,"cat":"amber"},{"name":"The Libertine","lat":50.72082,"lon":-1.90479,"postcode":"BH4 8EL","la":"Bournemouth, Christchurch and Poole","era":"other","nn":146,"risk":28,"cat":"green"},{"name":"The Lions Head and Alt","lat":50.72776,"lon":-1.86028,"postcode":"BH8 8AS","la":"Bournemouth, Christchurch and Poole","era":"trad","nn":448,"risk":26,"cat":"green"},{"name":"The Lord Wimborne","lat":50.71639,"lon":-1.98231,"postcode":"BH15 1QD","la":"Bournemouth, Christchurch and Poole","era":"other","nn":153,"risk":24,"cat":"green"},{"name":"The Mary Shelley","lat":50.7211,"lon":-1.87596,"postcode":"BH1 2AD","la":"Bournemouth, Christchurch and Poole","era":"other","nn":24,"risk":23,"cat":"green"},{"name":"The Micro Moose","lat":50.7406,"lon":-1.87974,"postcode":"BH9 2HH","la":"Bournemouth, Christchurch and Poole","era":"other","nn":126,"risk":23,"cat":"green"},{"name":"The Mudeford Club","lat":50.72933,"lon":-1.75406,"postcode":"BH23 3LY","la":"Bournemouth, Christchurch and Poole","era":"other","nn":154,"risk":24,"cat":"green"},{"name":"The Nelson","lat":50.72788,"lon":-1.74822,"postcode":"BH23 3NJ","la":"Bournemouth, Christchurch and Poole","era":"trad","nn":244,"risk":24,"cat":"green"},{"name":"The Neptune","lat":50.71981,"lon":-1.84307,"postcode":"BH5 1BN","la":"Bournemouth, Christchurch and Poole","era":"other","nn":404,"risk":25,"cat":"green"},{"name":"The Oak Inn","lat":50.74883,"lon":-1.76391,"postcode":"BH23 7NW","la":"Bournemouth, Christchurch and Poole","era":"trad","nn":518,"risk":46,"cat":"amber"},{"name":"The Old Fire Station (SUBU)","lat":50.72276,"lon":-1.86523,"postcode":"BH8 8AD","la":"Bournemouth, Christchurch and Poole","era":"other","nn":0,"risk":22,"cat":"green"},{"name":"The Pantry","lat":50.73793,"lon":-1.75593,"postcode":"BH23 3AH","la":"Bournemouth, Christchurch and Poole","era":"other","nn":405,"risk":28,"cat":"green"},{"name":"The Pilot","lat":50.74184,"lon":-1.96522,"postcode":"BH17 8SA","la":"Bournemouth, Christchurch and Poole","era":"other","nn":62,"risk":40,"cat":"amber"},{"name":"The Poole Yacht Club","lat":50.71043,"lon":-1.99872,"postcode":"BH15 4AQ","la":"Bournemouth, Christchurch and Poole","era":"other","nn":478,"risk":26,"cat":"green"},{"name":"The Porterhouse","lat":50.72344,"lon":-1.90534,"postcode":"BH4 9BG","la":"Bournemouth, Christchurch and Poole","era":"other","nn":294,"risk":30,"cat":"green"},{"name":"The Quay","lat":50.71229,"lon":-1.98735,"postcode":"BH15 1HJ","la":"Bournemouth, Christchurch and Poole","era":"other","nn":65,"risk":23,"cat":"green"},{"name":"The Railway Hotel","lat":50.73873,"lon":-1.78251,"postcode":"BH23 1PS","la":"Bournemouth, Christchurch and Poole","era":"trad","nn":207,"risk":24,"cat":"green"},{"name":"The Rising Sun (Christchurch) ltd","lat":50.73584,"lon":-1.76065,"postcode":"BH23 1EJ","la":"Bournemouth, Christchurch and Poole","era":"other","nn":405,"risk":25,"cat":"green"},{"name":"The Sandpiper","lat":50.73482,"lon":-1.73363,"postcode":"BH23 4DN","la":"Bournemouth, Christchurch and Poole","era":"other","nn":702,"risk":47,"cat":"amber"},{"name":"The Saxon Bar","lat":50.73614,"lon":-1.77859,"postcode":"BH23 1QN","la":"Bournemouth, Christchurch and Poole","era":"other","nn":80,"risk":23,"cat":"green"},{"name":"The Ship Inn","lat":50.7344,"lon":-1.77685,"postcode":"BH23 1BN","la":"Bournemouth, Christchurch and Poole","era":"trad","nn":77,"risk":23,"cat":"green"},{"name":"The Silverback Ale House","lat":50.74452,"lon":-1.87867,"postcode":"BH9 2EX","la":"Bournemouth, Christchurch and Poole","era":"other","nn":85,"risk":23,"cat":"green"},{"name":"The Tavern","lat":50.7388,"lon":-1.93363,"postcode":"BH12 2HG","la":"Bournemouth, Christchurch and Poole","era":"other","nn":296,"risk":45,"cat":"amber"},{"name":"The Vault","lat":50.71954,"lon":-1.88733,"postcode":"BH2 5PW","la":"Bournemouth, Christchurch and Poole","era":"other","nn":0,"risk":22,"cat":"green"},{"name":"The Walkford","lat":50.75143,"lon":-1.68602,"postcode":"BH23 5QF","la":"Bournemouth, Christchurch and Poole","era":"other","nn":1025,"risk":52,"cat":"amber"},{"name":"The Westbourne","lat":50.72234,"lon":-1.90071,"postcode":"BH4 9DN","la":"Bournemouth, Christchurch and Poole","era":"other","nn":279,"risk":24,"cat":"green"},{"name":"The Wight Bear Ale House","lat":50.726,"lon":-1.8148,"postcode":"BH6 3QU","la":"Bournemouth, Christchurch and Poole","era":"other","nn":183,"risk":24,"cat":"green"},{"name":"The Yachtsman","lat":50.71306,"lon":-2.01608,"postcode":"BH15 4LW","la":"Bournemouth, Christchurch and Poole","era":"other","nn":505,"risk":28,"cat":"green"},{"name":"Thomas Tripp","lat":50.73312,"lon":-1.77654,"postcode":"BH23 1HX","la":"Bournemouth, Christchurch and Poole","era":"other","nn":105,"risk":23,"cat":"green"},{"name":"Toby Carvery","lat":50.73822,"lon":-1.98572,"postcode":"BH15 3EH","la":"Bournemouth, Christchurch and Poole","era":"other","nn":680,"risk":47,"cat":"amber"},{"name":"Toby Carvery Northbourne","lat":50.76788,"lon":-1.88575,"postcode":"BH10 7BJ","la":"Bournemouth, Christchurch and Poole","era":"other","nn":620,"risk":32,"cat":"amber"},{"name":"Victoria","lat":50.72889,"lon":-1.94279,"postcode":"BH14 0AT","la":"Bournemouth, Christchurch and Poole","era":"trad","nn":264,"risk":24,"cat":"green"},{"name":"Vinyl","lat":50.72186,"lon":-1.87371,"postcode":"BH1 2JA","la":"Bournemouth, Christchurch and Poole","era":"other","nn":0,"risk":22,"cat":"green"},{"name":"Wallisdown Conservative Club","lat":50.74831,"lon":-1.91052,"postcode":"BH11 8SA","la":"Bournemouth, Christchurch and Poole","era":"other","nn":327,"risk":25,"cat":"green"},{"name":"Wallisdown Liberal Club","lat":50.7505,"lon":-1.90741,"postcode":"BH10 4DG","la":"Bournemouth, Christchurch and Poole","era":"other","nn":327,"risk":27,"cat":"green"},{"name":"Westbourne Conservative Club","lat":50.72026,"lon":-1.90292,"postcode":"BH4 8DX","la":"Bournemouth, Christchurch and Poole","era":"other","nn":146,"risk":28,"cat":"green"},{"name":"Willett Arms","lat":50.78711,"lon":-1.97648,"postcode":"BH21 1RN","la":"Bournemouth, Christchurch and Poole","era":"trad","nn":612,"risk":32,"cat":"amber"},{"name":"Winton Workman's Club","lat":50.74067,"lon":-1.87753,"postcode":"BH9 1AU","la":"Bournemouth, Christchurch and Poole","era":"other","nn":156,"risk":24,"cat":"green"},{"name":"Wonderful Karaoke Rooms","lat":50.73964,"lon":-1.86395,"postcode":"BH8 9QJ","la":"Bournemouth, Christchurch and Poole","era":"mod","nn":458,"risk":26,"cat":"green"},{"name":"Ye Olde George /KT/CB/LL/PA/DM","lat":50.734,"lon":-1.77596,"postcode":"BH23 1DT","la":"Bournemouth, Christchurch and Poole","era":"trad","nn":77,"risk":23,"cat":"green"},{"name":"Bankes Arms Hotel","lat":50.64311,"lon":-1.94846,"postcode":"BH19 3AU","la":"Dorset","era":"trad","nn":507,"risk":42,"cat":"amber"},{"name":"Bloxworth Village Hall and Social Club","lat":50.75147,"lon":-2.17016,"postcode":"BH20 7EG","la":"Dorset","era":"mod","nn":2947,"risk":61,"cat":"red"},{"name":"Braeside Bowling Club","lat":50.83237,"lon":-1.84127,"postcode":"BH24 2PQ","la":"Dorset","era":"other","nn":2027,"risk":55,"cat":"amber"},{"name":"Bulbury Woods Golf Club","lat":50.74289,"lon":-2.10472,"postcode":"BH16 6HR","la":"Dorset","era":"other","nn":1702,"risk":52,"cat":"amber"},{"name":"Castle Inn","lat":50.63645,"lon":-2.05446,"postcode":"BH20 5EE","la":"Dorset","era":"trad","nn":46,"risk":21,"cat":"green"},{"name":"Clay Pipe Inn","lat":50.72152,"lon":-2.08563,"postcode":"BH16 6JY","la":"Dorset","era":"trad","nn":1782,"risk":53,"cat":"amber"},{"name":"Coach and Horses","lat":50.79504,"lon":-1.98123,"postcode":"BH21 1QB","la":"Dorset","era":"trad","nn":292,"risk":20,"cat":"green"},{"name":"Cock and Bottle Inn","lat":50.75283,"lon":-2.1231,"postcode":"BH20 7DL","la":"Dorset","era":"trad","nn":1702,"risk":52,"cat":"amber"},{"name":"Corfe Castle Club","lat":50.63625,"lon":-2.05503,"postcode":"BH20 5EQ","la":"Dorset","era":"other","nn":46,"risk":21,"cat":"green"},{"name":"Dancing Rooster","lat":50.81424,"lon":-1.87083,"postcode":"BH22 0AD","la":"Dorset","era":"other","nn":1601,"risk":52,"cat":"amber"},{"name":"Dorset Golf & Country Club","lat":50.7128,"lon":-2.19536,"postcode":"BH20 7NT","la":"Dorset","era":"other","nn":3167,"risk":63,"cat":"red"},{"name":"Duke of Wellington","lat":50.68634,"lon":-2.10873,"postcode":"BH20 4NN","la":"Dorset","era":"trad","nn":138,"risk":19,"cat":"green"},{"name":"East Bar","lat":50.60772,"lon":-1.95478,"postcode":"BH19 2LN","la":"Dorset","era":"other","nn":22,"risk":18,"cat":"green"},{"name":"Elephant & Castle","lat":50.8239,"lon":-1.88771,"postcode":"BH22 0JB","la":"Dorset","era":"other","nn":0,"risk":35,"cat":"amber"},{"name":"Elephant & Castle","lat":50.8239,"lon":-1.88771,"postcode":"BH22 0JB","la":"Dorset","era":"other","nn":0,"risk":35,"cat":"amber"},{"name":"Forest Inn","lat":50.82122,"lon":-1.89986,"postcode":"BH22 9PH","la":"Dorset","era":"trad","nn":904,"risk":42,"cat":"amber"},{"name":"G Dog\u2019s Bar","lat":50.60959,"lon":-1.9589,"postcode":"BH19 1AD","la":"Dorset","era":"other","nn":53,"risk":18,"cat":"green"},{"name":"Holme Bush Inn","lat":50.75647,"lon":-2.03722,"postcode":"BH21 3RZ","la":"Dorset","era":"trad","nn":2601,"risk":59,"cat":"amber"},{"name":"Horns Inn","lat":50.78244,"lon":-1.89048,"postcode":"BH22 8SS","la":"Dorset","era":"trad","nn":119,"risk":36,"cat":"amber"},{"name":"Horse & Groom","lat":50.68476,"lon":-2.10892,"postcode":"BH20 4LZ","la":"Dorset","era":"trad","nn":38,"risk":18,"cat":"green"},{"name":"Horton Inn","lat":50.87734,"lon":-1.97726,"postcode":"BH21 5AD","la":"Dorset","era":"trad","nn":4873,"risk":75,"cat":"red"},{"name":"Man O War Bar","lat":50.77915,"lon":-2.32035,"postcode":"BH20 5PU","la":"Dorset","era":"other","nn":0,"risk":23,"cat":"green"},{"name":"Monmouth Ash","lat":50.87512,"lon":-1.87784,"postcode":"BH31 6DT","la":"Dorset","era":"other","nn":221,"risk":40,"cat":"amber"},{"name":"Oddfellows Arms","lat":50.79981,"lon":-1.98813,"postcode":"BH21 1JH","la":"Dorset","era":"trad","nn":40,"risk":18,"cat":"green"},{"name":"Purbeck Shooting School","lat":50.68442,"lon":-2.14675,"postcode":"BH20 6AE","la":"Dorset","era":"other","nn":2398,"risk":57,"cat":"amber"},{"name":"Pure Drop Inn","lat":50.80746,"lon":-1.90363,"postcode":"BH22 9NA","la":"Dorset","era":"trad","nn":1133,"risk":48,"cat":"amber"},{"name":"RAF ASSOCIATION CLUB","lat":50.79758,"lon":-1.98223,"postcode":"BH21 1AF","la":"Dorset","era":"other","nn":199,"risk":19,"cat":"green"},{"name":"Riverside @ The Coventry Arms","lat":50.7862,"lon":-2.03871,"postcode":"BH21 3RH","la":"Dorset","era":"trad","nn":1795,"risk":53,"cat":"amber"},{"name":"Rose and Crown","lat":50.75486,"lon":-2.07828,"postcode":"BH16 6DT","la":"Dorset","era":"trad","nn":759,"risk":43,"cat":"amber"},{"name":"Royal British Legion","lat":50.77828,"lon":-2.01647,"postcode":"BH21 3HQ","la":"Dorset","era":"trad","nn":1795,"risk":53,"cat":"amber"},{"name":"Salt & Pepper Club","lat":50.7528,"lon":-2.22189,"postcode":"BH20 7NA","la":"Dorset","era":"other","nn":311,"risk":38,"cat":"amber"},{"name":"Sandford & District Labour Club","lat":50.70718,"lon":-2.09695,"postcode":"BH20 7BD","la":"Dorset","era":"other","nn":1782,"risk":53,"cat":"amber"},{"name":"Ship Inn","lat":50.60794,"lon":-1.95616,"postcode":"BH19 2LR","la":"Dorset","era":"trad","nn":62,"risk":18,"cat":"green"},{"name":"Square and Compass","lat":50.5989,"lon":-2.03544,"postcode":"BH19 3LF","la":"Dorset","era":"other","nn":2528,"risk":58,"cat":"amber"},{"name":"St. Peters Finger","lat":50.73653,"lon":-2.05656,"postcode":"BH16 6JE","la":"Dorset","era":"other","nn":429,"risk":41,"cat":"amber"},{"name":"Studland Social Club Ltd","lat":50.64142,"lon":-1.95514,"postcode":"BH19 3BU","la":"Dorset","era":"mod","nn":507,"risk":42,"cat":"amber"},{"name":"Swanage and Wareham Rugby Club","lat":50.68868,"lon":-2.11338,"postcode":"BH20 4QW","la":"Dorset","era":"trad","nn":194,"risk":19,"cat":"green"},{"name":"Swanage Conservative Club","lat":50.60938,"lon":-1.95957,"postcode":"BH19 1HE","la":"Dorset","era":"trad","nn":53,"risk":18,"cat":"green"},{"name":"The Albion","lat":50.88318,"lon":-1.89128,"postcode":"BH31 7LB","la":"Dorset","era":"other","nn":1300,"risk":50,"cat":"amber"},{"name":"The Anchor Inn Swanage","lat":50.60847,"lon":-1.95739,"postcode":"BH19 2NU","la":"Dorset","era":"trad","nn":30,"risk":18,"cat":"green"},{"name":"The Antelope Inn","lat":50.68565,"lon":-2.11067,"postcode":"BH20 4JS","la":"Dorset","era":"trad","nn":70,"risk":18,"cat":"green"},{"name":"The Bakers Arms","lat":50.73486,"lon":-2.06205,"postcode":"BH16 6JF","la":"Dorset","era":"trad","nn":429,"risk":41,"cat":"amber"},{"name":"The Bankes Arms Hotel","lat":50.63905,"lon":-2.05699,"postcode":"BH20 5ED","la":"Dorset","era":"trad","nn":91,"risk":21,"cat":"green"},{"name":"The Black Bear","lat":50.68,"lon":-2.21894,"postcode":"BH20 6BP","la":"Dorset","era":"other","nn":234,"risk":37,"cat":"amber"},{"name":"The Black Dog","lat":50.68499,"lon":-2.18567,"postcode":"BH20 6AN","la":"Dorset","era":"other","nn":2409,"risk":57,"cat":"amber"},{"name":"The Black Swan","lat":50.60785,"lon":-1.96435,"postcode":"BH19 2NE","la":"Dorset","era":"trad","nn":373,"risk":21,"cat":"green"},{"name":"The Butchers Dog","lat":50.79859,"lon":-1.98652,"postcode":"BH21 1DS","la":"Dorset","era":"other","nn":75,"risk":18,"cat":"green"},{"name":"The Castle Inn","lat":50.62615,"lon":-2.24711,"postcode":"BH20 5RN","la":"Dorset","era":"trad","nn":3396,"risk":64,"cat":"red"},{"name":"The Cellar Bar","lat":50.60939,"lon":-1.95676,"postcode":"BH19 1DD","la":"Dorset","era":"other","nn":0,"risk":18,"cat":"green"},{"name":"The Chequers Inn","lat":50.76018,"lon":-2.08503,"postcode":"BH16 6BJ","la":"Dorset","era":"trad","nn":759,"risk":43,"cat":"amber"},{"name":"The Club","lat":50.60775,"lon":-1.95418,"postcode":"BH19 2LN","la":"Dorset","era":"other","nn":26,"risk":18,"cat":"green"},{"name":"The Cricketers Arms","lat":50.79843,"lon":-1.98473,"postcode":"BH21 1LD","la":"Dorset","era":"trad","nn":70,"risk":18,"cat":"green"},{"name":"The Crows Nest Inn","lat":50.61787,"lon":-1.95844,"postcode":"BH19 1LE","la":"Dorset","era":"trad","nn":921,"risk":27,"cat":"green"},{"name":"The Curlew","lat":50.78195,"lon":-1.87597,"postcode":"BH22 8SQ","la":"Dorset","era":"other","nn":857,"risk":29,"cat":"green"},{"name":"The Drax Arms","lat":50.75364,"lon":-2.21719,"postcode":"BH20 7HH","la":"Dorset","era":"trad","nn":88,"risk":36,"cat":"amber"},{"name":"The Fonc Lounge","lat":50.60763,"lon":-1.9545,"postcode":"BH19 2LN","la":"Dorset","era":"mod","nn":22,"risk":18,"cat":"green"},{"name":"The Fox Inn","lat":50.63746,"lon":-2.05741,"postcode":"BH20 5HD","la":"Dorset","era":"trad","nn":106,"risk":21,"cat":"green"},{"name":"The Globe Inn","lat":50.61035,"lon":-1.97652,"postcode":"BH19 2RY","la":"Dorset","era":"trad","nn":334,"risk":38,"cat":"amber"},{"name":"The Green Man","lat":50.8,"lon":-1.9918,"postcode":"BH21 1EN","la":"Dorset","era":"other","nn":201,"risk":19,"cat":"green"},{"name":"The Greyhound Inn","lat":50.63839,"lon":-2.05774,"postcode":"BH20 5EZ","la":"Dorset","era":"trad","nn":91,"risk":21,"cat":"green"},{"name":"The Halfway Inn Ltd","lat":50.65855,"lon":-2.08446,"postcode":"BH20 5DU","la":"Dorset","era":"trad","nn":2592,"risk":59,"cat":"amber"},{"name":"The Horns Inn","lat":50.81052,"lon":-1.97507,"postcode":"BH21 7AA","la":"Dorset","era":"trad","nn":1391,"risk":50,"cat":"amber"},{"name":"The Kings Arms","lat":50.60938,"lon":-2.00365,"postcode":"BH19 3HA","la":"Dorset","era":"trad","nn":1584,"risk":52,"cat":"amber"},{"name":"The Kings Arms","lat":50.68771,"lon":-2.11108,"postcode":"BH20 4AD","la":"Dorset","era":"trad","nn":194,"risk":19,"cat":"green"},{"name":"The Kings Arms Stoborough","lat":50.6766,"lon":-2.10917,"postcode":"BH20 5AD","la":"Dorset","era":"trad","nn":850,"risk":26,"cat":"green"},{"name":"The Kings Head Hotel","lat":50.80015,"lon":-1.98833,"postcode":"BH21 1JA","la":"Dorset","era":"trad","nn":40,"risk":18,"cat":"green"},{"name":"The Man in the Wall (Wetherspoons)","lat":50.80079,"lon":-1.98806,"postcode":"BH21 1NF","la":"Dorset","era":"other","nn":57,"risk":18,"cat":"green"},{"name":"The New Inn","lat":50.63542,"lon":-2.08899,"postcode":"BH20 5NQ","la":"Dorset","era":"trad","nn":2228,"risk":56,"cat":"amber"},{"name":"The Old Inn","lat":50.83512,"lon":-1.95862,"postcode":"BH21 7DJ","la":"Dorset","era":"trad","nn":2970,"risk":61,"cat":"red"},{"name":"The Owls Nest","lat":50.78181,"lon":-1.8891,"postcode":"BH22 8SS","la":"Dorset","era":"other","nn":119,"risk":24,"cat":"green"},{"name":"The Pear at Parley","lat":50.77928,"lon":-1.88775,"postcode":"BH22 8SS","la":"Dorset","era":"other","nn":297,"risk":25,"cat":"green"},{"name":"The Quay Inn & Quay House","lat":50.68424,"lon":-2.10884,"postcode":"BH20 4LP","la":"Dorset","era":"trad","nn":58,"risk":18,"cat":"green"},{"name":"The Red Lion","lat":50.80265,"lon":-2.0707,"postcode":"BH21 4BU","la":"Dorset","era":"trad","nn":2898,"risk":61,"cat":"red"},{"name":"The Red Lion","lat":50.60789,"lon":-1.95906,"postcode":"BH19 2LY","la":"Dorset","era":"trad","nn":119,"risk":19,"cat":"green"},{"name":"The Rising Sun","lat":50.79819,"lon":-1.98565,"postcode":"BH21 1DX","la":"Dorset","era":"other","nn":70,"risk":18,"cat":"green"},{"name":"The Royal Oak","lat":50.75286,"lon":-2.21747,"postcode":"BH20 7HQ","la":"Dorset","era":"trad","nn":88,"risk":36,"cat":"amber"},{"name":"The Royal Oak","lat":50.60999,"lon":-1.98122,"postcode":"BH19 2NR","la":"Dorset","era":"trad","nn":334,"risk":40,"cat":"amber"},{"name":"The Scott Arms","lat":50.61632,"lon":-2.06297,"postcode":"BH20 5LH","la":"Dorset","era":"trad","nn":2286,"risk":56,"cat":"amber"},{"name":"The Ship Inn","lat":50.68024,"lon":-2.227,"postcode":"BH20 6EQ","la":"Dorset","era":"trad","nn":455,"risk":39,"cat":"amber"},{"name":"The Showbar Taproom and Bar","lat":50.60939,"lon":-1.95676,"postcode":"BH19 1DD","la":"Dorset","era":"mod","nn":0,"risk":18,"cat":"green"},{"name":"The Silent Woman Inn","lat":50.71035,"lon":-2.14341,"postcode":"BH20 7PA","la":"Dorset","era":"trad","nn":2893,"risk":61,"cat":"red"},{"name":"The Swans","lat":50.87614,"lon":-1.87512,"postcode":"BH31 6UL","la":"Dorset","era":"trad","nn":221,"risk":40,"cat":"amber"},{"name":"The Tap House","lat":50.80111,"lon":-1.9887,"postcode":"BH21 1LT","la":"Dorset","era":"mod","nn":43,"risk":18,"cat":"green"},{"name":"The Three Legged Cross","lat":50.84409,"lon":-1.86338,"postcode":"BH21 6RE","la":"Dorset","era":"trad","nn":2027,"risk":55,"cat":"amber"},{"name":"The Village Inn","lat":50.62654,"lon":-1.96939,"postcode":"BH19 3DG","la":"Dorset","era":"trad","nn":1235,"risk":49,"cat":"amber"},{"name":"The White Hart","lat":50.79933,"lon":-1.98914,"postcode":"BH21 1JL","la":"Dorset","era":"trad","nn":88,"risk":19,"cat":"green"},{"name":"The White Heather","lat":50.80108,"lon":-1.89106,"postcode":"BH22 9AQ","la":"Dorset","era":"other","nn":1133,"risk":48,"cat":"amber"},{"name":"The White Horse Inn","lat":50.60766,"lon":-1.9554,"postcode":"BH19 2LP","la":"Dorset","era":"trad","nn":44,"risk":18,"cat":"green"},{"name":"The White Swan","lat":50.6082,"lon":-1.95745,"postcode":"BH19 2LT","la":"Dorset","era":"trad","nn":30,"risk":18,"cat":"green"},{"name":"Tivoli Theatre","lat":50.80149,"lon":-1.98877,"postcode":"BH21 1LT","la":"Dorset","era":"other","nn":43,"risk":18,"cat":"green"},{"name":"Wareham Conservative Club","lat":50.68531,"lon":-2.10983,"postcode":"BH20 4LT","la":"Dorset","era":"other","nn":64,"risk":18,"cat":"green"},{"name":"Wareham Legion Club","lat":50.6851,"lon":-2.10898,"postcode":"BH20 4NB","la":"Dorset","era":"other","nn":38,"risk":18,"cat":"green"},{"name":"Weld Arms","lat":50.63747,"lon":-2.20238,"postcode":"BH20 5QQ","la":"Dorset","era":"trad","nn":3396,"risk":64,"cat":"red"},{"name":"Wimborne Rugby Football Club","lat":50.79766,"lon":-1.97209,"postcode":"BH21 2AP","la":"Dorset","era":"other","nn":579,"risk":22,"cat":"green"},{"name":"Wimborne Town Football Club","lat":50.79503,"lon":-1.96498,"postcode":"BH21 2FU","la":"Dorset","era":"other","nn":579,"risk":42,"cat":"amber"},{"name":"Wool Royal British Legion","lat":50.67845,"lon":-2.22119,"postcode":"BH20 6DJ","la":"Dorset","era":"trad","nn":234,"risk":37,"cat":"amber"},{"name":"115 CHILDCARE SERVICES LTD","lat":50.8453,"lon":-1.77906,"postcode":"BH24 1PZ","la":"New Forest","era":"other","nn":20,"risk":25,"cat":"green"},{"name":"BASHLEY FOOTBALL CLUB","lat":50.77295,"lon":-1.65845,"postcode":"BH25 5RY","la":"New Forest","era":"other","nn":582,"risk":46,"cat":"amber"},{"name":"CARPENTER ARMS","lat":50.77661,"lon":-1.74324,"postcode":"BH23 8BA","la":"New Forest","era":"trad","nn":734,"risk":48,"cat":"amber"},{"name":"CAT & FIDDLE","lat":50.75571,"lon":-1.71175,"postcode":"BH23 7DS","la":"New Forest","era":"other","nn":915,"risk":51,"cat":"amber"},{"name":"CENTRAL BAR","lat":50.75405,"lon":-1.65595,"postcode":"BH25 6JX","la":"New Forest","era":"other","nn":9,"risk":25,"cat":"green"},{"name":"CJC CATERING","lat":50.84549,"lon":-1.79049,"postcode":"BH24 1DN","la":"New Forest","era":"other","nn":54,"risk":25,"cat":"green"},{"name":"ELLINGHAM & RINGWOOD  R.F.C. LTD.","lat":50.84546,"lon":-1.77921,"postcode":"BH24 1PZ","la":"New Forest","era":"other","nn":20,"risk":25,"cat":"green"},{"name":"ELM TREE","lat":50.8432,"lon":-1.76584,"postcode":"BH24 3DY","la":"New Forest","era":"trad","nn":957,"risk":49,"cat":"amber"},{"name":"FISH INN","lat":50.84593,"lon":-1.79922,"postcode":"BH24 2AA","la":"New Forest","era":"trad","nn":357,"risk":27,"cat":"green"},{"name":"HIGH CORNER INN","lat":50.89581,"lon":-1.72758,"postcode":"BH24 3QY","la":"New Forest","era":"trad","nn":2761,"risk":67,"cat":"red"},{"name":"HOBURNE BASHLEY","lat":50.77275,"lon":-1.65018,"postcode":"BH25 5QR","la":"New Forest","era":"other","nn":582,"risk":46,"cat":"amber"},{"name":"INN ON THE FURLONG","lat":50.84679,"lon":-1.79181,"postcode":"BH24 1EY","la":"New Forest","era":"trad","nn":172,"risk":26,"cat":"green"},{"name":"NEW MILTON CONSERVATIVE CLUB LTD","lat":50.75398,"lon":-1.65588,"postcode":"BH25 6JX","la":"New Forest","era":"other","nn":9,"risk":25,"cat":"green"},{"name":"OLD BEAMS IBSLEY","lat":50.88519,"lon":-1.7881,"postcode":"BH24 3PP","la":"New Forest","era":"other","nn":1773,"risk":60,"cat":"amber"},{"name":"ORIGINAL WHITE HART RINGWOOD","lat":50.84693,"lon":-1.79438,"postcode":"BH24 1AW","la":"New Forest","era":"trad","nn":0,"risk":25,"cat":"green"},{"name":"RINGWOOD TOWN F C","lat":50.82874,"lon":-1.77213,"postcode":"BH24 3BX","la":"New Forest","era":"other","nn":1668,"risk":59,"cat":"amber"},{"name":"SUPER BROTHERS ARMS COCKTAIL WINE AND TAPAS","lat":50.7552,"lon":-1.65754,"postcode":"BH25 6DF","la":"New Forest","era":"other","nn":60,"risk":25,"cat":"green"},{"name":"THE ALICE LISLE","lat":50.87259,"lon":-1.77263,"postcode":"BH24 3NA","la":"New Forest","era":"other","nn":1773,"risk":60,"cat":"amber"},{"name":"THE BURLEY INN","lat":50.82658,"lon":-1.70233,"postcode":"BH24 4AB","la":"New Forest","era":"trad","nn":0,"risk":42,"cat":"amber"},{"name":"THE CELLAR","lat":50.8457,"lon":-1.7898,"postcode":"BH24 1DG","la":"New Forest","era":"other","nn":54,"risk":25,"cat":"green"},{"name":"THE CROWN","lat":50.78092,"lon":-1.73533,"postcode":"BH23 8AA","la":"New Forest","era":"trad","nn":469,"risk":46,"cat":"amber"},{"name":"THE HALE GARDENS LAWN TENNIS CLUB","lat":50.74996,"lon":-1.6494,"postcode":"BH25 6HA","la":"New Forest","era":"other","nn":322,"risk":27,"cat":"green"},{"name":"THE HOURGLASS","lat":50.75539,"lon":-1.65674,"postcode":"BH25 6JU","la":"New Forest","era":"other","nn":60,"risk":25,"cat":"green"},{"name":"THE HOUSE MARTIN","lat":50.74547,"lon":-1.67077,"postcode":"BH25 6QF","la":"New Forest","era":"mod","nn":558,"risk":49,"cat":"amber"},{"name":"THE LONDON TAVERN","lat":50.8546,"lon":-1.76766,"postcode":"BH24 1TY","la":"New Forest","era":"other","nn":537,"risk":49,"cat":"amber"},{"name":"THE NEW QUEEN INN","lat":50.78424,"lon":-1.79168,"postcode":"BH23 7BG","la":"New Forest","era":"trad","nn":1578,"risk":58,"cat":"amber"},{"name":"THE QUEENS HEAD","lat":50.82658,"lon":-1.70233,"postcode":"BH24 4AB","la":"New Forest","era":"trad","nn":0,"risk":42,"cat":"amber"},{"name":"THE RAILWAY","lat":50.84246,"lon":-1.78622,"postcode":"BH24 1NQ","la":"New Forest","era":"trad","nn":439,"risk":28,"cat":"green"},{"name":"THE RISING SUN","lat":50.78147,"lon":-1.65786,"postcode":"BH25 5SF","la":"New Forest","era":"other","nn":949,"risk":52,"cat":"amber"},{"name":"THE STAR INN","lat":50.84693,"lon":-1.79438,"postcode":"BH24 1AW","la":"New Forest","era":"trad","nn":0,"risk":25,"cat":"green"},{"name":"THE WATHEN BARTLETT","lat":50.82598,"lon":-1.70218,"postcode":"BH24 4EB","la":"New Forest","era":"other","nn":68,"risk":43,"cat":"amber"},{"name":"THE WHEATSHEAF","lat":50.74798,"lon":-1.66389,"postcode":"BH25 6QJ","la":"New Forest","era":"trad","nn":558,"risk":29,"cat":"green"},{"name":"THE WHITE BUCK","lat":50.8231,"lon":-1.67661,"postcode":"BH24 4AZ","la":"New Forest","era":"other","nn":1824,"risk":60,"cat":"amber"},{"name":"THE WHITE HART","lat":50.85175,"lon":-1.77384,"postcode":"BH24 1HU","la":"New Forest","era":"trad","nn":537,"risk":34,"cat":"amber"},{"name":"THE WOOLPACK","lat":50.77236,"lon":-1.77941,"postcode":"BH23 7AX","la":"New Forest","era":"trad","nn":1001,"risk":54,"cat":"amber"},{"name":"THREE TUNS INN","lat":50.77794,"lon":-1.73061,"postcode":"BH23 8JH","la":"New Forest","era":"trad","nn":469,"risk":46,"cat":"amber"},{"name":"WALKER ARMS","lat":50.75108,"lon":-1.65362,"postcode":"BH25 6JJ","la":"New Forest","era":"trad","nn":322,"risk":27,"cat":"green"},{"name":"WELLINGTON","lat":50.75639,"lon":-1.65325,"postcode":"BH25 6AD","la":"New Forest","era":"trad","nn":269,"risk":27,"cat":"green"}]