[{"name":"Commercial Hotel","lat":56.55797,"lon":-3.142,"postcode":"PH12 8UQ","la":"Angus","era":"other","nn":76,"risk":43,"cat":"amber"},{"name":"Newtyle Bowling Club.","lat":56.55958,"lon":-3.14573,"postcode":"PH12 8TT","la":"Angus","era":"other","nn":229,"risk":44,"cat":"amber"},{"name":"Newtyle Legion Hall","lat":56.55862,"lon":-3.14243,"postcode":"PH12 8UB","la":"Angus","era":"other","nn":76,"risk":43,"cat":"amber"},{"name":"C. C. Bar Services","lat":56.83917,"lon":-5.10863,"postcode":"PH33 7DS","la":"Highland","era":"mod","nn":2086,"risk":68,"cat":"red"},{"name":"CGC Blackmill Airstrip","lat":57.11255,"lon":-3.89407,"postcode":"PH21 1NG","la":"Highland","era":"trad","nn":8766,"risk":88,"cat":"red"},{"name":"MacKays Bar","lat":57.14307,"lon":-4.68077,"postcode":"PH32 4BG","la":"Highland","era":"other","nn":194,"risk":52,"cat":"amber"},{"name":"Roobarb","lat":56.82046,"lon":-5.1062,"postcode":"PH33 6EN","la":"Highland","era":"other","nn":2086,"risk":68,"cat":"red"},{"name":"Royal British Legion","lat":57.14454,"lon":-4.68253,"postcode":"PH32 4AU","la":"Highland","era":"trad","nn":194,"risk":52,"cat":"amber"},{"name":"The Steam Inn","lat":57.0051,"lon":-5.82949,"postcode":"PH41 4PU","la":"Highland","era":"trad","nn":33889,"risk":88,"cat":"red"},{"name":"Woodshed Bar","lat":57.17487,"lon":-3.80507,"postcode":"PH22 1QN","la":"Highland","era":"other","nn":8766,"risk":88,"cat":"red"},{"name":"Almond Valley Bowling Club","lat":56.41729,"lon":-3.51737,"postcode":"PH1 3NJ","la":"Perth and Kinross","era":"other","nn":42,"risk":45,"cat":"amber"},{"name":"Auchterarder Golf Club","lat":56.29088,"lon":-3.72302,"postcode":"PH3 1LS","la":"Perth and Kinross","era":"other","nn":1178,"risk":58,"cat":"amber"},{"name":"Blackbird Inn","lat":56.6134,"lon":-3.22853,"postcode":"PH11 8NB","la":"Perth and Kinross","era":"trad","nn":2118,"risk":65,"cat":"red"},{"name":"Blackford Bowling Club","lat":56.26002,"lon":-3.78315,"postcode":"PH4 1QF","la":"Perth and Kinross","era":"other","nn":5055,"risk":85,"cat":"red"},{"name":"Cherrybank Inn","lat":56.38739,"lon":-3.45648,"postcode":"PH2 0NA","la":"Perth and Kinross","era":"trad","nn":1024,"risk":57,"cat":"amber"},{"name":"Civil Service Sports Association Club","lat":56.39072,"lon":-3.43686,"postcode":"PH2 8EB","la":"Perth and Kinross","era":"other","nn":245,"risk":29,"cat":"green"},{"name":"Comrie Golf Club","lat":56.37823,"lon":-3.98599,"postcode":"PH6 2LR","la":"Perth and Kinross","era":"other","nn":9064,"risk":85,"cat":"red"},{"name":"Cyprus Inn","lat":56.34956,"lon":-3.40557,"postcode":"PH2 9AB","la":"Perth and Kinross","era":"trad","nn":4950,"risk":85,"cat":"red"},{"name":"Dreadnought Inn","lat":56.59083,"lon":-3.34091,"postcode":"PH10 6DQ","la":"Perth and Kinross","era":"trad","nn":217,"risk":46,"cat":"amber"},{"name":"Fair O'Blair","lat":56.59252,"lon":-3.33807,"postcode":"PH10 6AB","la":"Perth and Kinross","era":"other","nn":115,"risk":46,"cat":"amber"},{"name":"Foundry","lat":56.39779,"lon":-3.43405,"postcode":"PH1 5PJ","la":"Perth and Kinross","era":"mod","nn":91,"risk":28,"cat":"green"},{"name":"Fountain Bar","lat":56.61971,"lon":-3.86524,"postcode":"PH15 2DD","la":"Perth and Kinross","era":"other","nn":163,"risk":49,"cat":"amber"},{"name":"Half a Tanner","lat":56.39623,"lon":-3.42855,"postcode":"PH1 5SZ","la":"Perth and Kinross","era":"other","nn":0,"risk":27,"cat":"green"},{"name":"JS Badgers Ltd","lat":56.41707,"lon":-3.51682,"postcode":"PH1 3NJ","la":"Perth and Kinross","era":"other","nn":42,"risk":45,"cat":"amber"},{"name":"Kinloch Arms Hotel","lat":56.5883,"lon":-3.1627,"postcode":"PH12 8RN","la":"Perth and Kinross","era":"trad","nn":3107,"risk":72,"cat":"red"},{"name":"Kirkside Bar Ltd","lat":56.39623,"lon":-3.42855,"postcode":"PH1 5SZ","la":"Perth and Kinross","era":"mod","nn":0,"risk":27,"cat":"green"},{"name":"La Care A Vin Ltd","lat":56.39738,"lon":-3.42731,"postcode":"PH1 5JY","la":"Perth and Kinross","era":"other","nn":58,"risk":28,"cat":"green"},{"name":"Leap Kitchen","lat":56.39515,"lon":-3.43351,"postcode":"PH2 8NY","la":"Perth and Kinross","era":"mod","nn":0,"risk":27,"cat":"green"},{"name":"Muthill Golf Club","lat":56.33069,"lon":-3.84542,"postcode":"PH5 2DA","la":"Perth and Kinross","era":"other","nn":4663,"risk":83,"cat":"red"},{"name":"Number Thirty One","lat":56.59152,"lon":-3.3376,"postcode":"PH10 6AS","la":"Perth and Kinross","era":"other","nn":115,"risk":46,"cat":"amber"},{"name":"Ormonds Bar","lat":56.39694,"lon":-3.4359,"postcode":"PH1 5QN","la":"Perth and Kinross","era":"other","nn":68,"risk":28,"cat":"green"},{"name":"Pitcairngreen Inn","lat":56.4256,"lon":-3.51777,"postcode":"PH1 3LP","la":"Perth and Kinross","era":"trad","nn":925,"risk":51,"cat":"amber"},{"name":"Red House Hotel","lat":56.54783,"lon":-3.26457,"postcode":"PH13 9AL","la":"Perth and Kinross","era":"mod","nn":6378,"risk":85,"cat":"red"},{"name":"Robert Burns Lounge","lat":56.39522,"lon":-3.43533,"postcode":"PH2 8EE","la":"Perth and Kinross","era":"mod","nn":112,"risk":28,"cat":"green"},{"name":"Sandeman","lat":56.39705,"lon":-3.43222,"postcode":"PH1 5EN","la":"Perth and Kinross","era":"other","nn":139,"risk":28,"cat":"green"},{"name":"Slainte Bar","lat":56.39533,"lon":-3.43096,"postcode":"PH2 8PA","la":"Perth and Kinross","era":"other","nn":158,"risk":29,"cat":"green"},{"name":"St Johnstone F.C. Club","lat":56.40037,"lon":-3.43329,"postcode":"PH1 5NR","la":"Perth and Kinross","era":"other","nn":290,"risk":29,"cat":"green"},{"name":"Stags Head Pub","lat":56.38913,"lon":-4.1404,"postcode":"PH6 2NL","la":"Perth and Kinross","era":"trad","nn":9582,"risk":85,"cat":"red"},{"name":"Strathmore Golf Centre","lat":56.597,"lon":-3.21093,"postcode":"PH11 8NZ","la":"Perth and Kinross","era":"other","nn":2118,"risk":65,"cat":"red"},{"name":"Strathord Inn","lat":56.47935,"lon":-3.45214,"postcode":"PH1 4NG","la":"Perth and Kinross","era":"trad","nn":4617,"risk":82,"cat":"red"},{"name":"The Abbotsford","lat":56.38969,"lon":-3.44037,"postcode":"PH2 0EB","la":"Perth and Kinross","era":"other","nn":245,"risk":29,"cat":"green"},{"name":"The Bank","lat":56.39709,"lon":-3.43482,"postcode":"PH1 5PE","la":"Perth and Kinross","era":"other","nn":68,"risk":28,"cat":"green"},{"name":"The Bankfoot Inn","lat":56.5014,"lon":-3.51588,"postcode":"PH1 4AB","la":"Perth and Kinross","era":"trad","nn":4617,"risk":82,"cat":"red"},{"name":"The Bee Bar","lat":56.39617,"lon":-3.43475,"postcode":"PH1 5NU","la":"Perth and Kinross","era":"other","nn":102,"risk":28,"cat":"green"},{"name":"The Black Watch Inn","lat":56.61899,"lon":-3.86757,"postcode":"PH15 2BB","la":"Perth and Kinross","era":"trad","nn":163,"risk":49,"cat":"amber"},{"name":"The Bridgend Bar","lat":56.40015,"lon":-3.42304,"postcode":"PH2 7HD","la":"Perth and Kinross","era":"other","nn":360,"risk":30,"cat":"green"},{"name":"The Bunker Golf Lounge & Bar","lat":56.39514,"lon":-3.43351,"postcode":"PH2 8NY","la":"Perth and Kinross","era":"mod","nn":0,"risk":27,"cat":"green"},{"name":"The Capital Asset","lat":56.39748,"lon":-3.42638,"postcode":"PH1 5LQ","la":"Perth and Kinross","era":"other","nn":58,"risk":28,"cat":"green"},{"name":"The Errol Pub","lat":56.39115,"lon":-3.21534,"postcode":"PH2 7QW","la":"Perth and Kinross","era":"other","nn":4611,"risk":82,"cat":"red"},{"name":"The Greyfriars Bar Ltd","lat":56.39496,"lon":-3.42698,"postcode":"PH2 8PG","la":"Perth and Kinross","era":"mod","nn":141,"risk":28,"cat":"green"},{"name":"The Malt House","lat":56.39349,"lon":-3.42808,"postcode":"PH2 8LJ","la":"Perth and Kinross","era":"other","nn":177,"risk":29,"cat":"green"},{"name":"The Maltings","lat":56.41627,"lon":-3.46219,"postcode":"PH1 3GD","la":"Perth and Kinross","era":"other","nn":1712,"risk":62,"cat":"red"},{"name":"The Niblick","lat":56.29615,"lon":-3.70646,"postcode":"PH3 1BJ","la":"Perth and Kinross","era":"other","nn":1178,"risk":58,"cat":"amber"},{"name":"The Pretoria Bar Crieff Ltd","lat":56.37281,"lon":-3.83835,"postcode":"PH7 3BT","la":"Perth and Kinross","era":"mod","nn":62,"risk":45,"cat":"amber"},{"name":"The Quaich","lat":56.37248,"lon":-3.83915,"postcode":"PH7 3HT","la":"Perth and Kinross","era":"other","nn":62,"risk":45,"cat":"amber"},{"name":"The Royal British Legion Club","lat":56.37483,"lon":-3.83316,"postcode":"PH7 3EB","la":"Perth and Kinross","era":"trad","nn":391,"risk":48,"cat":"amber"},{"name":"The Silvery Tay","lat":56.39515,"lon":-3.43351,"postcode":"PH2 8NY","la":"Perth and Kinross","era":"other","nn":0,"risk":27,"cat":"green"},{"name":"The Twa Tams Ltd","lat":56.39359,"lon":-3.43212,"postcode":"PH2 8JR","la":"Perth and Kinross","era":"other","nn":193,"risk":29,"cat":"green"},{"name":"The Venue","lat":56.39621,"lon":-3.42727,"postcode":"PH1 5SP","la":"Perth and Kinross","era":"other","nn":79,"risk":28,"cat":"green"},{"name":"The Wee Kitchen","lat":56.39607,"lon":-3.4369,"postcode":"PH1 5QL","la":"Perth and Kinross","era":"mod","nn":115,"risk":28,"cat":"green"},{"name":"Welcome Inn","lat":56.40191,"lon":-3.47224,"postcode":"PH1 2DP","la":"Perth and Kinross","era":"trad","nn":1712,"risk":62,"cat":"red"}]