[{"name":"Champion House Social Club","lat":50.8356,"lon":-0.23532,"postcode":"BN42 4FT","la":"Adur","era":"mod","nn":160,"risk":28,"cat":"green"},{"name":"Cricketers","lat":50.83414,"lon":-0.23772,"postcode":"BN42 4GF","la":"Adur","era":"other","nn":79,"risk":27,"cat":"green"},{"name":"Crown & Anchor","lat":50.8317,"lon":-0.27617,"postcode":"BN43 5DD","la":"Adur","era":"trad","nn":33,"risk":27,"cat":"green"},{"name":"Duke Of Wellington","lat":50.83288,"lon":-0.26888,"postcode":"BN43 6RE","la":"Adur","era":"trad","nn":309,"risk":29,"cat":"green"},{"name":"Empire Club","lat":50.82384,"lon":-0.321,"postcode":"BN15 8HJ","la":"Adur","era":"other","nn":258,"risk":29,"cat":"green"},{"name":"Farmers Hotel","lat":50.82588,"lon":-0.32273,"postcode":"BN15 8AE","la":"Adur","era":"other","nn":0,"risk":27,"cat":"green"},{"name":"Ferry Inn","lat":50.83189,"lon":-0.27467,"postcode":"BN43 5ZE","la":"Adur","era":"trad","nn":0,"risk":27,"cat":"green"},{"name":"Harvester","lat":50.83133,"lon":-0.31944,"postcode":"BN15 9DP","la":"Adur","era":"trad","nn":322,"risk":29,"cat":"green"},{"name":"Jenner Hospitality, Shoreham","lat":50.83189,"lon":-0.27467,"postcode":"BN43 5ZE","la":"Adur","era":"other","nn":0,"risk":27,"cat":"green"},{"name":"Lancing Sailing Club","lat":50.82155,"lon":-0.31299,"postcode":"BN15 8ES","la":"Adur","era":"other","nn":617,"risk":31,"cat":"amber"},{"name":"Miller and Carter","lat":50.83794,"lon":-0.32127,"postcode":"BN15 0EY","la":"Adur","era":"trad","nn":746,"risk":49,"cat":"amber"},{"name":"Ocean View Diving Club (Bar)","lat":50.82202,"lon":-0.32502,"postcode":"BN15 8AU","la":"Adur","era":"other","nn":110,"risk":28,"cat":"green"},{"name":"Piston Broke","lat":50.83257,"lon":-0.27809,"postcode":"BN43 5DB","la":"Adur","era":"other","nn":45,"risk":27,"cat":"green"},{"name":"Red Lion PH","lat":50.84009,"lon":-0.28579,"postcode":"BN43 5TE","la":"Adur","era":"trad","nn":48,"risk":27,"cat":"green"},{"name":"Royal British Legion","lat":50.82892,"lon":-0.32368,"postcode":"BN15 9AX","la":"Adur","era":"trad","nn":0,"risk":27,"cat":"green"},{"name":"Royal Sovereign Public House","lat":50.83243,"lon":-0.2759,"postcode":"BN43 5DP","la":"Adur","era":"trad","nn":41,"risk":27,"cat":"green"},{"name":"Ship Inn","lat":50.83342,"lon":-0.23532,"postcode":"BN42 4AD","la":"Adur","era":"trad","nn":96,"risk":27,"cat":"green"},{"name":"Shoreham Club","lat":50.83306,"lon":-0.27752,"postcode":"BN43 5WG","la":"Adur","era":"other","nn":67,"risk":27,"cat":"green"},{"name":"Shoreham Conservative Club","lat":50.83294,"lon":-0.27852,"postcode":"BN43 5DB","la":"Adur","era":"other","nn":51,"risk":27,"cat":"green"},{"name":"Shoreham Football Club","lat":50.83614,"lon":-0.26106,"postcode":"BN43 6GA","la":"Adur","era":"other","nn":557,"risk":31,"cat":"amber"},{"name":"Shoreham Rowing Club","lat":50.83187,"lon":-0.25693,"postcode":"BN43 6RN","la":"Adur","era":"other","nn":255,"risk":31,"cat":"amber"},{"name":"Shoreham Sailing Club (Bar)","lat":50.82983,"lon":-0.25528,"postcode":"BN43 5HZ","la":"Adur","era":"other","nn":255,"risk":34,"cat":"amber"},{"name":"Shoreham-by-Sea Bowling Club","lat":50.83996,"lon":-0.26901,"postcode":"BN43 6BA","la":"Adur","era":"other","nn":607,"risk":31,"cat":"amber"},{"name":"Southwick Beer EnGINe","lat":50.83445,"lon":-0.2367,"postcode":"BN42 4FJ","la":"Adur","era":"other","nn":72,"risk":27,"cat":"green"},{"name":"Southwick Rangers FC","lat":50.83331,"lon":-0.23312,"postcode":"BN42 4AB","la":"Adur","era":"other","nn":155,"risk":28,"cat":"green"},{"name":"Southwick Sports and Social Club","lat":50.83381,"lon":-0.23654,"postcode":"BN42 4DB","la":"Adur","era":"mod","nn":72,"risk":27,"cat":"green"},{"name":"Sussex County Croquet Club","lat":50.83273,"lon":-0.24175,"postcode":"BN42 4DJ","la":"Adur","era":"other","nn":324,"risk":29,"cat":"green"},{"name":"Sussex County Football Association","lat":50.82892,"lon":-0.32368,"postcode":"BN15 9AX","la":"Adur","era":"other","nn":0,"risk":27,"cat":"green"},{"name":"Suter's Yard","lat":50.83234,"lon":-0.27738,"postcode":"BN43 5DB","la":"Adur","era":"mod","nn":56,"risk":27,"cat":"green"},{"name":"Swiss Cottage","lat":50.83529,"lon":-0.28038,"postcode":"BN43 5TD","la":"Adur","era":"other","nn":293,"risk":29,"cat":"green"},{"name":"The Amsterdam Inn also T/A 88th Street, Value Mighty, Sin City Burger, K-Town, Chik Box and Locked and Loaded","lat":50.83968,"lon":-0.28563,"postcode":"BN43 5WQ","la":"Adur","era":"trad","nn":48,"risk":27,"cat":"green"},{"name":"The Bistro Bar at Beach Green","lat":50.82104,"lon":-0.3249,"postcode":"BN15 8AU","la":"Adur","era":"mod","nn":110,"risk":28,"cat":"green"},{"name":"The Bridge Inn","lat":50.83226,"lon":-0.27852,"postcode":"BN43 5DE","la":"Adur","era":"trad","nn":45,"risk":27,"cat":"green"},{"name":"The Buckingham Arms","lat":50.83428,"lon":-0.27269,"postcode":"BN43 5WA","la":"Adur","era":"trad","nn":78,"risk":27,"cat":"green"},{"name":"The Burger Barn","lat":50.82588,"lon":-0.32273,"postcode":"BN15 8AE","la":"Adur","era":"other","nn":0,"risk":27,"cat":"green"},{"name":"The Crab Tree Inn","lat":50.83485,"lon":-0.27203,"postcode":"BN43 5UA","la":"Adur","era":"trad","nn":78,"risk":27,"cat":"green"},{"name":"The Crabtree PH","lat":50.83239,"lon":-0.32858,"postcode":"BN15 9NQ","la":"Adur","era":"other","nn":517,"risk":30,"cat":"green"},{"name":"The Galley at The New Port Arms","lat":50.83118,"lon":-0.23522,"postcode":"BN42 4EG","la":"Adur","era":"trad","nn":249,"risk":28,"cat":"green"},{"name":"The Gardeners Arms","lat":50.83465,"lon":-0.35464,"postcode":"BN15 0AR","la":"Adur","era":"trad","nn":1311,"risk":58,"cat":"amber"},{"name":"The Harbour Club (bar)","lat":50.82958,"lon":-0.26359,"postcode":"BN43 5HG","la":"Adur","era":"other","nn":522,"risk":30,"cat":"green"},{"name":"The Longshore","lat":50.82786,"lon":-0.28812,"postcode":"BN43 5LD","la":"Adur","era":"other","nn":825,"risk":33,"cat":"amber"},{"name":"The Marlipins Pub","lat":50.83199,"lon":-0.27624,"postcode":"BN43 5DA","la":"Adur","era":"other","nn":33,"risk":27,"cat":"green"},{"name":"The Old Star Ale & Cider House","lat":50.83243,"lon":-0.27532,"postcode":"BN43 5DQ","la":"Adur","era":"other","nn":41,"risk":27,"cat":"green"},{"name":"The Romans Hotel","lat":50.83681,"lon":-0.23037,"postcode":"BN42 4NG","la":"Adur","era":"other","nn":373,"risk":29,"cat":"green"},{"name":"The Ropetackle Centre","lat":50.83257,"lon":-0.27905,"postcode":"BN43 5EG","la":"Adur","era":"other","nn":50,"risk":27,"cat":"green"},{"name":"The Russell Martin Foundation","lat":50.83433,"lon":-0.2244,"postcode":"BN42 4NT","la":"Adur","era":"other","nn":442,"risk":30,"cat":"green"},{"name":"The Stanley Ale House","lat":50.82884,"lon":-0.32178,"postcode":"BN15 9AY","la":"Adur","era":"other","nn":134,"risk":28,"cat":"green"},{"name":"The Tap House","lat":50.83214,"lon":-0.27418,"postcode":"BN43 5ZE","la":"Adur","era":"mod","nn":45,"risk":27,"cat":"green"},{"name":"Waterside Inn","lat":50.82963,"lon":-0.2721,"postcode":"BN43 5RA","la":"Adur","era":"trad","nn":309,"risk":29,"cat":"green"},{"name":"139 steps limited","lat":50.85484,"lon":-0.55426,"postcode":"BN18 9AB","la":"Arun","era":"other","nn":54,"risk":27,"cat":"green"},{"name":"Angmering Sports & Social Club","lat":50.83561,"lon":-0.48677,"postcode":"BN16 4DN","la":"Arun","era":"mod","nn":533,"risk":35,"cat":"amber"},{"name":"Aquaholics Trading Limited T/A The Clockhouse Bar","lat":50.80527,"lon":-0.48116,"postcode":"BN16 1NX","la":"Arun","era":"mod","nn":58,"risk":29,"cat":"green"},{"name":"Arun Yacht Club","lat":50.80605,"lon":-0.54521,"postcode":"BN17 5DL","la":"Arun","era":"other","nn":0,"risk":26,"cat":"green"},{"name":"Black Horse Inn","lat":50.8489,"lon":-0.60886,"postcode":"BN18 0LP","la":"Arun","era":"trad","nn":900,"risk":52,"cat":"amber"},{"name":"Black Rabbit","lat":50.86684,"lon":-0.54364,"postcode":"BN18 9PB","la":"Arun","era":"other","nn":1443,"risk":59,"cat":"amber"},{"name":"British Legion Club","lat":50.81086,"lon":-0.4829,"postcode":"BN16 1JL","la":"Arun","era":"other","nn":177,"risk":27,"cat":"green"},{"name":"Coco Lounge","lat":50.8088,"lon":-0.54163,"postcode":"BN17 5AS","la":"Arun","era":"mod","nn":156,"risk":27,"cat":"green"},{"name":"Crown ( pub )","lat":50.80993,"lon":-0.5432,"postcode":"BN17 5EG","la":"Arun","era":"trad","nn":100,"risk":27,"cat":"green"},{"name":"Dew Drop Inn","lat":50.81908,"lon":-0.54379,"postcode":"BN17 7JS","la":"Arun","era":"trad","nn":627,"risk":51,"cat":"amber"},{"name":"East Preston & Kingston Bowls Club","lat":50.80932,"lon":-0.48357,"postcode":"BN16 1NG","la":"Arun","era":"trad","nn":177,"risk":30,"cat":"green"},{"name":"Fauna Drinks Ltd","lat":50.85603,"lon":-0.56003,"postcode":"BN18 9AT","la":"Arun","era":"other","nn":329,"risk":28,"cat":"green"},{"name":"Ferring Retirement Club","lat":50.81363,"lon":-0.44903,"postcode":"BN12 5JL","la":"Arun","era":"other","nn":454,"risk":49,"cat":"amber"},{"name":"Kings Arms","lat":50.85346,"lon":-0.55771,"postcode":"BN18 9DN","la":"Arun","era":"trad","nn":111,"risk":27,"cat":"green"},{"name":"Lamb Inn","lat":50.81058,"lon":-0.51132,"postcode":"BN16 3NU","la":"Arun","era":"trad","nn":205,"risk":45,"cat":"amber"},{"name":"Littlehampton & District Angling Club","lat":50.80809,"lon":-0.54471,"postcode":"BN17 5BL","la":"Arun","era":"other","nn":85,"risk":27,"cat":"green"},{"name":"Littlehampton Constitutional Club","lat":50.80943,"lon":-0.53574,"postcode":"BN17 5PU","la":"Arun","era":"other","nn":420,"risk":29,"cat":"green"},{"name":"Littlehampton Golf Club Ltd","lat":50.80605,"lon":-0.54521,"postcode":"BN17 5DL","la":"Arun","era":"other","nn":0,"risk":26,"cat":"green"},{"name":"Maypole Inn","lat":50.82882,"lon":-0.61281,"postcode":"BN18 0DP","la":"Arun","era":"trad","nn":1643,"risk":60,"cat":"amber"},{"name":"Pete's Den","lat":50.82911,"lon":-0.48351,"postcode":"BN16 4AE","la":"Arun","era":"other","nn":46,"risk":26,"cat":"green"},{"name":"Red Lion","lat":50.85437,"lon":-0.55414,"postcode":"BN18 9AG","la":"Arun","era":"trad","nn":19,"risk":26,"cat":"green"},{"name":"SHIP AND ANCHOR","lat":50.82656,"lon":-0.57695,"postcode":"BN18 0BJ","la":"Arun","era":"trad","nn":2357,"risk":65,"cat":"red"},{"name":"Shof Ltf T/A The Fox","lat":50.84108,"lon":-0.47016,"postcode":"BN13 3UJ","la":"Arun","era":"trad","nn":855,"risk":52,"cat":"amber"},{"name":"The Angmering Club","lat":50.83089,"lon":-0.48548,"postcode":"BN16 4JZ","la":"Arun","era":"other","nn":198,"risk":30,"cat":"green"},{"name":"The Arun View Inn","lat":50.81064,"lon":-0.54997,"postcode":"BN17 5DD","la":"Arun","era":"trad","nn":61,"risk":27,"cat":"green"},{"name":"The Black Horse","lat":50.86312,"lon":-0.40863,"postcode":"BN14 0SX","la":"Arun","era":"trad","nn":570,"risk":50,"cat":"amber"},{"name":"The Black Horse Climping","lat":50.8022,"lon":-0.57852,"postcode":"BN17 5RL","la":"Arun","era":"trad","nn":735,"risk":51,"cat":"amber"},{"name":"The Eagle","lat":50.85375,"lon":-0.55619,"postcode":"BN18 9DJ","la":"Arun","era":"trad","nn":111,"risk":27,"cat":"green"},{"name":"The George And Dragon","lat":50.89461,"lon":-0.55285,"postcode":"BN18 9LW","la":"Arun","era":"trad","nn":1778,"risk":61,"cat":"red"},{"name":"The George at Burpham","lat":50.87036,"lon":-0.52385,"postcode":"BN18 9RR","la":"Arun","era":"trad","nn":1443,"risk":59,"cat":"amber"},{"name":"The George Inn","lat":50.80911,"lon":-0.54379,"postcode":"BN17 5BG","la":"Arun","era":"trad","nn":45,"risk":26,"cat":"green"},{"name":"The Gun Inn","lat":50.8682,"lon":-0.40748,"postcode":"BN14 0TA","la":"Arun","era":"trad","nn":570,"risk":50,"cat":"amber"},{"name":"The Henty Arms","lat":50.81725,"lon":-0.44605,"postcode":"BN12 6QY","la":"Arun","era":"trad","nn":454,"risk":47,"cat":"amber"},{"name":"The Holly Tree Pub","lat":50.84578,"lon":-0.62069,"postcode":"BN18 0PH","la":"Arun","era":"trad","nn":900,"risk":52,"cat":"amber"},{"name":"The Lamb Inn","lat":50.82937,"lon":-0.48401,"postcode":"BN16 4EQ","la":"Arun","era":"trad","nn":46,"risk":26,"cat":"green"},{"name":"The Locomotive","lat":50.82464,"lon":-0.54228,"postcode":"BN17 7LW","la":"Arun","era":"other","nn":627,"risk":51,"cat":"amber"},{"name":"The New Inn","lat":50.80441,"lon":-0.53163,"postcode":"BN17 5PL","la":"Arun","era":"trad","nn":272,"risk":28,"cat":"green"},{"name":"The Old Stables","lat":50.85519,"lon":-0.65185,"postcode":"BN18 0SY","la":"Arun","era":"other","nn":1915,"risk":62,"cat":"red"},{"name":"The Oystercatcher","lat":50.80628,"lon":-0.58674,"postcode":"BN17 5RU","la":"Arun","era":"other","nn":735,"risk":51,"cat":"amber"},{"name":"The Quill Rustington Ltd","lat":50.81074,"lon":-0.50842,"postcode":"BN16 3NJ","la":"Arun","era":"other","nn":205,"risk":45,"cat":"amber"},{"name":"The Roundstone Inn T/A Littlehampton Premier Inn","lat":50.81794,"lon":-0.47581,"postcode":"BN16 1EB","la":"Arun","era":"trad","nn":608,"risk":35,"cat":"amber"},{"name":"The S.P Alehouse","lat":50.81024,"lon":-0.48049,"postcode":"BN16 1JN","la":"Arun","era":"other","nn":183,"risk":27,"cat":"green"},{"name":"The Spotted Cow","lat":50.82837,"lon":-0.47466,"postcode":"BN16 4AW","la":"Arun","era":"other","nn":576,"risk":33,"cat":"amber"},{"name":"The Spur","lat":50.86383,"lon":-0.62376,"postcode":"BN18 0NE","la":"Arun","era":"other","nn":1962,"risk":62,"cat":"red"},{"name":"The Steam Packet","lat":50.8104,"lon":-0.5492,"postcode":"BN17 5BZ","la":"Arun","era":"other","nn":61,"risk":27,"cat":"green"},{"name":"The Swan Hotel","lat":50.8542,"lon":-0.55408,"postcode":"BN18 9AG","la":"Arun","era":"trad","nn":19,"risk":26,"cat":"green"},{"name":"The Tudor Tavern","lat":50.80495,"lon":-0.48181,"postcode":"BN16 1NN","la":"Arun","era":"other","nn":58,"risk":29,"cat":"green"},{"name":"The White Hart","lat":50.80876,"lon":-0.54411,"postcode":"BN17 5BH","la":"Arun","era":"trad","nn":45,"risk":26,"cat":"green"},{"name":"The White Swan","lat":50.85664,"lon":-0.58048,"postcode":"BN18 0AD","la":"Arun","era":"trad","nn":1437,"risk":59,"cat":"amber"},{"name":"The Windmill Public House","lat":50.81672,"lon":-0.50213,"postcode":"BN16 3JN","la":"Arun","era":"trad","nn":799,"risk":49,"cat":"amber"},{"name":"The Worlds End","lat":50.84007,"lon":-0.45809,"postcode":"BN13 3UQ","la":"Arun","era":"other","nn":855,"risk":52,"cat":"amber"},{"name":"Vardar VIP Club","lat":50.80514,"lon":-0.53533,"postcode":"BN17 5NH","la":"Arun","era":"other","nn":272,"risk":28,"cat":"green"},{"name":"Worthing Rugby Football Club","lat":50.82323,"lon":-0.47367,"postcode":"BN16 4AX","la":"Arun","era":"other","nn":576,"risk":33,"cat":"amber"},{"name":"2 Church Street Wine And Cocktail Bar","lat":50.82451,"lon":-0.14006,"postcode":"BN1 1UJ","la":"Brighton and Hove","era":"other","nn":38,"risk":17,"cat":"green"},{"name":"Alberta's At The Windmill","lat":50.82557,"lon":-0.14838,"postcode":"BN1 3FL","la":"Brighton and Hove","era":"trad","nn":0,"risk":17,"cat":"green"},{"name":"Aldrington Club","lat":50.83259,"lon":-0.18077,"postcode":"BN3 5DL","la":"Brighton and Hove","era":"other","nn":156,"risk":18,"cat":"green"},{"name":"All Bar One","lat":50.82199,"lon":-0.13822,"postcode":"BN1 1EE","la":"Brighton and Hove","era":"mod","nn":69,"risk":17,"cat":"green"},{"name":"Antidote Bar Ltd","lat":50.8252,"lon":-0.15621,"postcode":"BN3 1AE","la":"Brighton and Hove","era":"mod","nn":0,"risk":17,"cat":"green"},{"name":"Apiary","lat":50.82524,"lon":-0.15439,"postcode":"BN1 2PA","la":"Brighton and Hove","era":"other","nn":58,"risk":17,"cat":"green"},{"name":"Arch & Hub","lat":50.81992,"lon":-0.14175,"postcode":"BN1 1NB","la":"Brighton and Hove","era":"mod","nn":0,"risk":17,"cat":"green"},{"name":"Argyle Arms","lat":50.83412,"lon":-0.14163,"postcode":"BN1 4QB","la":"Brighton and Hove","era":"trad","nn":121,"risk":18,"cat":"green"},{"name":"Arissy At The Kemp","lat":50.81948,"lon":-0.12381,"postcode":"BN2 1EB","la":"Brighton and Hove","era":"other","nn":46,"risk":17,"cat":"green"},{"name":"Bar Broadway","lat":50.82045,"lon":-0.13614,"postcode":"BN2 1TE","la":"Brighton and Hove","era":"mod","nn":0,"risk":17,"cat":"green"},{"name":"Bar Broadway (Wet Sales)","lat":50.82045,"lon":-0.13614,"postcode":"BN2 1TE","la":"Brighton and Hove","era":"mod","nn":0,"risk":17,"cat":"green"},{"name":"Bar Broadway Kitchen","lat":50.82045,"lon":-0.13614,"postcode":"BN2 1TE","la":"Brighton and Hove","era":"mod","nn":0,"risk":17,"cat":"green"},{"name":"Bar Valentino (wet Sales)","lat":50.82365,"lon":-0.13973,"postcode":"BN1 1UF","la":"Brighton and Hove","era":"mod","nn":0,"risk":17,"cat":"green"},{"name":"Bat And Ball","lat":50.83022,"lon":-0.1348,"postcode":"BN1 4SB","la":"Brighton and Hove","era":"other","nn":0,"risk":17,"cat":"green"},{"name":"Battle Of Trafalgar","lat":50.82892,"lon":-0.14299,"postcode":"BN1 3LW","la":"Brighton and Hove","era":"other","nn":111,"risk":18,"cat":"green"},{"name":"Be At One","lat":50.82137,"lon":-0.13817,"postcode":"BN1 1EG","la":"Brighton and Hove","era":"other","nn":69,"risk":17,"cat":"green"},{"name":"Bear At The Dover Castle","lat":50.82795,"lon":-0.12853,"postcode":"BN2 9UE","la":"Brighton and Hove","era":"other","nn":0,"risk":17,"cat":"green"},{"name":"Bear Inn","lat":50.83808,"lon":-0.12376,"postcode":"BN2 4AE","la":"Brighton and Hove","era":"trad","nn":80,"risk":18,"cat":"green"},{"name":"Bedford Tavern","lat":50.82361,"lon":-0.15595,"postcode":"BN1 2PG","la":"Brighton and Hove","era":"other","nn":94,"risk":18,"cat":"green"},{"name":"Beelzebab At Hope And Ruin Pub","lat":50.82458,"lon":-0.14328,"postcode":"BN1 3WA","la":"Brighton and Hove","era":"other","nn":0,"risk":17,"cat":"green"},{"name":"Big Sams Kitchen At The Signalman","lat":50.83641,"lon":-0.1357,"postcode":"BN1 4QQ","la":"Brighton and Hove","era":"mod","nn":0,"risk":17,"cat":"green"},{"name":"Bison Beer Beach Bar","lat":50.81726,"lon":-0.12252,"postcode":"BN2 1EN","la":"Brighton and Hove","era":"other","nn":153,"risk":18,"cat":"green"},{"name":"Bison Beer Crafthouse","lat":50.82735,"lon":-0.16606,"postcode":"BN3 2BD","la":"Brighton and Hove","era":"mod","nn":42,"risk":17,"cat":"green"},{"name":"Bistro Food Trading Co At The Bristol Bar","lat":50.81745,"lon":-0.12026,"postcode":"BN2 1DF","la":"Brighton and Hove","era":"other","nn":0,"risk":17,"cat":"green"},{"name":"Blend Catering Ltd At Falmer Bar","lat":50.86433,"lon":-0.08888,"postcode":"BN1 9QF","la":"Brighton and Hove","era":"other","nn":0,"risk":22,"cat":"green"},{"name":"Blind Shrip At The Royal Soverign","lat":50.82404,"lon":-0.15059,"postcode":"BN1 2HE","la":"Brighton and Hove","era":"trad","nn":0,"risk":17,"cat":"green"},{"name":"Blindshrimp Ltd At The William The Fourth","lat":50.82421,"lon":-0.13979,"postcode":"BN1 1UJ","la":"Brighton and Hove","era":"other","nn":0,"risk":17,"cat":"green"},{"name":"Block","lat":50.82062,"lon":-0.1332,"postcode":"BN2 1TP","la":"Brighton and Hove","era":"other","nn":0,"risk":17,"cat":"green"},{"name":"Blue Anchor Kitchen Franchise","lat":50.83103,"lon":-0.20854,"postcode":"BN41 1DF","la":"Brighton and Hove","era":"other","nn":0,"risk":17,"cat":"green"},{"name":"Bohemia","lat":50.8221,"lon":-0.14078,"postcode":"BN1 1HB","la":"Brighton and Hove","era":"other","nn":0,"risk":17,"cat":"green"},{"name":"Bootleggers","lat":50.82131,"lon":-0.14334,"postcode":"BN1 1AL","la":"Brighton and Hove","era":"other","nn":0,"risk":17,"cat":"green"},{"name":"Bow Street Runner (Wet Sales)","lat":50.8246,"lon":-0.16045,"postcode":"BN3 1EL","la":"Brighton and Hove","era":"other","nn":131,"risk":18,"cat":"green"},{"name":"Brazil Aki At The Fog Horn","lat":50.83284,"lon":-0.20722,"postcode":"BN3 4EF","la":"Brighton and Hove","era":"other","nn":0,"risk":17,"cat":"green"},{"name":"Brew Dog","lat":50.82512,"lon":-0.13535,"postcode":"BN2 9QA","la":"Brighton and Hove","era":"other","nn":118,"risk":18,"cat":"green"},{"name":"Brighthelm","lat":50.82283,"lon":-0.14438,"postcode":"BN1 2RE","la":"Brighton and Hove","era":"trad","nn":43,"risk":17,"cat":"green"},{"name":"Brighton And Hove Albion Foundation","lat":50.86215,"lon":-0.0839,"postcode":"BN1 9BL","la":"Brighton and Hove","era":"other","nn":425,"risk":25,"cat":"green"},{"name":"Brighton And Hove Golf Club","lat":50.87271,"lon":-0.2005,"postcode":"BN1 8YJ","la":"Brighton and Hove","era":"other","nn":1048,"risk":47,"cat":"amber"},{"name":"Brighton Bierhaus","lat":50.82258,"lon":-0.13512,"postcode":"BN2 0JB","la":"Brighton and Hove","era":"other","nn":69,"risk":17,"cat":"green"},{"name":"Brighton Footgolf","lat":50.84883,"lon":-0.20513,"postcode":"BN3 8EB","la":"Brighton and Hove","era":"other","nn":172,"risk":36,"cat":"amber"},{"name":"Brighton Lions Club","lat":50.85611,"lon":-0.15677,"postcode":"BN1 5AZ","la":"Brighton and Hove","era":"trad","nn":1235,"risk":48,"cat":"amber"},{"name":"Brighton Music Hall","lat":50.8208,"lon":-0.1469,"postcode":"BN1 2FN","la":"Brighton and Hove","era":"other","nn":207,"risk":18,"cat":"green"},{"name":"Brighton Railway Club","lat":50.83275,"lon":-0.14849,"postcode":"BN1 3TF","la":"Brighton and Hove","era":"trad","nn":94,"risk":18,"cat":"green"},{"name":"Brighton Rocks Wet Sales","lat":50.81985,"lon":-0.13108,"postcode":"BN2 1PF","la":"Brighton and Hove","era":"other","nn":46,"risk":17,"cat":"green"},{"name":"Brighton Tavern","lat":50.82713,"lon":-0.13953,"postcode":"BN1 4AP","la":"Brighton and Hove","era":"other","nn":30,"risk":17,"cat":"green"},{"name":"British Legion","lat":50.83541,"lon":-0.21492,"postcode":"BN41 1LD","la":"Brighton and Hove","era":"other","nn":164,"risk":18,"cat":"green"},{"name":"B-town Brats @ Mash Tun","lat":50.82421,"lon":-0.13979,"postcode":"BN1 1UJ","la":"Brighton and Hove","era":"other","nn":0,"risk":17,"cat":"green"},{"name":"Bugle Inn (wet Sales)","lat":50.83413,"lon":-0.12851,"postcode":"BN2 3HJ","la":"Brighton and Hove","era":"trad","nn":141,"risk":18,"cat":"green"},{"name":"Busby And Wilds","lat":50.81688,"lon":-0.1126,"postcode":"BN2 1NF","la":"Brighton and Hove","era":"other","nn":0,"risk":17,"cat":"green"},{"name":"Buzz Bingo","lat":50.82133,"lon":-0.12466,"postcode":"BN2 0LE","la":"Brighton and Hove","era":"other","nn":214,"risk":18,"cat":"green"},{"name":"Caroline Earles At The Prestonville Arms","lat":50.83408,"lon":-0.14596,"postcode":"BN1 5DN","la":"Brighton and Hove","era":"trad","nn":0,"risk":17,"cat":"green"},{"name":"Caroline Of Brunswick","lat":50.83022,"lon":-0.1348,"postcode":"BN1 4SB","la":"Brighton and Hove","era":"other","nn":0,"risk":17,"cat":"green"},{"name":"Castle Snooker Club","lat":50.82378,"lon":-0.14942,"postcode":"BN1 2HD","la":"Brighton and Hove","era":"other","nn":9,"risk":17,"cat":"green"},{"name":"Caxton Arms","lat":50.8268,"lon":-0.14304,"postcode":"BN1 3LB","la":"Brighton and Hove","era":"trad","nn":75,"risk":18,"cat":"green"},{"name":"Chalk","lat":50.81996,"lon":-0.13842,"postcode":"BN1 1NJ","la":"Brighton and Hove","era":"other","nn":40,"risk":17,"cat":"green"},{"name":"Charles Street Tap","lat":50.82018,"lon":-0.13599,"postcode":"BN2 1TA","la":"Brighton and Hove","era":"mod","nn":0,"risk":17,"cat":"green"},{"name":"Chef Weilding At The Exchange","lat":50.83371,"lon":-0.17398,"postcode":"BN3 3RL","la":"Brighton and Hove","era":"other","nn":0,"risk":17,"cat":"green"},{"name":"Circle Kitchen","lat":50.865,"lon":-0.14363,"postcode":"BN1 8RA","la":"Brighton and Hove","era":"mod","nn":0,"risk":22,"cat":"green"},{"name":"Cleveland Arms","lat":50.84161,"lon":-0.13821,"postcode":"BN1 6FF","la":"Brighton and Hove","era":"trad","nn":203,"risk":18,"cat":"green"},{"name":"Club Revenge","lat":50.82011,"lon":-0.13635,"postcode":"BN1 1EL","la":"Brighton and Hove","era":"other","nn":26,"risk":17,"cat":"green"},{"name":"Cobden Arms","lat":50.83036,"lon":-0.12513,"postcode":"BN2 9TJ","la":"Brighton and Hove","era":"trad","nn":142,"risk":18,"cat":"green"},{"name":"Cooper's Cask","lat":50.8268,"lon":-0.15916,"postcode":"BN3 1FB","la":"Brighton and Hove","era":"trad","nn":7,"risk":17,"cat":"green"},{"name":"Crown And Anchor","lat":50.84302,"lon":-0.15156,"postcode":"BN1 6SA","la":"Brighton and Hove","era":"trad","nn":342,"risk":19,"cat":"green"},{"name":"Crowns Brighton","lat":50.82335,"lon":-0.14421,"postcode":"BN1 2RD","la":"Brighton and Hove","era":"trad","nn":18,"risk":17,"cat":"green"},{"name":"Cut Your Wolf Loose","lat":50.82795,"lon":-0.13705,"postcode":"BN1 4EQ","la":"Brighton and Hove","era":"other","nn":0,"risk":17,"cat":"green"},{"name":"Daddy Longlegs Wet Sales","lat":50.81585,"lon":-0.10774,"postcode":"BN2 5TE","la":"Brighton and Hove","era":"other","nn":360,"risk":20,"cat":"green"},{"name":"Danny At Haus On The Hill","lat":50.82725,"lon":-0.12691,"postcode":"BN2 9UF","la":"Brighton and Hove","era":"other","nn":0,"risk":17,"cat":"green"},{"name":"Dead Wax Social (Wet Sales)","lat":50.82366,"lon":-0.14006,"postcode":"BN1 1RD","la":"Brighton and Hove","era":"mod","nn":0,"risk":17,"cat":"green"},{"name":"Dee Dee's Pizza At Dead Wax","lat":50.82366,"lon":-0.14006,"postcode":"BN1 1RD","la":"Brighton and Hove","era":"other","nn":0,"risk":17,"cat":"green"},{"name":"DoubleTree By Hilton Brighton Metropole","lat":50.82219,"lon":-0.14886,"postcode":"BN1 2FU","la":"Brighton and Hove","era":"other","nn":53,"risk":17,"cat":"green"},{"name":"Druids Arms","lat":50.83155,"lon":-0.13453,"postcode":"BN1 4SD","la":"Brighton and Hove","era":"trad","nn":57,"risk":17,"cat":"green"},{"name":"Druids Head","lat":50.8217,"lon":-0.13985,"postcode":"BN1 1HJ","la":"Brighton and Hove","era":"trad","nn":26,"risk":17,"cat":"green"},{"name":"Dyke Alehouse","lat":50.83737,"lon":-0.15251,"postcode":"BN1 5AA","la":"Brighton and Hove","era":"other","nn":401,"risk":20,"cat":"green"},{"name":"Earth And Stars (wet Sales)","lat":50.82455,"lon":-0.14248,"postcode":"BN1 1RJ","la":"Brighton and Hove","era":"other","nn":0,"risk":17,"cat":"green"},{"name":"East Street Tap","lat":50.82041,"lon":-0.13911,"postcode":"BN1 1HQ","la":"Brighton and Hove","era":"mod","nn":45,"risk":17,"cat":"green"},{"name":"Espina","lat":50.82171,"lon":-0.14221,"postcode":"BN1 1AD","la":"Brighton and Hove","era":"other","nn":0,"risk":17,"cat":"green"},{"name":"Falmer Bar (wet Sales)","lat":50.86433,"lon":-0.08888,"postcode":"BN1 9QF","la":"Brighton and Hove","era":"mod","nn":0,"risk":22,"cat":"green"},{"name":"Fiddler's Elbow (wet Sales)","lat":50.8221,"lon":-0.14351,"postcode":"BN1 1AN","la":"Brighton and Hove","era":"other","nn":0,"risk":17,"cat":"green"},{"name":"Fiveways","lat":50.84457,"lon":-0.13468,"postcode":"BN1 6JG","la":"Brighton and Hove","era":"other","nn":98,"risk":18,"cat":"green"},{"name":"Fortune Of War","lat":50.81999,"lon":-0.14181,"postcode":"BN1 1NB","la":"Brighton and Hove","era":"other","nn":0,"risk":17,"cat":"green"},{"name":"Fountain Head (Wet Sales)","lat":50.82559,"lon":-0.13782,"postcode":"BN1 1YE","la":"Brighton and Hove","era":"trad","nn":0,"risk":17,"cat":"green"},{"name":"Fox On The Downs","lat":50.83192,"lon":-0.11428,"postcode":"BN2 3EA","la":"Brighton and Hove","era":"trad","nn":547,"risk":21,"cat":"green"},{"name":"Fred's At The Brunswick","lat":50.82479,"lon":-0.16229,"postcode":"BN3 1JF","la":"Brighton and Hove","era":"other","nn":0,"risk":17,"cat":"green"},{"name":"Genting Casino (Brighton)","lat":50.823,"lon":-0.15148,"postcode":"BN1 2HN","la":"Brighton and Hove","era":"other","nn":0,"risk":17,"cat":"green"},{"name":"George Street Tap","lat":50.82894,"lon":-0.1736,"postcode":"BN3 3YA","la":"Brighton and Hove","era":"other","nn":67,"risk":17,"cat":"green"},{"name":"Ginger Pig","lat":50.82649,"lon":-0.17989,"postcode":"BN3 2TR","la":"Brighton and Hove","era":"other","nn":162,"risk":18,"cat":"green"},{"name":"Globalls (Wet Sales)","lat":50.81285,"lon":-0.1022,"postcode":"BN2 5WA","la":"Brighton and Hove","era":"other","nn":240,"risk":19,"cat":"green"},{"name":"Golden Foods At Golden Cannon","lat":50.81927,"lon":-0.12325,"postcode":"BN2 1EB","la":"Brighton and Hove","era":"other","nn":0,"risk":17,"cat":"green"},{"name":"Goldstone Club","lat":50.83279,"lon":-0.17321,"postcode":"BN3 3WJ","la":"Brighton and Hove","era":"other","nn":116,"risk":18,"cat":"green"},{"name":"Good Companions (wet Sales)","lat":50.83196,"lon":-0.14799,"postcode":"BN1 3TE","la":"Brighton and Hove","era":"other","nn":0,"risk":17,"cat":"green"},{"name":"Grace","lat":50.82316,"lon":-0.14242,"postcode":"BN1 1RH","la":"Brighton and Hove","era":"other","nn":57,"risk":17,"cat":"green"},{"name":"Grand Central","lat":50.82805,"lon":-0.14224,"postcode":"BN1 3PA","la":"Brighton and Hove","era":"other","nn":0,"risk":17,"cat":"green"},{"name":"Grasshoppers","lat":50.83613,"lon":-0.16687,"postcode":"BN3 6GE","la":"Brighton and Hove","era":"other","nn":348,"risk":19,"cat":"green"},{"name":"Great Eastern","lat":50.82811,"lon":-0.13671,"postcode":"BN1 4ER","la":"Brighton and Hove","era":"other","nn":30,"risk":17,"cat":"green"},{"name":"Green Door Store","lat":50.82927,"lon":-0.13942,"postcode":"BN1 4FQ","la":"Brighton and Hove","era":"other","nn":108,"risk":18,"cat":"green"},{"name":"Hand In Hand","lat":50.81947,"lon":-0.12771,"postcode":"BN2 1JN","la":"Brighton and Hove","era":"other","nn":154,"risk":18,"cat":"green"},{"name":"Hangleton Manor Inn","lat":50.84728,"lon":-0.20517,"postcode":"BN3 8AN","la":"Brighton and Hove","era":"trad","nn":172,"risk":36,"cat":"amber"},{"name":"Happy Go Souvlaki At Mrs Fitzherberts","lat":50.82372,"lon":-0.13909,"postcode":"BN1 1UG","la":"Brighton and Hove","era":"other","nn":0,"risk":17,"cat":"green"},{"name":"Hare And Hounds Wet Sales","lat":50.83281,"lon":-0.13739,"postcode":"BN1 4JF","la":"Brighton and Hove","era":"trad","nn":0,"risk":17,"cat":"green"},{"name":"Hartington Pub","lat":50.83297,"lon":-0.12189,"postcode":"BN2 3PF","la":"Brighton and Hove","era":"trad","nn":324,"risk":19,"cat":"green"},{"name":"Hatchet Harry's","lat":50.82412,"lon":-0.1444,"postcode":"BN1 3FE","la":"Brighton and Hove","era":"other","nn":53,"risk":17,"cat":"green"},{"name":"Haus On The Hill","lat":50.82725,"lon":-0.12691,"postcode":"BN2 9UF","la":"Brighton and Hove","era":"other","nn":0,"risk":17,"cat":"green"},{"name":"Heart And Hand Pub (wet Sales)","lat":50.82596,"lon":-0.14056,"postcode":"BN1 1YD","la":"Brighton and Hove","era":"other","nn":0,"risk":17,"cat":"green"},{"name":"Hobgoblin (wet Sales)","lat":50.82875,"lon":-0.13581,"postcode":"BN1 4GU","la":"Brighton and Hove","era":"other","nn":0,"risk":17,"cat":"green"},{"name":"Hop Poles (Wet Sales)","lat":50.82138,"lon":-0.143,"postcode":"BN1 1AL","la":"Brighton and Hove","era":"other","nn":25,"risk":17,"cat":"green"},{"name":"Horizon","lat":50.81964,"lon":-0.14052,"postcode":"BN1 1NB","la":"Brighton and Hove","era":"other","nn":59,"risk":17,"cat":"green"},{"name":"Hove And Kingsway Bowling Club","lat":50.82542,"lon":-0.18466,"postcode":"BN3 4GP","la":"Brighton and Hove","era":"trad","nn":355,"risk":19,"cat":"green"},{"name":"Hove Park Tavern","lat":50.83876,"lon":-0.17857,"postcode":"BN3 7AP","la":"Brighton and Hove","era":"other","nn":338,"risk":19,"cat":"green"},{"name":"Hove Place - Kitchen Franchise","lat":50.82605,"lon":-0.16623,"postcode":"BN3 2FH","la":"Brighton and Hove","era":"mod","nn":0,"risk":17,"cat":"green"},{"name":"Hove Place (wet Sales)","lat":50.82605,"lon":-0.16623,"postcode":"BN3 2FH","la":"Brighton and Hove","era":"other","nn":0,"risk":17,"cat":"green"},{"name":"Hove Rugby Club - Bar","lat":50.84013,"lon":-0.17427,"postcode":"BN3 7BF","la":"Brighton and Hove","era":"other","nn":338,"risk":19,"cat":"green"},{"name":"Hove Rugby Kitchen","lat":50.83909,"lon":-0.16525,"postcode":"BN3 6NQ","la":"Brighton and Hove","era":"mod","nn":348,"risk":19,"cat":"green"},{"name":"Humble Plates @ The Post House","lat":50.8225,"lon":-0.14147,"postcode":"BN1 1AF","la":"Brighton and Hove","era":"other","nn":36,"risk":17,"cat":"green"},{"name":"Indigo Leisure Ltd At Seven Stars","lat":50.82171,"lon":-0.14221,"postcode":"BN1 1AD","la":"Brighton and Hove","era":"other","nn":0,"risk":17,"cat":"green"},{"name":"Infinity Bar","lat":50.82086,"lon":-0.1352,"postcode":"BN2 1TH","la":"Brighton and Hove","era":"other","nn":26,"risk":17,"cat":"green"},{"name":"Inn On The Square - Laines","lat":50.82322,"lon":-0.14436,"postcode":"BN1 2RD","la":"Brighton and Hove","era":"trad","nn":18,"risk":17,"cat":"green"},{"name":"Kemptown Klub","lat":50.81761,"lon":-0.11806,"postcode":"BN2 1EF","la":"Brighton and Hove","era":"other","nn":11,"risk":17,"cat":"green"},{"name":"Keng's Thai Kitchen","lat":50.8598,"lon":-0.14017,"postcode":"BN1 8JH","la":"Brighton and Hove","era":"mod","nn":0,"risk":17,"cat":"green"},{"name":"Kings Arms","lat":50.82174,"lon":-0.13437,"postcode":"BN2 1RJ","la":"Brighton and Hove","era":"trad","nn":58,"risk":17,"cat":"green"},{"name":"Kinkao At The Royal George","lat":50.82853,"lon":-0.1743,"postcode":"BN3 3YE","la":"Brighton and Hove","era":"trad","nn":0,"risk":17,"cat":"green"},{"name":"LA Bar","lat":50.80103,"lon":-0.03744,"postcode":"BN2 8LG","la":"Brighton and Hove","era":"other","nn":60,"risk":22,"cat":"green"},{"name":"La GiGi At St James Tavern Kitchen","lat":50.8204,"lon":-0.13435,"postcode":"BN2 1TN","la":"Brighton and Hove","era":"mod","nn":0,"risk":17,"cat":"green"},{"name":"Ladies Mile Wet Sales","lat":50.865,"lon":-0.14363,"postcode":"BN1 8RA","la":"Brighton and Hove","era":"other","nn":0,"risk":22,"cat":"green"},{"name":"Lebano At The Victory Inn","lat":50.82272,"lon":-0.14286,"postcode":"BN1 1AH","la":"Brighton and Hove","era":"trad","nn":0,"risk":17,"cat":"green"},{"name":"Leonardo Hotel Brighton","lat":50.83157,"lon":-0.1403,"postcode":"BN1 4DJ","la":"Brighton and Hove","era":"other","nn":200,"risk":18,"cat":"green"},{"name":"Lickle More At Castle Snooker Club","lat":50.8238,"lon":-0.14955,"postcode":"BN1 2HD","la":"Brighton and Hove","era":"other","nn":9,"risk":17,"cat":"green"},{"name":"Lion And Lobster","lat":50.82388,"lon":-0.15468,"postcode":"BN1 2PS","la":"Brighton and Hove","era":"trad","nn":94,"risk":18,"cat":"green"},{"name":"Lobo's Caribbean Cuisine At The Gather Inn","lat":50.82847,"lon":-0.20026,"postcode":"BN3 4LW","la":"Brighton and Hove","era":"trad","nn":40,"risk":17,"cat":"green"},{"name":"Longman Of Wilmington (wet Sales)","lat":50.8598,"lon":-0.14017,"postcode":"BN1 8JH","la":"Brighton and Hove","era":"other","nn":0,"risk":17,"cat":"green"},{"name":"Lord Nelson Inn","lat":50.82829,"lon":-0.13936,"postcode":"BN1 4ED","la":"Brighton and Hove","era":"trad","nn":6,"risk":17,"cat":"green"},{"name":"Lost Boys Chicken At The Joker","lat":50.83454,"lon":-0.14003,"postcode":"BN1 4QF","la":"Brighton and Hove","era":"other","nn":0,"risk":17,"cat":"green"},{"name":"Lost+Found Taproom","lat":50.84371,"lon":-0.13442,"postcode":"BN1 6JG","la":"Brighton and Hove","era":"mod","nn":98,"risk":18,"cat":"green"},{"name":"Lucky Voice","lat":50.82111,"lon":-0.14141,"postcode":"BN1 1ND","la":"Brighton and Hove","era":"other","nn":0,"risk":17,"cat":"green"},{"name":"Mae Tic Kitchen","lat":50.83281,"lon":-0.13739,"postcode":"BN1 4JF","la":"Brighton and Hove","era":"mod","nn":0,"risk":17,"cat":"green"},{"name":"Maggie Mae's","lat":50.82274,"lon":-0.15127,"postcode":"BN1 2HG","la":"Brighton and Hove","era":"other","nn":32,"risk":17,"cat":"green"},{"name":"Marine Tavern","lat":50.82049,"lon":-0.1349,"postcode":"BN2 1TJ","la":"Brighton and Hove","era":"other","nn":40,"risk":17,"cat":"green"},{"name":"Marlowe's At The Worlds End","lat":50.83291,"lon":-0.13841,"postcode":"BN1 4JE","la":"Brighton and Hove","era":"other","nn":0,"risk":17,"cat":"green"},{"name":"Martha Gunn (Wet Sales)","lat":50.83537,"lon":-0.12803,"postcode":"BN2 3FE","la":"Brighton and Hove","era":"other","nn":0,"risk":17,"cat":"green"},{"name":"Martha Gunn Kitchen","lat":50.83537,"lon":-0.12803,"postcode":"BN2 3FE","la":"Brighton and Hove","era":"mod","nn":0,"risk":17,"cat":"green"},{"name":"Mash Tun (wet Sales)","lat":50.82421,"lon":-0.13979,"postcode":"BN1 1UJ","la":"Brighton and Hove","era":"other","nn":0,"risk":17,"cat":"green"},{"name":"Medusa Bar","lat":50.823,"lon":-0.15148,"postcode":"BN1 2HN","la":"Brighton and Hove","era":"other","nn":0,"risk":17,"cat":"green"},{"name":"Mile Oak Inn","lat":50.85034,"lon":-0.23095,"postcode":"BN41 2RB","la":"Brighton and Hove","era":"trad","nn":1120,"risk":47,"cat":"amber"},{"name":"Mitre Tavern","lat":50.83176,"lon":-0.13528,"postcode":"BN1 4JN","la":"Brighton and Hove","era":"other","nn":57,"risk":17,"cat":"green"},{"name":"Molly Malones","lat":50.82249,"lon":-0.14379,"postcode":"BN1 2RA","la":"Brighton and Hove","era":"other","nn":0,"risk":17,"cat":"green"},{"name":"Moulescoomb Social Club","lat":50.84655,"lon":-0.11728,"postcode":"BN2 4GA","la":"Brighton and Hove","era":"mod","nn":1046,"risk":47,"cat":"amber"},{"name":"Mrs Fitzherberts","lat":50.82372,"lon":-0.13909,"postcode":"BN1 1UG","la":"Brighton and Hove","era":"other","nn":0,"risk":17,"cat":"green"},{"name":"Namo Eat At The Eagle Pub","lat":50.82683,"lon":-0.13692,"postcode":"BN1 4AF","la":"Brighton and Hove","era":"trad","nn":0,"risk":17,"cat":"green"},{"name":"Nautilus Lounge","lat":50.82095,"lon":-0.13615,"postcode":"BN2 1TH","la":"Brighton and Hove","era":"mod","nn":49,"risk":17,"cat":"green"},{"name":"Neptune Inn (wet Sales)","lat":50.82503,"lon":-0.176,"postcode":"BN3 2WB","la":"Brighton and Hove","era":"trad","nn":69,"risk":17,"cat":"green"},{"name":"Nevill Public House","lat":50.84674,"lon":-0.18188,"postcode":"BN3 7QQ","la":"Brighton and Hove","era":"other","nn":909,"risk":41,"cat":"amber"},{"name":"North Laine Brewhouse (wetside)","lat":50.82639,"lon":-0.13589,"postcode":"BN1 4AA","la":"Brighton and Hove","era":"mod","nn":0,"risk":17,"cat":"green"},{"name":"North Laine Pub - Kitchen","lat":50.82639,"lon":-0.13589,"postcode":"BN1 4AA","la":"Brighton and Hove","era":"mod","nn":0,"risk":17,"cat":"green"},{"name":"Ola's Bar","lat":50.82846,"lon":-0.17748,"postcode":"BN3 2DJ","la":"Brighton and Hove","era":"other","nn":0,"risk":17,"cat":"green"},{"name":"One Under","lat":50.81983,"lon":-0.13897,"postcode":"BN1 1NF","la":"Brighton and Hove","era":"other","nn":11,"risk":17,"cat":"green"},{"name":"Open House (Kitchen)","lat":50.83715,"lon":-0.13696,"postcode":"BN1 6BZ","la":"Brighton and Hove","era":"mod","nn":0,"risk":17,"cat":"green"},{"name":"Otomi Tacos At New Unity","lat":50.832,"lon":-0.13732,"postcode":"BN1 4JD","la":"Brighton and Hove","era":"other","nn":0,"risk":17,"cat":"green"},{"name":"Park View","lat":50.8443,"lon":-0.14431,"postcode":"BN1 6LD","la":"Brighton and Hove","era":"other","nn":489,"risk":20,"cat":"green"},{"name":"Pickled Oyster At The Stoneham","lat":50.83371,"lon":-0.18683,"postcode":"BN3 5QJ","la":"Brighton and Hove","era":"other","nn":0,"risk":17,"cat":"green"},{"name":"Pipeline","lat":50.82022,"lon":-0.13967,"postcode":"BN1 1HT","la":"Brighton and Hove","era":"other","nn":29,"risk":17,"cat":"green"},{"name":"Pizza KO At Temple Bar","lat":50.82516,"lon":-0.15339,"postcode":"BN1 2AD","la":"Brighton and Hove","era":"other","nn":0,"risk":17,"cat":"green"},{"name":"Platinum Lace","lat":50.81993,"lon":-0.13899,"postcode":"BN1 1NF","la":"Brighton and Hove","era":"other","nn":11,"risk":17,"cat":"green"},{"name":"Plough Inn","lat":50.80561,"lon":-0.05771,"postcode":"BN2 7HD","la":"Brighton and Hove","era":"trad","nn":117,"risk":35,"cat":"amber"},{"name":"Post And Telegraph","lat":50.82267,"lon":-0.13947,"postcode":"BN1 1EA","la":"Brighton and Hove","era":"other","nn":110,"risk":18,"cat":"green"},{"name":"Preston Park Tavern","lat":50.84058,"lon":-0.14059,"postcode":"BN1 6GF","la":"Brighton and Hove","era":"other","nn":0,"risk":17,"cat":"green"},{"name":"Prestonville Arms (Wet Sales)","lat":50.83408,"lon":-0.14596,"postcode":"BN1 5DN","la":"Brighton and Hove","era":"trad","nn":0,"risk":17,"cat":"green"},{"name":"Proud Cabaret","lat":50.81754,"lon":-0.11795,"postcode":"BN2 1EF","la":"Brighton and Hove","era":"other","nn":11,"risk":17,"cat":"green"},{"name":"Pryzm","lat":50.8224,"lon":-0.14461,"postcode":"BN1 2RE","la":"Brighton and Hove","era":"other","nn":50,"risk":17,"cat":"green"},{"name":"Pulse Catering At The Sussex Cricketer","lat":50.82969,"lon":-0.16443,"postcode":"BN3 3AF","la":"Brighton and Hove","era":"other","nn":0,"risk":17,"cat":"green"},{"name":"Pulse Catering Ltd - Preston Park Tavern","lat":50.84058,"lon":-0.14059,"postcode":"BN1 6GF","la":"Brighton and Hove","era":"other","nn":0,"risk":17,"cat":"green"},{"name":"Queens Arms","lat":50.82135,"lon":-0.13491,"postcode":"BN2 1RH","la":"Brighton and Hove","era":"trad","nn":58,"risk":17,"cat":"green"},{"name":"Queens Head","lat":50.82784,"lon":-0.14183,"postcode":"BN1 3XD","la":"Brighton and Hove","era":"trad","nn":0,"risk":17,"cat":"green"},{"name":"R-Bar","lat":50.82018,"lon":-0.13599,"postcode":"BN2 1TA","la":"Brighton and Hove","era":"other","nn":0,"risk":17,"cat":"green"},{"name":"Regency Pool Club","lat":50.82236,"lon":-0.14378,"postcode":"BN1 2RA","la":"Brighton and Hove","era":"other","nn":14,"risk":17,"cat":"green"},{"name":"Rendezvous Casino","lat":50.81198,"lon":-0.10533,"postcode":"BN2 5UT","la":"Brighton and Hove","era":"other","nn":0,"risk":17,"cat":"green"},{"name":"Revolution Brighton","lat":50.82249,"lon":-0.14379,"postcode":"BN1 2RA","la":"Brighton and Hove","era":"other","nn":0,"risk":17,"cat":"green"},{"name":"Roasts At The New Oak","lat":50.86177,"lon":-0.12906,"postcode":"BN1 8DJ","la":"Brighton and Hove","era":"trad","nn":0,"risk":22,"cat":"green"},{"name":"Rose Hill","lat":50.83273,"lon":-0.13664,"postcode":"BN1 4JL","la":"Brighton and Hove","era":"trad","nn":53,"risk":17,"cat":"green"},{"name":"Round Georges And Sage Kitchen","lat":50.82391,"lon":-0.12066,"postcode":"BN2 0EQ","la":"Brighton and Hove","era":"other","nn":401,"risk":20,"cat":"green"},{"name":"Royal Sovereign","lat":50.82404,"lon":-0.15059,"postcode":"BN1 2HE","la":"Brighton and Hove","era":"trad","nn":0,"risk":17,"cat":"green"},{"name":"Royal Standard","lat":50.82784,"lon":-0.14183,"postcode":"BN1 3XD","la":"Brighton and Hove","era":"trad","nn":0,"risk":17,"cat":"green"},{"name":"Ruby","lat":50.85988,"lon":-0.10423,"postcode":"BN1 9GD","la":"Brighton and Hove","era":"other","nn":190,"risk":38,"cat":"amber"},{"name":"Saint James Pub Wet Sales","lat":50.8204,"lon":-0.13435,"postcode":"BN2 1TN","la":"Brighton and Hove","era":"trad","nn":0,"risk":17,"cat":"green"},{"name":"Saltdean United FC Ltd","lat":50.80957,"lon":-0.03551,"postcode":"BN2 8HE","la":"Brighton and Hove","era":"other","nn":947,"risk":41,"cat":"amber"},{"name":"Shakey's Kitchen - Shakespeare's Head","lat":50.83148,"lon":-0.14615,"postcode":"BN1 3TP","la":"Brighton and Hove","era":"other","nn":0,"risk":17,"cat":"green"},{"name":"Shorters At The Connaught Pub Kitchen","lat":50.82793,"lon":-0.17955,"postcode":"BN3 2DH","la":"Brighton and Hove","era":"mod","nn":0,"risk":17,"cat":"green"},{"name":"Sidewinder (wet Sales)","lat":50.82004,"lon":-0.12971,"postcode":"BN2 1PJ","la":"Brighton and Hove","era":"other","nn":0,"risk":17,"cat":"green"},{"name":"Sir Charles Napier","lat":50.82795,"lon":-0.12853,"postcode":"BN2 9UE","la":"Brighton and Hove","era":"other","nn":0,"risk":17,"cat":"green"},{"name":"Slam BBQ","lat":50.82554,"lon":-0.1369,"postcode":"BN1 1YW","la":"Brighton and Hove","era":"other","nn":65,"risk":17,"cat":"green"},{"name":"Somkid Hughes At Three Jolly Butchers","lat":50.82596,"lon":-0.14056,"postcode":"BN1 1YD","la":"Brighton and Hove","era":"other","nn":0,"risk":17,"cat":"green"},{"name":"Soulfoo Food Bar At The Old Albion","lat":50.82766,"lon":-0.17155,"postcode":"BN3 2EB","la":"Brighton and Hove","era":"mod","nn":0,"risk":17,"cat":"green"},{"name":"Spanish Lady","lat":50.80051,"lon":-0.03765,"postcode":"BN2 8LH","la":"Lewes","era":"other","nn":60,"risk":44,"cat":"amber"},{"name":"Spice Bag Brighton At Fiddler's Elbow","lat":50.8221,"lon":-0.14351,"postcode":"BN1 1AN","la":"Brighton and Hove","era":"other","nn":0,"risk":17,"cat":"green"},{"name":"St George PH (Wet Sales)","lat":50.84339,"lon":-0.21941,"postcode":"BN41 2LH","la":"Brighton and Hove","era":"trad","nn":0,"risk":20,"cat":"green"},{"name":"St Georges Inn","lat":50.81811,"lon":-0.11799,"postcode":"BN2 1HE","la":"Brighton and Hove","era":"trad","nn":55,"risk":17,"cat":"green"},{"name":"Stags Head","lat":50.84339,"lon":-0.21941,"postcode":"BN41 2LH","la":"Brighton and Hove","era":"trad","nn":0,"risk":20,"cat":"green"},{"name":"Stanley Arms PH","lat":50.83727,"lon":-0.22016,"postcode":"BN41 1SS","la":"Brighton and Hove","era":"trad","nn":282,"risk":19,"cat":"green"},{"name":"Station","lat":50.83421,"lon":-0.17155,"postcode":"BN3 3RU","la":"Brighton and Hove","era":"other","nn":5,"risk":17,"cat":"green"},{"name":"Stoneham(wet Sales)","lat":50.83371,"lon":-0.18683,"postcode":"BN3 5QJ","la":"Brighton and Hove","era":"other","nn":0,"risk":17,"cat":"green"},{"name":"Sussex","lat":50.8214,"lon":-0.13945,"postcode":"BN1 1HL","la":"Brighton and Hove","era":"other","nn":24,"risk":17,"cat":"green"},{"name":"Sussex Hotel","lat":50.82565,"lon":-0.17608,"postcode":"BN3 2RH","la":"Brighton and Hove","era":"other","nn":69,"risk":17,"cat":"green"},{"name":"T @ The Prince George","lat":50.82795,"lon":-0.13705,"postcode":"BN1 4EQ","la":"Brighton and Hove","era":"trad","nn":0,"risk":17,"cat":"green"},{"name":"Tattoo Bar M13","lat":50.82846,"lon":-0.17748,"postcode":"BN3 2DJ","la":"Brighton and Hove","era":"mod","nn":0,"risk":17,"cat":"green"},{"name":"Tavern Kitchen At Earth And Stars","lat":50.82455,"lon":-0.14248,"postcode":"BN1 1RJ","la":"Brighton and Hove","era":"mod","nn":0,"risk":17,"cat":"green"},{"name":"Temple Bar","lat":50.82516,"lon":-0.15339,"postcode":"BN1 2AD","la":"Brighton and Hove","era":"other","nn":0,"risk":17,"cat":"green"},{"name":"Ten Green Bottles","lat":50.82487,"lon":-0.13894,"postcode":"BN1 1GE","la":"Brighton and Hove","era":"other","nn":80,"risk":18,"cat":"green"},{"name":"The Actors","lat":50.82232,"lon":-0.13601,"postcode":"BN2 1RD","la":"Brighton and Hove","era":"other","nn":69,"risk":17,"cat":"green"},{"name":"The Admiral","lat":50.83165,"lon":-0.1268,"postcode":"BN2 3DD","la":"Brighton and Hove","era":"other","nn":52,"risk":17,"cat":"green"},{"name":"The Ancient Mariner","lat":50.83535,"lon":-0.18321,"postcode":"BN3 5FE","la":"Brighton and Hove","era":"other","nn":222,"risk":19,"cat":"green"},{"name":"The Arch","lat":50.81992,"lon":-0.14175,"postcode":"BN1 1NB","la":"Brighton and Hove","era":"other","nn":0,"risk":17,"cat":"green"},{"name":"The Barley Mow","lat":50.81859,"lon":-0.12199,"postcode":"BN2 1EE","la":"Brighton and Hove","era":"other","nn":117,"risk":18,"cat":"green"},{"name":"The Bath Arms Wet Sales","lat":50.8221,"lon":-0.14078,"postcode":"BN1 1HB","la":"Brighton and Hove","era":"trad","nn":0,"risk":17,"cat":"green"},{"name":"The Battle Of Trafalgar","lat":50.83661,"lon":-0.21628,"postcode":"BN41 1GT","la":"Brighton and Hove","era":"other","nn":164,"risk":18,"cat":"green"},{"name":"The Beef Guy At Block","lat":50.82062,"lon":-0.1332,"postcode":"BN2 1TP","la":"Brighton and Hove","era":"other","nn":0,"risk":17,"cat":"green"},{"name":"The Bee's Mouth (wet Sales)","lat":50.8252,"lon":-0.15621,"postcode":"BN3 1AE","la":"Brighton and Hove","era":"other","nn":0,"risk":17,"cat":"green"},{"name":"The Better Half","lat":50.82559,"lon":-0.17497,"postcode":"BN3 2RG","la":"Brighton and Hove","era":"other","nn":79,"risk":18,"cat":"green"},{"name":"The Black Dove","lat":50.82026,"lon":-0.13103,"postcode":"BN2 1PA","la":"Brighton and Hove","era":"other","nn":46,"risk":17,"cat":"green"},{"name":"The Black Horse Wet Sales","lat":50.82409,"lon":-0.13839,"postcode":"BN1 1UD","la":"Brighton and Hove","era":"trad","nn":0,"risk":17,"cat":"green"},{"name":"The Black Lion","lat":50.82111,"lon":-0.14141,"postcode":"BN1 1ND","la":"Brighton and Hove","era":"trad","nn":0,"risk":17,"cat":"green"},{"name":"The Blue Anchor","lat":50.83103,"lon":-0.20854,"postcode":"BN41 1DF","la":"Brighton and Hove","era":"trad","nn":0,"risk":17,"cat":"green"},{"name":"The Brick","lat":50.82394,"lon":-0.15103,"postcode":"BN1 2HP","la":"Brighton and Hove","era":"other","nn":33,"risk":17,"cat":"green"},{"name":"The Bristol Bar","lat":50.81745,"lon":-0.12026,"postcode":"BN2 1DF","la":"Brighton and Hove","era":"other","nn":0,"risk":17,"cat":"green"},{"name":"The Brunswick","lat":50.82479,"lon":-0.16229,"postcode":"BN3 1JF","la":"Brighton and Hove","era":"other","nn":0,"risk":17,"cat":"green"},{"name":"The BRZN Arms","lat":50.83622,"lon":-0.13977,"postcode":"BN1 4QJ","la":"Brighton and Hove","era":"trad","nn":188,"risk":18,"cat":"green"},{"name":"The Bulldog","lat":50.82087,"lon":-0.13338,"postcode":"BN2 1RF","la":"Brighton and Hove","era":"trad","nn":10,"risk":17,"cat":"green"},{"name":"The Burger Barn","lat":50.85822,"lon":-0.10359,"postcode":"BN1 9GD","la":"Brighton and Hove","era":"other","nn":190,"risk":38,"cat":"amber"},{"name":"The Cafe Cardamom Ltd At Easy Tiger","lat":50.82537,"lon":-0.14851,"postcode":"BN1 3FH","la":"Brighton and Hove","era":"other","nn":0,"risk":17,"cat":"green"},{"name":"The Camelford Arms","lat":50.82028,"lon":-0.13305,"postcode":"BN2 1TQ","la":"Brighton and Hove","era":"trad","nn":40,"risk":17,"cat":"green"},{"name":"The Cauldron","lat":50.82379,"lon":-0.14857,"postcode":"BN1 2EG","la":"Brighton and Hove","era":"other","nn":60,"risk":17,"cat":"green"},{"name":"The Chimney House","lat":50.83505,"lon":-0.14814,"postcode":"BN1 5DF","la":"Brighton and Hove","era":"other","nn":0,"risk":17,"cat":"green"},{"name":"The Chimney House Kitchen","lat":50.83505,"lon":-0.14814,"postcode":"BN1 5DF","la":"Brighton and Hove","era":"mod","nn":0,"risk":17,"cat":"green"},{"name":"The Colonnade Bar","lat":50.82365,"lon":-0.13973,"postcode":"BN1 1UF","la":"Brighton and Hove","era":"other","nn":0,"risk":17,"cat":"green"},{"name":"The Connaught Pub (wet Sales)","lat":50.82793,"lon":-0.17955,"postcode":"BN3 2DH","la":"Brighton and Hove","era":"other","nn":0,"risk":17,"cat":"green"},{"name":"The Constant Service","lat":50.82855,"lon":-0.12612,"postcode":"BN2 9SJ","la":"Brighton and Hove","era":"other","nn":150,"risk":18,"cat":"green"},{"name":"The County Oak","lat":50.86177,"lon":-0.12906,"postcode":"BN1 8DJ","la":"Brighton and Hove","era":"trad","nn":0,"risk":22,"cat":"green"},{"name":"The Cow (Wet Sales)","lat":50.8299,"lon":-0.1473,"postcode":"BN1 3JE","la":"Brighton and Hove","era":"other","nn":46,"risk":17,"cat":"green"},{"name":"The Cowley Club","lat":50.83019,"lon":-0.13645,"postcode":"BN1 4JA","la":"Brighton and Hove","era":"other","nn":116,"risk":18,"cat":"green"},{"name":"The Craft Beer Company","lat":50.82507,"lon":-0.14703,"postcode":"BN1 3FG","la":"Brighton and Hove","era":"mod","nn":109,"risk":18,"cat":"green"},{"name":"The Crescent","lat":50.82865,"lon":-0.1491,"postcode":"BN1 3HL","la":"Brighton and Hove","era":"other","nn":188,"risk":18,"cat":"green"},{"name":"The Cricketers - Kitchen Franchise","lat":50.82111,"lon":-0.14141,"postcode":"BN1 1ND","la":"Brighton and Hove","era":"mod","nn":0,"risk":17,"cat":"green"},{"name":"The Cricketers (wet Sales)","lat":50.82111,"lon":-0.14141,"postcode":"BN1 1ND","la":"Brighton and Hove","era":"other","nn":0,"risk":17,"cat":"green"},{"name":"The Dorset","lat":50.82568,"lon":-0.13999,"postcode":"BN1 1YB","la":"Brighton and Hove","era":"other","nn":51,"risk":17,"cat":"green"},{"name":"The Dover Castle","lat":50.82795,"lon":-0.12853,"postcode":"BN2 9UE","la":"Brighton and Hove","era":"other","nn":0,"risk":17,"cat":"green"},{"name":"The Duck Inn","lat":50.8046,"lon":-0.05818,"postcode":"BN2 7HE","la":"Brighton and Hove","era":"trad","nn":0,"risk":34,"cat":"amber"},{"name":"The Duke Of Wellington","lat":50.82747,"lon":-0.14318,"postcode":"BN1 3LQ","la":"Brighton and Hove","era":"trad","nn":0,"risk":17,"cat":"green"},{"name":"The Eagle","lat":50.82683,"lon":-0.13692,"postcode":"BN1 4AF","la":"Brighton and Hove","era":"trad","nn":0,"risk":17,"cat":"green"},{"name":"The Edinburgh - Wet Sales","lat":50.82747,"lon":-0.14318,"postcode":"BN1 3LQ","la":"Brighton and Hove","era":"other","nn":0,"risk":17,"cat":"green"},{"name":"The Evening Star","lat":50.82764,"lon":-0.14203,"postcode":"BN1 3PB","la":"Brighton and Hove","era":"other","nn":26,"risk":17,"cat":"green"},{"name":"The Exchange","lat":50.83371,"lon":-0.17398,"postcode":"BN3 3RL","la":"Brighton and Hove","era":"other","nn":0,"risk":17,"cat":"green"},{"name":"The Farm Tavern","lat":50.82673,"lon":-0.15917,"postcode":"BN3 1FB","la":"Brighton and Hove","era":"other","nn":7,"risk":17,"cat":"green"},{"name":"The Fat Pig At The Park Crescent","lat":50.83313,"lon":-0.13031,"postcode":"BN2 3HE","la":"Brighton and Hove","era":"other","nn":0,"risk":17,"cat":"green"},{"name":"The Foghorn (Wet Sales)","lat":50.83284,"lon":-0.20722,"postcode":"BN3 4EF","la":"Brighton and Hove","era":"other","nn":0,"risk":17,"cat":"green"},{"name":"The Font","lat":50.8222,"lon":-0.14129,"postcode":"BN1 1HA","la":"Brighton and Hove","era":"other","nn":36,"risk":17,"cat":"green"},{"name":"The Foundry","lat":50.8264,"lon":-0.14012,"postcode":"BN1 4AT","la":"Brighton and Hove","era":"mod","nn":58,"risk":17,"cat":"green"},{"name":"The Freemasons (Wet Sales)","lat":50.82551,"lon":-0.1584,"postcode":"BN3 1AF","la":"Brighton and Hove","era":"trad","nn":105,"risk":18,"cat":"green"},{"name":"The French Horn","lat":50.83028,"lon":-0.14705,"postcode":"BN1 3JD","la":"Brighton and Hove","era":"other","nn":46,"risk":17,"cat":"green"},{"name":"The Gather Inn","lat":50.82853,"lon":-0.20082,"postcode":"BN3 4LW","la":"Brighton and Hove","era":"trad","nn":40,"risk":17,"cat":"green"},{"name":"The Geese","lat":50.82971,"lon":-0.13103,"postcode":"BN2 9UA","la":"Brighton and Hove","era":"other","nn":264,"risk":19,"cat":"green"},{"name":"The George Payne","lat":50.83626,"lon":-0.18602,"postcode":"BN3 5HB","la":"Brighton and Hove","era":"trad","nn":222,"risk":19,"cat":"green"},{"name":"The Gin Tub","lat":50.82698,"lon":-0.16599,"postcode":"BN3 2FL","la":"Brighton and Hove","era":"other","nn":42,"risk":17,"cat":"green"},{"name":"The Gladstone (Wet Sales)","lat":50.83737,"lon":-0.12387,"postcode":"BN2 3QB","la":"Brighton and Hove","era":"other","nn":0,"risk":17,"cat":"green"},{"name":"The Golden Pineapple","lat":50.82171,"lon":-0.14221,"postcode":"BN1 1AD","la":"Brighton and Hove","era":"other","nn":0,"risk":17,"cat":"green"},{"name":"The Good Companions Pub","lat":50.83196,"lon":-0.14799,"postcode":"BN1 3TE","la":"Brighton and Hove","era":"other","nn":0,"risk":17,"cat":"green"},{"name":"The Greedy Boy At The Setting Sun","lat":50.82528,"lon":-0.12943,"postcode":"BN2 0GN","la":"Brighton and Hove","era":"other","nn":0,"risk":17,"cat":"green"},{"name":"The Greedy Pickle At The White Rabbit","lat":50.82617,"lon":-0.13862,"postcode":"BN1 4AL","la":"Brighton and Hove","era":"other","nn":0,"risk":17,"cat":"green"},{"name":"The Green Dragon","lat":50.82748,"lon":-0.13803,"postcode":"BN1 4EN","la":"Brighton and Hove","era":"trad","nn":87,"risk":18,"cat":"green"},{"name":"The Grenadier","lat":50.84455,"lon":-0.19593,"postcode":"BN3 7LT","la":"Brighton and Hove","era":"other","nn":717,"risk":40,"cat":"amber"},{"name":"The Hampton Arms","lat":50.82537,"lon":-0.14851,"postcode":"BN1 3FH","la":"Brighton and Hove","era":"trad","nn":0,"risk":17,"cat":"green"},{"name":"The Hole In The Wall","lat":50.82188,"lon":-0.14943,"postcode":"BN1 2FE","la":"Brighton and Hove","era":"other","nn":53,"risk":17,"cat":"green"},{"name":"The Hollingbury PH","lat":50.84025,"lon":-0.13096,"postcode":"BN1 7GB","la":"Brighton and Hove","era":"other","nn":306,"risk":19,"cat":"green"},{"name":"The Hope And Ruin","lat":50.82458,"lon":-0.14328,"postcode":"BN1 3WA","la":"Brighton and Hove","era":"other","nn":0,"risk":17,"cat":"green"},{"name":"The Hove Club","lat":50.8268,"lon":-0.17192,"postcode":"BN3 2PJ","la":"Brighton and Hove","era":"other","nn":99,"risk":18,"cat":"green"},{"name":"The Howard","lat":50.83116,"lon":-0.12672,"postcode":"BN2 9TP","la":"Brighton and Hove","era":"other","nn":0,"risk":17,"cat":"green"},{"name":"The Howard Kitchen","lat":50.83116,"lon":-0.12672,"postcode":"BN2 9TP","la":"Brighton and Hove","era":"mod","nn":0,"risk":17,"cat":"green"},{"name":"The Independent","lat":50.82685,"lon":-0.12651,"postcode":"BN2 0GH","la":"Brighton and Hove","era":"other","nn":53,"risk":17,"cat":"green"},{"name":"The Islingword (Wet Sales)","lat":50.82837,"lon":-0.12399,"postcode":"BN2 9ZA","la":"Brighton and Hove","era":"other","nn":150,"risk":18,"cat":"green"},{"name":"The Joker","lat":50.83454,"lon":-0.14003,"postcode":"BN1 4QF","la":"Brighton and Hove","era":"other","nn":0,"risk":17,"cat":"green"},{"name":"The Jolly Brewer Beer House","lat":50.83798,"lon":-0.13341,"postcode":"BN1 6JA","la":"Brighton and Hove","era":"other","nn":210,"risk":18,"cat":"green"},{"name":"The Kemp","lat":50.81927,"lon":-0.12325,"postcode":"BN2 1EB","la":"Brighton and Hove","era":"other","nn":0,"risk":17,"cat":"green"},{"name":"The Ledward Centre CIC","lat":50.82548,"lon":-0.13834,"postcode":"BN1 1GE","la":"Brighton and Hove","era":"other","nn":39,"risk":17,"cat":"green"},{"name":"The Lewes Road Inn","lat":50.8345,"lon":-0.12649,"postcode":"BN2 3LF","la":"Brighton and Hove","era":"trad","nn":145,"risk":18,"cat":"green"},{"name":"The Maris And Otter","lat":50.82535,"lon":-0.1552,"postcode":"BN1 2AB","la":"Brighton and Hove","era":"other","nn":58,"risk":17,"cat":"green"},{"name":"The Market Inn","lat":50.82147,"lon":-0.13977,"postcode":"BN1 1HH","la":"Brighton and Hove","era":"trad","nn":24,"risk":17,"cat":"green"},{"name":"The Mesmerist - Space And Thyme Kitchen","lat":50.82138,"lon":-0.14125,"postcode":"BN1 1HE","la":"Brighton and Hove","era":"mod","nn":0,"risk":17,"cat":"green"},{"name":"The Mesmerist (wet Sales)","lat":50.82138,"lon":-0.14125,"postcode":"BN1 1HE","la":"Brighton and Hove","era":"other","nn":0,"risk":17,"cat":"green"},{"name":"The Mucky Duck (wet Sales)","lat":50.82071,"lon":-0.13549,"postcode":"BN2 1TF","la":"Brighton and Hove","era":"other","nn":0,"risk":17,"cat":"green"},{"name":"The Mucky Duck Roast","lat":50.82071,"lon":-0.13549,"postcode":"BN2 1TF","la":"Brighton and Hove","era":"other","nn":0,"risk":17,"cat":"green"},{"name":"The New Unity (Wet Sales)","lat":50.832,"lon":-0.13732,"postcode":"BN1 4JD","la":"Brighton and Hove","era":"other","nn":0,"risk":17,"cat":"green"},{"name":"The Occulist","lat":50.8221,"lon":-0.14351,"postcode":"BN1 1AN","la":"Brighton and Hove","era":"other","nn":0,"risk":17,"cat":"green"},{"name":"The Old Albion (Wet Sales)","lat":50.82766,"lon":-0.17155,"postcode":"BN3 2EB","la":"Brighton and Hove","era":"other","nn":0,"risk":17,"cat":"green"},{"name":"The Old Market (wet Sales)","lat":50.82501,"lon":-0.15713,"postcode":"BN3 1AS","la":"Brighton and Hove","era":"other","nn":68,"risk":17,"cat":"green"},{"name":"The Open House (wet Sales)","lat":50.83715,"lon":-0.13696,"postcode":"BN1 6BZ","la":"Brighton and Hove","era":"mod","nn":0,"risk":17,"cat":"green"},{"name":"The Palmeira","lat":50.8323,"lon":-0.16076,"postcode":"BN3 3ES","la":"Brighton and Hove","era":"other","nn":389,"risk":20,"cat":"green"},{"name":"The Paris House","lat":50.8252,"lon":-0.15621,"postcode":"BN3 1AE","la":"Brighton and Hove","era":"other","nn":0,"risk":17,"cat":"green"},{"name":"The Park Crescent","lat":50.83313,"lon":-0.13031,"postcode":"BN2 3HE","la":"Brighton and Hove","era":"other","nn":0,"risk":17,"cat":"green"},{"name":"The Pink Dahlia","lat":50.8256,"lon":-0.13782,"postcode":"BN1 1YE","la":"Brighton and Hove","era":"other","nn":0,"risk":17,"cat":"green"},{"name":"The Plotting Parlour","lat":50.82717,"lon":-0.16766,"postcode":"BN3 2FN","la":"Brighton and Hove","era":"mod","nn":114,"risk":18,"cat":"green"},{"name":"The Plotting Parlour","lat":50.82051,"lon":-0.13625,"postcode":"BN2 1TE","la":"Brighton and Hove","era":"mod","nn":11,"risk":17,"cat":"green"},{"name":"The Poets Corner","lat":50.83387,"lon":-0.17842,"postcode":"BN3 5BF","la":"Brighton and Hove","era":"other","nn":218,"risk":19,"cat":"green"},{"name":"The Pond","lat":50.82693,"lon":-0.13926,"postcode":"BN1 4AQ","la":"Brighton and Hove","era":"other","nn":30,"risk":17,"cat":"green"},{"name":"The Prince Albert","lat":50.8283,"lon":-0.13945,"postcode":"BN1 4ED","la":"Brighton and Hove","era":"trad","nn":6,"risk":17,"cat":"green"},{"name":"The Prince George (wet Sales)","lat":50.82795,"lon":-0.13705,"postcode":"BN1 4EQ","la":"Brighton and Hove","era":"trad","nn":0,"risk":17,"cat":"green"},{"name":"The Pussycat Club","lat":50.8233,"lon":-0.136,"postcode":"BN2 9JA","la":"Brighton and Hove","era":"other","nn":101,"risk":18,"cat":"green"},{"name":"The Quadrant","lat":50.82399,"lon":-0.14368,"postcode":"BN1 3GJ","la":"Brighton and Hove","era":"other","nn":53,"risk":17,"cat":"green"},{"name":"The Railway Bell","lat":50.82805,"lon":-0.14224,"postcode":"BN1 3PA","la":"Brighton and Hove","era":"trad","nn":0,"risk":17,"cat":"green"},{"name":"The Railway Inn","lat":50.83483,"lon":-0.20667,"postcode":"BN41 1GA","la":"Brighton and Hove","era":"trad","nn":224,"risk":19,"cat":"green"},{"name":"The Robin Hood","lat":50.82476,"lon":-0.15556,"postcode":"BN1 2PF","la":"Brighton and Hove","era":"other","nn":67,"risk":17,"cat":"green"},{"name":"The Rock Inn","lat":50.81688,"lon":-0.1126,"postcode":"BN2 1NF","la":"Brighton and Hove","era":"trad","nn":0,"risk":17,"cat":"green"},{"name":"The Rook Taproom","lat":50.82492,"lon":-0.14872,"postcode":"BN1 3EG","la":"Brighton and Hove","era":"mod","nn":52,"risk":17,"cat":"green"},{"name":"The Roundhill Pub","lat":50.83609,"lon":-0.13337,"postcode":"BN1 4SG","la":"Brighton and Hove","era":"other","nn":167,"risk":18,"cat":"green"},{"name":"The Royal George","lat":50.82853,"lon":-0.1743,"postcode":"BN3 3YE","la":"Brighton and Hove","era":"trad","nn":0,"risk":17,"cat":"green"},{"name":"The Saltdean Tavern (Stonehouse Q)","lat":50.80234,"lon":-0.04261,"postcode":"BN2 8SP","la":"Brighton and Hove","era":"mod","nn":391,"risk":25,"cat":"green"},{"name":"The Setting Sun","lat":50.82528,"lon":-0.12943,"postcode":"BN2 0GN","la":"Brighton and Hove","era":"other","nn":0,"risk":17,"cat":"green"},{"name":"The Shakespeares Head (Wet Sales)","lat":50.83148,"lon":-0.14615,"postcode":"BN1 3TP","la":"Brighton and Hove","era":"trad","nn":0,"risk":17,"cat":"green"},{"name":"The Signalman","lat":50.83641,"lon":-0.1357,"postcode":"BN1 4QQ","la":"Brighton and Hove","era":"other","nn":0,"risk":17,"cat":"green"},{"name":"The Sir Charles Napier Kitchen","lat":50.82795,"lon":-0.12853,"postcode":"BN2 9UE","la":"Brighton and Hove","era":"mod","nn":0,"risk":17,"cat":"green"},{"name":"The Southern Belle","lat":50.82384,"lon":-0.15724,"postcode":"BN3 1AQ","la":"Brighton and Hove","era":"other","nn":0,"risk":17,"cat":"green"},{"name":"The Star And Garter","lat":50.82005,"lon":-0.13997,"postcode":"BN1 1NE","la":"Brighton and Hove","era":"other","nn":29,"risk":17,"cat":"green"},{"name":"The Station Hotel","lat":50.84364,"lon":-0.15634,"postcode":"BN1 5NG","la":"Brighton and Hove","era":"other","nn":342,"risk":22,"cat":"green"},{"name":"The Stirling Arms","lat":50.83005,"lon":-0.17671,"postcode":"BN3 3YU","la":"Brighton and Hove","era":"trad","nn":185,"risk":18,"cat":"green"},{"name":"The Sussex Cricketer (Wet Sales)","lat":50.82969,"lon":-0.16443,"postcode":"BN3 3AF","la":"Brighton and Hove","era":"other","nn":0,"risk":17,"cat":"green"},{"name":"The Tempest Inn (Wet Sales)","lat":50.81999,"lon":-0.14181,"postcode":"BN1 1NB","la":"Brighton and Hove","era":"trad","nn":0,"risk":17,"cat":"green"},{"name":"The Victory Inn (Wet Sales)","lat":50.82272,"lon":-0.14286,"postcode":"BN1 1AH","la":"Brighton and Hove","era":"trad","nn":0,"risk":17,"cat":"green"},{"name":"The Walrus","lat":50.82171,"lon":-0.14221,"postcode":"BN1 1AD","la":"Brighton and Hove","era":"other","nn":0,"risk":17,"cat":"green"},{"name":"The Watchmaker's Arms","lat":50.83426,"lon":-0.17153,"postcode":"BN3 3RU","la":"Brighton and Hove","era":"trad","nn":5,"risk":17,"cat":"green"},{"name":"The West Hill Tavern","lat":50.83102,"lon":-0.14427,"postcode":"BN1 3PQ","la":"Brighton and Hove","era":"other","nn":142,"risk":18,"cat":"green"},{"name":"The West Quay","lat":50.81198,"lon":-0.10533,"postcode":"BN2 5UT","la":"Brighton and Hove","era":"other","nn":0,"risk":17,"cat":"green"},{"name":"The West Tap","lat":50.82142,"lon":-0.15033,"postcode":"BN1 2FN","la":"Brighton and Hove","era":"mod","nn":81,"risk":18,"cat":"green"},{"name":"The Westbourne","lat":50.83287,"lon":-0.18295,"postcode":"BN3 5DN","la":"Brighton and Hove","era":"other","nn":156,"risk":18,"cat":"green"},{"name":"The White Rabbit (Bar)","lat":50.82617,"lon":-0.13862,"postcode":"BN1 4AL","la":"Brighton and Hove","era":"other","nn":0,"risk":17,"cat":"green"},{"name":"The White Rabbit (Kitchen)","lat":50.82617,"lon":-0.13862,"postcode":"BN1 4AL","la":"Brighton and Hove","era":"mod","nn":0,"risk":17,"cat":"green"},{"name":"The Wick Inn","lat":50.82585,"lon":-0.16097,"postcode":"BN3 1JD","la":"Brighton and Hove","era":"trad","nn":0,"risk":17,"cat":"green"},{"name":"The Wick Inn Catering Franchise - Mair Noi","lat":50.82585,"lon":-0.16097,"postcode":"BN3 1JD","la":"Brighton and Hove","era":"trad","nn":0,"risk":17,"cat":"green"},{"name":"The Windmill Pub","lat":50.82557,"lon":-0.14838,"postcode":"BN1 3FL","la":"Brighton and Hove","era":"trad","nn":0,"risk":17,"cat":"green"},{"name":"The Worlds End","lat":50.83291,"lon":-0.13841,"postcode":"BN1 4JE","la":"Brighton and Hove","era":"other","nn":0,"risk":17,"cat":"green"},{"name":"The Zone","lat":50.82082,"lon":-0.13326,"postcode":"BN2 1RF","la":"Brighton and Hove","era":"other","nn":10,"risk":17,"cat":"green"},{"name":"Three Jolly Butchers","lat":50.82596,"lon":-0.14056,"postcode":"BN1 1YD","la":"Brighton and Hove","era":"other","nn":0,"risk":17,"cat":"green"},{"name":"Tiki Hut","lat":50.82169,"lon":-0.13247,"postcode":"BN2 1RP","la":"Brighton and Hove","era":"other","nn":112,"risk":18,"cat":"green"},{"name":"Toucan House At The Southern Belle","lat":50.82384,"lon":-0.15724,"postcode":"BN3 1AQ","la":"Brighton and Hove","era":"mod","nn":0,"risk":17,"cat":"green"},{"name":"Twisted Lime","lat":50.82131,"lon":-0.14334,"postcode":"BN1 1AL","la":"Brighton and Hove","era":"other","nn":0,"risk":17,"cat":"green"},{"name":"Upper Crust Caterer At Sidewinder","lat":50.82004,"lon":-0.12971,"postcode":"BN2 1PJ","la":"Brighton and Hove","era":"other","nn":0,"risk":17,"cat":"green"},{"name":"Venda Brazilian Tapas At The Gladstone","lat":50.83737,"lon":-0.12387,"postcode":"BN2 3QB","la":"Brighton and Hove","era":"mod","nn":0,"risk":17,"cat":"green"},{"name":"Volks Bar And Club","lat":50.81936,"lon":-0.13273,"postcode":"BN2 1PS","la":"Brighton and Hove","era":"mod","nn":105,"risk":18,"cat":"green"},{"name":"Waggon And Horses","lat":50.82409,"lon":-0.13839,"postcode":"BN1 1UD","la":"Brighton and Hove","era":"trad","nn":0,"risk":17,"cat":"green"},{"name":"Walkabout/Chik Box/K-Town Chicken/Locked & Loaded","lat":50.82249,"lon":-0.14379,"postcode":"BN1 2RA","la":"Brighton and Hove","era":"other","nn":0,"risk":17,"cat":"green"},{"name":"Water Bear Venue","lat":50.81999,"lon":-0.1418,"postcode":"BN1 1NB","la":"Brighton and Hove","era":"other","nn":0,"risk":17,"cat":"green"},{"name":"Wellington Inn","lat":50.83192,"lon":-0.12619,"postcode":"BN2 3ET","la":"Brighton and Hove","era":"trad","nn":52,"risk":17,"cat":"green"},{"name":"West Hove Golf Club (Bar)","lat":50.85788,"lon":-0.2067,"postcode":"BN3 8EX","la":"Brighton and Hove","era":"other","nn":0,"risk":37,"cat":"amber"},{"name":"West Hove Golf Club (Catering Franchise)","lat":50.85788,"lon":-0.2067,"postcode":"BN3 8EX","la":"Brighton and Hove","era":"other","nn":0,"risk":37,"cat":"amber"},{"name":"William The Fourth","lat":50.82421,"lon":-0.13979,"postcode":"BN1 1UJ","la":"Brighton and Hove","era":"other","nn":0,"risk":17,"cat":"green"},{"name":"Ye Old Black House","lat":50.8046,"lon":-0.05818,"postcode":"BN2 7HE","la":"Brighton and Hove","era":"other","nn":0,"risk":34,"cat":"amber"},{"name":"Yellow Book","lat":50.82875,"lon":-0.13581,"postcode":"BN1 4GU","la":"Brighton and Hove","era":"other","nn":0,"risk":17,"cat":"green"},{"name":"Admiral Casino","lat":50.76846,"lon":0.2839,"postcode":"BN21 3LX","la":"Eastbourne","era":"other","nn":121,"risk":27,"cat":"green"},{"name":"Alexandra Arms","lat":50.78447,"lon":0.30544,"postcode":"BN22 7SA","la":"Eastbourne","era":"trad","nn":66,"risk":29,"cat":"green"},{"name":"Arlington Arms","lat":50.78428,"lon":0.30455,"postcode":"BN22 7RY","la":"Eastbourne","era":"trad","nn":66,"risk":29,"cat":"green"},{"name":"B1","lat":50.76627,"lon":0.28433,"postcode":"BN21 4LZ","la":"Eastbourne","era":"other","nn":140,"risk":27,"cat":"green"},{"name":"Beerarama","lat":50.76781,"lon":0.28546,"postcode":"BN21 3JU","la":"Eastbourne","era":"trad","nn":43,"risk":27,"cat":"green"},{"name":"Bibendum","lat":50.76596,"lon":0.2785,"postcode":"BN21 4EU","la":"Eastbourne","era":"other","nn":58,"risk":27,"cat":"green"},{"name":"Blue Bar Cafe","lat":50.76895,"lon":0.28832,"postcode":"BN21 3HJ","la":"Eastbourne","era":"mod","nn":0,"risk":26,"cat":"green"},{"name":"Broadway","lat":50.76802,"lon":0.28598,"postcode":"BN21 3JX","la":"Eastbourne","era":"other","nn":0,"risk":26,"cat":"green"},{"name":"Buskers Bar","lat":50.77421,"lon":0.29573,"postcode":"BN22 7QR","la":"Eastbourne","era":"other","nn":125,"risk":27,"cat":"green"},{"name":"Cameo","lat":50.76874,"lon":0.2879,"postcode":"BN21 3EU","la":"Eastbourne","era":"other","nn":33,"risk":27,"cat":"green"},{"name":"Carlton Court Bar","lat":50.76167,"lon":0.28422,"postcode":"BN21 4EA","la":"Eastbourne","era":"other","nn":149,"risk":27,"cat":"green"},{"name":"Crown & Anchor","lat":50.76849,"lon":0.29396,"postcode":"BN21 3DX","la":"Eastbourne","era":"trad","nn":72,"risk":27,"cat":"green"},{"name":"Dew Drop Inn","lat":50.76657,"lon":0.27995,"postcode":"BN21 4UP","la":"Eastbourne","era":"trad","nn":61,"risk":27,"cat":"green"},{"name":"Drop in the Ocean","lat":50.7672,"lon":0.29263,"postcode":"BN21 3EL","la":"Eastbourne","era":"other","nn":68,"risk":27,"cat":"green"},{"name":"Duke of Devonshire","lat":50.76847,"lon":0.28773,"postcode":"BN21 3NU","la":"Eastbourne","era":"trad","nn":33,"risk":27,"cat":"green"},{"name":"Eastbourne & District Trade Union Club","lat":50.77108,"lon":0.29451,"postcode":"BN22 7QL","la":"Eastbourne","era":"other","nn":55,"risk":27,"cat":"green"},{"name":"Eastbourne Angling Association","lat":50.77696,"lon":0.30478,"postcode":"BN22 7AA","la":"Eastbourne","era":"other","nn":0,"risk":26,"cat":"green"},{"name":"Eastbourne Bandstand","lat":50.76781,"lon":0.29263,"postcode":"BN21 3EH","la":"Eastbourne","era":"other","nn":68,"risk":27,"cat":"green"},{"name":"Eastbourne Cocktail Club","lat":50.76846,"lon":0.28208,"postcode":"BN21 4RG","la":"Eastbourne","era":"other","nn":0,"risk":26,"cat":"green"},{"name":"Eastbourne Fishermans Club","lat":50.77696,"lon":0.30478,"postcode":"BN22 7AA","la":"Eastbourne","era":"other","nn":0,"risk":26,"cat":"green"},{"name":"Eastbourne Railway Club","lat":50.7964,"lon":0.27932,"postcode":"BN22 9ND","la":"Eastbourne","era":"trad","nn":1312,"risk":58,"cat":"amber"},{"name":"Eastbourne Saffrons Sports Club","lat":50.76577,"lon":0.27417,"postcode":"BN21 1EA","la":"Eastbourne","era":"other","nn":306,"risk":28,"cat":"green"},{"name":"Eastbourne United Association FC","lat":50.78001,"lon":0.30472,"postcode":"BN22 7LN","la":"Eastbourne","era":"other","nn":340,"risk":29,"cat":"green"},{"name":"Eastbourne Working Mens Club","lat":50.77522,"lon":0.29074,"postcode":"BN22 8ET","la":"Eastbourne","era":"trad","nn":368,"risk":29,"cat":"green"},{"name":"Embassy","lat":50.76895,"lon":0.28832,"postcode":"BN21 3HJ","la":"Eastbourne","era":"other","nn":0,"risk":26,"cat":"green"},{"name":"Hungry Horse","lat":50.80208,"lon":0.29569,"postcode":"BN23 8AL","la":"Eastbourne","era":"trad","nn":594,"risk":50,"cat":"amber"},{"name":"Hurst Arms","lat":50.77946,"lon":0.26466,"postcode":"BN21 1TW","la":"Eastbourne","era":"trad","nn":630,"risk":31,"cat":"amber"},{"name":"Jesters Bar","lat":50.76892,"lon":0.29318,"postcode":"BN21 3PH","la":"Eastbourne","era":"other","nn":41,"risk":27,"cat":"green"},{"name":"Kings Arms","lat":50.77527,"lon":0.29635,"postcode":"BN22 7QX","la":"Eastbourne","era":"trad","nn":125,"risk":27,"cat":"green"},{"name":"Lamb Inn","lat":50.77275,"lon":0.26702,"postcode":"BN21 1HH","la":"Eastbourne","era":"trad","nn":113,"risk":27,"cat":"green"},{"name":"Martello Inn","lat":50.79719,"lon":0.31243,"postcode":"BN23 7DD","la":"Eastbourne","era":"trad","nn":911,"risk":53,"cat":"amber"},{"name":"Next Door","lat":50.76802,"lon":0.28598,"postcode":"BN21 3JX","la":"Eastbourne","era":"other","nn":0,"risk":26,"cat":"green"},{"name":"Ninkaci","lat":50.77001,"lon":0.28067,"postcode":"BN21 1BD","la":"Eastbourne","era":"other","nn":153,"risk":27,"cat":"green"},{"name":"Phoenix","lat":50.76926,"lon":0.29295,"postcode":"BN21 3PF","la":"Eastbourne","era":"other","nn":41,"risk":27,"cat":"green"},{"name":"Prince Albert Public House","lat":50.7723,"lon":0.2686,"postcode":"BN21 1HG","la":"Eastbourne","era":"trad","nn":119,"risk":27,"cat":"green"},{"name":"Printers Playhouse","lat":50.76766,"lon":0.27866,"postcode":"BN21 4TX","la":"Eastbourne","era":"other","nn":151,"risk":27,"cat":"green"},{"name":"Seamoors Wine and Music Bar","lat":50.79395,"lon":0.32629,"postcode":"BN23 5UZ","la":"Eastbourne","era":"other","nn":0,"risk":44,"cat":"amber"},{"name":"Shotz","lat":50.76906,"lon":0.28773,"postcode":"BN21 3QA","la":"Eastbourne","era":"other","nn":38,"risk":27,"cat":"green"},{"name":"Sovereign Harbour Yacht Club","lat":50.79548,"lon":0.3265,"postcode":"BN23 5QF","la":"Eastbourne","era":"other","nn":170,"risk":45,"cat":"amber"},{"name":"Star Inn","lat":50.7736,"lon":0.26789,"postcode":"BN21 1PD","la":"Eastbourne","era":"trad","nn":61,"risk":27,"cat":"green"},{"name":"The Beachy Head Hotel","lat":50.74026,"lon":0.25147,"postcode":"BN20 7YA","la":"Eastbourne","era":"trad","nn":1872,"risk":62,"cat":"red"},{"name":"The Bohemian","lat":50.76296,"lon":0.28481,"postcode":"BN21 4BW","la":"Eastbourne","era":"other","nn":149,"risk":27,"cat":"green"},{"name":"The Crown","lat":50.77409,"lon":0.26752,"postcode":"BN21 1PB","la":"Eastbourne","era":"trad","nn":61,"risk":27,"cat":"green"},{"name":"The Dolphin","lat":50.76629,"lon":0.27914,"postcode":"BN21 4XF","la":"Eastbourne","era":"other","nn":58,"risk":27,"cat":"green"},{"name":"The Eagle","lat":50.7664,"lon":0.28078,"postcode":"BN21 4UT","la":"Eastbourne","era":"trad","nn":61,"risk":27,"cat":"green"},{"name":"The Garden Bar","lat":50.79395,"lon":0.32629,"postcode":"BN23 5UZ","la":"Eastbourne","era":"other","nn":0,"risk":44,"cat":"amber"},{"name":"The Hart","lat":50.77081,"lon":0.28902,"postcode":"BN21 3RR","la":"Eastbourne","era":"trad","nn":212,"risk":28,"cat":"green"},{"name":"The Kingfisher Tavern","lat":50.80335,"lon":0.3039,"postcode":"BN23 7RT","la":"Eastbourne","era":"trad","nn":594,"risk":48,"cat":"amber"},{"name":"The Loft Lounge & Bar","lat":50.76846,"lon":0.28208,"postcode":"BN21 4RG","la":"Eastbourne","era":"mod","nn":0,"risk":26,"cat":"green"},{"name":"The London & County","lat":50.76878,"lon":0.28164,"postcode":"BN21 3LX","la":"Eastbourne","era":"other","nn":47,"risk":27,"cat":"green"},{"name":"The Marine Public House","lat":50.77152,"lon":0.29523,"postcode":"BN22 7NE","la":"Eastbourne","era":"other","nn":71,"risk":27,"cat":"green"},{"name":"The Pilot Inn","lat":50.75358,"lon":0.26774,"postcode":"BN20 7RW","la":"Eastbourne","era":"trad","nn":218,"risk":48,"cat":"amber"},{"name":"The Rainbow","lat":50.77333,"lon":0.26906,"postcode":"BN21 1NB","la":"Eastbourne","era":"other","nn":87,"risk":27,"cat":"green"},{"name":"The Red Lion Public House","lat":50.79766,"lon":0.25136,"postcode":"BN20 9HQ","la":"Eastbourne","era":"trad","nn":1750,"risk":61,"cat":"red"},{"name":"The Rodmill Public House","lat":50.78556,"lon":0.26728,"postcode":"BN21 2QP","la":"Eastbourne","era":"trad","nn":703,"risk":51,"cat":"amber"},{"name":"The Ship Inn","lat":50.75554,"lon":0.26769,"postcode":"BN20 7RH","la":"Eastbourne","era":"trad","nn":218,"risk":48,"cat":"amber"},{"name":"Wetherspoon Plc","lat":50.7675,"lon":0.28472,"postcode":"BN21 4QD","la":"Eastbourne","era":"other","nn":62,"risk":27,"cat":"green"},{"name":"Windsor Tavern","lat":50.77148,"lon":0.29406,"postcode":"BN22 8AH","la":"Eastbourne","era":"other","nn":55,"risk":27,"cat":"green"},{"name":"Black Horse","lat":50.90928,"lon":-0.53364,"postcode":"BN18 9NL","la":"Horsham","era":"trad","nn":2115,"risk":74,"cat":"red"},{"name":"Chequer Inn","lat":50.88844,"lon":-0.32952,"postcode":"BN44 3RE","la":"Horsham","era":"trad","nn":64,"risk":42,"cat":"amber"},{"name":"Henfield Club","lat":50.9319,"lon":-0.27239,"postcode":"BN5 9DA","la":"Horsham","era":"other","nn":534,"risk":60,"cat":"amber"},{"name":"Henfield Football Club","lat":50.9347,"lon":-0.27858,"postcode":"BN5 9QB","la":"Horsham","era":"other","nn":534,"risk":60,"cat":"amber"},{"name":"The Bull Inn","lat":50.94978,"lon":-0.27915,"postcode":"BN5 9AD","la":"Horsham","era":"trad","nn":1677,"risk":71,"cat":"red"},{"name":"The Royal Oak","lat":50.97371,"lon":-0.24284,"postcode":"BN5 9AY","la":"Horsham","era":"trad","nn":2672,"risk":78,"cat":"red"},{"name":"The Star Inn","lat":50.89077,"lon":-0.33216,"postcode":"BN44 3RD","la":"Horsham","era":"trad","nn":318,"risk":44,"cat":"amber"},{"name":"The Wheatsheaf","lat":50.94974,"lon":-0.24008,"postcode":"BN5 9BD","la":"Horsham","era":"trad","nn":2672,"risk":78,"cat":"red"},{"name":"The White Horse Inn Smoke House & Grill","lat":50.88787,"lon":-0.32873,"postcode":"BN44 3YE","la":"Horsham","era":"other","nn":20,"risk":41,"cat":"amber"},{"name":"Twenty-Seven","lat":50.888,"lon":-0.32892,"postcode":"BN44 3YE","la":"Horsham","era":"other","nn":20,"risk":41,"cat":"amber"},{"name":"Beastie Bites","lat":50.8732,"lon":-0.00099,"postcode":"BN7 1RS","la":"Lewes","era":"other","nn":4,"risk":27,"cat":"green"},{"name":"Burger & Bird Ltd","lat":50.79091,"lon":-4e-05,"postcode":"BN10 8LA","la":"Lewes","era":"other","nn":149,"risk":28,"cat":"green"},{"name":"Crouch Bowling Club","lat":50.77083,"lon":0.10551,"postcode":"BN25 1PY","la":"Lewes","era":"other","nn":94,"risk":27,"cat":"green"},{"name":"Denton Village Cricket Club","lat":50.80245,"lon":0.05622,"postcode":"BN9 0PP","la":"Lewes","era":"other","nn":447,"risk":47,"cat":"amber"},{"name":"Downs 60+ Club","lat":50.77561,"lon":0.11627,"postcode":"BN25 4QW","la":"Lewes","era":"other","nn":925,"risk":38,"cat":"amber"},{"name":"East Brighton Masonic Centre","lat":50.78648,"lon":0.01681,"postcode":"BN10 8PX","la":"Lewes","era":"trad","nn":656,"risk":51,"cat":"amber"},{"name":"East Sussex Gliding Club","lat":50.91184,"lon":0.10664,"postcode":"BN8 5AP","la":"Lewes","era":"other","nn":2948,"risk":70,"cat":"red"},{"name":"Flying Fish","lat":50.80349,"lon":0.06237,"postcode":"BN9 0QB","la":"Lewes","era":"other","nn":447,"risk":50,"cat":"amber"},{"name":"Glynde & Beddingham Cricket Club","lat":50.8606,"lon":0.06987,"postcode":"BN8 6SS","la":"Lewes","era":"other","nn":429,"risk":50,"cat":"amber"},{"name":"Glynde Place","lat":50.86437,"lon":0.06862,"postcode":"BN8 6SX","la":"Lewes","era":"other","nn":429,"risk":50,"cat":"amber"},{"name":"Good Companions","lat":50.79745,"lon":0.0007,"postcode":"BN10 8BN","la":"Lewes","era":"other","nn":669,"risk":34,"cat":"amber"},{"name":"Kings Court","lat":50.9718,"lon":-0.01975,"postcode":"BN8 4DH","la":"Lewes","era":"trad","nn":1674,"risk":61,"cat":"red"},{"name":"Lansdown Arms","lat":50.8718,"lon":0.01181,"postcode":"BN7 2JU","la":"Lewes","era":"trad","nn":80,"risk":27,"cat":"green"},{"name":"Lewes 2000 FC","lat":50.86933,"lon":0.01078,"postcode":"BN7 2XA","la":"Lewes","era":"other","nn":228,"risk":28,"cat":"green"},{"name":"Lewes Arms","lat":50.87439,"lon":0.0095,"postcode":"BN7 1YH","la":"Lewes","era":"trad","nn":87,"risk":27,"cat":"green"},{"name":"Lewes Bowls Club","lat":50.86913,"lon":0.01842,"postcode":"BN7 2XG","la":"Lewes","era":"other","nn":492,"risk":30,"cat":"green"},{"name":"Lewes Constitutional Club","lat":50.87227,"lon":0.00478,"postcode":"BN7 1XS","la":"Lewes","era":"other","nn":133,"risk":27,"cat":"green"},{"name":"Lewes Golf Club","lat":50.8741,"lon":0.02061,"postcode":"BN7 2BB","la":"Lewes","era":"other","nn":135,"risk":27,"cat":"green"},{"name":"Longhorn burgers","lat":50.86957,"lon":0.00755,"postcode":"BN7 1HS","la":"Lewes","era":"other","nn":140,"risk":28,"cat":"green"},{"name":"Mid Sussex Golf Club","lat":50.93041,"lon":-0.09628,"postcode":"BN6 8XJ","la":"Lewes","era":"other","nn":1720,"risk":61,"cat":"red"},{"name":"Newhaven Bowling Club","lat":50.78719,"lon":0.05129,"postcode":"BN9 9EL","la":"Lewes","era":"other","nn":378,"risk":29,"cat":"green"},{"name":"Newhaven Football Club","lat":50.78474,"lon":0.055,"postcode":"BN9 9DL","la":"Lewes","era":"other","nn":227,"risk":28,"cat":"green"},{"name":"Newhaven Railway Club","lat":50.79344,"lon":0.05399,"postcode":"BN9 0DF","la":"Lewes","era":"trad","nn":147,"risk":28,"cat":"green"},{"name":"Newick Bowls Club","lat":50.97368,"lon":0.01872,"postcode":"BN8 4LB","la":"Lewes","era":"other","nn":12,"risk":32,"cat":"amber"},{"name":"Old Ship","lat":50.92114,"lon":0.0611,"postcode":"BN8 5RP","la":"Lewes","era":"trad","nn":1097,"risk":57,"cat":"amber"},{"name":"Pavilion","lat":50.92935,"lon":-0.05965,"postcode":"BN7 3DP","la":"Lewes","era":"trad","nn":799,"risk":52,"cat":"amber"},{"name":"Peacehaven Football Club","lat":50.79058,"lon":0.01011,"postcode":"BN10 8RJ","la":"Lewes","era":"other","nn":457,"risk":30,"cat":"green"},{"name":"Peacehaven Golf Club","lat":50.78993,"lon":0.03088,"postcode":"BN9 9UH","la":"Lewes","era":"other","nn":1061,"risk":56,"cat":"amber"},{"name":"Prince Of Wales","lat":50.79266,"lon":0.05018,"postcode":"BN9 9QL","la":"Lewes","era":"trad","nn":135,"risk":27,"cat":"green"},{"name":"Ringmer Association Football Club","lat":50.89546,"lon":0.06719,"postcode":"BN8 5RB","la":"Lewes","era":"other","nn":285,"risk":46,"cat":"amber"},{"name":"Royal British Legion Club (Seaford)","lat":50.77596,"lon":0.09491,"postcode":"BN25 2BJ","la":"Lewes","era":"trad","nn":0,"risk":27,"cat":"green"},{"name":"Russell Martin Foundation Extra Time Project","lat":50.79736,"lon":0.04495,"postcode":"BN9 9BL","la":"Lewes","era":"other","nn":438,"risk":30,"cat":"green"},{"name":"Seaford Bowling Club","lat":50.77568,"lon":0.10228,"postcode":"BN25 2DT","la":"Lewes","era":"other","nn":198,"risk":28,"cat":"green"},{"name":"Seaford Constitutional Club","lat":50.77025,"lon":0.10453,"postcode":"BN25 1PU","la":"Lewes","era":"other","nn":94,"risk":27,"cat":"green"},{"name":"Seaford Golf Club","lat":50.78779,"lon":0.10806,"postcode":"BN25 2JD","la":"Lewes","era":"other","nn":1406,"risk":59,"cat":"amber"},{"name":"Seaford Rugby Football Club","lat":50.77247,"lon":0.0975,"postcode":"BN25 1DR","la":"Lewes","era":"other","nn":232,"risk":28,"cat":"green"},{"name":"Siena Pizza Co x The Avenue","lat":50.79095,"lon":0.00363,"postcode":"BN10 8JH","la":"Lewes","era":"other","nn":183,"risk":28,"cat":"green"},{"name":"Smugglers Rest","lat":50.79583,"lon":-0.02108,"postcode":"BN10 7BE","la":"Lewes","era":"other","nn":238,"risk":48,"cat":"amber"},{"name":"Southdown Sports Club and Cafe","lat":50.86342,"lon":0.00946,"postcode":"BN7 3PR","la":"Lewes","era":"other","nn":664,"risk":31,"cat":"amber"},{"name":"Southover Grange","lat":50.8708,"lon":0.00715,"postcode":"BN7 1TP","la":"Lewes","era":"other","nn":140,"risk":28,"cat":"green"},{"name":"St Marys Supporters Club","lat":50.87745,"lon":-0.00522,"postcode":"BN7 1PL","la":"Lewes","era":"other","nn":416,"risk":29,"cat":"green"},{"name":"The Abergavenny Arms","lat":50.83553,"lon":0.01244,"postcode":"BN7 3EZ","la":"Lewes","era":"trad","nn":3108,"risk":71,"cat":"red"},{"name":"The Anchor Inn","lat":50.92999,"lon":0.03942,"postcode":"BN8 5EA","la":"Lewes","era":"trad","nn":1564,"risk":60,"cat":"amber"},{"name":"The Anchor Inn","lat":50.89375,"lon":0.05739,"postcode":"BN8 5QE","la":"Lewes","era":"trad","nn":713,"risk":49,"cat":"amber"},{"name":"The Ark","lat":50.79314,"lon":0.05195,"postcode":"BN9 9BP","la":"Lewes","era":"other","nn":135,"risk":27,"cat":"green"},{"name":"The Black Horse Inn","lat":50.8732,"lon":-0.00094,"postcode":"BN7 1RS","la":"Lewes","era":"trad","nn":4,"risk":27,"cat":"green"},{"name":"The Blacksmiths Arms","lat":50.8926,"lon":-0.01111,"postcode":"BN7 3QD","la":"Lewes","era":"trad","nn":1673,"risk":61,"cat":"red"},{"name":"The Brewers Arms","lat":50.87221,"lon":0.00785,"postcode":"BN7 1XN","la":"Lewes","era":"trad","nn":99,"risk":27,"cat":"green"},{"name":"The Bull On The Green","lat":50.97365,"lon":0.01888,"postcode":"BN8 4LA","la":"Lewes","era":"trad","nn":12,"risk":32,"cat":"amber"},{"name":"The Central Club","lat":50.7917,"lon":-0.00207,"postcode":"BN10 8JS","la":"Lewes","era":"other","nn":168,"risk":28,"cat":"green"},{"name":"The Cinque Ports","lat":50.77154,"lon":0.10436,"postcode":"BN25 1PP","la":"Lewes","era":"other","nn":113,"risk":27,"cat":"green"},{"name":"The Cock","lat":50.90418,"lon":0.04643,"postcode":"BN8 5RX","la":"Lewes","era":"other","nn":1391,"risk":59,"cat":"amber"},{"name":"The Crown Inn","lat":50.97125,"lon":0.02099,"postcode":"BN8 4JX","la":"Lewes","era":"trad","nn":175,"risk":33,"cat":"amber"},{"name":"The Crown Sports Bar","lat":50.77122,"lon":0.10131,"postcode":"BN25 1HG","la":"Lewes","era":"trad","nn":0,"risk":27,"cat":"green"},{"name":"The Cuckmere Inn","lat":50.77389,"lon":0.145,"postcode":"BN25 4AB","la":"Lewes","era":"trad","nn":2029,"risk":63,"cat":"red"},{"name":"The Dewdrop Inn","lat":50.78999,"lon":0.0015,"postcode":"BN10 8LT","la":"Lewes","era":"trad","nn":149,"risk":28,"cat":"green"},{"name":"The Dorset Arms","lat":50.87501,"lon":0.01896,"postcode":"BN7 2RD","la":"Lewes","era":"trad","nn":117,"risk":27,"cat":"green"},{"name":"The Elephant And Castle","lat":50.87495,"lon":0.00863,"postcode":"BN7 2DJ","la":"Lewes","era":"other","nn":87,"risk":27,"cat":"green"},{"name":"The Engineer","lat":50.79279,"lon":0.05599,"postcode":"BN9 0AY","la":"Lewes","era":"other","nn":158,"risk":28,"cat":"green"},{"name":"The Five Bells","lat":50.95676,"lon":-0.01855,"postcode":"BN8 4DA","la":"Lewes","era":"other","nn":1674,"risk":61,"cat":"red"},{"name":"The Fountain Inn","lat":50.93649,"lon":-0.06091,"postcode":"BN7 3BX","la":"Lewes","era":"trad","nn":799,"risk":50,"cat":"amber"},{"name":"The Gardeners Arms","lat":50.87417,"lon":0.01794,"postcode":"BN7 2AN","la":"Lewes","era":"trad","nn":117,"risk":27,"cat":"green"},{"name":"The Green Man","lat":50.897,"lon":0.07043,"postcode":"BN8 5NA","la":"Lewes","era":"other","nn":285,"risk":46,"cat":"amber"},{"name":"The Half Moon Inn","lat":50.90454,"lon":-0.06653,"postcode":"BN7 3AF","la":"Lewes","era":"trad","nn":2022,"risk":63,"cat":"red"},{"name":"The Hope Inn","lat":50.78276,"lon":0.05584,"postcode":"BN9 9DN","la":"Lewes","era":"trad","nn":227,"risk":46,"cat":"amber"},{"name":"The Jolly Sportsman","lat":50.91957,"lon":-0.0503,"postcode":"BN7 3BA","la":"Lewes","era":"other","nn":1270,"risk":58,"cat":"amber"},{"name":"The Juggs","lat":50.85695,"lon":-0.02159,"postcode":"BN7 3NT","la":"Lewes","era":"other","nn":1963,"risk":63,"cat":"red"},{"name":"The Kings Head","lat":50.77114,"lon":0.10003,"postcode":"BN25 1EP","la":"Lewes","era":"trad","nn":91,"risk":27,"cat":"green"},{"name":"The Old Boot Inn","lat":50.77116,"lon":0.10202,"postcode":"BN25 1PE","la":"Lewes","era":"trad","nn":50,"risk":27,"cat":"green"},{"name":"The Old Plough","lat":50.77122,"lon":0.10131,"postcode":"BN25 1HG","la":"Lewes","era":"trad","nn":0,"risk":27,"cat":"green"},{"name":"The Pelham Arms","lat":50.87236,"lon":0.00289,"postcode":"BN7 1XL","la":"Lewes","era":"trad","nn":133,"risk":27,"cat":"green"},{"name":"The Plough Inn","lat":50.9441,"lon":-0.05988,"postcode":"BN7 3DF","la":"Lewes","era":"trad","nn":849,"risk":52,"cat":"amber"},{"name":"The Ram Inn","lat":50.84707,"lon":0.08555,"postcode":"BN8 6NS","la":"Lewes","era":"trad","nn":1864,"risk":62,"cat":"red"},{"name":"The Rights of Man","lat":50.8728,"lon":0.0089,"postcode":"BN7 1YE","la":"Lewes","era":"other","nn":99,"risk":27,"cat":"green"},{"name":"The Royal Oak","lat":50.97271,"lon":0.02003,"postcode":"BN8 4JU","la":"Lewes","era":"trad","nn":132,"risk":32,"cat":"amber"},{"name":"The Royal Oak","lat":50.87244,"lon":0.0113,"postcode":"BN7 2DA","la":"Lewes","era":"trad","nn":80,"risk":27,"cat":"green"},{"name":"The Royal Oak","lat":50.92403,"lon":0.01921,"postcode":"BN8 5BA","la":"Lewes","era":"trad","nn":1564,"risk":60,"cat":"amber"},{"name":"The Snowdrop Inn","lat":50.87307,"lon":0.02163,"postcode":"BN7 2BU","la":"Lewes","era":"trad","nn":135,"risk":27,"cat":"green"},{"name":"The Swan Inn","lat":50.86803,"lon":0.00018,"postcode":"BN7 1HU","la":"Lewes","era":"trad","nn":517,"risk":30,"cat":"green"},{"name":"The Swan Inn","lat":50.86399,"lon":-0.07825,"postcode":"BN1 9PD","la":"Lewes","era":"trad","nn":446,"risk":35,"cat":"amber"},{"name":"The Tally Ho","lat":50.87927,"lon":-4e-05,"postcode":"BN7 2SP","la":"Lewes","era":"other","nn":416,"risk":29,"cat":"green"},{"name":"The Tavern","lat":50.7945,"lon":-0.01843,"postcode":"BN10 7AD","la":"Lewes","era":"other","nn":238,"risk":48,"cat":"amber"},{"name":"The Union Club","lat":50.7739,"lon":0.1022,"postcode":"BN25 1UH","la":"Lewes","era":"other","nn":198,"risk":28,"cat":"green"},{"name":"The Volunteer","lat":50.87459,"lon":0.01459,"postcode":"BN7 2LP","la":"Lewes","era":"other","nn":240,"risk":28,"cat":"green"},{"name":"The Wellington","lat":50.77039,"lon":0.10194,"postcode":"BN25 1HT","la":"Lewes","era":"trad","nn":86,"risk":27,"cat":"green"},{"name":"The White Hart","lat":50.79415,"lon":0.04855,"postcode":"BN9 9PD","la":"Lewes","era":"trad","nn":202,"risk":28,"cat":"green"},{"name":"The White Horse","lat":50.92103,"lon":-0.1158,"postcode":"BN6 8TS","la":"Lewes","era":"trad","nn":1092,"risk":57,"cat":"amber"},{"name":"The White Lion Hotel","lat":50.77596,"lon":0.09491,"postcode":"BN25 2BJ","la":"Lewes","era":"trad","nn":0,"risk":27,"cat":"green"},{"name":"BN6 Craft Beer & Tap","lat":50.924,"lon":-0.14058,"postcode":"BN6 8AR","la":"Mid Sussex","era":"mod","nn":296,"risk":32,"cat":"amber"},{"name":"Devils Dyke Farm Ltd","lat":50.87981,"lon":-0.21031,"postcode":"BN1 8YL","la":"Mid Sussex","era":"other","nn":596,"risk":52,"cat":"amber"},{"name":"Devils Dyke Hotel","lat":50.88501,"lon":-0.21233,"postcode":"BN1 8YJ","la":"Brighton and Hove","era":"other","nn":596,"risk":41,"cat":"amber"},{"name":"Duke Of York","lat":50.94882,"lon":-0.19775,"postcode":"BN6 9HY","la":"Mid Sussex","era":"trad","nn":2298,"risk":66,"cat":"red"},{"name":"Friars Oak","lat":50.9329,"lon":-0.1473,"postcode":"BN6 9NA","la":"Mid Sussex","era":"trad","nn":933,"risk":54,"cat":"amber"},{"name":"Hassocks Football Club","lat":50.92023,"lon":-0.15042,"postcode":"BN6 9LX","la":"Mid Sussex","era":"other","nn":637,"risk":49,"cat":"amber"},{"name":"Hop Tub Brewing Ltd","lat":50.93284,"lon":-0.17591,"postcode":"BN6 9PU","la":"Mid Sussex","era":"other","nn":62,"risk":33,"cat":"amber"},{"name":"Players Theatre","lat":50.93229,"lon":-0.17415,"postcode":"BN6 9PU","la":"Mid Sussex","era":"other","nn":31,"risk":33,"cat":"amber"},{"name":"Poynings Cricket Club","lat":50.89761,"lon":-0.20606,"postcode":"BN45 7AF","la":"Mid Sussex","era":"other","nn":450,"risk":51,"cat":"amber"},{"name":"Shepherd And Dog Inn","lat":50.8882,"lon":-0.22873,"postcode":"BN5 9LU","la":"Mid Sussex","era":"trad","nn":1203,"risk":58,"cat":"amber"},{"name":"The Ginger Fox","lat":50.91336,"lon":-0.21474,"postcode":"BN6 9EA","la":"Mid Sussex","era":"trad","nn":1855,"risk":63,"cat":"red"},{"name":"The Greyhound Keymer","lat":50.92157,"lon":-0.13135,"postcode":"BN6 8QT","la":"Mid Sussex","era":"trad","nn":598,"risk":37,"cat":"amber"},{"name":"The Hassocks Hotel","lat":50.92467,"lon":-0.14468,"postcode":"BN6 8HN","la":"Mid Sussex","era":"other","nn":296,"risk":30,"cat":"green"},{"name":"The New Inn","lat":50.93293,"lon":-0.17679,"postcode":"BN6 9RQ","la":"Mid Sussex","era":"trad","nn":62,"risk":33,"cat":"amber"},{"name":"The Plough","lat":50.89658,"lon":-0.16417,"postcode":"BN45 7FN","la":"Mid Sussex","era":"trad","nn":2801,"risk":70,"cat":"red"},{"name":"The Poacher","lat":50.93241,"lon":-0.17456,"postcode":"BN6 9PU","la":"Mid Sussex","era":"other","nn":31,"risk":33,"cat":"amber"},{"name":"The Royal Oak Inn","lat":50.89359,"lon":-0.2068,"postcode":"BN45 7AQ","la":"Mid Sussex","era":"trad","nn":450,"risk":51,"cat":"amber"},{"name":"The Sportsman","lat":50.96629,"lon":-0.17143,"postcode":"BN6 9LQ","la":"Mid Sussex","era":"other","nn":1545,"risk":61,"cat":"red"},{"name":"The Thatched Inn","lat":50.92695,"lon":-0.13139,"postcode":"BN6 8DH","la":"Mid Sussex","era":"trad","nn":598,"risk":37,"cat":"amber"},{"name":"Barley Mow","lat":50.84002,"lon":0.13819,"postcode":"BN26 6UE","la":"Wealden","era":"other","nn":3778,"risk":88,"cat":"red"},{"name":"Castle Inn","lat":50.81145,"lon":0.34882,"postcode":"BN24 6HS","la":"Wealden","era":"trad","nn":1654,"risk":73,"cat":"red"},{"name":"Eagles Bar","lat":50.85696,"lon":0.22853,"postcode":"BN27 3RE","la":"Wealden","era":"trad","nn":1964,"risk":75,"cat":"red"},{"name":"George Hotel","lat":50.86204,"lon":0.25953,"postcode":"BN27 1AD","la":"Wealden","era":"trad","nn":184,"risk":45,"cat":"amber"},{"name":"Grenadier Hotel","lat":50.86499,"lon":0.2569,"postcode":"BN27 1AS","la":"Wealden","era":"other","nn":295,"risk":46,"cat":"amber"},{"name":"Hailsham Memorial Institute","lat":50.86262,"lon":0.25504,"postcode":"BN27 3DN","la":"Wealden","era":"other","nn":272,"risk":45,"cat":"amber"},{"name":"Horse & Groom","lat":50.81951,"lon":0.24178,"postcode":"BN26 5HA","la":"Wealden","era":"trad","nn":281,"risk":58,"cat":"amber"},{"name":"Inn on the Park, Deanland Wood Park Ltd","lat":50.88235,"lon":0.16955,"postcode":"BN27 3RN","la":"Wealden","era":"trad","nn":2860,"risk":81,"cat":"red"},{"name":"Plough & Harrow,","lat":50.79491,"lon":0.15961,"postcode":"BN26 5RE","la":"Wealden","era":"trad","nn":2501,"risk":79,"cat":"red"},{"name":"Royal British legion Club Ltd","lat":50.82281,"lon":0.24187,"postcode":"BN26 6DB","la":"Wealden","era":"trad","nn":366,"risk":59,"cat":"amber"},{"name":"Sussex Ox","lat":50.81502,"lon":0.17555,"postcode":"BN26 5RL","la":"Wealden","era":"other","nn":2501,"risk":79,"cat":"red"},{"name":"The Heron","lat":50.81756,"lon":0.32736,"postcode":"BN24 5LR","la":"Wealden","era":"other","nn":1654,"risk":73,"cat":"red"},{"name":"The Plough","lat":50.86594,"lon":0.20094,"postcode":"BN27 3QJ","la":"Wealden","era":"trad","nn":2179,"risk":76,"cat":"red"},{"name":"The Railway Tavern","lat":50.86085,"lon":0.25771,"postcode":"BN27 2BH","la":"Wealden","era":"trad","nn":184,"risk":45,"cat":"amber"},{"name":"The White Hart","lat":50.88135,"lon":0.23965,"postcode":"BN27 4DJ","la":"Wealden","era":"trad","nn":2185,"risk":76,"cat":"red"},{"name":"Thoroughbred Inn","lat":50.8203,"lon":0.23798,"postcode":"BN26 5HG","la":"Wealden","era":"trad","nn":281,"risk":58,"cat":"amber"},{"name":"Anchored in Worthing","lat":50.8096,"lon":-0.37634,"postcode":"BN11 3BS","la":"Worthing","era":"trad","nn":55,"risk":26,"cat":"green"},{"name":"Anchored in Worthing","lat":50.80953,"lon":-0.37189,"postcode":"BN11 3BG","la":"Worthing","era":"trad","nn":42,"risk":26,"cat":"green"},{"name":"Angels","lat":50.8124,"lon":-0.36737,"postcode":"BN11 1NU","la":"Worthing","era":"trad","nn":0,"risk":26,"cat":"green"},{"name":"Assembly Hall And Richmond Room","lat":50.81462,"lon":-0.37249,"postcode":"BN11 1HE","la":"Worthing","era":"mod","nn":113,"risk":26,"cat":"green"},{"name":"Bar Next Door","lat":50.80968,"lon":-0.37938,"postcode":"BN11 3JJ","la":"Worthing","era":"mod","nn":57,"risk":26,"cat":"green"},{"name":"Bar Orange","lat":50.81432,"lon":-0.37095,"postcode":"BN11 1BG","la":"Worthing","era":"mod","nn":113,"risk":26,"cat":"green"},{"name":"Beer No Evil","lat":50.81237,"lon":-0.3597,"postcode":"BN11 2EN","la":"Worthing","era":"other","nn":325,"risk":28,"cat":"green"},{"name":"Bloom","lat":50.8125,"lon":-0.37023,"postcode":"BN11 1BJ","la":"Worthing","era":"other","nn":18,"risk":26,"cat":"green"},{"name":"Brewhouse and Kitchen","lat":50.81383,"lon":-0.38001,"postcode":"BN11 4JD","la":"Worthing","era":"mod","nn":179,"risk":27,"cat":"green"},{"name":"Broadwater Working Mens Con. Club","lat":50.82762,"lon":-0.36962,"postcode":"BN14 9AW","la":"Worthing","era":"trad","nn":74,"risk":26,"cat":"green"},{"name":"Buzz Bingo","lat":50.81019,"lon":-0.37926,"postcode":"BN11 3JS","la":"Worthing","era":"other","nn":57,"risk":26,"cat":"green"},{"name":"Cellar Arts Club","lat":50.80921,"lon":-0.37465,"postcode":"BN11 3QB","la":"Worthing","era":"other","nn":20,"risk":26,"cat":"green"},{"name":"Charles Dickens","lat":50.8093,"lon":-0.38481,"postcode":"BN11 3RG","la":"Worthing","era":"other","nn":384,"risk":28,"cat":"green"},{"name":"Cow & Oak","lat":50.81228,"lon":-0.36432,"postcode":"BN11 3EE","la":"Worthing","era":"trad","nn":10,"risk":26,"cat":"green"},{"name":"Durrington Working Mens Club","lat":50.83586,"lon":-0.40352,"postcode":"BN13 2LA","la":"Worthing","era":"trad","nn":346,"risk":33,"cat":"amber"},{"name":"Escape Bar and Grill also trading as Onyx","lat":50.80954,"lon":-0.37084,"postcode":"BN11 3QA","la":"Worthing","era":"mod","nn":31,"risk":26,"cat":"green"},{"name":"George And Dragon","lat":50.82496,"lon":-0.39387,"postcode":"BN14 7NN","la":"Worthing","era":"trad","nn":106,"risk":26,"cat":"green"},{"name":"Georgi Fin","lat":50.8135,"lon":-0.40326,"postcode":"BN12 4AD","la":"Worthing","era":"other","nn":46,"risk":26,"cat":"green"},{"name":"Goring by Sea Cricket &Football Club","lat":50.81323,"lon":-0.43327,"postcode":"BN12 5AU","la":"Worthing","era":"other","nn":61,"risk":31,"cat":"amber"},{"name":"Goring Conservative Club","lat":50.81532,"lon":-0.42401,"postcode":"BN12 4RA","la":"Worthing","era":"other","nn":377,"risk":28,"cat":"green"},{"name":"Green Man Ale & Cider House","lat":50.81887,"lon":-0.39214,"postcode":"BN14 7LG","la":"Worthing","era":"other","nn":61,"risk":26,"cat":"green"},{"name":"Hand Brewing Company Ltd","lat":50.81837,"lon":-0.40039,"postcode":"BN13 1AL","la":"Worthing","era":"other","nn":138,"risk":27,"cat":"green"},{"name":"Hare & Hounds","lat":50.81195,"lon":-0.37313,"postcode":"BN11 1QG","la":"Worthing","era":"trad","nn":79,"risk":26,"cat":"green"},{"name":"Heartbreaker","lat":50.81206,"lon":-0.36726,"postcode":"BN11 3EG","la":"Worthing","era":"other","nn":39,"risk":26,"cat":"green"},{"name":"Karma Lounge","lat":50.81821,"lon":-0.38766,"postcode":"BN11 4HH","la":"Worthing","era":"mod","nn":133,"risk":26,"cat":"green"},{"name":"Lark","lat":50.81007,"lon":-0.37657,"postcode":"BN11 3HG","la":"Worthing","era":"other","nn":55,"risk":26,"cat":"green"},{"name":"MacMillans Cocktail Bar & Grill","lat":50.81416,"lon":-0.3688,"postcode":"BN11 1LG","la":"Worthing","era":"other","nn":98,"risk":26,"cat":"green"},{"name":"Manuka Bar","lat":50.81116,"lon":-0.37301,"postcode":"BN11 1QH","la":"Worthing","era":"other","nn":29,"risk":26,"cat":"green"},{"name":"Molotov Cocktail & Vodka Bar","lat":50.81309,"lon":-0.36876,"postcode":"BN11 1LY","la":"Worthing","era":"other","nn":0,"risk":26,"cat":"green"},{"name":"New Amsterdam","lat":50.81541,"lon":-0.36873,"postcode":"BN11 1DN","la":"Worthing","era":"other","nn":60,"risk":26,"cat":"green"},{"name":"North Star","lat":50.82902,"lon":-0.40689,"postcode":"BN13 1QY","la":"Worthing","era":"other","nn":796,"risk":34,"cat":"amber"},{"name":"O'Connors","lat":50.81186,"lon":-0.36864,"postcode":"BN11 3DQ","la":"Worthing","era":"other","nn":27,"risk":26,"cat":"green"},{"name":"Roots (Worthing) LTD","lat":50.80952,"lon":-0.37128,"postcode":"BN11 3QA","la":"Worthing","era":"other","nn":31,"risk":26,"cat":"green"},{"name":"Saints and Sinners","lat":50.8124,"lon":-0.36737,"postcode":"BN11 1NU","la":"Worthing","era":"trad","nn":0,"risk":26,"cat":"green"},{"name":"Slicks","lat":50.81085,"lon":-0.37032,"postcode":"BN11 3AW","la":"Worthing","era":"other","nn":53,"risk":26,"cat":"green"},{"name":"Slug & Lettuce also trading as Loco Loco, El Rodeo Mexicano, Burrito Bandits KTown, Chik Box and Locked and Loaded","lat":50.81265,"lon":-0.37029,"postcode":"BN11 1BJ","la":"Worthing","era":"other","nn":18,"risk":26,"cat":"green"},{"name":"Smugglers Return","lat":50.81721,"lon":-0.35177,"postcode":"BN11 2QS","la":"Worthing","era":"other","nn":599,"risk":47,"cat":"amber"},{"name":"Souvlaki Bar","lat":50.81104,"lon":-0.36963,"postcode":"BN11 3AA","la":"Worthing","era":"other","nn":53,"risk":26,"cat":"green"},{"name":"Sussex Yeoman","lat":50.82388,"lon":-0.42398,"postcode":"BN12 6JN","la":"Worthing","era":"other","nn":859,"risk":37,"cat":"amber"},{"name":"T.S. Vanguard","lat":50.82075,"lon":-0.37371,"postcode":"BN14 8AD","la":"Worthing","era":"other","nn":236,"risk":27,"cat":"green"},{"name":"Tarring Priory Bowls Club","lat":50.82429,"lon":-0.39588,"postcode":"BN13 1HQ","la":"Worthing","era":"other","nn":159,"risk":27,"cat":"green"},{"name":"The Alexandra","lat":50.81592,"lon":-0.36004,"postcode":"BN11 2DF","la":"Worthing","era":"other","nn":395,"risk":28,"cat":"green"},{"name":"The Broadwater","lat":50.82851,"lon":-0.37422,"postcode":"BN14 9DA","la":"Worthing","era":"other","nn":158,"risk":27,"cat":"green"},{"name":"The Brooksteed","lat":50.81956,"lon":-0.37858,"postcode":"BN14 7AE","la":"Worthing","era":"other","nn":367,"risk":28,"cat":"green"},{"name":"The Bull","lat":50.81321,"lon":-0.4324,"postcode":"BN12 5AR","la":"Worthing","era":"trad","nn":61,"risk":31,"cat":"amber"},{"name":"The Corner House","lat":50.81497,"lon":-0.36825,"postcode":"BN11 1DJ","la":"Worthing","era":"other","nn":60,"risk":26,"cat":"green"},{"name":"The Cow Shed","lat":50.80992,"lon":-0.36952,"postcode":"BN11 3PU","la":"Worthing","era":"other","nn":66,"risk":26,"cat":"green"},{"name":"The Cricketers","lat":50.82945,"lon":-0.37591,"postcode":"BN14 9DE","la":"Worthing","era":"other","nn":158,"risk":27,"cat":"green"},{"name":"The Egremont","lat":50.81198,"lon":-0.36486,"postcode":"BN11 3ED","la":"Worthing","era":"other","nn":40,"risk":26,"cat":"green"},{"name":"The Elephant In The Room","lat":50.81361,"lon":-0.40262,"postcode":"BN12 4AD","la":"Worthing","era":"other","nn":46,"risk":26,"cat":"green"},{"name":"The Factory Live Ltd","lat":50.81908,"lon":-0.37164,"postcode":"BN14 8BX","la":"Worthing","era":"other","nn":135,"risk":26,"cat":"green"},{"name":"The Golden Lion","lat":50.81917,"lon":-0.41189,"postcode":"BN12 6DL","la":"Worthing","era":"trad","nn":720,"risk":31,"cat":"amber"},{"name":"The Goose","lat":50.81021,"lon":-0.36766,"postcode":"BN11 3PT","la":"Worthing","era":"other","nn":135,"risk":26,"cat":"green"},{"name":"The Grape Escape","lat":50.81164,"lon":-0.3688,"postcode":"BN11 3DJ","la":"Worthing","era":"other","nn":24,"risk":26,"cat":"green"},{"name":"The Grizzly Bear","lat":50.81941,"lon":-0.39231,"postcode":"BN14 7LG","la":"Worthing","era":"other","nn":61,"risk":26,"cat":"green"},{"name":"The John Selden","lat":50.83528,"lon":-0.39868,"postcode":"BN13 2EN","la":"Worthing","era":"other","nn":346,"risk":30,"cat":"green"},{"name":"The Jungle Nightclub","lat":50.81309,"lon":-0.36876,"postcode":"BN11 1LY","la":"Worthing","era":"other","nn":0,"risk":26,"cat":"green"},{"name":"The Last Melon also trading as Woods Takeaway","lat":50.80941,"lon":-0.37513,"postcode":"BN11 3BT","la":"Worthing","era":"other","nn":25,"risk":26,"cat":"green"},{"name":"The Last Resort","lat":50.80922,"lon":-0.37494,"postcode":"BN11 3QB","la":"Worthing","era":"other","nn":20,"risk":26,"cat":"green"},{"name":"The Libertine","lat":50.8113,"lon":-0.37266,"postcode":"BN11 1QN","la":"Worthing","era":"other","nn":29,"risk":26,"cat":"green"},{"name":"The Mulberry","lat":50.81194,"lon":-0.42367,"postcode":"BN12 4NX","la":"Worthing","era":"other","nn":377,"risk":33,"cat":"amber"},{"name":"The Old Bike Store","lat":50.81224,"lon":-0.36445,"postcode":"BN11 3EE","la":"Worthing","era":"other","nn":10,"risk":26,"cat":"green"},{"name":"The Park View","lat":50.83557,"lon":-0.41211,"postcode":"BN13 2JR","la":"Worthing","era":"other","nn":604,"risk":35,"cat":"amber"},{"name":"The Richard Cobden","lat":50.81502,"lon":-0.3783,"postcode":"BN11 4BD","la":"Worthing","era":"other","nn":179,"risk":27,"cat":"green"},{"name":"The Rose and Crown","lat":50.80983,"lon":-0.37775,"postcode":"BN11 3DA","la":"Worthing","era":"trad","nn":27,"risk":26,"cat":"green"},{"name":"The Selden Arms","lat":50.81512,"lon":-0.36621,"postcode":"BN11 2DB","la":"Worthing","era":"trad","nn":144,"risk":27,"cat":"green"},{"name":"The Swallows Return","lat":50.8226,"lon":-0.43603,"postcode":"BN12 6NZ","la":"Worthing","era":"other","nn":859,"risk":37,"cat":"amber"},{"name":"The Tarring Club","lat":50.8191,"lon":-0.3864,"postcode":"BN14 7EL","la":"Worthing","era":"other","nn":133,"risk":26,"cat":"green"},{"name":"The Tasting Room By Merakai Brewing","lat":50.81145,"lon":-0.36843,"postcode":"BN11 3EZ","la":"Worthing","era":"other","nn":34,"risk":26,"cat":"green"},{"name":"The Three Fishes","lat":50.81331,"lon":-0.37058,"postcode":"BN11 1BE","la":"Worthing","era":"other","nn":76,"risk":26,"cat":"green"},{"name":"The Valley Bar","lat":50.84887,"lon":-0.39764,"postcode":"BN14 0EL","la":"Worthing","era":"other","nn":1505,"risk":59,"cat":"amber"},{"name":"The Vine","lat":50.82574,"lon":-0.39299,"postcode":"BN14 7NN","la":"Worthing","era":"other","nn":106,"risk":26,"cat":"green"},{"name":"The Whiskey Rooms","lat":50.81005,"lon":-0.37756,"postcode":"BN11 3HG","la":"Worthing","era":"mod","nn":27,"risk":26,"cat":"green"},{"name":"Thieves Kitchen","lat":50.81158,"lon":-0.36913,"postcode":"BN11 3DL","la":"Worthing","era":"mod","nn":24,"risk":26,"cat":"green"},{"name":"Thomas A Becket Hotel","lat":50.83005,"lon":-0.3918,"postcode":"BN14 7PJ","la":"Worthing","era":"other","nn":487,"risk":31,"cat":"amber"},{"name":"Toad in the Hole","lat":50.81787,"lon":-0.37174,"postcode":"BN11 1JR","la":"Worthing","era":"other","nn":135,"risk":26,"cat":"green"},{"name":"Toby Carvery","lat":50.81291,"lon":-0.40426,"postcode":"BN12 4AS","la":"Worthing","era":"other","nn":96,"risk":26,"cat":"green"},{"name":"Vault","lat":50.80967,"lon":-0.37037,"postcode":"BN11 3QA","la":"Worthing","era":"other","nn":36,"risk":26,"cat":"green"},{"name":"Venue5","lat":50.81915,"lon":-0.38433,"postcode":"BN14 7EQ","la":"Worthing","era":"other","nn":146,"risk":27,"cat":"green"},{"name":"West Worthing Club CIC","lat":50.83095,"lon":-0.43404,"postcode":"BN13 3RT","la":"Worthing","era":"other","nn":940,"risk":52,"cat":"amber"},{"name":"West Worthing Working Mens Club","lat":50.8176,"lon":-0.40194,"postcode":"BN11 5JP","la":"Worthing","era":"trad","nn":138,"risk":27,"cat":"green"},{"name":"Worthing Cricket Club","lat":50.82456,"lon":-0.37165,"postcode":"BN14 8HL","la":"Worthing","era":"other","nn":366,"risk":28,"cat":"green"},{"name":"Worthing Sailing Club","lat":50.80612,"lon":-0.4062,"postcode":"BN12 4DG","la":"Worthing","era":"other","nn":768,"risk":36,"cat":"amber"},{"name":"Ye olde house at home","lat":50.82779,"lon":-0.37063,"postcode":"BN14 9AD","la":"Worthing","era":"mod","nn":74,"risk":26,"cat":"green"}]