[{"name":"Berkshire Golf Club","lat":51.38489,"lon":-0.7038,"postcode":"SL5 8AY","la":"Bracknell Forest","era":"other","nn":0,"risk":50,"cat":"amber"},{"name":"Forest Artisans Golf Club","lat":51.38489,"lon":-0.7038,"postcode":"SL5 8AY","la":"Bracknell Forest","era":"other","nn":0,"risk":50,"cat":"amber"},{"name":"Britannia Arms","lat":51.57889,"lon":-0.76712,"postcode":"SL7 1HL","la":"Buckinghamshire","era":"trad","nn":850,"risk":41,"cat":"amber"},{"name":"Chris Wheeler at The Crown Inn","lat":51.5502,"lon":-0.62261,"postcode":"SL2 3SQ","la":"Buckinghamshire","era":"trad","nn":348,"risk":22,"cat":"green"},{"name":"Claytons Marlow","lat":51.57229,"lon":-0.78032,"postcode":"SL7 2NL","la":"Buckinghamshire","era":"other","nn":207,"risk":19,"cat":"green"},{"name":"Crafty Taproom","lat":51.56974,"lon":-0.77443,"postcode":"SL7 1AB","la":"Buckinghamshire","era":"mod","nn":36,"risk":18,"cat":"green"},{"name":"Duke Of Clarence","lat":51.57043,"lon":-0.77597,"postcode":"SL7 1AH","la":"Buckinghamshire","era":"trad","nn":56,"risk":18,"cat":"green"},{"name":"Emperor","lat":51.54855,"lon":-0.61833,"postcode":"SL2 3EG","la":"Buckinghamshire","era":"other","nn":348,"risk":22,"cat":"green"},{"name":"Farnham Common Sports Club","lat":51.56415,"lon":-0.61253,"postcode":"SL2 3QY","la":"Buckinghamshire","era":"other","nn":464,"risk":41,"cat":"amber"},{"name":"Feathers Burnham","lat":51.55717,"lon":-0.68129,"postcode":"SL1 8NS","la":"Buckinghamshire","era":"other","nn":1885,"risk":53,"cat":"amber"},{"name":"Garibaldi","lat":51.53209,"lon":-0.65849,"postcode":"SL1 7JB","la":"Buckinghamshire","era":"other","nn":153,"risk":21,"cat":"green"},{"name":"Grape Expectations","lat":51.56967,"lon":-0.77493,"postcode":"SL7 1AQ","la":"Buckinghamshire","era":"other","nn":17,"risk":18,"cat":"green"},{"name":"Harleyford Golf Club","lat":51.8409,"lon":-0.80866,"postcode":"SL7 2SP","la":"Buckinghamshire","era":"other","nn":0,"risk":35,"cat":"amber"},{"name":"Kings Head Public House","lat":51.58464,"lon":-0.74129,"postcode":"SL7 3RZ","la":"Buckinghamshire","era":"trad","nn":102,"risk":36,"cat":"amber"},{"name":"Marlow Rugby Union","lat":51.56848,"lon":-0.75664,"postcode":"SL7 1QU","la":"Buckinghamshire","era":"other","nn":345,"risk":25,"cat":"green"},{"name":"Marlow Sports Club","lat":51.56784,"lon":-0.77673,"postcode":"SL7 2AE","la":"Buckinghamshire","era":"other","nn":239,"risk":19,"cat":"green"},{"name":"Oak And Saw Village Inn","lat":51.53131,"lon":-0.6887,"postcode":"SL6 0ET","la":"Buckinghamshire","era":"trad","nn":1176,"risk":48,"cat":"amber"},{"name":"Palmers Arms","lat":51.50346,"lon":-0.66183,"postcode":"SL4 6QW","la":"Buckinghamshire","era":"trad","nn":577,"risk":41,"cat":"amber"},{"name":"Quantum Hospitality Limited","lat":51.59359,"lon":-0.76635,"postcode":"SL7 3RA","la":"Buckinghamshire","era":"other","nn":1161,"risk":48,"cat":"amber"},{"name":"Queens Head","lat":51.58373,"lon":-0.74133,"postcode":"SL7 3SR","la":"Buckinghamshire","era":"trad","nn":102,"risk":36,"cat":"amber"},{"name":"Redwood Leisure","lat":51.50508,"lon":-0.50669,"postcode":"SL0 9BN","la":"Buckinghamshire","era":"other","nn":300,"risk":37,"cat":"amber"},{"name":"Restauracja Gryf","lat":51.53384,"lon":-0.59158,"postcode":"SL2 4NZ","la":"Buckinghamshire","era":"other","nn":646,"risk":42,"cat":"amber"},{"name":"Rose And Crown","lat":51.54968,"lon":-0.58352,"postcode":"SL2 4PW","la":"Buckinghamshire","era":"trad","nn":976,"risk":44,"cat":"amber"},{"name":"Royal Oak","lat":51.56043,"lon":-0.61559,"postcode":"SL2 3HS","la":"Buckinghamshire","era":"trad","nn":464,"risk":23,"cat":"green"},{"name":"Stag & Hounds","lat":51.55517,"lon":-0.61508,"postcode":"SL2 3QQ","la":"Buckinghamshire","era":"trad","nn":1,"risk":17,"cat":"green"},{"name":"Stag and Hounds","lat":51.54133,"lon":-0.52209,"postcode":"SL0 0RW","la":"Buckinghamshire","era":"trad","nn":241,"risk":24,"cat":"green"},{"name":"The Apple Tree","lat":51.57921,"lon":-0.55251,"postcode":"SL9 7AH","la":"Buckinghamshire","era":"other","nn":1831,"risk":53,"cat":"amber"},{"name":"The Barn Club","lat":51.58643,"lon":-0.77858,"postcode":"SL7 3NA","la":"Buckinghamshire","era":"other","nn":1153,"risk":48,"cat":"amber"},{"name":"The Bee","lat":51.53585,"lon":-0.65784,"postcode":"SL1 8AF","la":"Buckinghamshire","era":"other","nn":162,"risk":21,"cat":"green"},{"name":"The Black Horse","lat":51.53735,"lon":-0.51577,"postcode":"SL0 0DH","la":"Buckinghamshire","era":"trad","nn":622,"risk":39,"cat":"amber"},{"name":"The Black Horse","lat":51.56077,"lon":-0.56138,"postcode":"SL3 6HD","la":"Buckinghamshire","era":"trad","nn":1887,"risk":53,"cat":"amber"},{"name":"The Black Lion Public House","lat":51.58496,"lon":-0.72031,"postcode":"SL8 5PL","la":"Buckinghamshire","era":"trad","nn":458,"risk":26,"cat":"green"},{"name":"The Blackwood Arms","lat":51.56598,"lon":-0.65049,"postcode":"SL1 8PP","la":"Buckinghamshire","era":"trad","nn":1682,"risk":52,"cat":"amber"},{"name":"The Chequers","lat":51.57045,"lon":-0.77516,"postcode":"SL7 1BA","la":"Buckinghamshire","era":"other","nn":56,"risk":18,"cat":"green"},{"name":"The Crooked Billet","lat":51.59685,"lon":-0.7263,"postcode":"SL7 3SG","la":"Buckinghamshire","era":"other","nn":1075,"risk":47,"cat":"amber"},{"name":"The Crooked Billet","lat":51.53479,"lon":-0.53055,"postcode":"SL0 0LP","la":"Buckinghamshire","era":"other","nn":693,"risk":40,"cat":"amber"},{"name":"The Dog & Badger","lat":51.55397,"lon":-0.84243,"postcode":"SL7 2HE","la":"Buckinghamshire","era":"other","nn":1955,"risk":54,"cat":"amber"},{"name":"The Duke","lat":51.5744,"lon":-0.78199,"postcode":"SL7 2PS","la":"Buckinghamshire","era":"trad","nn":262,"risk":19,"cat":"green"},{"name":"The Dukes Head","lat":51.53699,"lon":-0.61749,"postcode":"SL2 3AJ","la":"Buckinghamshire","era":"trad","nn":1092,"risk":48,"cat":"amber"},{"name":"The Foresters","lat":51.55518,"lon":-0.6151,"postcode":"SL2 3QQ","la":"Buckinghamshire","era":"other","nn":1,"risk":17,"cat":"green"},{"name":"The Garibaldi Public House","lat":51.57121,"lon":-0.70376,"postcode":"SL8 5EE","la":"Buckinghamshire","era":"other","nn":437,"risk":41,"cat":"amber"},{"name":"The Grand Assembly","lat":51.57218,"lon":-0.77733,"postcode":"SL7 1BE","la":"Buckinghamshire","era":"mod","nn":130,"risk":18,"cat":"green"},{"name":"The Greyhound Inn","lat":51.60742,"lon":-0.55671,"postcode":"SL9 9RA","la":"Buckinghamshire","era":"trad","nn":85,"risk":23,"cat":"green"},{"name":"The Hand And Flowers Public House","lat":51.57037,"lon":-0.78089,"postcode":"SL7 2BP","la":"Buckinghamshire","era":"other","nn":209,"risk":19,"cat":"green"},{"name":"The Jolly Farmer","lat":51.60324,"lon":-0.56564,"postcode":"SL9 9HH","la":"Buckinghamshire","era":"other","nn":722,"risk":28,"cat":"green"},{"name":"The Marlow Club","lat":51.57093,"lon":-0.75969,"postcode":"SL7 1LU","la":"Buckinghamshire","era":"other","nn":345,"risk":22,"cat":"green"},{"name":"The Marlow Donkey Public House","lat":51.57134,"lon":-0.76899,"postcode":"SL7 1NW","la":"Buckinghamshire","era":"other","nn":200,"risk":19,"cat":"green"},{"name":"The North Star","lat":51.50411,"lon":-0.49345,"postcode":"SL0 9AH","la":"Buckinghamshire","era":"other","nn":629,"risk":39,"cat":"amber"},{"name":"The Oarsman","lat":51.57297,"lon":-0.77594,"postcode":"SL7 1DB","la":"Buckinghamshire","era":"other","nn":130,"risk":18,"cat":"green"},{"name":"The Old Brewery","lat":51.5698,"lon":-0.77506,"postcode":"SL7 1AQ","la":"Buckinghamshire","era":"other","nn":17,"risk":18,"cat":"green"},{"name":"The Old Five Bells","lat":51.53337,"lon":-0.65929,"postcode":"SL1 7HZ","la":"Buckinghamshire","era":"other","nn":85,"risk":21,"cat":"green"},{"name":"The Olive Tree","lat":51.52591,"lon":-0.67409,"postcode":"SL6 0LZ","la":"Buckinghamshire","era":"other","nn":1176,"risk":48,"cat":"amber"},{"name":"The Pineapple","lat":51.5086,"lon":-0.66304,"postcode":"SL4 6QS","la":"Buckinghamshire","era":"other","nn":577,"risk":41,"cat":"amber"},{"name":"The Prince Of Wales","lat":51.56983,"lon":-0.77056,"postcode":"SL7 1PX","la":"Buckinghamshire","era":"trad","nn":155,"risk":19,"cat":"green"},{"name":"The Red Lion","lat":51.51893,"lon":-0.52694,"postcode":"SL0 0JZ","la":"Buckinghamshire","era":"trad","nn":994,"risk":44,"cat":"amber"},{"name":"The Red Lion","lat":51.53167,"lon":-0.58291,"postcode":"SL2 4HN","la":"Buckinghamshire","era":"trad","nn":646,"risk":42,"cat":"amber"},{"name":"The Royal British Legion","lat":51.53587,"lon":-0.66018,"postcode":"SL1 8AA","la":"Buckinghamshire","era":"trad","nn":162,"risk":21,"cat":"green"},{"name":"The Royal British Legion","lat":51.53961,"lon":-0.52421,"postcode":"SL0 0RD","la":"Buckinghamshire","era":"trad","nn":241,"risk":24,"cat":"green"},{"name":"The Royal Oak Public House","lat":51.57566,"lon":-0.79584,"postcode":"SL7 2JF","la":"Buckinghamshire","era":"trad","nn":967,"risk":44,"cat":"amber"},{"name":"The Ship Public House","lat":51.57098,"lon":-0.77803,"postcode":"SL7 2LS","la":"Buckinghamshire","era":"trad","nn":142,"risk":18,"cat":"green"},{"name":"The Spade Oak","lat":51.58191,"lon":-0.72477,"postcode":"SL8 5PS","la":"Buckinghamshire","era":"trad","nn":418,"risk":25,"cat":"green"},{"name":"The Stag Pub","lat":51.54503,"lon":-0.57155,"postcode":"SL3 6PA","la":"Buckinghamshire","era":"trad","nn":976,"risk":44,"cat":"amber"},{"name":"The Swan","lat":51.52036,"lon":-0.5054,"postcode":"SL0 9NG","la":"Buckinghamshire","era":"trad","nn":1173,"risk":48,"cat":"amber"},{"name":"The Three Oaks","lat":51.59753,"lon":-0.55694,"postcode":"SL9 8NL","la":"Buckinghamshire","era":"trad","nn":874,"risk":44,"cat":"amber"},{"name":"The Tower Arms","lat":51.50521,"lon":-0.50236,"postcode":"SL0 9AE","la":"Buckinghamshire","era":"trad","nn":300,"risk":37,"cat":"amber"},{"name":"The Two Brewers","lat":51.56885,"lon":-0.77214,"postcode":"SL7 1NQ","la":"Buckinghamshire","era":"other","nn":155,"risk":19,"cat":"green"},{"name":"The Victoria","lat":51.55454,"lon":-0.61258,"postcode":"SL2 3NL","la":"Buckinghamshire","era":"trad","nn":187,"risk":19,"cat":"green"},{"name":"The Walnut Tree Public House","lat":51.57317,"lon":-0.70923,"postcode":"SL8 5DN","la":"Buckinghamshire","era":"other","nn":437,"risk":38,"cat":"amber"},{"name":"The White Hart","lat":51.60666,"lon":-0.55675,"postcode":"SL9 9QA","la":"Buckinghamshire","era":"trad","nn":85,"risk":23,"cat":"green"},{"name":"Upper Thames Sailing Club","lat":51.57849,"lon":-0.72228,"postcode":"SL8 5RF","la":"Buckinghamshire","era":"other","nn":418,"risk":25,"cat":"green"},{"name":"Westhorpe Clubhouse","lat":51.57694,"lon":-0.74757,"postcode":"SL7 3RQ","la":"Buckinghamshire","era":"other","nn":869,"risk":41,"cat":"amber"},{"name":"Whip and Collar","lat":51.52647,"lon":-0.51923,"postcode":"SL0 0HU","la":"Buckinghamshire","era":"other","nn":994,"risk":44,"cat":"amber"},{"name":"White Horse","lat":51.57639,"lon":-0.60291,"postcode":"SL2 3UY","la":"Buckinghamshire","era":"trad","nn":1515,"risk":51,"cat":"amber"},{"name":"Winkers Farm Country Club","lat":51.61041,"lon":-0.54518,"postcode":"SL9 0QJ","la":"Buckinghamshire","era":"other","nn":863,"risk":41,"cat":"amber"},{"name":"Ye Old Swan","lat":51.53391,"lon":-0.65842,"postcode":"SL1 7JP","la":"Buckinghamshire","era":"trad","nn":85,"risk":21,"cat":"green"},{"name":"Chalvey Working Mens Club","lat":51.50573,"lon":-0.60844,"postcode":"SL1 2SQ","la":"Slough","era":"trad","nn":215,"risk":48,"cat":"amber"},{"name":"Cippenham Bowling Club","lat":51.52207,"lon":-0.6447,"postcode":"SL1 6JJ","la":"Slough","era":"other","nn":330,"risk":34,"cat":"amber"},{"name":"Cippenham Working Mens Club","lat":51.5199,"lon":-0.64797,"postcode":"SL1 6AA","la":"Slough","era":"trad","nn":330,"risk":34,"cat":"amber"},{"name":"Faraday Social Club","lat":51.52775,"lon":-0.62281,"postcode":"SL2 1RP","la":"Slough","era":"mod","nn":1092,"risk":59,"cat":"amber"},{"name":"Holy Family Parish Club","lat":51.50184,"lon":-0.55366,"postcode":"SL3 7UD","la":"Slough","era":"other","nn":400,"risk":52,"cat":"amber"},{"name":"Kings Head PH","lat":51.51442,"lon":-0.63811,"postcode":"SL1 5DS","la":"Slough","era":"trad","nn":22,"risk":32,"cat":"amber"},{"name":"Slough Cricket Club","lat":51.49632,"lon":-0.57352,"postcode":"SL3 7LT","la":"Slough","era":"other","nn":134,"risk":50,"cat":"amber"},{"name":"Slough Hockey Club","lat":51.49612,"lon":-0.57161,"postcode":"SL3 7LT","la":"Slough","era":"other","nn":134,"risk":50,"cat":"amber"},{"name":"Slough Irish Club","lat":51.51857,"lon":-0.57594,"postcode":"SL2 5SS","la":"Slough","era":"other","nn":1527,"risk":62,"cat":"red"},{"name":"The Alpha Arms","lat":51.50678,"lon":-0.58904,"postcode":"SL1 1RB","la":"Slough","era":"trad","nn":77,"risk":35,"cat":"amber"},{"name":"The Barleycorn","lat":51.51438,"lon":-0.63841,"postcode":"SL1 5DS","la":"Slough","era":"other","nn":22,"risk":32,"cat":"amber"},{"name":"The Brickhouse","lat":51.50747,"lon":-0.58892,"postcode":"SL1 1JU","la":"Slough","era":"other","nn":77,"risk":35,"cat":"amber"},{"name":"The Earl of Cornwall","lat":51.51191,"lon":-0.62393,"postcode":"SL1 2XN","la":"Slough","era":"other","nn":271,"risk":51,"cat":"amber"},{"name":"The Flags Public House","lat":51.50745,"lon":-0.60987,"postcode":"SL1 2NL","la":"Slough","era":"other","nn":215,"risk":48,"cat":"amber"},{"name":"The Long Barn","lat":51.51295,"lon":-0.62746,"postcode":"SL1 5AH","la":"Slough","era":"other","nn":271,"risk":36,"cat":"amber"},{"name":"The Moon and Spoon","lat":51.5095,"lon":-0.59588,"postcode":"SL1 1EL","la":"Slough","era":"other","nn":531,"risk":33,"cat":"amber"},{"name":"The Red Lion","lat":51.50543,"lon":-0.55419,"postcode":"SL3 7EN","la":"Slough","era":"trad","nn":400,"risk":52,"cat":"amber"},{"name":"The Wheatsheaf","lat":51.5046,"lon":-0.59214,"postcode":"SL1 2BE","la":"Slough","era":"trad","nn":324,"risk":36,"cat":"amber"},{"name":"Ye Olde George","lat":51.48373,"lon":-0.52228,"postcode":"SL3 0LX","la":"Slough","era":"trad","nn":2160,"risk":67,"cat":"red"},{"name":"Ye Olde Huntercombe Public House","lat":51.51981,"lon":-0.65386,"postcode":"SL1 6AB","la":"Slough","era":"other","nn":408,"risk":49,"cat":"amber"},{"name":"1711 By Ascot The Furlong","lat":51.41112,"lon":-0.67716,"postcode":"SL5 7JX","la":"Windsor and Maidenhead","era":"other","nn":0,"risk":28,"cat":"green"},{"name":"A Hoppy Place","lat":51.52153,"lon":-0.7182,"postcode":"SL6 1TJ","la":"Windsor and Maidenhead","era":"other","nn":145,"risk":27,"cat":"green"},{"name":"Belgian Arms","lat":51.49326,"lon":-0.71421,"postcode":"SL6 2JR","la":"Windsor and Maidenhead","era":"trad","nn":263,"risk":33,"cat":"amber"},{"name":"Boatman","lat":51.48648,"lon":-0.60623,"postcode":"SL4 1QN","la":"Windsor and Maidenhead","era":"other","nn":134,"risk":27,"cat":"green"},{"name":"Cookham Dean Cricket Club","lat":51.55684,"lon":-0.73262,"postcode":"SL6 9LF","la":"Windsor and Maidenhead","era":"other","nn":596,"risk":35,"cat":"amber"},{"name":"Cookham Social Club","lat":51.55785,"lon":-0.7209,"postcode":"SL6 9BT","la":"Windsor and Maidenhead","era":"mod","nn":232,"risk":30,"cat":"green"},{"name":"Cult Burger At Off The Tap","lat":51.52244,"lon":-0.72375,"postcode":"SL6 1EA","la":"Windsor and Maidenhead","era":"mod","nn":125,"risk":27,"cat":"green"},{"name":"Dog And Partridge","lat":51.40261,"lon":-0.65812,"postcode":"SL5 7AQ","la":"Windsor and Maidenhead","era":"other","nn":0,"risk":43,"cat":"amber"},{"name":"Duke of Connaught","lat":51.48318,"lon":-0.61857,"postcode":"SL4 1RZ","la":"Windsor and Maidenhead","era":"trad","nn":157,"risk":27,"cat":"green"},{"name":"Eton Excelsior Rowing Club At Windsor Marina","lat":51.48674,"lon":-0.66034,"postcode":"SL4 5TZ","la":"Windsor and Maidenhead","era":"other","nn":795,"risk":51,"cat":"amber"},{"name":"FALAK ROYAL","lat":51.41103,"lon":-0.67573,"postcode":"SL5 7JF","la":"Windsor and Maidenhead","era":"trad","nn":99,"risk":29,"cat":"green"},{"name":"Fifield Inn","lat":51.48196,"lon":-0.69261,"postcode":"SL6 2NX","la":"Windsor and Maidenhead","era":"trad","nn":1847,"risk":61,"cat":"red"},{"name":"Fuzzy Bear","lat":51.48273,"lon":-0.61026,"postcode":"SL4 1RH","la":"Windsor and Maidenhead","era":"other","nn":0,"risk":26,"cat":"green"},{"name":"Halfway Hut","lat":51.38873,"lon":-0.63131,"postcode":"SL5 9RR","la":"Windsor and Maidenhead","era":"other","nn":455,"risk":49,"cat":"amber"},{"name":"Henry VI","lat":51.48814,"lon":-0.60893,"postcode":"SL4 6BD","la":"Windsor and Maidenhead","era":"other","nn":0,"risk":26,"cat":"green"},{"name":"Henry VI","lat":51.48814,"lon":-0.60893,"postcode":"SL4 6BD","la":"Windsor and Maidenhead","era":"other","nn":0,"risk":26,"cat":"green"},{"name":"Horse And Groom","lat":51.48258,"lon":-0.60693,"postcode":"SL4 1PD","la":"Windsor and Maidenhead","era":"trad","nn":30,"risk":26,"cat":"green"},{"name":"Incognito Royal Windsor","lat":51.48157,"lon":-0.60691,"postcode":"SL4 1LD","la":"Windsor and Maidenhead","era":"trad","nn":48,"risk":26,"cat":"green"},{"name":"Jack & Earnest At Bit And Bridle Ascot Racecourse","lat":51.41112,"lon":-0.67716,"postcode":"SL5 7JX","la":"Windsor and Maidenhead","era":"other","nn":0,"risk":28,"cat":"green"},{"name":"Jolly Gardener","lat":51.48594,"lon":-0.7185,"postcode":"SL6 2ND","la":"Windsor and Maidenhead","era":"other","nn":0,"risk":31,"cat":"amber"},{"name":"Kings Arms","lat":51.5597,"lon":-0.70825,"postcode":"SL6 9SJ","la":"Windsor and Maidenhead","era":"trad","nn":246,"risk":33,"cat":"amber"},{"name":"La Cloche @ The Carpenters Arms","lat":51.40261,"lon":-0.65812,"postcode":"SL5 7AQ","la":"Windsor and Maidenhead","era":"trad","nn":0,"risk":43,"cat":"amber"},{"name":"La Planchette","lat":51.48479,"lon":-0.6077,"postcode":"SL4 1QP","la":"Windsor and Maidenhead","era":"other","nn":106,"risk":27,"cat":"green"},{"name":"Leona's Bespoke Catering At The Windsor Trooper","lat":51.477,"lon":-0.61302,"postcode":"SL4 3BZ","la":"Windsor and Maidenhead","era":"other","nn":0,"risk":26,"cat":"green"},{"name":"New Inn","lat":51.5241,"lon":-0.75382,"postcode":"SL6 5HX","la":"Windsor and Maidenhead","era":"trad","nn":1036,"risk":56,"cat":"amber"},{"name":"NMCC Sports Bar At Summerleaze Park","lat":51.53621,"lon":-0.7202,"postcode":"SL6 8SP","la":"Windsor and Maidenhead","era":"mod","nn":0,"risk":46,"cat":"amber"},{"name":"Pink Gentleman's Club","lat":51.48111,"lon":-0.61181,"postcode":"SL4 1EF","la":"Windsor and Maidenhead","era":"other","nn":47,"risk":26,"cat":"green"},{"name":"Ridgemount Artisan Golf Club","lat":51.38792,"lon":-0.63774,"postcode":"SL5 9RX","la":"Windsor and Maidenhead","era":"other","nn":455,"risk":49,"cat":"amber"},{"name":"Sally Jordan At North Maidenhead Cricket Club","lat":51.53621,"lon":-0.7202,"postcode":"SL6 8SP","la":"Windsor and Maidenhead","era":"trad","nn":0,"risk":46,"cat":"amber"},{"name":"Smokeys","lat":51.52206,"lon":-0.72205,"postcode":"SL6 1LB","la":"Windsor and Maidenhead","era":"other","nn":107,"risk":27,"cat":"green"},{"name":"Thatched Cottage","lat":51.50972,"lon":-0.7624,"postcode":"SL6 3PE","la":"Windsor and Maidenhead","era":"other","nn":1189,"risk":57,"cat":"amber"},{"name":"Thatched Tavern","lat":51.41695,"lon":-0.64371,"postcode":"SL5 7QG","la":"Windsor and Maidenhead","era":"other","nn":1882,"risk":61,"cat":"red"},{"name":"The Alma","lat":51.47463,"lon":-0.61862,"postcode":"SL4 3PP","la":"Windsor and Maidenhead","era":"other","nn":464,"risk":29,"cat":"green"},{"name":"The Ark","lat":51.52508,"lon":-0.71001,"postcode":"SL6 8PX","la":"Windsor and Maidenhead","era":"other","nn":577,"risk":30,"cat":"green"},{"name":"The Barley Mow","lat":51.50766,"lon":-0.74366,"postcode":"SL6 3EW","la":"Windsor and Maidenhead","era":"other","nn":53,"risk":46,"cat":"amber"},{"name":"The Bear","lat":51.52331,"lon":-0.71784,"postcode":"SL6 1QJ","la":"Windsor and Maidenhead","era":"other","nn":98,"risk":27,"cat":"green"},{"name":"The Bell And Bottle","lat":51.51339,"lon":-0.80442,"postcode":"SL6 3RX","la":"Windsor and Maidenhead","era":"other","nn":850,"risk":52,"cat":"amber"},{"name":"The Bells Of Ouzeley","lat":51.45215,"lon":-0.57416,"postcode":"SL4 2SH","la":"Windsor and Maidenhead","era":"other","nn":1019,"risk":55,"cat":"amber"},{"name":"The Bexley Arms","lat":51.48123,"lon":-0.61774,"postcode":"SL4 5BX","la":"Windsor and Maidenhead","era":"trad","nn":163,"risk":27,"cat":"green"},{"name":"The Boom Boom Bar","lat":51.48273,"lon":-0.61026,"postcode":"SL4 1RH","la":"Windsor and Maidenhead","era":"other","nn":0,"risk":26,"cat":"green"},{"name":"The Bounty","lat":51.57632,"lon":-0.71661,"postcode":"SL8 5RG","la":"Windsor and Maidenhead","era":"other","nn":460,"risk":32,"cat":"amber"},{"name":"The Bull Inn At Bisham","lat":51.55811,"lon":-0.77513,"postcode":"SL7 1RR","la":"Windsor and Maidenhead","era":"trad","nn":1087,"risk":56,"cat":"amber"},{"name":"The Carpenters Arms","lat":51.48236,"lon":-0.60718,"postcode":"SL4 1PB","la":"Windsor and Maidenhead","era":"trad","nn":11,"risk":26,"cat":"green"},{"name":"The Cobbles Windsor","lat":51.48241,"lon":-0.60652,"postcode":"SL4 1PE","la":"Windsor and Maidenhead","era":"other","nn":32,"risk":26,"cat":"green"},{"name":"The Corner House","lat":51.48061,"lon":-0.60615,"postcode":"SL4 1BG","la":"Windsor and Maidenhead","era":"other","nn":109,"risk":27,"cat":"green"},{"name":"The Corner House","lat":51.52099,"lon":-0.7201,"postcode":"SL6 1LT","la":"Windsor and Maidenhead","era":"other","nn":0,"risk":26,"cat":"green"},{"name":"The Crown","lat":51.56028,"lon":-0.71169,"postcode":"SL6 9SB","la":"Windsor and Maidenhead","era":"trad","nn":246,"risk":33,"cat":"amber"},{"name":"The Crown And Cushion","lat":51.48708,"lon":-0.60921,"postcode":"SL4 6AF","la":"Windsor and Maidenhead","era":"trad","nn":1,"risk":26,"cat":"green"},{"name":"The Crown At Bray","lat":51.50672,"lon":-0.70097,"postcode":"SL6 2AH","la":"Windsor and Maidenhead","era":"trad","nn":222,"risk":47,"cat":"amber"},{"name":"The Crown At Burchetts Green","lat":51.52477,"lon":-0.79144,"postcode":"SL6 6QZ","la":"Windsor and Maidenhead","era":"trad","nn":1464,"risk":59,"cat":"amber"},{"name":"The Foresters","lat":51.50722,"lon":-0.74397,"postcode":"SL6 3EN","la":"Windsor and Maidenhead","era":"other","nn":53,"risk":46,"cat":"amber"},{"name":"The Fox And Castle","lat":51.45788,"lon":-0.58563,"postcode":"SL4 2RB","la":"Windsor and Maidenhead","era":"trad","nn":249,"risk":45,"cat":"amber"},{"name":"The George Inn","lat":51.48709,"lon":-0.60923,"postcode":"SL4 6AF","la":"Windsor and Maidenhead","era":"trad","nn":1,"risk":26,"cat":"green"},{"name":"The George On The Green","lat":51.49168,"lon":-0.71703,"postcode":"SL6 2JL","la":"Windsor and Maidenhead","era":"trad","nn":263,"risk":33,"cat":"amber"},{"name":"The Greene Oak","lat":51.47983,"lon":-0.66329,"postcode":"SL4 5UW","la":"Windsor and Maidenhead","era":"trad","nn":795,"risk":51,"cat":"amber"},{"name":"The Hinds Head","lat":51.50854,"lon":-0.70232,"postcode":"SL6 2AB","la":"Windsor and Maidenhead","era":"trad","nn":222,"risk":47,"cat":"amber"},{"name":"The Honeypot Bar","lat":51.52099,"lon":-0.7201,"postcode":"SL6 1LT","la":"Windsor and Maidenhead","era":"other","nn":0,"risk":26,"cat":"green"},{"name":"The Jolly Farmer","lat":51.55867,"lon":-0.74489,"postcode":"SL6 9PD","la":"Windsor and Maidenhead","era":"other","nn":579,"risk":47,"cat":"amber"},{"name":"The King & Castle","lat":51.48377,"lon":-0.60875,"postcode":"SL4 1PL","la":"Windsor and Maidenhead","era":"trad","nn":135,"risk":27,"cat":"green"},{"name":"The Maidens Head","lat":51.52298,"lon":-0.71916,"postcode":"SL6 1QE","la":"Windsor and Maidenhead","era":"trad","nn":98,"risk":27,"cat":"green"},{"name":"The North Star","lat":51.51833,"lon":-0.74148,"postcode":"SL6 4AP","la":"Windsor and Maidenhead","era":"other","nn":281,"risk":45,"cat":"amber"},{"name":"The Old Swan Uppers","lat":51.55863,"lon":-0.71779,"postcode":"SL6 9QE","la":"Windsor and Maidenhead","era":"trad","nn":232,"risk":32,"cat":"amber"},{"name":"The Old Windsor Club","lat":51.46003,"lon":-0.58663,"postcode":"SL4 2QJ","la":"Windsor and Maidenhead","era":"other","nn":249,"risk":45,"cat":"amber"},{"name":"The Piper Art Bar","lat":51.48074,"lon":-0.61151,"postcode":"SL4 1DE","la":"Windsor and Maidenhead","era":"other","nn":47,"risk":26,"cat":"green"},{"name":"The Pond House","lat":51.52066,"lon":-0.7399,"postcode":"SL6 4AL","la":"Windsor and Maidenhead","era":"other","nn":281,"risk":45,"cat":"amber"},{"name":"The Prince Albert","lat":51.47119,"lon":-0.63035,"postcode":"SL4 4BS","la":"Windsor and Maidenhead","era":"trad","nn":899,"risk":52,"cat":"amber"},{"name":"The Prince Arthur","lat":51.47723,"lon":-0.61026,"postcode":"SL4 1JD","la":"Windsor and Maidenhead","era":"trad","nn":193,"risk":27,"cat":"green"},{"name":"The Prince Harry","lat":51.48216,"lon":-0.60674,"postcode":"SL4 1PB","la":"Windsor and Maidenhead","era":"trad","nn":22,"risk":26,"cat":"green"},{"name":"The Queen Charlotte","lat":51.482,"lon":-0.60691,"postcode":"SL4 1PA","la":"Windsor and Maidenhead","era":"trad","nn":22,"risk":26,"cat":"green"},{"name":"The Queen Victoria","lat":51.48001,"lon":-0.61195,"postcode":"SL4 1DE","la":"Windsor and Maidenhead","era":"trad","nn":86,"risk":26,"cat":"green"},{"name":"The Rose","lat":51.5212,"lon":-0.72274,"postcode":"SL6 1EF","la":"Windsor and Maidenhead","era":"other","nn":107,"risk":27,"cat":"green"},{"name":"The Royal Stag","lat":51.48425,"lon":-0.57971,"postcode":"SL3 9JH","la":"Windsor and Maidenhead","era":"trad","nn":1410,"risk":58,"cat":"amber"},{"name":"The Royal Windsor","lat":51.48528,"lon":-0.60638,"postcode":"SL4 1QD","la":"Windsor and Maidenhead","era":"trad","nn":106,"risk":27,"cat":"green"},{"name":"The Scotch Bar Ltd","lat":51.48273,"lon":-0.61026,"postcode":"SL4 1RH","la":"Windsor and Maidenhead","era":"mod","nn":0,"risk":26,"cat":"green"},{"name":"The Shambles Bar","lat":51.48228,"lon":-0.60708,"postcode":"SL4 1LR","la":"Windsor and Maidenhead","era":"other","nn":11,"risk":26,"cat":"green"},{"name":"The Shire Horse Public House","lat":51.5149,"lon":-0.77744,"postcode":"SL6 3QA","la":"Windsor and Maidenhead","era":"trad","nn":1189,"risk":57,"cat":"amber"},{"name":"The Stag","lat":51.41075,"lon":-0.67196,"postcode":"SL5 7HP","la":"Windsor and Maidenhead","era":"trad","nn":264,"risk":30,"cat":"green"},{"name":"The Swinley","lat":51.40295,"lon":-0.67132,"postcode":"SL5 9DJ","la":"Windsor and Maidenhead","era":"other","nn":868,"risk":32,"cat":"amber"},{"name":"The Watermans Arms","lat":51.48605,"lon":-0.60969,"postcode":"SL4 6BW","la":"Windsor and Maidenhead","era":"trad","nn":120,"risk":27,"cat":"green"},{"name":"The White Hart","lat":51.48594,"lon":-0.7185,"postcode":"SL6 2ND","la":"Windsor and Maidenhead","era":"trad","nn":0,"risk":31,"cat":"amber"},{"name":"The Windsor Castle Public House","lat":51.47426,"lon":-0.6057,"postcode":"SL4 2AP","la":"Windsor and Maidenhead","era":"other","nn":457,"risk":29,"cat":"green"},{"name":"The Windsor Trooper","lat":51.477,"lon":-0.61302,"postcode":"SL4 3BZ","la":"Windsor and Maidenhead","era":"other","nn":0,"risk":26,"cat":"green"},{"name":"The York Club","lat":51.43461,"lon":-0.62175,"postcode":"SL4 2HR","la":"Windsor and Maidenhead","era":"other","nn":2226,"risk":64,"cat":"red"},{"name":"Two Brewers","lat":51.48069,"lon":-0.60458,"postcode":"SL4 1LB","la":"Windsor and Maidenhead","era":"other","nn":109,"risk":27,"cat":"green"},{"name":"Two Flints Brewery","lat":51.48351,"lon":-0.61255,"postcode":"SL4 1QZ","la":"Windsor and Maidenhead","era":"other","nn":180,"risk":27,"cat":"green"},{"name":"Uncle Toms Cabin","lat":51.56122,"lon":-0.7376,"postcode":"SL6 9NT","la":"Windsor and Maidenhead","era":"other","nn":579,"risk":47,"cat":"amber"},{"name":"Union Inn","lat":51.45691,"lon":-0.59261,"postcode":"SL4 2QY","la":"Windsor and Maidenhead","era":"trad","nn":496,"risk":47,"cat":"amber"},{"name":"Vansittart Arms","lat":51.48197,"lon":-0.61978,"postcode":"SL4 5DD","la":"Windsor and Maidenhead","era":"trad","nn":157,"risk":27,"cat":"green"},{"name":"Windsor And Eton Brewery At The Old Court","lat":51.47721,"lon":-0.61333,"postcode":"SL4 3BL","la":"Windsor and Maidenhead","era":"other","nn":31,"risk":26,"cat":"green"},{"name":"Windsor Castle","lat":51.52215,"lon":-0.73562,"postcode":"SL6 4JT","la":"Windsor and Maidenhead","era":"other","nn":339,"risk":28,"cat":"green"},{"name":"Windsor Lad Harvester","lat":51.48547,"lon":-0.63685,"postcode":"SL4 5HQ","la":"Windsor and Maidenhead","era":"trad","nn":1245,"risk":57,"cat":"amber"}]