[{"name":"Brass Mill Public House","lat":51.41664,"lon":-2.49245,"postcode":"BS31 2UG","la":"Bath and North East Somerset","era":"trad","nn":385,"risk":26,"cat":"green"},{"name":"Carpenters Arms","lat":51.35648,"lon":-2.55324,"postcode":"BS39 4BX","la":"Bath and North East Somerset","era":"trad","nn":1656,"risk":57,"cat":"amber"},{"name":"Chew Magna Cricket Club","lat":51.36496,"lon":-2.60687,"postcode":"BS40 8SN","la":"Bath and North East Somerset","era":"other","nn":264,"risk":30,"cat":"green"},{"name":"Crown Inn","lat":51.30905,"lon":-2.6307,"postcode":"BS40 6HA","la":"Bath and North East Somerset","era":"trad","nn":935,"risk":50,"cat":"amber"},{"name":"Druid Arms","lat":51.36572,"lon":-2.57994,"postcode":"BS39 4EJ","la":"Bath and North East Somerset","era":"trad","nn":189,"risk":45,"cat":"amber"},{"name":"Hunters Rest","lat":51.33835,"lon":-2.52876,"postcode":"BS39 5QL","la":"Bath and North East Somerset","era":"other","nn":1122,"risk":54,"cat":"amber"},{"name":"Jolly Sailor","lat":51.41132,"lon":-2.44327,"postcode":"BS31 3ER","la":"Bath and North East Somerset","era":"other","nn":876,"risk":47,"cat":"amber"},{"name":"Keynsham Cricket Club","lat":51.40914,"lon":-2.49161,"postcode":"BS31 1HU","la":"Bath and North East Somerset","era":"other","nn":352,"risk":26,"cat":"green"},{"name":"Lamb Inn","lat":51.30627,"lon":-2.50237,"postcode":"BS39 7QQ","la":"Bath and North East Somerset","era":"trad","nn":159,"risk":44,"cat":"amber"},{"name":"New Inn Keynsham","lat":51.41197,"lon":-2.4939,"postcode":"BS31 1HN","la":"Bath and North East Somerset","era":"trad","nn":86,"risk":24,"cat":"green"},{"name":"Railway Inn","lat":51.33046,"lon":-2.53885,"postcode":"BS39 5PD","la":"Bath and North East Somerset","era":"trad","nn":1122,"risk":54,"cat":"amber"},{"name":"Red Lion","lat":51.30768,"lon":-2.50195,"postcode":"BS39 7NW","la":"Bath and North East Somerset","era":"trad","nn":159,"risk":44,"cat":"amber"},{"name":"Ring O Bells","lat":51.31131,"lon":-2.65783,"postcode":"BS40 6JE","la":"Bath and North East Somerset","era":"other","nn":1561,"risk":57,"cat":"amber"},{"name":"Rising Sun","lat":51.3714,"lon":-2.54958,"postcode":"BS39 4AQ","la":"Bath and North East Somerset","era":"other","nn":227,"risk":45,"cat":"amber"},{"name":"Saltford Golf Club Ltd","lat":51.39793,"lon":-2.45861,"postcode":"BS31 3AA","la":"Bath and North East Somerset","era":"other","nn":368,"risk":43,"cat":"amber"},{"name":"Stoke Inn","lat":51.3529,"lon":-2.63268,"postcode":"BS40 8XE","la":"Bath and North East Somerset","era":"trad","nn":2095,"risk":60,"cat":"amber"},{"name":"Talbot Inn (Hungry Horse)","lat":51.41246,"lon":-2.49295,"postcode":"BS31 1NP","la":"Bath and North East Somerset","era":"trad","nn":86,"risk":24,"cat":"green"},{"name":"The Bear & Swan","lat":51.36567,"lon":-2.61049,"postcode":"BS40 8SL","la":"Bath and North East Somerset","era":"trad","nn":0,"risk":28,"cat":"green"},{"name":"The Bird In Hand","lat":51.40522,"lon":-2.45125,"postcode":"BS31 3EJ","la":"Bath and North East Somerset","era":"other","nn":592,"risk":32,"cat":"amber"},{"name":"The Blue Bowl Inn","lat":51.31649,"lon":-2.63696,"postcode":"BS40 6HJ","la":"Bath and North East Somerset","era":"trad","nn":935,"risk":50,"cat":"amber"},{"name":"The Compton Inn","lat":51.378,"lon":-2.51124,"postcode":"BS39 4JZ","la":"Bath and North East Somerset","era":"trad","nn":2574,"risk":64,"cat":"red"},{"name":"The Crown","lat":51.4006,"lon":-2.45547,"postcode":"BS31 3HJ","la":"Bath and North East Somerset","era":"trad","nn":368,"risk":43,"cat":"amber"},{"name":"The Crown Inn","lat":51.41811,"lon":-2.50565,"postcode":"BS31 2WA","la":"Bath and North East Somerset","era":"trad","nn":455,"risk":26,"cat":"green"},{"name":"The Farrington Inn","lat":51.29955,"lon":-2.53418,"postcode":"BS39 6TG","la":"Bath and North East Somerset","era":"trad","nn":1427,"risk":56,"cat":"amber"},{"name":"The George And Dragon","lat":51.37077,"lon":-2.54647,"postcode":"BS39 4BH","la":"Bath and North East Somerset","era":"trad","nn":227,"risk":45,"cat":"amber"},{"name":"The Keynsham Courtyard","lat":51.4167,"lon":-2.49853,"postcode":"BS31 1DP","la":"Bath and North East Somerset","era":"mod","nn":65,"risk":24,"cat":"green"},{"name":"The Old Bank Public House","lat":51.41701,"lon":-2.49934,"postcode":"BS31 1DQ","la":"Bath and North East Somerset","era":"other","nn":65,"risk":24,"cat":"green"},{"name":"The Old Station Inn","lat":51.31186,"lon":-2.52843,"postcode":"BS39 6EN","la":"Bath and North East Somerset","era":"trad","nn":1427,"risk":56,"cat":"amber"},{"name":"The Pelican","lat":51.36567,"lon":-2.61049,"postcode":"BS40 8SL","la":"Bath and North East Somerset","era":"other","nn":0,"risk":28,"cat":"green"},{"name":"The Pony Chew Valley","lat":51.34938,"lon":-2.5926,"postcode":"BS40 8TQ","la":"Bath and North East Somerset","era":"other","nn":1581,"risk":57,"cat":"amber"},{"name":"The Queens","lat":51.36811,"lon":-2.60765,"postcode":"BS40 8RQ","la":"Bath and North East Somerset","era":"trad","nn":336,"risk":31,"cat":"amber"},{"name":"The Red Lion","lat":51.33517,"lon":-2.59351,"postcode":"BS39 5UT","la":"Bath and North East Somerset","era":"trad","nn":1581,"risk":57,"cat":"amber"},{"name":"The Ship Inn","lat":51.41206,"lon":-2.49683,"postcode":"BS31 1ER","la":"Bath and North East Somerset","era":"trad","nn":152,"risk":24,"cat":"green"},{"name":"The Temple Inn","lat":51.3206,"lon":-2.544,"postcode":"BS39 5DA","la":"Bath and North East Somerset","era":"trad","nn":1154,"risk":54,"cat":"amber"},{"name":"The Tithe Barn","lat":51.36607,"lon":-2.5826,"postcode":"BS39 4EL","la":"Bath and North East Somerset","era":"other","nn":189,"risk":45,"cat":"amber"},{"name":"The Waldegrave Arms","lat":51.30072,"lon":-2.62456,"postcode":"BS40 6BD","la":"Bath and North East Somerset","era":"trad","nn":1019,"risk":53,"cat":"amber"},{"name":"Toby Carvery Maes Knoll","lat":51.40862,"lon":-2.55909,"postcode":"BS14 0PF","la":"Bath and North East Somerset","era":"other","nn":628,"risk":33,"cat":"amber"},{"name":"Trout Tavern","lat":51.4133,"lon":-2.49776,"postcode":"BS31 1EH","la":"Bath and North East Somerset","era":"other","nn":152,"risk":24,"cat":"green"},{"name":"30 mins","lat":51.45373,"lon":-2.59476,"postcode":"BS1 1TP","la":"Bristol, City of","era":"other","nn":25,"risk":16,"cat":"green"},{"name":"Alchemy 198","lat":51.47849,"lon":-2.58994,"postcode":"BS7 8NU","la":"Bristol, City of","era":"other","nn":120,"risk":17,"cat":"green"},{"name":"Alma Tavern and Theatre","lat":51.46153,"lon":-2.61433,"postcode":"BS8 2BY","la":"Bristol, City of","era":"other","nn":182,"risk":17,"cat":"green"},{"name":"Ardagh Sports Club","lat":51.48509,"lon":-2.59572,"postcode":"BS6 7YL","la":"Bristol, City of","era":"other","nn":617,"risk":20,"cat":"green"},{"name":"Avonmouth Bowling Club","lat":51.49609,"lon":-2.68288,"postcode":"BS11 9NG","la":"Bristol, City of","era":"other","nn":0,"risk":16,"cat":"green"},{"name":"Avonmouth Masonic Hall","lat":51.49797,"lon":-2.69639,"postcode":"BS11 9JE","la":"Bristol, City of","era":"trad","nn":0,"risk":16,"cat":"green"},{"name":"Avonmouth Old Boys RFC","lat":51.49609,"lon":-2.68288,"postcode":"BS11 9NG","la":"Bristol, City of","era":"other","nn":0,"risk":16,"cat":"green"},{"name":"Avonmouth Tavern","lat":51.49797,"lon":-2.69639,"postcode":"BS11 9JE","la":"Bristol, City of","era":"other","nn":0,"risk":16,"cat":"green"},{"name":"Avonmouth Village Social Club","lat":51.50138,"lon":-2.70222,"postcode":"BS11 9AJ","la":"Bristol, City of","era":"mod","nn":553,"risk":25,"cat":"green"},{"name":"Avonvale Bowls Club","lat":51.45686,"lon":-2.55494,"postcode":"BS5 9RN","la":"Bristol, City of","era":"other","nn":0,"risk":16,"cat":"green"},{"name":"Bag of Nails","lat":51.45097,"lon":-2.60721,"postcode":"BS1 5UW","la":"Bristol, City of","era":"other","nn":0,"risk":16,"cat":"green"},{"name":"BBB","lat":51.45665,"lon":-2.57872,"postcode":"BS2 0BH","la":"Bristol, City of","era":"other","nn":33,"risk":16,"cat":"green"},{"name":"Be At One","lat":51.45623,"lon":-2.6066,"postcode":"BS8 1QQ","la":"Bristol, City of","era":"other","nn":37,"risk":16,"cat":"green"},{"name":"Beaconsfield Social Club","lat":51.45593,"lon":-2.55722,"postcode":"BS5 9RU","la":"Bristol, City of","era":"mod","nn":189,"risk":17,"cat":"green"},{"name":"Bear & Rugged Staff","lat":51.49648,"lon":-2.59896,"postcode":"BS10 5EL","la":"Bristol, City of","era":"other","nn":811,"risk":24,"cat":"green"},{"name":"Bedminster Cricket Club","lat":51.44281,"lon":-2.62797,"postcode":"BS3 2JX","la":"Bristol, City of","era":"other","nn":208,"risk":17,"cat":"green"},{"name":"Bedminster Down Ex Service Club","lat":51.42519,"lon":-2.61816,"postcode":"BS13 7DY","la":"Bristol, City of","era":"other","nn":790,"risk":22,"cat":"green"},{"name":"Beeses","lat":51.4443,"lon":-2.5353,"postcode":"BS4 4SX","la":"Bristol, City of","era":"other","nn":502,"risk":22,"cat":"green"},{"name":"Bishops Tavern","lat":51.4695,"lon":-2.59376,"postcode":"BS6 5QP","la":"Bristol, City of","era":"trad","nn":134,"risk":17,"cat":"green"},{"name":"Black Horse","lat":51.46301,"lon":-2.51309,"postcode":"BS15 1AH","la":"Bristol, City of","era":"trad","nn":68,"risk":17,"cat":"green"},{"name":"Blame Gloria","lat":51.45486,"lon":-2.59435,"postcode":"BS1 1DW","la":"Bristol, City of","era":"other","nn":53,"risk":16,"cat":"green"},{"name":"Bottles and Books","lat":51.48322,"lon":-2.58734,"postcode":"BS7 8TP","la":"Bristol, City of","era":"other","nn":227,"risk":18,"cat":"green"},{"name":"Brass Pig","lat":51.45651,"lon":-2.60839,"postcode":"BS8 1EJ","la":"Bristol, City of","era":"other","nn":47,"risk":16,"cat":"green"},{"name":"BrewDog","lat":51.45354,"lon":-2.59272,"postcode":"BS1 1QW","la":"Bristol, City of","era":"other","nn":28,"risk":16,"cat":"green"},{"name":"Brewdog","lat":51.44974,"lon":-2.60234,"postcode":"BS1 5SZ","la":"Bristol, City of","era":"other","nn":32,"risk":16,"cat":"green"},{"name":"Brewhouse and Kitchen Bristol","lat":51.46364,"lon":-2.60787,"postcode":"BS6 6JY","la":"Bristol, City of","era":"mod","nn":0,"risk":16,"cat":"green"},{"name":"Brislington & St Annes Conservative Club","lat":51.4385,"lon":-2.55167,"postcode":"BS4 4HE","la":"Bristol, City of","era":"other","nn":339,"risk":18,"cat":"green"},{"name":"Brislington Cricket Club","lat":51.43391,"lon":-2.53041,"postcode":"BS4 4TZ","la":"Bristol, City of","era":"other","nn":458,"risk":22,"cat":"green"},{"name":"Brislington Football Club","lat":51.43011,"lon":-2.52765,"postcode":"BS4 5SA","la":"Bristol, City of","era":"other","nn":464,"risk":24,"cat":"green"},{"name":"Bristol 1904 Arts","lat":51.4553,"lon":-2.60069,"postcode":"BS1 5LJ","la":"Bristol, City of","era":"other","nn":122,"risk":17,"cat":"green"},{"name":"Bristol Arrow Bowling Club","lat":51.46826,"lon":-2.59532,"postcode":"BS6 6AG","la":"Bristol, City of","era":"other","nn":175,"risk":17,"cat":"green"},{"name":"Bristol Beacon","lat":51.45471,"lon":-2.59754,"postcode":"BS1 4XE","la":"Bristol, City of","era":"other","nn":60,"risk":16,"cat":"green"},{"name":"Bristol Bowling Club","lat":51.44028,"lon":-2.61704,"postcode":"BS3 2BS","la":"Bristol, City of","era":"other","nn":244,"risk":18,"cat":"green"},{"name":"Bristol Bridge Club","lat":51.44961,"lon":-2.61978,"postcode":"BS8 4QQ","la":"Bristol, City of","era":"other","nn":78,"risk":17,"cat":"green"},{"name":"Bristol Central Lawn Tennis Club","lat":51.47476,"lon":-2.58567,"postcode":"BS7 9AQ","la":"Bristol, City of","era":"other","nn":187,"risk":17,"cat":"green"},{"name":"Bristol City Council","lat":51.4827,"lon":-2.677,"postcode":"BS11 9XW","la":"Bristol, City of","era":"other","nn":333,"risk":18,"cat":"green"},{"name":"Bristol Civil Service Club","lat":51.48921,"lon":-2.58024,"postcode":"BS7 0AT","la":"Bristol, City of","era":"other","nn":355,"risk":19,"cat":"green"},{"name":"Bristol Commonwealth Society","lat":51.45884,"lon":-2.60924,"postcode":"BS8 1PD","la":"Bristol, City of","era":"mod","nn":70,"risk":17,"cat":"green"},{"name":"Bristol County Conservative Club","lat":51.47984,"lon":-2.58731,"postcode":"BS7 9EQ","la":"Bristol, City of","era":"other","nn":0,"risk":16,"cat":"green"},{"name":"Bristol County Sports Club","lat":51.45525,"lon":-2.59748,"postcode":"BS1 5AE","la":"Bristol, City of","era":"other","nn":60,"risk":16,"cat":"green"},{"name":"Bristol Indoor Bowls Club Ltd","lat":51.42852,"lon":-2.62994,"postcode":"BS3 2TY","la":"Bristol, City of","era":"other","nn":716,"risk":24,"cat":"green"},{"name":"Broad Plain RFC","lat":51.43567,"lon":-2.59465,"postcode":"BS3 5AZ","la":"Bristol, City of","era":"other","nn":0,"risk":16,"cat":"green"},{"name":"Bruhaha","lat":51.44086,"lon":-2.57479,"postcode":"BS4 2AG","la":"Bristol, City of","era":"other","nn":9,"risk":16,"cat":"green"},{"name":"Brunel","lat":51.43567,"lon":-2.59465,"postcode":"BS3 5AZ","la":"Bristol, City of","era":"other","nn":0,"risk":16,"cat":"green"},{"name":"BSB Waterside","lat":51.45069,"lon":-2.59847,"postcode":"BS1 5UH","la":"Bristol, City of","era":"other","nn":0,"risk":16,"cat":"green"},{"name":"Buzz Bingo","lat":51.41636,"lon":-2.58715,"postcode":"BS14 0HR","la":"Bristol, City of","era":"other","nn":0,"risk":36,"cat":"amber"},{"name":"Cadbury Kitchen","lat":51.46709,"lon":-2.58704,"postcode":"BS6 5EW","la":"Bristol, City of","era":"mod","nn":69,"risk":17,"cat":"green"},{"name":"Cave Bristol","lat":51.48139,"lon":-2.58875,"postcode":"BS7 8PD","la":"Bristol, City of","era":"other","nn":79,"risk":17,"cat":"green"},{"name":"Central","lat":51.45561,"lon":-2.60369,"postcode":"BS1 5LE","la":"Bristol, City of","era":"other","nn":74,"risk":17,"cat":"green"},{"name":"Central Chambers","lat":51.45479,"lon":-2.59573,"postcode":"BS1 1EE","la":"Bristol, City of","era":"other","nn":32,"risk":16,"cat":"green"},{"name":"Century's Social Club","lat":51.46294,"lon":-2.51406,"postcode":"BS15 1AJ","la":"Bristol, City of","era":"mod","nn":68,"risk":17,"cat":"green"},{"name":"Channings Hotel","lat":51.45907,"lon":-2.61446,"postcode":"BS8 3BB","la":"Bristol, City of","era":"other","nn":162,"risk":17,"cat":"green"},{"name":"Chelsea Inn","lat":51.4639,"lon":-2.56287,"postcode":"BS5 6AU","la":"Bristol, City of","era":"trad","nn":268,"risk":18,"cat":"green"},{"name":"Clifton Lawn Tennis Club","lat":51.4648,"lon":-2.61648,"postcode":"BS8 2JR","la":"Bristol, City of","era":"other","nn":244,"risk":18,"cat":"green"},{"name":"Coaches and Horses","lat":51.46973,"lon":-2.61502,"postcode":"BS8 2YB","la":"Bristol, City of","era":"trad","nn":28,"risk":16,"cat":"green"},{"name":"Colston Arms (The Open Arms)","lat":51.45809,"lon":-2.59906,"postcode":"BS2 8DX","la":"Bristol, City of","era":"trad","nn":0,"risk":16,"cat":"green"},{"name":"Cord Kitchen","lat":51.4464,"lon":-2.59984,"postcode":"BS1 6WE","la":"Bristol, City of","era":"mod","nn":0,"risk":16,"cat":"green"},{"name":"Corduroy Kitchen","lat":51.45262,"lon":-2.5773,"postcode":"BS2 0LF","la":"Bristol, City of","era":"mod","nn":0,"risk":16,"cat":"green"},{"name":"Cosie's Wine Bar","lat":51.46092,"lon":-2.58637,"postcode":"BS2 8RG","la":"Bristol, City of","era":"other","nn":0,"risk":16,"cat":"green"},{"name":"Cossham Inn ( pub )","lat":51.46856,"lon":-2.52077,"postcode":"BS15 1LY","la":"Bristol, City of","era":"trad","nn":695,"risk":21,"cat":"green"},{"name":"Cotham Porter Stores","lat":51.46252,"lon":-2.59798,"postcode":"BS6 5TZ","la":"Bristol, City of","era":"other","nn":127,"risk":17,"cat":"green"},{"name":"Coyote Ugly Bristol","lat":51.45069,"lon":-2.59847,"postcode":"BS1 5UH","la":"Bristol, City of","era":"other","nn":0,"risk":16,"cat":"green"},{"name":"Crofters Garden","lat":51.4646,"lon":-2.58907,"postcode":"BS6 5NH","la":"Bristol, City of","era":"other","nn":46,"risk":16,"cat":"green"},{"name":"Crying Wolf","lat":51.46364,"lon":-2.60787,"postcode":"BS6 6JY","la":"Bristol, City of","era":"other","nn":0,"risk":16,"cat":"green"},{"name":"Death Disco","lat":51.45451,"lon":-2.59585,"postcode":"BS1 1EL","la":"Bristol, City of","era":"other","nn":10,"risk":16,"cat":"green"},{"name":"Dirty Bird","lat":51.45554,"lon":-2.6186,"postcode":"BS8 4AB","la":"Bristol, City of","era":"other","nn":24,"risk":16,"cat":"green"},{"name":"Dirty Birdie","lat":51.44976,"lon":-2.60188,"postcode":"BS1 5SZ","la":"Bristol, City of","era":"other","nn":32,"risk":16,"cat":"green"},{"name":"Dirty Martini Bristol","lat":51.45443,"lon":-2.59471,"postcode":"BS1 1HT","la":"Bristol, City of","era":"other","nn":14,"risk":16,"cat":"green"},{"name":"Eldon House","lat":51.45492,"lon":-2.61043,"postcode":"BS8 1BT","la":"Bristol, City of","era":"other","nn":167,"risk":17,"cat":"green"},{"name":"Exclusive Pubs Pantry","lat":51.49833,"lon":-2.69282,"postcode":"BS11 9LW","la":"Bristol, City of","era":"other","nn":250,"risk":18,"cat":"green"},{"name":"Famous Royal Naval Volunteer","lat":51.45166,"lon":-2.59463,"postcode":"BS1 4EF","la":"Bristol, City of","era":"trad","nn":0,"risk":16,"cat":"green"},{"name":"Fiddlers","lat":51.44348,"lon":-2.59246,"postcode":"BS3 4BG","la":"Bristol, City of","era":"other","nn":78,"risk":17,"cat":"green"},{"name":"Fishponds Conservative Club","lat":51.48044,"lon":-2.52941,"postcode":"BS16 3UP","la":"Bristol, City of","era":"other","nn":55,"risk":16,"cat":"green"},{"name":"Fishponds Tap","lat":51.4796,"lon":-2.53142,"postcode":"BS16 3UH","la":"Bristol, City of","era":"mod","nn":83,"risk":17,"cat":"green"},{"name":"Foresters Arms","lat":51.48173,"lon":-2.5833,"postcode":"BS7 9JR","la":"Bristol, City of","era":"trad","nn":0,"risk":16,"cat":"green"},{"name":"Four Quarters","lat":51.45394,"lon":-2.60164,"postcode":"BS1 5JA","la":"Bristol, City of","era":"mod","nn":50,"risk":16,"cat":"green"},{"name":"Friendly Records and Bar","lat":51.44064,"lon":-2.60464,"postcode":"BS3 1ES","la":"Bristol, City of","era":"other","nn":67,"risk":17,"cat":"green"},{"name":"George","lat":51.43867,"lon":-2.57201,"postcode":"BS4 2AX","la":"Bristol, City of","era":"trad","nn":310,"risk":18,"cat":"green"},{"name":"George & Dragon","lat":51.45936,"lon":-2.55342,"postcode":"BS5 9HN","la":"Bristol, City of","era":"trad","nn":82,"risk":17,"cat":"green"},{"name":"Gloucester Road Ale House & Kitchen","lat":51.47282,"lon":-2.59093,"postcode":"BS7 8AT","la":"Bristol, City of","era":"mod","nn":78,"risk":17,"cat":"green"},{"name":"Goals Bristol South","lat":51.43166,"lon":-2.53595,"postcode":"BS4 5RG","la":"Bristol, City of","era":"other","nn":0,"risk":16,"cat":"green"},{"name":"Goldbrick house","lat":51.45495,"lon":-2.60368,"postcode":"BS1 5PB","la":"Bristol, City of","era":"other","nn":67,"risk":17,"cat":"green"},{"name":"Good Intent Pub","lat":51.43988,"lon":-2.53678,"postcode":"BS4 4SA","la":"Bristol, City of","era":"other","nn":502,"risk":20,"cat":"green"},{"name":"Grace & Flavour","lat":51.47498,"lon":-2.59094,"postcode":"BS7 8BG","la":"Bristol, City of","era":"other","nn":0,"risk":16,"cat":"green"},{"name":"Greenbank Bowling Club","lat":51.46811,"lon":-2.55016,"postcode":"BS5 7EE","la":"Bristol, City of","era":"other","nn":524,"risk":20,"cat":"green"},{"name":"Greville Smyth Community Bowls Club","lat":51.44298,"lon":-2.61938,"postcode":"BS3 2EQ","la":"Bristol, City of","era":"other","nn":132,"risk":17,"cat":"green"},{"name":"HallPass","lat":51.45529,"lon":-2.59518,"postcode":"BS1 1DE","la":"Bristol, City of","era":"other","nn":40,"risk":16,"cat":"green"},{"name":"Harlequins RFC","lat":51.43166,"lon":-2.53595,"postcode":"BS4 5RG","la":"Bristol, City of","era":"other","nn":0,"risk":16,"cat":"green"},{"name":"Hen & Chicken","lat":51.44053,"lon":-2.60979,"postcode":"BS3 1JF","la":"Bristol, City of","era":"other","nn":90,"risk":17,"cat":"green"},{"name":"Henbury Arms","lat":51.50597,"lon":-2.62859,"postcode":"BS10 7AD","la":"Bristol, City of","era":"trad","nn":291,"risk":23,"cat":"green"},{"name":"Henbury Golf Club","lat":51.49957,"lon":-2.62977,"postcode":"BS10 7QB","la":"Bristol, City of","era":"other","nn":716,"risk":24,"cat":"green"},{"name":"Henleaze Bowling Club","lat":51.48766,"lon":-2.61244,"postcode":"BS9 4DR","la":"Bristol, City of","era":"other","nn":371,"risk":19,"cat":"green"},{"name":"Hey Dude Bar","lat":51.45163,"lon":-2.5948,"postcode":"BS1 4EF","la":"Bristol, City of","era":"other","nn":13,"risk":16,"cat":"green"},{"name":"Highbury Vaults","lat":51.46171,"lon":-2.60252,"postcode":"BS2 8DE","la":"Bristol, City of","era":"other","nn":152,"risk":17,"cat":"green"},{"name":"Hillgrove Porter Stores","lat":51.46305,"lon":-2.59282,"postcode":"BS2 8LT","la":"Bristol, City of","era":"other","nn":10,"risk":16,"cat":"green"},{"name":"Hole in the Wall","lat":51.44944,"lon":-2.59365,"postcode":"BS1 4QZ","la":"Bristol, City of","era":"other","nn":119,"risk":17,"cat":"green"},{"name":"Hope & Anchor","lat":51.49463,"lon":-2.68288,"postcode":"BS11 0AW","la":"Bristol, City of","era":"trad","nn":162,"risk":17,"cat":"green"},{"name":"Hope and Anchor","lat":51.45347,"lon":-2.60978,"postcode":"BS8 1DR","la":"Bristol, City of","era":"trad","nn":167,"risk":17,"cat":"green"},{"name":"Horse & Jockey","lat":51.45636,"lon":-2.52907,"postcode":"BS5 8LW","la":"Bristol, City of","era":"trad","nn":64,"risk":16,"cat":"green"},{"name":"Horts City Tavern","lat":51.45553,"lon":-2.59389,"postcode":"BS1 2EP","la":"Bristol, City of","era":"other","nn":46,"risk":16,"cat":"green"},{"name":"Hungerford Community Assoc","lat":51.42657,"lon":-2.54235,"postcode":"BS4 5EX","la":"Bristol, City of","era":"other","nn":719,"risk":26,"cat":"green"},{"name":"Hyde and Co","lat":51.45563,"lon":-2.60697,"postcode":"BS8 1JY","la":"Bristol, City of","era":"other","nn":64,"risk":16,"cat":"green"},{"name":"Illuminati Nightclub","lat":51.45327,"lon":-2.60173,"postcode":"BS1 5NF","la":"Bristol, City of","era":"other","nn":73,"risk":17,"cat":"green"},{"name":"Improv Theatre","lat":51.45843,"lon":-2.61236,"postcode":"BS8 1LP","la":"Bristol, City of","era":"other","nn":162,"risk":17,"cat":"green"},{"name":"Jam Jar","lat":51.45945,"lon":-2.57847,"postcode":"BS2 9EB","la":"Bristol, City of","era":"other","nn":48,"risk":16,"cat":"green"},{"name":"Jamaican Hideaway","lat":51.46092,"lon":-2.58637,"postcode":"BS2 8RG","la":"Bristol, City of","era":"other","nn":0,"risk":16,"cat":"green"},{"name":"Jolly Colliers","lat":51.4376,"lon":-2.6037,"postcode":"BS3 3NU","la":"Bristol, City of","era":"other","nn":335,"risk":18,"cat":"green"},{"name":"Junction","lat":51.4464,"lon":-2.59984,"postcode":"BS1 6WE","la":"Bristol, City of","era":"other","nn":0,"risk":16,"cat":"green"},{"name":"Kansai Kitchen","lat":51.46301,"lon":-2.59269,"postcode":"BS2 8LT","la":"Bristol, City of","era":"mod","nn":10,"risk":16,"cat":"green"},{"name":"Kask","lat":51.44084,"lon":-2.60373,"postcode":"BS3 1EN","la":"Bristol, City of","era":"other","nn":67,"risk":17,"cat":"green"},{"name":"King Street Brew House","lat":51.45216,"lon":-2.59298,"postcode":"BS1 4RR","la":"Bristol, City of","era":"trad","nn":38,"risk":16,"cat":"green"},{"name":"King William Ale House","lat":51.45166,"lon":-2.59463,"postcode":"BS1 4EF","la":"Bristol, City of","era":"trad","nn":0,"risk":16,"cat":"green"},{"name":"Kings Arms","lat":51.43439,"lon":-2.54862,"postcode":"BS4 4LF","la":"Bristol, City of","era":"trad","nn":95,"risk":17,"cat":"green"},{"name":"Kings Arms","lat":51.46964,"lon":-2.61464,"postcode":"BS8 2XZ","la":"Bristol, City of","era":"trad","nn":28,"risk":16,"cat":"green"},{"name":"Kings Head","lat":51.46327,"lon":-2.55273,"postcode":"BS5 7BH","la":"Bristol, City of","era":"trad","nn":290,"risk":18,"cat":"green"},{"name":"Kings Head","lat":51.4628,"lon":-2.51687,"postcode":"BS15 1AT","la":"Bristol, City of","era":"trad","nn":195,"risk":17,"cat":"green"},{"name":"Kings Lawn Tennis Club","lat":51.47759,"lon":-2.59989,"postcode":"BS7 8JG","la":"Bristol, City of","era":"trad","nn":663,"risk":21,"cat":"green"},{"name":"Kings Weston Sports & Social Club","lat":51.49477,"lon":-2.65952,"postcode":"BS11 0UT","la":"Bristol, City of","era":"other","nn":873,"risk":42,"cat":"amber"},{"name":"Kingsdown Wine Vaults","lat":51.46149,"lon":-2.59719,"postcode":"BS6 5UE","la":"Bristol, City of","era":"trad","nn":108,"risk":17,"cat":"green"},{"name":"Kingshead Public House","lat":51.42094,"lon":-2.63077,"postcode":"BS13 8AE","la":"Bristol, City of","era":"trad","nn":823,"risk":24,"cat":"green"},{"name":"Knowle Bowling Club","lat":51.4327,"lon":-2.56565,"postcode":"BS4 2QN","la":"Bristol, City of","era":"other","nn":0,"risk":16,"cat":"green"},{"name":"Knowle Constitutional Club","lat":51.4409,"lon":-2.57491,"postcode":"BS4 2AG","la":"Bristol, City of","era":"other","nn":9,"risk":16,"cat":"green"},{"name":"Knowle Cricket Club","lat":51.43293,"lon":-2.57239,"postcode":"BS4 2RD","la":"Bristol, City of","era":"other","nn":346,"risk":18,"cat":"green"},{"name":"Knowle Lawn Tennis Club","lat":51.4327,"lon":-2.56565,"postcode":"BS4 2QN","la":"Bristol, City of","era":"other","nn":0,"risk":16,"cat":"green"},{"name":"Kongs of King Street","lat":51.45166,"lon":-2.59463,"postcode":"BS1 4EF","la":"Bristol, City of","era":"trad","nn":0,"risk":16,"cat":"green"},{"name":"La Rocca","lat":51.4563,"lon":-2.60738,"postcode":"BS8 1EY","la":"Bristol, City of","era":"other","nn":21,"risk":16,"cat":"green"},{"name":"Lakota Nightclub","lat":51.46086,"lon":-2.58896,"postcode":"BS2 8QN","la":"Bristol, City of","era":"other","nn":112,"risk":17,"cat":"green"},{"name":"Lane 7","lat":51.45004,"lon":-2.60179,"postcode":"BS1 5SZ","la":"Bristol, City of","era":"other","nn":15,"risk":16,"cat":"green"},{"name":"Lawrence Weston Social Club","lat":51.50635,"lon":-2.65591,"postcode":"BS11 0ST","la":"Bristol, City of","era":"mod","nn":1312,"risk":48,"cat":"amber"},{"name":"Lebeq's Tavern","lat":51.46359,"lon":-2.57043,"postcode":"BS5 0PA","la":"Bristol, City of","era":"other","nn":364,"risk":19,"cat":"green"},{"name":"Left Handed Giant","lat":51.45285,"lon":-2.58675,"postcode":"BS1 6EU","la":"Bristol, City of","era":"other","nn":90,"risk":17,"cat":"green"},{"name":"Lizard Lounge","lat":51.45745,"lon":-2.60747,"postcode":"BS8 1QU","la":"Bristol, City of","era":"mod","nn":0,"risk":16,"cat":"green"},{"name":"Llandoger Trow","lat":51.45183,"lon":-2.59313,"postcode":"BS1 4ER","la":"Bristol, City of","era":"other","nn":0,"risk":16,"cat":"green"},{"name":"Lloyds No 1","lat":51.45069,"lon":-2.59847,"postcode":"BS1 5UH","la":"Bristol, City of","era":"other","nn":0,"risk":16,"cat":"green"},{"name":"Lockleaze Sports Centre (Terrace Bar)","lat":51.49511,"lon":-2.56718,"postcode":"BS7 9XF","la":"Bristol, City of","era":"other","nn":746,"risk":41,"cat":"amber"},{"name":"Lodekka","lat":51.44014,"lon":-2.55691,"postcode":"BS4 3DS","la":"Bristol, City of","era":"other","nn":157,"risk":17,"cat":"green"},{"name":"Lola Lo","lat":51.45649,"lon":-2.6072,"postcode":"BS8 1QL","la":"Bristol, City of","era":"other","nn":25,"risk":16,"cat":"green"},{"name":"London Cocktail Club","lat":51.45439,"lon":-2.5949,"postcode":"BS1 1HT","la":"Bristol, City of","era":"other","nn":14,"risk":16,"cat":"green"},{"name":"London Cocktail Club Ltd","lat":51.45646,"lon":-2.60772,"postcode":"BS8 1ER","la":"Bristol, City of","era":"other","nn":0,"risk":16,"cat":"green"},{"name":"Lord raglan","lat":51.45693,"lon":-2.52909,"postcode":"BS5 8LN","la":"Bristol, City of","era":"other","nn":64,"risk":16,"cat":"green"},{"name":"Luckwell","lat":51.43605,"lon":-2.61128,"postcode":"BS3 3HB","la":"Bristol, City of","era":"other","nn":279,"risk":18,"cat":"green"},{"name":"Masonic Hotel","lat":51.44053,"lon":-2.60668,"postcode":"BS3 1HF","la":"Bristol, City of","era":"trad","nn":142,"risk":17,"cat":"green"},{"name":"Masons Arms","lat":51.48542,"lon":-2.55028,"postcode":"BS16 1DT","la":"Bristol, City of","era":"trad","nn":260,"risk":38,"cat":"amber"},{"name":"Maytree Headley","lat":51.42173,"lon":-2.6082,"postcode":"BS13 7QT","la":"Bristol, City of","era":"trad","nn":790,"risk":27,"cat":"green"},{"name":"Mbargo","lat":51.45646,"lon":-2.60772,"postcode":"BS8 1ER","la":"Bristol, City of","era":"other","nn":0,"risk":16,"cat":"green"},{"name":"Mothers Ruin Bristol Ltd","lat":51.45382,"lon":-2.59309,"postcode":"BS1 1UE","la":"Bristol, City of","era":"other","nn":13,"risk":16,"cat":"green"},{"name":"Motion Venue","lat":51.45026,"lon":-2.57727,"postcode":"BS2 0PX","la":"Bristol, City of","era":"other","nn":263,"risk":18,"cat":"green"},{"name":"Mr Wolf's","lat":51.45382,"lon":-2.59443,"postcode":"BS1 1TG","la":"Bristol, City of","era":"other","nn":25,"risk":16,"cat":"green"},{"name":"New Found Out","lat":51.44252,"lon":-2.58074,"postcode":"BS3 4UB","la":"Bristol, City of","era":"other","nn":84,"risk":17,"cat":"green"},{"name":"New Stockwood Community Associaton","lat":51.40884,"lon":-2.54484,"postcode":"BS14 8SJ","la":"Bristol, City of","era":"other","nn":339,"risk":23,"cat":"green"},{"name":"NICHOLAS WANDERERS AFC","lat":51.4506,"lon":-2.52806,"postcode":"BS5 8SW","la":"Bristol, City of","era":"other","nn":333,"risk":18,"cat":"green"},{"name":"No 51","lat":51.46229,"lon":-2.59046,"postcode":"BS1 3QP","la":"Bristol, City of","era":"other","nn":57,"risk":16,"cat":"green"},{"name":"Nova Scotia","lat":51.44719,"lon":-2.61833,"postcode":"BS1 6XJ","la":"Bristol, City of","era":"other","nn":173,"risk":17,"cat":"green"},{"name":"NQ64","lat":51.4532,"lon":-2.59573,"postcode":"BS1 1SE","la":"Bristol, City of","era":"other","nn":0,"risk":16,"cat":"green"},{"name":"O2 Academy","lat":51.45414,"lon":-2.60085,"postcode":"BS1 5NA","la":"Bristol, City of","era":"other","nn":0,"risk":16,"cat":"green"},{"name":"Old Castle Green","lat":51.45707,"lon":-2.5787,"postcode":"BS2 0DP","la":"Bristol, City of","era":"other","nn":8,"risk":16,"cat":"green"},{"name":"Old England","lat":51.46654,"lon":-2.58947,"postcode":"BS6 5PT","la":"Bristol, City of","era":"other","nn":130,"risk":17,"cat":"green"},{"name":"Old Market Tavern","lat":51.45615,"lon":-2.58234,"postcode":"BS2 0HB","la":"Bristol, City of","era":"other","nn":0,"risk":16,"cat":"green"},{"name":"Oldbury Court Inn","lat":51.48781,"lon":-2.52013,"postcode":"BS16 2PY","la":"Bristol, City of","era":"trad","nn":678,"risk":21,"cat":"green"},{"name":"O'Neills","lat":51.45359,"lon":-2.59651,"postcode":"BS1 1RU","la":"Bristol, City of","era":"other","nn":69,"risk":17,"cat":"green"},{"name":"Pam Pam","lat":51.45745,"lon":-2.60747,"postcode":"BS8 1QU","la":"Bristol, City of","era":"other","nn":0,"risk":16,"cat":"green"},{"name":"Par 59","lat":51.45017,"lon":-2.60183,"postcode":"BS1 5SZ","la":"Bristol, City of","era":"other","nn":15,"risk":16,"cat":"green"},{"name":"Phoenix Public House","lat":51.45842,"lon":-2.58319,"postcode":"BS2 9DB","la":"Bristol, City of","era":"other","nn":117,"risk":17,"cat":"green"},{"name":"Pitcher & Piano","lat":51.45069,"lon":-2.59847,"postcode":"BS1 5UH","la":"Bristol, City of","era":"other","nn":0,"risk":16,"cat":"green"},{"name":"Port of Call","lat":51.4701,"lon":-2.61544,"postcode":"BS8 2YE","la":"Bristol, City of","era":"other","nn":50,"risk":16,"cat":"green"},{"name":"Post Office Tavern","lat":51.49168,"lon":-2.61694,"postcode":"BS9 3AG","la":"Bristol, City of","era":"other","nn":113,"risk":17,"cat":"green"},{"name":"Pot Black Snooker Club","lat":51.47613,"lon":-2.53902,"postcode":"BS16 3DD","la":"Bristol, City of","era":"other","nn":60,"risk":16,"cat":"green"},{"name":"Prince of Wales","lat":51.47064,"lon":-2.59313,"postcode":"BS7 8AA","la":"Bristol, City of","era":"trad","nn":134,"risk":17,"cat":"green"},{"name":"Prince of Wales","lat":51.48972,"lon":-2.62269,"postcode":"BS9 3SP","la":"Bristol, City of","era":"trad","nn":0,"risk":16,"cat":"green"},{"name":"Propyard","lat":51.44896,"lon":-2.57347,"postcode":"BS2 0SE","la":"Bristol, City of","era":"mod","nn":249,"risk":18,"cat":"green"},{"name":"Pryzm","lat":51.45069,"lon":-2.59847,"postcode":"BS1 5UH","la":"Bristol, City of","era":"other","nn":0,"risk":16,"cat":"green"},{"name":"Public House","lat":51.45699,"lon":-2.60961,"postcode":"BS8 1JW","la":"Bristol, City of","era":"other","nn":100,"risk":17,"cat":"green"},{"name":"Queen Shilling","lat":51.45414,"lon":-2.60085,"postcode":"BS1 5NA","la":"Bristol, City of","era":"trad","nn":0,"risk":16,"cat":"green"},{"name":"Queens Head","lat":51.4616,"lon":-2.56626,"postcode":"BS5 0ES","la":"Bristol, City of","era":"trad","nn":77,"risk":17,"cat":"green"},{"name":"Queens Head","lat":51.47344,"lon":-2.5531,"postcode":"BS5 6PY","la":"Bristol, City of","era":"trad","nn":626,"risk":25,"cat":"green"},{"name":"RAFA Bristol Branch Club","lat":51.49163,"lon":-2.61144,"postcode":"BS9 4BE","la":"Bristol, City of","era":"other","nn":0,"risk":16,"cat":"green"},{"name":"Redland Green Bowling Club","lat":51.47257,"lon":-2.60535,"postcode":"BS6 7HE","la":"Bristol, City of","era":"other","nn":200,"risk":17,"cat":"green"},{"name":"Redland Green Club","lat":51.47301,"lon":-2.60815,"postcode":"BS6 7HF","la":"Bristol, City of","era":"other","nn":200,"risk":17,"cat":"green"},{"name":"Reina Bar","lat":51.45449,"lon":-2.60304,"postcode":"BS1 5NT","la":"Bristol, City of","era":"other","nn":67,"risk":17,"cat":"green"},{"name":"Rogue\u2019s Kitchen","lat":51.47955,"lon":-2.58966,"postcode":"BS7 8NZ","la":"Bristol, City of","era":"mod","nn":0,"risk":16,"cat":"green"},{"name":"Rose and Crown","lat":51.46198,"lon":-2.52353,"postcode":"BS15 1BH","la":"Bristol, City of","era":"trad","nn":470,"risk":19,"cat":"green"},{"name":"Rose of Denmark","lat":51.44967,"lon":-2.62124,"postcode":"BS8 4QL","la":"Bristol, City of","era":"trad","nn":101,"risk":17,"cat":"green"},{"name":"Roxy Lanes Bristol","lat":51.45627,"lon":-2.59131,"postcode":"BS1 2DF","la":"Bristol, City of","era":"other","nn":74,"risk":17,"cat":"green"},{"name":"Royal Air Forces Association","lat":51.49163,"lon":-2.61144,"postcode":"BS9 4BE","la":"Bristol, City of","era":"trad","nn":0,"risk":16,"cat":"green"},{"name":"Royal British Legion","lat":51.41736,"lon":-2.61952,"postcode":"BS13 8EP","la":"Bristol, City of","era":"trad","nn":74,"risk":17,"cat":"green"},{"name":"Royal Oak","lat":51.45602,"lon":-2.62135,"postcode":"BS8 4JG","la":"Bristol, City of","era":"trad","nn":7,"risk":16,"cat":"green"},{"name":"Seamus O'Donnells","lat":51.45378,"lon":-2.59326,"postcode":"BS1 1UE","la":"Bristol, City of","era":"other","nn":13,"risk":16,"cat":"green"},{"name":"Seven Stars","lat":51.45202,"lon":-2.59036,"postcode":"BS1 6JG","la":"Bristol, City of","era":"other","nn":64,"risk":16,"cat":"green"},{"name":"Severn Vale Bowling Club","lat":51.41798,"lon":-2.6199,"postcode":"BS13 8ES","la":"Bristol, City of","era":"other","nn":74,"risk":17,"cat":"green"},{"name":"Shield & Dagger","lat":51.40469,"lon":-2.57148,"postcode":"BS14 0LN","la":"Bristol, City of","era":"other","nn":964,"risk":43,"cat":"amber"},{"name":"Shirehampton Mens Club","lat":51.49099,"lon":-2.67867,"postcode":"BS11 0DG","la":"Bristol, City of","era":"other","nn":316,"risk":18,"cat":"green"},{"name":"Shirehampton Park Golf Club Ltd","lat":51.48912,"lon":-2.66828,"postcode":"BS11 0UL","la":"Bristol, City of","era":"other","nn":473,"risk":19,"cat":"green"},{"name":"Sidings Bristol","lat":51.44852,"lon":-2.58426,"postcode":"BS1 6PL","la":"Bristol, City of","era":"other","nn":74,"risk":17,"cat":"green"},{"name":"Simply Fish","lat":51.48627,"lon":-2.64207,"postcode":"BS9 2DP","la":"Bristol, City of","era":"other","nn":111,"risk":34,"cat":"amber"},{"name":"Slug & Lettuce","lat":51.45393,"lon":-2.59358,"postcode":"BS1 1UB","la":"Bristol, City of","era":"other","nn":5,"risk":16,"cat":"green"},{"name":"Slug & Lettuce Bristol Harbourside","lat":51.44976,"lon":-2.60139,"postcode":"BS1 5TY","la":"Bristol, City of","era":"other","nn":34,"risk":16,"cat":"green"},{"name":"Smoke and Mirrors","lat":51.45282,"lon":-2.59872,"postcode":"BS1 5DQ","la":"Bristol, City of","era":"other","nn":46,"risk":16,"cat":"green"},{"name":"Snooker City","lat":51.43443,"lon":-2.56802,"postcode":"BS4 2QU","la":"Bristol, City of","era":"other","nn":253,"risk":18,"cat":"green"},{"name":"Snuff Mill Harvester","lat":51.49532,"lon":-2.53177,"postcode":"BS16 1LF","la":"Bristol, City of","era":"trad","nn":585,"risk":38,"cat":"amber"},{"name":"Snuffy Jacks Ale House","lat":51.48125,"lon":-2.52785,"postcode":"BS16 3TE","la":"Bristol, City of","era":"other","nn":117,"risk":17,"cat":"green"},{"name":"Southbank Arts Centre","lat":51.44322,"lon":-2.59921,"postcode":"BS3 1DB","la":"Bristol, City of","era":"other","nn":147,"risk":17,"cat":"green"},{"name":"Southmead Community Association Limited","lat":51.50377,"lon":-2.59925,"postcode":"BS10 6BQ","la":"Bristol, City of","era":"other","nn":143,"risk":20,"cat":"green"},{"name":"Southmead Community Sports","lat":51.50758,"lon":-2.59449,"postcode":"BS10 6WF","la":"Bristol, City of","era":"other","nn":536,"risk":37,"cat":"amber"},{"name":"St Annes Board Mill Social Club","lat":51.45686,"lon":-2.55494,"postcode":"BS5 9RN","la":"Bristol, City of","era":"other","nn":0,"risk":16,"cat":"green"},{"name":"St George Labour Club","lat":51.4599,"lon":-2.54472,"postcode":"BS5 8AJ","la":"Bristol, City of","era":"trad","nn":500,"risk":20,"cat":"green"},{"name":"St Georges Valley Cricket Club","lat":51.4646,"lon":-2.52891,"postcode":"BS5 7RP","la":"Bristol, City of","era":"trad","nn":473,"risk":19,"cat":"green"},{"name":"Stag & Hounds","lat":51.45561,"lon":-2.5825,"postcode":"BS2 0EJ","la":"Bristol, City of","era":"trad","nn":0,"risk":16,"cat":"green"},{"name":"Stapleton & Begbrook Comm Assc","lat":51.491,"lon":-2.5366,"postcode":"BS16 1HY","la":"Bristol, City of","era":"other","nn":585,"risk":40,"cat":"amber"},{"name":"Stapleton Cricket Club","lat":51.48375,"lon":-2.55291,"postcode":"BS16 1AY","la":"Bristol, City of","era":"other","nn":260,"risk":38,"cat":"amber"},{"name":"Star and Garter","lat":51.46676,"lon":-2.58252,"postcode":"BS6 5LR","la":"Bristol, City of","era":"other","nn":166,"risk":17,"cat":"green"},{"name":"Steam","lat":51.46444,"lon":-2.6093,"postcode":"BS8 2PH","la":"Bristol, City of","era":"other","nn":43,"risk":16,"cat":"green"},{"name":"Steinbeck & Shaw & Pryzm","lat":51.45069,"lon":-2.59847,"postcode":"BS1 5UH","la":"Bristol, City of","era":"other","nn":0,"risk":16,"cat":"green"},{"name":"Student Union Bar, Bower Ashton","lat":51.44321,"lon":-2.63089,"postcode":"BS3 2JT","la":"Bristol, City of","era":"other","nn":208,"risk":17,"cat":"green"},{"name":"Sturminster Community Centre","lat":51.42096,"lon":-2.55479,"postcode":"BS14 8AU","la":"Bristol, City of","era":"other","nn":733,"risk":39,"cat":"amber"},{"name":"SWX","lat":51.45667,"lon":-2.59216,"postcode":"BS1 2JY","la":"Bristol, City of","era":"other","nn":74,"risk":17,"cat":"green"},{"name":"Tap & Barrel","lat":51.44207,"lon":-2.60026,"postcode":"BS3 1BS","la":"Bristol, City of","era":"other","nn":101,"risk":17,"cat":"green"},{"name":"The Albion Public House","lat":51.45536,"lon":-2.61839,"postcode":"BS8 4AA","la":"Bristol, City of","era":"other","nn":24,"risk":16,"cat":"green"},{"name":"The All Inn Pub","lat":51.48185,"lon":-2.52221,"postcode":"BS16 5AA","la":"Bristol, City of","era":"trad","nn":396,"risk":19,"cat":"green"},{"name":"The Anchor","lat":51.48078,"lon":-2.58817,"postcode":"BS7 8PE","la":"Bristol, City of","era":"trad","nn":79,"risk":17,"cat":"green"},{"name":"The Apple","lat":51.45147,"lon":-2.59251,"postcode":"BS1 4SB","la":"Bristol, City of","era":"other","nn":59,"risk":16,"cat":"green"},{"name":"The Apple Tree","lat":51.44315,"lon":-2.59345,"postcode":"BS3 4EA","la":"Bristol, City of","era":"other","nn":78,"risk":17,"cat":"green"},{"name":"The Ashville","lat":51.44391,"lon":-2.61359,"postcode":"BS3 1SN","la":"Bristol, City of","era":"other","nn":313,"risk":18,"cat":"green"},{"name":"The Avon Packet","lat":51.44579,"lon":-2.61024,"postcode":"BS3 1RF","la":"Bristol, City of","era":"other","nn":172,"risk":17,"cat":"green"},{"name":"The Bank Tavern","lat":51.45593,"lon":-2.59399,"postcode":"BS1 2HR","la":"Bristol, City of","era":"other","nn":46,"risk":16,"cat":"green"},{"name":"The Barley Mow","lat":51.44282,"lon":-2.59496,"postcode":"BS3 4HH","la":"Bristol, City of","era":"other","nn":111,"risk":17,"cat":"green"},{"name":"The Barley Mow","lat":51.45262,"lon":-2.5773,"postcode":"BS2 0LF","la":"Bristol, City of","era":"other","nn":0,"risk":16,"cat":"green"},{"name":"The Barrel House","lat":51.45626,"lon":-2.61313,"postcode":"BS8 1AW","la":"Bristol, City of","era":"other","nn":208,"risk":17,"cat":"green"},{"name":"The Bay Horse","lat":51.45737,"lon":-2.5963,"postcode":"BS1 2LJ","la":"Bristol, City of","era":"trad","nn":48,"risk":16,"cat":"green"},{"name":"The Bear","lat":51.45025,"lon":-2.61932,"postcode":"BS8 4SF","la":"Bristol, City of","era":"other","nn":78,"risk":17,"cat":"green"},{"name":"The Beaufort","lat":51.46657,"lon":-2.58759,"postcode":"BS6 5QB","la":"Bristol, City of","era":"other","nn":69,"risk":17,"cat":"green"},{"name":"The Beaufort Arms Public House","lat":51.46972,"lon":-2.61588,"postcode":"BS8 2YF","la":"Bristol, City of","era":"trad","nn":52,"risk":16,"cat":"green"},{"name":"The Beer Emporium","lat":51.45166,"lon":-2.59463,"postcode":"BS1 4EF","la":"Bristol, City of","era":"other","nn":0,"risk":16,"cat":"green"},{"name":"The Bell","lat":51.46251,"lon":-2.59121,"postcode":"BS2 8JT","la":"Bristol, City of","era":"other","nn":57,"risk":16,"cat":"green"},{"name":"The Berkeley","lat":51.45572,"lon":-2.60525,"postcode":"BS8 1QE","la":"Bristol, City of","era":"other","nn":24,"risk":16,"cat":"green"},{"name":"The Birkett Tap","lat":51.4532,"lon":-2.59573,"postcode":"BS1 1SE","la":"Bristol, City of","era":"mod","nn":0,"risk":16,"cat":"green"},{"name":"The Black Swan","lat":51.47024,"lon":-2.56487,"postcode":"BS5 6NR","la":"Bristol, City of","era":"trad","nn":363,"risk":19,"cat":"green"},{"name":"The Black Swan","lat":51.48972,"lon":-2.62269,"postcode":"BS9 3SP","la":"Bristol, City of","era":"trad","nn":0,"risk":16,"cat":"green"},{"name":"The Blaise Inn","lat":51.50703,"lon":-2.63244,"postcode":"BS10 7QR","la":"Bristol, City of","era":"trad","nn":291,"risk":23,"cat":"green"},{"name":"The Boardroom","lat":51.45391,"lon":-2.59365,"postcode":"BS1 1UB","la":"Bristol, City of","era":"other","nn":5,"risk":16,"cat":"green"},{"name":"The Botanist","lat":51.4556,"lon":-2.60553,"postcode":"BS8 1HP","la":"Bristol, City of","era":"other","nn":0,"risk":16,"cat":"green"},{"name":"The Bridge Inn","lat":51.4543,"lon":-2.58618,"postcode":"BS2 0JF","la":"Bristol, City of","era":"trad","nn":165,"risk":17,"cat":"green"},{"name":"The Bristol Beacon Level 1 and Terrace Bars","lat":51.45712,"lon":-2.59713,"postcode":"BS1 5AR","la":"Bristol, City of","era":"other","nn":27,"risk":16,"cat":"green"},{"name":"The Bristol Flyer","lat":51.47434,"lon":-2.59187,"postcode":"BS7 8BN","la":"Bristol, City of","era":"other","nn":0,"risk":16,"cat":"green"},{"name":"The Bristol Fringe","lat":51.45438,"lon":-2.62145,"postcode":"BS8 4BZ","la":"Bristol, City of","era":"other","nn":138,"risk":17,"cat":"green"},{"name":"The Bristol Masonic Club Bar","lat":51.45382,"lon":-2.60233,"postcode":"BS1 5NH","la":"Bristol, City of","era":"trad","nn":50,"risk":16,"cat":"green"},{"name":"The Cabot Cruising Club","lat":51.44709,"lon":-2.59559,"postcode":"BS1 6UB","la":"Bristol, City of","era":"other","nn":67,"risk":17,"cat":"green"},{"name":"The Cambridge Arms","lat":51.4741,"lon":-2.61063,"postcode":"BS6 7JS","la":"Bristol, City of","era":"trad","nn":210,"risk":18,"cat":"green"},{"name":"The Cat and Wheel","lat":51.46833,"lon":-2.59267,"postcode":"BS6 5QX","la":"Bristol, City of","era":"other","nn":151,"risk":17,"cat":"green"},{"name":"The Chimp House","lat":51.47955,"lon":-2.58966,"postcode":"BS7 8NZ","la":"Bristol, City of","era":"other","nn":0,"risk":16,"cat":"green"},{"name":"The Cider Box","lat":51.45072,"lon":-2.57125,"postcode":"BS2 0QD","la":"Bristol, City of","era":"other","nn":249,"risk":18,"cat":"green"},{"name":"The Cider Press","lat":51.47434,"lon":-2.59187,"postcode":"BS7 8BN","la":"Bristol, City of","era":"other","nn":0,"risk":16,"cat":"green"},{"name":"The Clifton","lat":51.45428,"lon":-2.61811,"postcode":"BS8 4HG","la":"Bristol, City of","era":"other","nn":64,"risk":16,"cat":"green"},{"name":"The Clockwork Rose","lat":51.45375,"lon":-2.59526,"postcode":"BS1 1JR","la":"Bristol, City of","era":"other","nn":35,"risk":16,"cat":"green"},{"name":"The Club Secretary","lat":51.43429,"lon":-2.62538,"postcode":"BS3 2QE","la":"Bristol, City of","era":"other","nn":336,"risk":18,"cat":"green"},{"name":"The Clyde Arms","lat":51.46882,"lon":-2.60859,"postcode":"BS6 6JE","la":"Bristol, City of","era":"trad","nn":209,"risk":17,"cat":"green"},{"name":"The Coach & Horses","lat":51.4571,"lon":-2.57859,"postcode":"BS2 0DP","la":"Bristol, City of","era":"trad","nn":8,"risk":16,"cat":"green"},{"name":"The Colosseum","lat":51.44845,"lon":-2.59106,"postcode":"BS1 6SJ","la":"Bristol, City of","era":"other","nn":162,"risk":17,"cat":"green"},{"name":"The Concorde","lat":51.4113,"lon":-2.54197,"postcode":"BS14 8SY","la":"Bristol, City of","era":"other","nn":339,"risk":36,"cat":"amber"},{"name":"The Coopers Arms","lat":51.44251,"lon":-2.6176,"postcode":"BS3 2EA","la":"Bristol, City of","era":"trad","nn":10,"risk":16,"cat":"green"},{"name":"The Cornubia","lat":51.45247,"lon":-2.58789,"postcode":"BS1 6EN","la":"Bristol, City of","era":"other","nn":90,"risk":17,"cat":"green"},{"name":"The Cottage Inn","lat":51.44691,"lon":-2.61588,"postcode":"BS1 6XG","la":"Bristol, City of","era":"trad","nn":173,"risk":17,"cat":"green"},{"name":"The Criterion","lat":51.46648,"lon":-2.58017,"postcode":"BS6 5NX","la":"Bristol, City of","era":"other","nn":166,"risk":17,"cat":"green"},{"name":"The Crofters Rights","lat":51.46377,"lon":-2.59008,"postcode":"BS1 3RW","la":"Bristol, City of","era":"other","nn":112,"risk":17,"cat":"green"},{"name":"The Crown","lat":51.45413,"lon":-2.59284,"postcode":"BS1 1JH","la":"Bristol, City of","era":"trad","nn":16,"risk":16,"cat":"green"},{"name":"The Dark Horse","lat":51.45948,"lon":-2.55191,"postcode":"BS5 9HX","la":"Bristol, City of","era":"trad","nn":25,"risk":16,"cat":"green"},{"name":"The Den and Terrace","lat":51.45901,"lon":-2.61021,"postcode":"BS8 1LX","la":"Bristol, City of","era":"other","nn":70,"risk":17,"cat":"green"},{"name":"The Drapers Arms","lat":51.48511,"lon":-2.5859,"postcode":"BS7 8TZ","la":"Bristol, City of","era":"trad","nn":232,"risk":18,"cat":"green"},{"name":"The Drawbridge","lat":51.45318,"lon":-2.59839,"postcode":"BS1 4UT","la":"Bristol, City of","era":"other","nn":46,"risk":16,"cat":"green"},{"name":"The Duke of York","lat":51.46757,"lon":-2.57565,"postcode":"BS2 9RS","la":"Bristol, City of","era":"trad","nn":336,"risk":18,"cat":"green"},{"name":"The Eastfield Pub","lat":51.48985,"lon":-2.60839,"postcode":"BS9 4NQ","la":"Bristol, City of","era":"other","nn":289,"risk":18,"cat":"green"},{"name":"The Farm","lat":51.47423,"lon":-2.5776,"postcode":"BS2 9YL","la":"Bristol, City of","era":"other","nn":324,"risk":18,"cat":"green"},{"name":"The Fire Engine","lat":51.4594,"lon":-2.55224,"postcode":"BS5 9HX","la":"Bristol, City of","era":"other","nn":25,"risk":16,"cat":"green"},{"name":"The Forge","lat":51.45705,"lon":-2.59676,"postcode":"BS1 5BD","la":"Bristol, City of","era":"trad","nn":27,"risk":16,"cat":"green"},{"name":"The Full Moon Backpacker Hostel & Attic Bar","lat":51.46103,"lon":-2.59056,"postcode":"BS1 3PR","la":"Bristol, City of","era":"other","nn":112,"risk":17,"cat":"green"},{"name":"The George Inn","lat":51.4892,"lon":-2.67511,"postcode":"BS11 0DP","la":"Bristol, City of","era":"trad","nn":31,"risk":16,"cat":"green"},{"name":"The Golden Guinea","lat":51.44726,"lon":-2.59243,"postcode":"BS1 6SX","la":"Bristol, City of","era":"other","nn":125,"risk":17,"cat":"green"},{"name":"The Golden Lion","lat":51.47955,"lon":-2.58966,"postcode":"BS7 8NZ","la":"Bristol, City of","era":"trad","nn":0,"risk":16,"cat":"green"},{"name":"The Golden Lion","lat":51.47768,"lon":-2.5363,"postcode":"BS16 3BA","la":"Bristol, City of","era":"trad","nn":213,"risk":18,"cat":"green"},{"name":"The Green Man","lat":51.46113,"lon":-2.59864,"postcode":"BS2 8HD","la":"Bristol, City of","era":"other","nn":108,"risk":17,"cat":"green"},{"name":"The Greenbank Pub","lat":51.4677,"lon":-2.56158,"postcode":"BS5 6DP","la":"Bristol, City of","era":"other","nn":363,"risk":19,"cat":"green"},{"name":"The Greenhouse","lat":51.45269,"lon":-2.59965,"postcode":"BS1 5SP","la":"Bristol, City of","era":"other","nn":66,"risk":16,"cat":"green"},{"name":"The Greyhound","lat":51.47492,"lon":-2.53297,"postcode":"BS16 3JP","la":"Bristol, City of","era":"trad","nn":0,"risk":16,"cat":"green"},{"name":"The Gryphon","lat":51.45588,"lon":-2.59781,"postcode":"BS1 5AX","la":"Bristol, City of","era":"other","nn":74,"risk":17,"cat":"green"},{"name":"The Hare on the Hill","lat":51.46355,"lon":-2.59193,"postcode":"BS2 8LX","la":"Bristol, City of","era":"other","nn":79,"risk":17,"cat":"green"},{"name":"The Hartcliffe Inn","lat":51.40503,"lon":-2.60115,"postcode":"BS13 0HQ","la":"Bristol, City of","era":"trad","nn":536,"risk":40,"cat":"amber"},{"name":"The Harvesters","lat":51.4164,"lon":-2.54718,"postcode":"BS14 8JZ","la":"Bristol, City of","era":"trad","nn":672,"risk":23,"cat":"green"},{"name":"The Hatchet Inn","lat":51.45414,"lon":-2.60085,"postcode":"BS1 5NA","la":"Bristol, City of","era":"trad","nn":0,"risk":16,"cat":"green"},{"name":"The Hobgoblin","lat":51.47221,"lon":-2.59147,"postcode":"BS7 8AS","la":"Bristol, City of","era":"other","nn":78,"risk":17,"cat":"green"},{"name":"The Ill Repute","lat":51.45651,"lon":-2.57915,"postcode":"BS2 0DF","la":"Bristol, City of","era":"other","nn":33,"risk":16,"cat":"green"},{"name":"The Jersey Lily","lat":51.46961,"lon":-2.61402,"postcode":"BS8 2SB","la":"Bristol, City of","era":"other","nn":43,"risk":16,"cat":"green"},{"name":"The Jolly Roger","lat":51.46199,"lon":-2.56534,"postcode":"BS5 0HQ","la":"Bristol, City of","era":"other","nn":77,"risk":17,"cat":"green"},{"name":"The Kensington Arms","lat":51.46761,"lon":-2.6035,"postcode":"BS6 6NP","la":"Bristol, City of","era":"trad","nn":110,"risk":17,"cat":"green"},{"name":"The Knight's Templar","lat":51.45073,"lon":-2.58208,"postcode":"BS1 6DG","la":"Bristol, City of","era":"other","nn":216,"risk":18,"cat":"green"},{"name":"The Knowle","lat":51.43478,"lon":-2.56285,"postcode":"BS4 2LL","la":"Bristol, City of","era":"other","nn":302,"risk":18,"cat":"green"},{"name":"The Lamplighters","lat":51.48407,"lon":-2.68128,"postcode":"BS11 9XA","la":"Bristol, City of","era":"other","nn":333,"risk":18,"cat":"green"},{"name":"The Langton / Isinbar LTD","lat":51.45004,"lon":-2.5489,"postcode":"BS4 4EG","la":"Bristol, City of","era":"mod","nn":866,"risk":27,"cat":"green"},{"name":"The Lansdown","lat":51.45442,"lon":-2.61366,"postcode":"BS8 1AF","la":"Bristol, City of","era":"other","nn":132,"risk":17,"cat":"green"},{"name":"The Last Word","lat":51.4537,"lon":-2.61803,"postcode":"BS8 4HW","la":"Bristol, City of","era":"other","nn":64,"risk":16,"cat":"green"},{"name":"The Lazy Dog","lat":51.48173,"lon":-2.5833,"postcode":"BS7 9JR","la":"Bristol, City of","era":"other","nn":0,"risk":16,"cat":"green"},{"name":"The Lifeboat Inn","lat":51.48899,"lon":-2.67542,"postcode":"BS11 0DX","la":"Bristol, City of","era":"trad","nn":31,"risk":16,"cat":"green"},{"name":"The Lime Kiln","lat":51.45234,"lon":-2.60385,"postcode":"BS1 5UU","la":"Bristol, City of","era":"other","nn":151,"risk":17,"cat":"green"},{"name":"The Little Grosvenor","lat":51.44552,"lon":-2.5929,"postcode":"BS3 1AA","la":"Bristol, City of","era":"other","nn":63,"risk":16,"cat":"green"},{"name":"The Loco Klub","lat":51.449,"lon":-2.5835,"postcode":"BS1 6QH","la":"Bristol, City of","era":"other","nn":74,"risk":17,"cat":"green"},{"name":"The Long Bar","lat":51.45561,"lon":-2.5825,"postcode":"BS2 0EJ","la":"Bristol, City of","era":"other","nn":0,"risk":16,"cat":"green"},{"name":"The Louisiana","lat":51.44678,"lon":-2.59642,"postcode":"BS1 6UA","la":"Bristol, City of","era":"other","nn":67,"risk":17,"cat":"green"},{"name":"The Mall","lat":51.45596,"lon":-2.62137,"postcode":"BS8 4JG","la":"Bristol, City of","era":"other","nn":7,"risk":16,"cat":"green"},{"name":"The Mardyke","lat":51.4497,"lon":-2.61285,"postcode":"BS8 4UB","la":"Bristol, City of","era":"other","nn":366,"risk":19,"cat":"green"},{"name":"The Mechanics Arms","lat":51.46159,"lon":-2.53662,"postcode":"BS5 7LH","la":"Bristol, City of","era":"trad","nn":236,"risk":18,"cat":"green"},{"name":"The Merchants Arms","lat":51.44978,"lon":-2.61837,"postcode":"BS8 4PZ","la":"Bristol, City of","era":"other","nn":14,"risk":16,"cat":"green"},{"name":"The Mill House","lat":51.48707,"lon":-2.64305,"postcode":"BS9 2DS","la":"Bristol, City of","era":"trad","nn":111,"risk":34,"cat":"amber"},{"name":"The Miners Arms","lat":51.47136,"lon":-2.5768,"postcode":"BS2 9YQ","la":"Bristol, City of","era":"trad","nn":248,"risk":18,"cat":"green"},{"name":"The Miner's Arms","lat":51.43249,"lon":-2.6116,"postcode":"BS13 7AD","la":"Bristol, City of","era":"trad","nn":396,"risk":19,"cat":"green"},{"name":"The Mouse","lat":51.49266,"lon":-2.61651,"postcode":"BS9 4AA","la":"Bristol, City of","era":"other","nn":113,"risk":17,"cat":"green"},{"name":"The Myrtle Tree","lat":51.45097,"lon":-2.60721,"postcode":"BS1 5UW","la":"Bristol, City of","era":"other","nn":0,"risk":16,"cat":"green"},{"name":"The Naughty Corner Deli Pop up","lat":51.49231,"lon":-2.583,"postcode":"BS7 0BJ","la":"Bristol, City of","era":"other","nn":394,"risk":24,"cat":"green"},{"name":"The Old Crow","lat":51.50999,"lon":-2.61885,"postcode":"BS10 7DW","la":"Bristol, City of","era":"other","nn":809,"risk":39,"cat":"amber"},{"name":"The Old Duke","lat":51.45183,"lon":-2.59313,"postcode":"BS1 4ER","la":"Bristol, City of","era":"trad","nn":0,"risk":16,"cat":"green"},{"name":"The Old Fish Market","lat":51.45379,"lon":-2.59284,"postcode":"BS1 1QZ","la":"Bristol, City of","era":"other","nn":17,"risk":16,"cat":"green"},{"name":"The Old Globe","lat":51.44151,"lon":-2.59794,"postcode":"BS3 4EX","la":"Bristol, City of","era":"other","nn":172,"risk":17,"cat":"green"},{"name":"The Old Post Office","lat":51.48032,"lon":-2.52863,"postcode":"BS16 3TT","la":"Bristol, City of","era":"other","nn":55,"risk":16,"cat":"green"},{"name":"The Orchard Inn","lat":51.44724,"lon":-2.60935,"postcode":"BS1 6XT","la":"Bristol, City of","era":"trad","nn":172,"risk":17,"cat":"green"},{"name":"The Ostrich","lat":51.4479,"lon":-2.59392,"postcode":"BS1 6TJ","la":"Bristol, City of","era":"other","nn":125,"risk":17,"cat":"green"},{"name":"The Pack Horse","lat":51.45793,"lon":-2.56687,"postcode":"BS5 0DN","la":"Bristol, City of","era":"trad","nn":410,"risk":19,"cat":"green"},{"name":"The Pearl Nightclub","lat":51.4562,"lon":-2.60714,"postcode":"BS8 1EY","la":"Bristol, City of","era":"other","nn":21,"risk":16,"cat":"green"},{"name":"The Pegasus","lat":51.50384,"lon":-2.60132,"postcode":"BS10 6BA","la":"Bristol, City of","era":"other","nn":143,"risk":20,"cat":"green"},{"name":"The Pied Horse","lat":51.45948,"lon":-2.53687,"postcode":"BS5 8JS","la":"Bristol, City of","era":"trad","nn":236,"risk":18,"cat":"green"},{"name":"The Pilgrim Inn","lat":51.43523,"lon":-2.54835,"postcode":"BS4 4LF","la":"Bristol, City of","era":"trad","nn":95,"risk":17,"cat":"green"},{"name":"The Pipe and Slippers","lat":51.46475,"lon":-2.58969,"postcode":"BS6 5RW","la":"Bristol, City of","era":"other","nn":46,"risk":16,"cat":"green"},{"name":"The Plough","lat":51.46149,"lon":-2.56307,"postcode":"BS5 0EG","la":"Bristol, City of","era":"trad","nn":167,"risk":17,"cat":"green"},{"name":"The Portcullis","lat":51.45306,"lon":-2.62416,"postcode":"BS8 4LE","la":"Bristol, City of","era":"other","nn":239,"risk":18,"cat":"green"},{"name":"The Portwall Tavern","lat":51.44948,"lon":-2.58877,"postcode":"BS1 6NB","la":"Bristol, City of","era":"other","nn":196,"risk":17,"cat":"green"},{"name":"The Pump House","lat":51.44991,"lon":-2.61834,"postcode":"BS8 4PZ","la":"Bristol, City of","era":"other","nn":14,"risk":16,"cat":"green"},{"name":"The Punchbowl","lat":51.45615,"lon":-2.58234,"postcode":"BS2 0HB","la":"Bristol, City of","era":"other","nn":0,"risk":16,"cat":"green"},{"name":"The Quadrant Bar & Wine Cellar","lat":51.45486,"lon":-2.61961,"postcode":"BS8 4BP","la":"Bristol, City of","era":"mod","nn":101,"risk":17,"cat":"green"},{"name":"The Queens Head","lat":51.41066,"lon":-2.62013,"postcode":"BS13 8LG","la":"Bristol, City of","era":"trad","nn":147,"risk":22,"cat":"green"},{"name":"The Railway Tavern","lat":51.47917,"lon":-2.53019,"postcode":"BS16 3SG","la":"Bristol, City of","era":"trad","nn":46,"risk":16,"cat":"green"},{"name":"The Randall Room","lat":51.46261,"lon":-2.61631,"postcode":"BS8 3ED","la":"Bristol, City of","era":"other","nn":182,"risk":17,"cat":"green"},{"name":"The Red Lion","lat":51.46159,"lon":-2.55594,"postcode":"BS5 9BP","la":"Bristol, City of","era":"trad","nn":141,"risk":17,"cat":"green"},{"name":"The Red Monkey","lat":51.46794,"lon":-2.605,"postcode":"BS6 6PF","la":"Bristol, City of","era":"trad","nn":110,"risk":17,"cat":"green"},{"name":"The Rising Sun","lat":51.44244,"lon":-2.61769,"postcode":"BS3 2EA","la":"Bristol, City of","era":"other","nn":10,"risk":16,"cat":"green"},{"name":"The Rising Sun","lat":51.43851,"lon":-2.59414,"postcode":"BS3 4LE","la":"Bristol, City of","era":"other","nn":310,"risk":18,"cat":"green"},{"name":"The Robert Fitzharding","lat":51.44131,"lon":-2.60105,"postcode":"BS3 1BN","la":"Bristol, City of","era":"other","nn":101,"risk":17,"cat":"green"},{"name":"The Robin Hood","lat":51.45809,"lon":-2.59906,"postcode":"BS2 8DX","la":"Bristol, City of","era":"other","nn":0,"risk":16,"cat":"green"},{"name":"The Robins","lat":51.43442,"lon":-2.62053,"postcode":"BS3 2PW","la":"Bristol, City of","era":"other","nn":336,"risk":18,"cat":"green"},{"name":"The Rope Walk Inn","lat":51.44496,"lon":-2.59281,"postcode":"BS3 4JA","la":"Bristol, City of","era":"trad","nn":63,"risk":16,"cat":"green"},{"name":"The Rummer","lat":51.45425,"lon":-2.59298,"postcode":"BS1 1JH","la":"Bristol, City of","era":"other","nn":16,"risk":16,"cat":"green"},{"name":"The Sandringham","lat":51.44079,"lon":-2.55491,"postcode":"BS4 3PE","la":"Bristol, City of","era":"other","nn":157,"risk":17,"cat":"green"},{"name":"The Shakespeare","lat":51.44287,"lon":-2.57966,"postcode":"BS3 4UD","la":"Bristol, City of","era":"other","nn":84,"risk":17,"cat":"green"},{"name":"The Shakespeare","lat":51.47032,"lon":-2.60678,"postcode":"BS6 6SS","la":"Bristol, City of","era":"other","nn":209,"risk":17,"cat":"green"},{"name":"The Shakespeare Tavern","lat":51.44961,"lon":-2.59709,"postcode":"BS1 4QD","la":"Bristol, City of","era":"other","nn":154,"risk":17,"cat":"green"},{"name":"The Ship Inn","lat":51.45564,"lon":-2.59901,"postcode":"BS1 5BJ","la":"Bristol, City of","era":"trad","nn":88,"risk":17,"cat":"green"},{"name":"The Ship Inn","lat":51.44744,"lon":-2.58909,"postcode":"BS1 6PA","la":"Bristol, City of","era":"trad","nn":176,"risk":17,"cat":"green"},{"name":"The Somerville Club","lat":51.47524,"lon":-2.58825,"postcode":"BS7 9AD","la":"Bristol, City of","era":"other","nn":187,"risk":17,"cat":"green"},{"name":"The Sportsman & Annexe Inn","lat":51.47984,"lon":-2.58731,"postcode":"BS7 9EQ","la":"Bristol, City of","era":"trad","nn":0,"risk":16,"cat":"green"},{"name":"The Spotted Cow","lat":51.44012,"lon":-2.60866,"postcode":"BS3 1EZ","la":"Bristol, City of","era":"other","nn":90,"risk":17,"cat":"green"},{"name":"The Spotted Cow","lat":51.47493,"lon":-2.53297,"postcode":"BS16 3JP","la":"Bristol, City of","era":"other","nn":0,"risk":16,"cat":"green"},{"name":"The Star","lat":51.47666,"lon":-2.53891,"postcode":"BS16 3AF","la":"Bristol, City of","era":"other","nn":60,"risk":16,"cat":"green"},{"name":"The Swan With Two Necks","lat":51.45953,"lon":-2.57914,"postcode":"BS2 9EB","la":"Bristol, City of","era":"trad","nn":48,"risk":16,"cat":"green"},{"name":"The Trooper","lat":51.45242,"lon":-2.52395,"postcode":"BS5 8QT","la":"Bristol, City of","era":"other","nn":350,"risk":18,"cat":"green"},{"name":"The Tythings","lat":51.41198,"lon":-2.62016,"postcode":"BS13 8LB","la":"Bristol, City of","era":"other","nn":147,"risk":22,"cat":"green"},{"name":"The Victoria","lat":51.47044,"lon":-2.57354,"postcode":"BS2 9US","la":"Bristol, City of","era":"trad","nn":248,"risk":18,"cat":"green"},{"name":"The Victoria","lat":51.49339,"lon":-2.61483,"postcode":"BS9 3EX","la":"Bristol, City of","era":"trad","nn":141,"risk":17,"cat":"green"},{"name":"The Victoria","lat":51.46019,"lon":-2.61181,"postcode":"BS8 2BH","la":"Bristol, City of","era":"trad","nn":172,"risk":17,"cat":"green"},{"name":"The Vittoria","lat":51.46227,"lon":-2.60834,"postcode":"BS8 2LY","la":"Bristol, City of","era":"other","nn":116,"risk":17,"cat":"green"},{"name":"The Wellington","lat":51.48889,"lon":-2.58533,"postcode":"BS7 8UR","la":"Bristol, City of","era":"trad","nn":355,"risk":19,"cat":"green"},{"name":"The Wessex Flyer","lat":51.41636,"lon":-2.58715,"postcode":"BS14 0HR","la":"Bristol, City of","era":"other","nn":0,"risk":36,"cat":"amber"},{"name":"The Whitchurch","lat":51.4142,"lon":-2.57151,"postcode":"BS14 0SX","la":"Bristol, City of","era":"other","nn":833,"risk":42,"cat":"amber"},{"name":"The White Harte","lat":51.45529,"lon":-2.60258,"postcode":"BS1 5LH","la":"Bristol, City of","era":"trad","nn":85,"risk":17,"cat":"green"},{"name":"The White Horse","lat":51.49452,"lon":-2.618,"postcode":"BS9 3DZ","la":"Bristol, City of","era":"trad","nn":102,"risk":17,"cat":"green"},{"name":"The Whitehall Tavern","lat":51.46244,"lon":-2.55744,"postcode":"BS5 9AD","la":"Bristol, City of","era":"other","nn":141,"risk":17,"cat":"green"},{"name":"The Whitmore Tap","lat":51.46407,"lon":-2.60911,"postcode":"BS8 2PB","la":"Bristol, City of","era":"mod","nn":43,"risk":16,"cat":"green"},{"name":"The Yeoman","lat":51.41426,"lon":-2.5595,"postcode":"BS14 9HX","la":"Bristol, City of","era":"other","nn":628,"risk":23,"cat":"green"},{"name":"Thekla","lat":51.44884,"lon":-2.59507,"postcode":"BS1 4RB","la":"Bristol, City of","era":"other","nn":119,"risk":17,"cat":"green"},{"name":"Three Lions","lat":51.4356,"lon":-2.60731,"postcode":"BS3 3NB","la":"Bristol, City of","era":"trad","nn":279,"risk":18,"cat":"green"},{"name":"Three Tuns","lat":51.45133,"lon":-2.60532,"postcode":"BS1 5UR","la":"Bristol, City of","era":"other","nn":137,"risk":17,"cat":"green"},{"name":"To the Moon","lat":51.45596,"lon":-2.57915,"postcode":"BS2 0JT","la":"Bristol, City of","era":"other","nn":61,"risk":16,"cat":"green"},{"name":"Tonight Josephine Bristol","lat":51.45322,"lon":-2.59479,"postcode":"BS1 1NG","la":"Bristol, City of","era":"other","nn":57,"risk":16,"cat":"green"},{"name":"Totos by the River","lat":51.45194,"lon":-2.59128,"postcode":"BS1 6HU","la":"Bristol, City of","era":"other","nn":64,"risk":16,"cat":"green"},{"name":"Treble Chance","lat":51.49998,"lon":-2.61159,"postcode":"BS10 6AG","la":"Bristol, City of","era":"other","nn":650,"risk":21,"cat":"green"},{"name":"Trinity Community Arts Ltd","lat":51.45806,"lon":-2.57597,"postcode":"BS2 0NW","la":"Bristol, City of","era":"other","nn":211,"risk":18,"cat":"green"},{"name":"Twelve","lat":51.45442,"lon":-2.5958,"postcode":"BS1 1EL","la":"Bristol, City of","era":"other","nn":10,"risk":16,"cat":"green"},{"name":"University & Literary Club","lat":51.4556,"lon":-2.60553,"postcode":"BS8 1HP","la":"Bristol, City of","era":"other","nn":0,"risk":16,"cat":"green"},{"name":"University of Bristol - Durdham Hall and Bar","lat":51.47697,"lon":-2.62398,"postcode":"BS9 1JB","la":"Bristol, City of","era":"other","nn":196,"risk":17,"cat":"green"},{"name":"University of Bristol Coombe Dingle Sports Complex","lat":51.48812,"lon":-2.63245,"postcode":"BS9 2BJ","la":"Bristol, City of","era":"other","nn":697,"risk":23,"cat":"green"},{"name":"University of Bristol The Three Horses Club","lat":51.45326,"lon":-2.61327,"postcode":"BS8 1BX","la":"Bristol, City of","era":"trad","nn":132,"risk":17,"cat":"green"},{"name":"University of Bristol Wills Hall and Bar","lat":51.47856,"lon":-2.62276,"postcode":"BS9 1AE","la":"Bristol, City of","era":"other","nn":196,"risk":20,"cat":"green"},{"name":"University of Bristol, The Castor Club","lat":51.48045,"lon":-2.62462,"postcode":"BS9 1AD","la":"Bristol, City of","era":"other","nn":247,"risk":23,"cat":"green"},{"name":"Van Dyck Forum","lat":51.47959,"lon":-2.53022,"postcode":"BS16 3UA","la":"Bristol, City of","era":"other","nn":46,"risk":16,"cat":"green"},{"name":"Victoria Park","lat":51.43827,"lon":-2.58968,"postcode":"BS3 4QW","la":"Bristol, City of","era":"trad","nn":310,"risk":18,"cat":"green"},{"name":"Volunteer Tavern","lat":51.45764,"lon":-2.58204,"postcode":"BS2 9DX","la":"Bristol, City of","era":"other","nn":117,"risk":17,"cat":"green"},{"name":"W G Grace","lat":51.46327,"lon":-2.60877,"postcode":"BS8 2NT","la":"Bristol, City of","era":"other","nn":75,"risk":17,"cat":"green"},{"name":"Wackum Inn","lat":51.46581,"lon":-2.54355,"postcode":"BS5 7DA","la":"Bristol, City of","era":"trad","nn":447,"risk":19,"cat":"green"},{"name":"Walkabout","lat":51.45434,"lon":-2.594,"postcode":"BS1 1HQ","la":"Bristol, City of","era":"other","nn":50,"risk":16,"cat":"green"},{"name":"Westbury Mens Club","lat":51.49265,"lon":-2.6193,"postcode":"BS9 3DL","la":"Bristol, City of","era":"other","nn":193,"risk":17,"cat":"green"},{"name":"Westbury Park Pub & Kitchen","lat":51.4816,"lon":-2.61236,"postcode":"BS9 4HP","la":"Bristol, City of","era":"mod","nn":675,"risk":21,"cat":"green"},{"name":"White Bear","lat":51.46047,"lon":-2.60161,"postcode":"BS2 8BS","la":"Bristol, City of","era":"other","nn":152,"risk":17,"cat":"green"},{"name":"White Hart","lat":51.45843,"lon":-2.59358,"postcode":"BS1 2LU","la":"Bristol, City of","era":"trad","nn":220,"risk":18,"cat":"green"},{"name":"White Lion Ember","lat":51.49534,"lon":-2.61731,"postcode":"BS9 3HN","la":"Bristol, City of","era":"trad","nn":102,"risk":17,"cat":"green"},{"name":"White Lion Hotel","lat":51.45518,"lon":-2.59574,"postcode":"BS1 1EB","la":"Bristol, City of","era":"trad","nn":40,"risk":16,"cat":"green"},{"name":"Whitehall Rugby Football Club","lat":51.46926,"lon":-2.54024,"postcode":"BS5 7UE","la":"Bristol, City of","era":"other","nn":447,"risk":19,"cat":"green"},{"name":"Willmott Park Bowls Club","lat":51.40984,"lon":-2.60178,"postcode":"BS13 0AA","la":"Bristol, City of","era":"other","nn":536,"risk":40,"cat":"amber"},{"name":"Ye Shakespeare","lat":51.45148,"lon":-2.58693,"postcode":"BS1 6DR","la":"Bristol, City of","era":"other","nn":129,"risk":17,"cat":"green"},{"name":"Yuri Bar","lat":51.47498,"lon":-2.59094,"postcode":"BS7 8BG","la":"Bristol, City of","era":"other","nn":0,"risk":16,"cat":"green"},{"name":"49 Club","lat":51.34893,"lon":-2.97227,"postcode":"BS23 3AE","la":"North Somerset","era":"other","nn":250,"risk":25,"cat":"green"},{"name":"Airport Tavern","lat":51.38908,"lon":-2.69986,"postcode":"BS40 9XA","la":"North Somerset","era":"other","nn":2292,"risk":62,"cat":"red"},{"name":"Albert The","lat":51.35081,"lon":-2.97895,"postcode":"BS23 1HP","la":"North Somerset","era":"other","nn":0,"risk":24,"cat":"green"},{"name":"Albion","lat":51.47671,"lon":-2.76733,"postcode":"BS20 6PZ","la":"North Somerset","era":"other","nn":231,"risk":25,"cat":"green"},{"name":"Allstars Sports Bar","lat":51.34753,"lon":-2.97991,"postcode":"BS23 1SQ","la":"North Somerset","era":"other","nn":15,"risk":24,"cat":"green"},{"name":"Allstars Sports Bowl","lat":51.3454,"lon":-2.97847,"postcode":"BS23 1FF","la":"North Somerset","era":"other","nn":49,"risk":24,"cat":"green"},{"name":"Allstars Sports Lounge","lat":51.34748,"lon":-2.98011,"postcode":"BS23 1SQ","la":"North Somerset","era":"mod","nn":0,"risk":24,"cat":"green"},{"name":"Anchor Inn","lat":51.30814,"lon":-2.95806,"postcode":"BS24 0AW","la":"North Somerset","era":"trad","nn":718,"risk":49,"cat":"amber"},{"name":"Anchor Inn (The)","lat":51.47532,"lon":-2.6802,"postcode":"BS20 0HB","la":"North Somerset","era":"trad","nn":58,"risk":24,"cat":"green"},{"name":"Angel Inn","lat":51.43488,"lon":-2.64739,"postcode":"BS41 9LT","la":"North Somerset","era":"trad","nn":1180,"risk":54,"cat":"amber"},{"name":"Ashcombe Park Bowling Club","lat":51.35388,"lon":-2.9438,"postcode":"BS22 8EN","la":"North Somerset","era":"other","nn":421,"risk":31,"cat":"amber"},{"name":"Ashton (The)","lat":51.4377,"lon":-2.63099,"postcode":"BS3 2HB","la":"North Somerset","era":"other","nn":543,"risk":27,"cat":"green"},{"name":"Banwell Bowling Club","lat":51.32826,"lon":-2.86453,"postcode":"BS29 6DB","la":"North Somerset","era":"other","nn":24,"risk":41,"cat":"amber"},{"name":"Barrow Gurney Cricket Club","lat":51.40205,"lon":-2.67419,"postcode":"BS48 3SU","la":"North Somerset","era":"other","nn":2240,"risk":62,"cat":"red"},{"name":"Bell Inn (The)","lat":51.32727,"lon":-2.86377,"postcode":"BS29 6BL","la":"North Somerset","era":"trad","nn":115,"risk":42,"cat":"amber"},{"name":"Bird in Hand","lat":51.42934,"lon":-2.66338,"postcode":"BS41 9LA","la":"North Somerset","era":"other","nn":380,"risk":46,"cat":"amber"},{"name":"Black Cat Micro Brewery","lat":51.35106,"lon":-2.97942,"postcode":"BS23 1HN","la":"North Somerset","era":"other","nn":18,"risk":24,"cat":"green"},{"name":"Black Horse Inn (The)","lat":51.46128,"lon":-2.76134,"postcode":"BS20 7RH","la":"North Somerset","era":"trad","nn":1765,"risk":58,"cat":"amber"},{"name":"Blagdon Village Club","lat":51.32893,"lon":-2.71817,"postcode":"BS40 7TA","la":"North Somerset","era":"other","nn":255,"risk":43,"cat":"amber"},{"name":"Blue Flame Inn (The)","lat":51.41747,"lon":-2.79429,"postcode":"BS48 4DE","la":"North Somerset","era":"trad","nn":1631,"risk":57,"cat":"amber"},{"name":"Borough Arms","lat":51.35014,"lon":-2.94281,"postcode":"BS22 8PD","la":"North Somerset","era":"trad","nn":421,"risk":29,"cat":"green"},{"name":"Brewers Arms","lat":51.32827,"lon":-2.86418,"postcode":"BS29 6EA","la":"North Somerset","era":"trad","nn":24,"risk":41,"cat":"amber"},{"name":"Brewers Fayre @ Premier Inn","lat":51.34499,"lon":-2.97819,"postcode":"BS23 1UA","la":"North Somerset","era":"trad","nn":49,"risk":24,"cat":"green"},{"name":"Bridge Inn (The)","lat":51.40096,"lon":-2.84187,"postcode":"BS49 4AU","la":"North Somerset","era":"trad","nn":1401,"risk":56,"cat":"amber"},{"name":"Bristol & Clifton Golf Club","lat":51.44485,"lon":-2.67299,"postcode":"BS8 3TH","la":"North Somerset","era":"other","nn":1474,"risk":56,"cat":"amber"},{"name":"Bristol House","lat":51.3518,"lon":-2.95625,"postcode":"BS23 2UY","la":"North Somerset","era":"other","nn":882,"risk":30,"cat":"green"},{"name":"Bristol Inn (The)","lat":51.43686,"lon":-2.85222,"postcode":"BS21 7NL","la":"North Somerset","era":"trad","nn":146,"risk":25,"cat":"green"},{"name":"Brit Cafe Wine Bar","lat":51.35081,"lon":-2.97895,"postcode":"BS23 1HP","la":"North Somerset","era":"other","nn":0,"risk":24,"cat":"green"},{"name":"Butchers Arms","lat":51.38511,"lon":-2.81627,"postcode":"BS49 4JD","la":"North Somerset","era":"trad","nn":402,"risk":44,"cat":"amber"},{"name":"Buzz Bingo","lat":51.33809,"lon":-2.96245,"postcode":"BS23 3YY","la":"North Somerset","era":"other","nn":497,"risk":27,"cat":"green"},{"name":"Cabot Court Hotel","lat":51.35045,"lon":-2.98191,"postcode":"BS23 2AH","la":"North Somerset","era":"other","nn":52,"risk":24,"cat":"green"},{"name":"Captain's Cabin","lat":51.35475,"lon":-2.99345,"postcode":"BS23 2EF","la":"North Somerset","era":"other","nn":119,"risk":24,"cat":"green"},{"name":"Carpenters Tavern (The)","lat":51.38774,"lon":-2.6247,"postcode":"BS41 8NE","la":"North Somerset","era":"trad","nn":1666,"risk":58,"cat":"amber"},{"name":"Champagne Lounge","lat":51.34772,"lon":-2.97904,"postcode":"BS23 1SF","la":"North Somerset","era":"mod","nn":64,"risk":24,"cat":"green"},{"name":"Charles Dickens (The)","lat":51.34804,"lon":-2.97688,"postcode":"BS23 1QP","la":"North Somerset","era":"other","nn":73,"risk":24,"cat":"green"},{"name":"Churchill Inn","lat":51.33698,"lon":-2.78895,"postcode":"BS25 5NL","la":"North Somerset","era":"trad","nn":69,"risk":29,"cat":"green"},{"name":"Claremont Vaults","lat":51.35392,"lon":-2.99239,"postcode":"BS23 2ED","la":"North Somerset","era":"other","nn":45,"risk":24,"cat":"green"},{"name":"Clarence Bowling Club","lat":51.33787,"lon":-2.97921,"postcode":"BS23 4AT","la":"North Somerset","era":"other","nn":295,"risk":26,"cat":"green"},{"name":"Claverham Cricket Club","lat":51.38365,"lon":-2.81097,"postcode":"BS49 4JP","la":"North Somerset","era":"other","nn":376,"risk":44,"cat":"amber"},{"name":"Cleeve Cricket Club","lat":51.38908,"lon":-2.78144,"postcode":"BS49 4PB","la":"North Somerset","era":"other","nn":2136,"risk":61,"cat":"red"},{"name":"Clevedon Conservative Club","lat":51.43552,"lon":-2.85146,"postcode":"BS21 6EL","la":"North Somerset","era":"other","nn":158,"risk":25,"cat":"green"},{"name":"Clevedon Cricket Club","lat":51.44292,"lon":-2.84935,"postcode":"BS21 7HP","la":"North Somerset","era":"other","nn":468,"risk":27,"cat":"green"},{"name":"Clevedon Golf Club","lat":51.45282,"lon":-2.84363,"postcode":"BS21 7AA","la":"North Somerset","era":"other","nn":1170,"risk":54,"cat":"amber"},{"name":"Clevedon Masonic Hall","lat":51.43996,"lon":-2.85714,"postcode":"BS21 7RN","la":"North Somerset","era":"trad","nn":271,"risk":25,"cat":"green"},{"name":"Clevedon United Football Club","lat":51.43211,"lon":-2.85627,"postcode":"BS21 6NY","la":"North Somerset","era":"other","nn":412,"risk":26,"cat":"green"},{"name":"Coach House (The)","lat":51.33533,"lon":-2.915,"postcode":"BS24 8DG","la":"North Somerset","era":"other","nn":1486,"risk":56,"cat":"amber"},{"name":"Coates House","lat":51.4335,"lon":-2.75656,"postcode":"BS48 1AW","la":"North Somerset","era":"other","nn":38,"risk":24,"cat":"green"},{"name":"Congresbury Arms","lat":51.36975,"lon":-2.80814,"postcode":"BS49 5JA","la":"North Somerset","era":"trad","nn":0,"risk":29,"cat":"green"},{"name":"Congresbury Recreation Club","lat":51.36686,"lon":-2.80878,"postcode":"BS49 5DW","la":"North Somerset","era":"other","nn":262,"risk":30,"cat":"green"},{"name":"Conservative Club","lat":51.34744,"lon":-2.97569,"postcode":"BS23 1QX","la":"North Somerset","era":"other","nn":0,"risk":24,"cat":"green"},{"name":"Crab Apple Inn","lat":51.43158,"lon":-2.8691,"postcode":"BS21 7UL","la":"North Somerset","era":"trad","nn":333,"risk":31,"cat":"amber"},{"name":"Criterion","lat":51.35344,"lon":-2.98534,"postcode":"BS23 2DY","la":"North Somerset","era":"other","nn":115,"risk":24,"cat":"green"},{"name":"Crown Inn (The)","lat":51.33116,"lon":-2.79793,"postcode":"BS25 5PP","la":"North Somerset","era":"trad","nn":280,"risk":30,"cat":"green"},{"name":"Curzon Cinema","lat":51.43574,"lon":-2.85502,"postcode":"BS21 6NN","la":"North Somerset","era":"other","nn":231,"risk":25,"cat":"green"},{"name":"Dakota Saloon","lat":51.34632,"lon":-2.97723,"postcode":"BS23 1TN","la":"North Somerset","era":"other","nn":57,"risk":24,"cat":"green"},{"name":"Darlington Arms","lat":51.36564,"lon":-2.72155,"postcode":"BS40 5TE","la":"North Somerset","era":"trad","nn":2882,"risk":66,"cat":"red"},{"name":"Dolphin (The)","lat":51.3212,"lon":-2.98041,"postcode":"BS23 4TN","la":"North Somerset","era":"other","nn":0,"risk":44,"cat":"amber"},{"name":"Doubletree by Hilton Cadbury House","lat":51.38032,"lon":-2.8101,"postcode":"BS49 5AD","la":"North Somerset","era":"other","nn":376,"risk":44,"cat":"amber"},{"name":"Duke of Cornwall","lat":51.4821,"lon":-2.68526,"postcode":"BS20 0BG","la":"North Somerset","era":"trad","nn":240,"risk":25,"cat":"green"},{"name":"Duke of Oxford","lat":51.3462,"lon":-2.97882,"postcode":"BS23 1TF","la":"North Somerset","era":"trad","nn":76,"risk":24,"cat":"green"},{"name":"Dundry Royal British Legion Social Club Ltd","lat":51.40006,"lon":-2.63835,"postcode":"BS41 8JE","la":"North Somerset","era":"other","nn":1666,"risk":58,"cat":"amber"},{"name":"Ebdon Arms (The)","lat":51.37411,"lon":-2.91748,"postcode":"BS22 9WE","la":"North Somerset","era":"trad","nn":362,"risk":46,"cat":"amber"},{"name":"Failand & Portbury Cricket Club","lat":51.45176,"lon":-2.70266,"postcode":"BS8 3TY","la":"North Somerset","era":"other","nn":824,"risk":49,"cat":"amber"},{"name":"Failand Inn","lat":51.44451,"lon":-2.70021,"postcode":"BS8 3TU","la":"North Somerset","era":"trad","nn":824,"risk":49,"cat":"amber"},{"name":"Fallen Tree Micropub (The)","lat":51.44239,"lon":-2.85605,"postcode":"BS21 7PD","la":"North Somerset","era":"other","nn":42,"risk":24,"cat":"green"},{"name":"Fork n Ale Taproom & Kitchen","lat":51.34664,"lon":-2.97658,"postcode":"BS23 1UG","la":"North Somerset","era":"mod","nn":58,"risk":24,"cat":"green"},{"name":"Frames Snooker Centre","lat":51.34103,"lon":-2.97268,"postcode":"BS23 3PZ","la":"North Somerset","era":"trad","nn":331,"risk":26,"cat":"green"},{"name":"Full Quart","lat":51.37438,"lon":-2.86641,"postcode":"BS24 6RT","la":"North Somerset","era":"other","nn":2925,"risk":66,"cat":"red"},{"name":"George & Dragon","lat":51.34813,"lon":-2.97567,"postcode":"BS23 1RQ","la":"North Somerset","era":"trad","nn":43,"risk":24,"cat":"green"},{"name":"George Inn (The)","lat":51.41864,"lon":-2.72696,"postcode":"BS48 3PG","la":"North Somerset","era":"trad","nn":1592,"risk":57,"cat":"amber"},{"name":"George Inn (The)","lat":51.45973,"lon":-2.66208,"postcode":"BS8 3RP","la":"North Somerset","era":"trad","nn":1819,"risk":59,"cat":"amber"},{"name":"Glassmaker (The)","lat":51.43233,"lon":-2.7586,"postcode":"BS48 1RD","la":"North Somerset","era":"other","nn":192,"risk":25,"cat":"green"},{"name":"Golden Lion","lat":51.35924,"lon":-2.93121,"postcode":"BS22 6ET","la":"North Somerset","era":"trad","nn":270,"risk":25,"cat":"green"},{"name":"Golden Lion","lat":51.36189,"lon":-2.7632,"postcode":"BS40 5LA","la":"North Somerset","era":"trad","nn":67,"risk":44,"cat":"amber"},{"name":"Gordano Gate Brewers Fayre & Premier Inn","lat":51.48206,"lon":-2.76154,"postcode":"BS20 7GA","la":"North Somerset","era":"trad","nn":459,"risk":27,"cat":"green"},{"name":"Gordano RFC","lat":51.47314,"lon":-2.72479,"postcode":"BS20 7UF","la":"North Somerset","era":"other","nn":165,"risk":42,"cat":"amber"},{"name":"Grove Sports Centre & Soc Club","lat":51.4238,"lon":-2.76948,"postcode":"BS48 4NQ","la":"North Somerset","era":"other","nn":186,"risk":25,"cat":"green"},{"name":"Hall & Woodhouse","lat":51.48765,"lon":-2.75975,"postcode":"BS20 7FP","la":"North Somerset","era":"other","nn":633,"risk":28,"cat":"green"},{"name":"Kings Arms (The)","lat":51.47513,"lon":-2.70069,"postcode":"BS20 0PS","la":"North Somerset","era":"trad","nn":338,"risk":43,"cat":"amber"},{"name":"Kings Head","lat":51.47862,"lon":-2.68571,"postcode":"BS20 0HT","la":"North Somerset","era":"trad","nn":155,"risk":25,"cat":"green"},{"name":"Lamb (The)","lat":51.3605,"lon":-2.92729,"postcode":"BS22 6JA","la":"North Somerset","era":"other","nn":37,"risk":24,"cat":"green"},{"name":"Lamb Inn (Food Business)","lat":51.36038,"lon":-2.92778,"postcode":"BS22 6JA","la":"North Somerset","era":"trad","nn":37,"risk":24,"cat":"green"},{"name":"Landing Light (The)","lat":51.34245,"lon":-2.93312,"postcode":"BS24 8EE","la":"North Somerset","era":"other","nn":1089,"risk":54,"cat":"amber"},{"name":"Langford House Club Bar","lat":51.34318,"lon":-2.77806,"postcode":"BS40 5DU","la":"North Somerset","era":"mod","nn":546,"risk":47,"cat":"amber"},{"name":"Langford Inn and Restaurant (The)","lat":51.34257,"lon":-2.77025,"postcode":"BS40 5BL","la":"North Somerset","era":"trad","nn":546,"risk":47,"cat":"amber"},{"name":"Legends","lat":51.35105,"lon":-2.9803,"postcode":"BS23 1JZ","la":"North Somerset","era":"other","nn":46,"risk":24,"cat":"green"},{"name":"Limehouse (The)","lat":51.44269,"lon":-2.85644,"postcode":"BS21 7PD","la":"North Somerset","era":"mod","nn":42,"risk":24,"cat":"green"},{"name":"Little Harp Inn","lat":51.437,"lon":-2.8657,"postcode":"BS21 7RH","la":"North Somerset","era":"trad","nn":402,"risk":26,"cat":"green"},{"name":"Lodway Cricket Club","lat":51.47584,"lon":-2.68004,"postcode":"BS20 0HF","la":"North Somerset","era":"other","nn":58,"risk":24,"cat":"green"},{"name":"Loft The","lat":51.34659,"lon":-2.97792,"postcode":"BS23 1TN","la":"North Somerset","era":"other","nn":57,"risk":24,"cat":"green"},{"name":"Manor (The)","lat":51.36912,"lon":-2.9317,"postcode":"BS22 9LP","la":"North Somerset","era":"other","nn":852,"risk":47,"cat":"amber"},{"name":"Masonic Hall","lat":51.3509,"lon":-2.97533,"postcode":"BS23 1NZ","la":"North Somerset","era":"trad","nn":95,"risk":24,"cat":"green"},{"name":"Masonic Hall","lat":51.43513,"lon":-2.75066,"postcode":"BS48 1BA","la":"North Somerset","era":"trad","nn":286,"risk":26,"cat":"green"},{"name":"Miller and Carter Weston Gateway","lat":51.35302,"lon":-2.90775,"postcode":"BS22 6DB","la":"North Somerset","era":"trad","nn":374,"risk":31,"cat":"amber"},{"name":"Miners Rest","lat":51.43268,"lon":-2.66455,"postcode":"BS41 9DJ","la":"North Somerset","era":"other","nn":380,"risk":46,"cat":"amber"},{"name":"Mizzymead Recreation Centre","lat":51.43055,"lon":-2.76394,"postcode":"BS48 2JJ","la":"North Somerset","era":"other","nn":420,"risk":26,"cat":"green"},{"name":"Monaco Hotel","lat":51.35246,"lon":-2.98637,"postcode":"BS23 2BD","la":"North Somerset","era":"other","nn":43,"risk":24,"cat":"green"},{"name":"Moon & Sixpence","lat":51.44133,"lon":-2.86091,"postcode":"BS21 7QU","la":"North Somerset","era":"other","nn":33,"risk":24,"cat":"green"},{"name":"Moorend Spout","lat":51.4312,"lon":-2.77458,"postcode":"BS48 4BB","la":"North Somerset","era":"other","nn":76,"risk":24,"cat":"green"},{"name":"Morgan's Musical Bar","lat":51.34737,"lon":-2.98012,"postcode":"BS23 1AS","la":"North Somerset","era":"other","nn":12,"risk":24,"cat":"green"},{"name":"Nailsea  Social Club","lat":51.4309,"lon":-2.77359,"postcode":"BS48 2ED","la":"North Somerset","era":"mod","nn":76,"risk":24,"cat":"green"},{"name":"Nailsea & Backwell Rugby Club","lat":51.42918,"lon":-2.78012,"postcode":"BS48 4BT","la":"North Somerset","era":"other","nn":445,"risk":27,"cat":"green"},{"name":"Nailsea MicroPub","lat":51.43354,"lon":-2.75602,"postcode":"BS48 1AW","la":"North Somerset","era":"other","nn":38,"risk":24,"cat":"green"},{"name":"Nelsons Arms","lat":51.33368,"lon":-2.79773,"postcode":"BS25 5PW","la":"North Somerset","era":"trad","nn":280,"risk":30,"cat":"green"},{"name":"New Ancaster (The)","lat":51.33817,"lon":-2.96961,"postcode":"BS23 3NX","la":"North Somerset","era":"other","nn":285,"risk":26,"cat":"green"},{"name":"New Inn","lat":51.36603,"lon":-2.95541,"postcode":"BS22 9XL","la":"North Somerset","era":"trad","nn":445,"risk":47,"cat":"amber"},{"name":"Nightjar","lat":51.35384,"lon":-2.92867,"postcode":"BS22 8SX","la":"North Somerset","era":"other","nn":599,"risk":28,"cat":"green"},{"name":"Nut Tree (The)","lat":51.36312,"lon":-2.92406,"postcode":"BS22 6UN","la":"North Somerset","era":"other","nn":267,"risk":25,"cat":"green"},{"name":"Observatory (The)","lat":51.37208,"lon":-2.9134,"postcode":"BS22 7TA","la":"North Somerset","era":"other","nn":362,"risk":46,"cat":"amber"},{"name":"Old Colonial (The)","lat":51.35163,"lon":-2.98359,"postcode":"BS23 2AW","la":"North Somerset","era":"other","nn":175,"risk":25,"cat":"green"},{"name":"Old Farmhouse (The)","lat":51.42629,"lon":-2.74637,"postcode":"BS48 2PF","la":"North Somerset","era":"mod","nn":1027,"risk":53,"cat":"amber"},{"name":"Old Inn","lat":51.36912,"lon":-2.80981,"postcode":"BS49 5DH","la":"North Somerset","era":"trad","nn":135,"risk":29,"cat":"green"},{"name":"Old Inn (The)","lat":51.32458,"lon":-2.93476,"postcode":"BS24 9QQ","la":"North Somerset","era":"trad","nn":1821,"risk":59,"cat":"amber"},{"name":"Old Inn Clevedon (The)","lat":51.44063,"lon":-2.84192,"postcode":"BS21 6AE","la":"North Somerset","era":"trad","nn":574,"risk":28,"cat":"green"},{"name":"Old Kings Head","lat":51.36168,"lon":-2.92714,"postcode":"BS22 6QR","la":"North Somerset","era":"trad","nn":131,"risk":24,"cat":"green"},{"name":"Old Mill (The)","lat":51.48496,"lon":-2.7682,"postcode":"BS20 6AF","la":"North Somerset","era":"trad","nn":141,"risk":24,"cat":"green"},{"name":"Olea","lat":51.35024,"lon":-2.98019,"postcode":"BS23 1JN","la":"North Somerset","era":"other","nn":19,"risk":24,"cat":"green"},{"name":"Parish Pump (The)","lat":51.36275,"lon":-2.91128,"postcode":"BS22 6BT","la":"North Somerset","era":"other","nn":447,"risk":29,"cat":"green"},{"name":"Pavilion Bar","lat":51.35281,"lon":-2.98665,"postcode":"BS23 2DT","la":"North Somerset","era":"trad","nn":43,"risk":24,"cat":"green"},{"name":"Pavilion Beefeater (The)","lat":51.34507,"lon":-2.94928,"postcode":"BS22 8LY","la":"North Somerset","era":"trad","nn":721,"risk":34,"cat":"amber"},{"name":"Phoenix Bar","lat":51.48248,"lon":-2.76813,"postcode":"BS20 6AQ","la":"North Somerset","era":"other","nn":24,"risk":24,"cat":"green"},{"name":"Pill & District Memorial Club","lat":51.48011,"lon":-2.68951,"postcode":"BS20 0DH","la":"North Somerset","era":"other","nn":310,"risk":26,"cat":"green"},{"name":"Plough at Wrington (The)","lat":51.36243,"lon":-2.76275,"postcode":"BS40 5QA","la":"North Somerset","era":"trad","nn":67,"risk":44,"cat":"amber"},{"name":"Plough Inn (The)","lat":51.48264,"lon":-2.76836,"postcode":"BS20 6AG","la":"North Somerset","era":"trad","nn":24,"risk":24,"cat":"green"},{"name":"Plough Inn (The)","lat":51.36975,"lon":-2.80814,"postcode":"BS49 5JA","la":"North Somerset","era":"trad","nn":0,"risk":29,"cat":"green"},{"name":"Plume of Feathers","lat":51.33157,"lon":-2.73846,"postcode":"BS40 7AH","la":"North Somerset","era":"other","nn":1440,"risk":56,"cat":"amber"},{"name":"Poacher (The)","lat":51.48228,"lon":-2.76903,"postcode":"BS20 6AJ","la":"North Somerset","era":"other","nn":61,"risk":24,"cat":"green"},{"name":"Popworld & Zinc","lat":51.34727,"lon":-2.9798,"postcode":"BS23 1SY","la":"North Somerset","era":"other","nn":25,"risk":24,"cat":"green"},{"name":"Portbury Social Club","lat":51.47442,"lon":-2.72015,"postcode":"BS20 7TW","la":"North Somerset","era":"mod","nn":317,"risk":43,"cat":"amber"},{"name":"Portishead Cricket Club","lat":51.48956,"lon":-2.77169,"postcode":"BS20 7JA","la":"North Somerset","era":"trad","nn":523,"risk":27,"cat":"green"},{"name":"Portishead Working Mens Club","lat":51.48495,"lon":-2.77023,"postcode":"BS20 6BW","la":"North Somerset","era":"trad","nn":141,"risk":24,"cat":"green"},{"name":"Portishead Yacht/Sailing Club","lat":51.48571,"lon":-2.79321,"postcode":"BS20 8DR","la":"North Somerset","era":"trad","nn":847,"risk":49,"cat":"amber"},{"name":"Prince of Waterloo","lat":51.38332,"lon":-2.66227,"postcode":"BS40 8AR","la":"North Somerset","era":"trad","nn":2240,"risk":62,"cat":"red"},{"name":"Priory Hotel","lat":51.47463,"lon":-2.72471,"postcode":"BS20 7TN","la":"North Somerset","era":"other","nn":165,"risk":42,"cat":"amber"},{"name":"Proud Bar & Community Hub","lat":51.3501,"lon":-2.97582,"postcode":"BS23 1NA","la":"North Somerset","era":"mod","nn":59,"risk":24,"cat":"green"},{"name":"Queens Arms","lat":51.30882,"lon":-2.94779,"postcode":"BS24 0NF","la":"North Somerset","era":"trad","nn":718,"risk":49,"cat":"amber"},{"name":"RAFA","lat":51.34744,"lon":-2.97569,"postcode":"BS23 1QX","la":"North Somerset","era":"other","nn":0,"risk":24,"cat":"green"},{"name":"Railway Inn","lat":51.39157,"lon":-2.82695,"postcode":"BS49 4AJ","la":"North Somerset","era":"trad","nn":83,"risk":44,"cat":"amber"},{"name":"Railway Inn","lat":51.3327,"lon":-2.83459,"postcode":"BS25 5RA","la":"North Somerset","era":"trad","nn":1910,"risk":59,"cat":"amber"},{"name":"Red Admiral (The)","lat":51.34715,"lon":-2.97455,"postcode":"BS23 1QZ","la":"North Somerset","era":"other","nn":85,"risk":24,"cat":"green"},{"name":"Regency (The)","lat":51.35136,"lon":-2.98088,"postcode":"BS23 2AG","la":"North Somerset","era":"other","nn":53,"risk":24,"cat":"green"},{"name":"Ring Of Bells","lat":51.42399,"lon":-2.77214,"postcode":"BS48 4NQ","la":"North Somerset","era":"other","nn":186,"risk":25,"cat":"green"},{"name":"Rising Sun (The)","lat":51.40929,"lon":-2.74729,"postcode":"BS48 3BH","la":"North Somerset","era":"other","nn":1751,"risk":58,"cat":"amber"},{"name":"Route 69","lat":51.35092,"lon":-2.97957,"postcode":"BS23 1HN","la":"North Somerset","era":"other","nn":16,"risk":24,"cat":"green"},{"name":"Royal Inn","lat":51.49398,"lon":-2.75721,"postcode":"BS20 7HG","la":"North Somerset","era":"trad","nn":725,"risk":49,"cat":"amber"},{"name":"Royal Oak","lat":51.43452,"lon":-2.75466,"postcode":"BS48 1AS","la":"North Somerset","era":"trad","nn":144,"risk":25,"cat":"green"},{"name":"Royal Oak","lat":51.44124,"lon":-2.86047,"postcode":"BS21 7QN","la":"North Somerset","era":"trad","nn":33,"risk":24,"cat":"green"},{"name":"Rudgleigh Inn","lat":51.47334,"lon":-2.69675,"postcode":"BS20 0QD","la":"North Somerset","era":"trad","nn":338,"risk":31,"cat":"amber"},{"name":"Salthouse Inn (The)","lat":51.43453,"lon":-2.86994,"postcode":"BS21 7TY","la":"North Somerset","era":"other","nn":333,"risk":26,"cat":"green"},{"name":"Sass Cafe & Bar","lat":51.35029,"lon":-2.98045,"postcode":"BS23 1JN","la":"North Somerset","era":"other","nn":19,"risk":24,"cat":"green"},{"name":"Sawyers Arms","lat":51.43769,"lon":-2.74895,"postcode":"BS48 1BT","la":"North Somerset","era":"trad","nn":308,"risk":26,"cat":"green"},{"name":"Ship (The)","lat":51.47395,"lon":-2.8066,"postcode":"BS20 8JT","la":"North Somerset","era":"trad","nn":1604,"risk":57,"cat":"amber"},{"name":"Ship (The)","lat":51.3212,"lon":-2.98041,"postcode":"BS23 4TN","la":"North Somerset","era":"trad","nn":0,"risk":44,"cat":"amber"},{"name":"Skinny's Bar","lat":51.34677,"lon":-2.98014,"postcode":"BS23 1SX","la":"North Somerset","era":"trad","nn":60,"risk":24,"cat":"green"},{"name":"St Andrews Bowls Club","lat":51.33178,"lon":-2.9613,"postcode":"BS23 3UY","la":"North Somerset","era":"other","nn":706,"risk":31,"cat":"amber"},{"name":"Stable Games Room (The)","lat":51.35083,"lon":-2.97939,"postcode":"BS23 1HN","la":"North Somerset","era":"other","nn":16,"risk":24,"cat":"green"},{"name":"Stag and Hounds","lat":51.33743,"lon":-2.78962,"postcode":"BS25 5NJ","la":"North Somerset","era":"trad","nn":69,"risk":29,"cat":"green"},{"name":"Stage Door (The)","lat":51.35084,"lon":-2.97914,"postcode":"BS23 1HP","la":"North Somerset","era":"trad","nn":14,"risk":24,"cat":"green"},{"name":"Star Inn (The)","lat":51.47994,"lon":-2.68504,"postcode":"BS20 0AQ","la":"North Somerset","era":"trad","nn":155,"risk":25,"cat":"green"},{"name":"Summerhouse (The)","lat":51.35873,"lon":-2.91123,"postcode":"BS22 6WE","la":"North Somerset","era":"mod","nn":440,"risk":27,"cat":"green"},{"name":"Super Mare (The)","lat":51.35625,"lon":-2.90628,"postcode":"BS24 7JP","la":"North Somerset","era":"other","nn":374,"risk":29,"cat":"green"},{"name":"Tavern in the Town","lat":51.34748,"lon":-2.97741,"postcode":"BS23 1SP","la":"North Somerset","era":"other","nn":73,"risk":24,"cat":"green"},{"name":"Terrace Bar","lat":51.35418,"lon":-2.99189,"postcode":"BS23 2EE","la":"North Somerset","era":"other","nn":45,"risk":24,"cat":"green"},{"name":"The Market Inn","lat":51.39229,"lon":-2.82721,"postcode":"BS49 4AL","la":"North Somerset","era":"trad","nn":83,"risk":44,"cat":"amber"},{"name":"The New Inn","lat":51.32778,"lon":-2.71202,"postcode":"BS40 7SB","la":"North Somerset","era":"trad","nn":382,"risk":44,"cat":"amber"},{"name":"The Regent (was Yates)","lat":51.34748,"lon":-2.98011,"postcode":"BS23 1SQ","la":"North Somerset","era":"other","nn":0,"risk":24,"cat":"green"},{"name":"The Seymour Arms","lat":51.32671,"lon":-2.71724,"postcode":"BS40 7TH","la":"North Somerset","era":"trad","nn":255,"risk":43,"cat":"amber"},{"name":"Tom Micks No 6 Bar & Lounge","lat":51.47874,"lon":-2.76807,"postcode":"BS20 6PY","la":"North Somerset","era":"mod","nn":231,"risk":25,"cat":"green"},{"name":"Vaults (The)","lat":51.3503,"lon":-2.9812,"postcode":"BS23 1JP","la":"North Somerset","era":"other","nn":52,"risk":24,"cat":"green"},{"name":"Victoria Bowling Club","lat":51.35111,"lon":-2.97315,"postcode":"BS23 2QY","la":"North Somerset","era":"trad","nn":153,"risk":25,"cat":"green"},{"name":"Vinnies","lat":51.35066,"lon":-2.9805,"postcode":"BS23 1JU","la":"North Somerset","era":"trad","nn":41,"risk":24,"cat":"green"},{"name":"Vintage & Vine","lat":51.44343,"lon":-2.85852,"postcode":"BS21 7PH","la":"North Somerset","era":"other","nn":166,"risk":25,"cat":"green"},{"name":"Waggon & Horses","lat":51.43684,"lon":-2.85011,"postcode":"BS21 6BY","la":"North Somerset","era":"trad","nn":146,"risk":25,"cat":"green"},{"name":"Waverley (The)","lat":51.33844,"lon":-2.97506,"postcode":"BS23 1DR","la":"North Somerset","era":"other","nn":295,"risk":26,"cat":"green"},{"name":"Weston Aerobic Gymnastics Club","lat":51.3437,"lon":-2.96138,"postcode":"BS23 3PQ","la":"North Somerset","era":"other","nn":628,"risk":28,"cat":"green"},{"name":"Weston Constitutional Club","lat":51.35055,"lon":-2.9769,"postcode":"BS23 1LT","la":"North Somerset","era":"other","nn":90,"risk":24,"cat":"green"},{"name":"Weston super Mare Golf Club","lat":51.33329,"lon":-2.98394,"postcode":"BS23 4NQ","la":"North Somerset","era":"other","nn":606,"risk":30,"cat":"green"},{"name":"Weston-super-Mare Cricket Club","lat":51.33002,"lon":-2.97383,"postcode":"BS23 4NY","la":"North Somerset","era":"other","nn":667,"risk":28,"cat":"green"},{"name":"Weston-super-Mare Social Club","lat":51.33569,"lon":-2.97066,"postcode":"BS23 4LG","la":"North Somerset","era":"mod","nn":285,"risk":26,"cat":"green"},{"name":"White Hart","lat":51.36879,"lon":-2.79138,"postcode":"BS49 5AR","la":"North Somerset","era":"trad","nn":1168,"risk":54,"cat":"amber"},{"name":"White Hart","lat":51.34964,"lon":-2.97626,"postcode":"BS23 1RY","la":"North Somerset","era":"trad","nn":59,"risk":24,"cat":"green"},{"name":"White Lion (The)","lat":51.43237,"lon":-2.77308,"postcode":"BS48 2AQ","la":"North Somerset","era":"trad","nn":167,"risk":25,"cat":"green"},{"name":"Windmill Inn","lat":51.4856,"lon":-2.78098,"postcode":"BS20 6JZ","la":"North Somerset","era":"trad","nn":748,"risk":29,"cat":"green"},{"name":"Windsor Castle","lat":51.35734,"lon":-2.94716,"postcode":"BS22 8DP","la":"North Somerset","era":"other","nn":450,"risk":29,"cat":"green"},{"name":"Winscombe Bowling Club","lat":51.31529,"lon":-2.83355,"postcode":"BS25 1HD","la":"North Somerset","era":"other","nn":28,"risk":29,"cat":"green"},{"name":"Winscombe Rugby Club","lat":51.30925,"lon":-2.82977,"postcode":"BS25 1AN","la":"North Somerset","era":"other","nn":673,"risk":33,"cat":"amber"},{"name":"Winscombe Social Club","lat":51.31554,"lon":-2.83344,"postcode":"BS25 1HD","la":"North Somerset","era":"mod","nn":28,"risk":29,"cat":"green"},{"name":"Woodborough Inn","lat":51.31491,"lon":-2.83319,"postcode":"BS25 1HD","la":"North Somerset","era":"trad","nn":49,"risk":29,"cat":"green"},{"name":"Woolpack Inn (The)","lat":51.36006,"lon":-2.90175,"postcode":"BS22 7XE","la":"North Somerset","era":"trad","nn":528,"risk":30,"cat":"green"},{"name":"Working Mens Club and Institute","lat":51.34774,"lon":-2.97565,"postcode":"BS23 1RQ","la":"North Somerset","era":"trad","nn":34,"risk":24,"cat":"green"},{"name":"Worle Football Club","lat":51.35833,"lon":-2.92387,"postcode":"BS22 6AN","la":"North Somerset","era":"other","nn":339,"risk":26,"cat":"green"},{"name":"Worlebury Golf Club","lat":51.36254,"lon":-2.95228,"postcode":"BS22 9SX","la":"North Somerset","era":"other","nn":445,"risk":44,"cat":"amber"},{"name":"Bath Arms","lat":51.27545,"lon":-2.77743,"postcode":"BS27 3AA","la":"Somerset","era":"trad","nn":495,"risk":19,"cat":"green"},{"name":"Castle of Comfort Inn","lat":51.27303,"lon":-2.65466,"postcode":"BS40 6DD","la":"Somerset","era":"trad","nn":2847,"risk":58,"cat":"amber"},{"name":"Cheddar AFC and Social Club","lat":51.27149,"lon":-2.77419,"postcode":"BS27 3RF","la":"Somerset","era":"mod","nn":495,"risk":36,"cat":"amber"},{"name":"Cheddar Woods Resort & Spa","lat":51.28674,"lon":-2.79333,"postcode":"BS27 3DB","la":"Somerset","era":"other","nn":1060,"risk":45,"cat":"amber"},{"name":"Lamb Inn","lat":51.28754,"lon":-2.81734,"postcode":"BS26 2AP","la":"Somerset","era":"trad","nn":1313,"risk":47,"cat":"amber"},{"name":"New Inn","lat":51.22639,"lon":-2.80677,"postcode":"BS28 4DU","la":"Somerset","era":"trad","nn":243,"risk":37,"cat":"amber"},{"name":"New Inn","lat":51.28943,"lon":-2.83597,"postcode":"BS26 2EE","la":"Somerset","era":"trad","nn":1313,"risk":47,"cat":"amber"},{"name":"Riverside Inn","lat":51.27954,"lon":-2.77355,"postcode":"BS27 3PX","la":"Somerset","era":"trad","nn":231,"risk":17,"cat":"green"},{"name":"Strawberry Special Inn","lat":51.25267,"lon":-2.75396,"postcode":"BS27 3TQ","la":"Somerset","era":"trad","nn":2522,"risk":56,"cat":"amber"},{"name":"Swan Inn","lat":51.32057,"lon":-2.78982,"postcode":"BS25 1QL","la":"Somerset","era":"trad","nn":1237,"risk":47,"cat":"amber"},{"name":"The Gardeners Arms","lat":51.28208,"lon":-2.77687,"postcode":"BS27 3LE","la":"Somerset","era":"trad","nn":213,"risk":19,"cat":"green"},{"name":"The Kings Head","lat":51.28219,"lon":-2.77993,"postcode":"BS27 3LE","la":"Somerset","era":"trad","nn":213,"risk":19,"cat":"green"},{"name":"The Lamb Inn","lat":51.27988,"lon":-2.85118,"postcode":"BS26 2JF","la":"Somerset","era":"trad","nn":1499,"risk":48,"cat":"amber"},{"name":"The Post & Wicket @ The Sports Pavillion","lat":51.22416,"lon":-2.8208,"postcode":"BS28 4BS","la":"Somerset","era":"trad","nn":880,"risk":42,"cat":"amber"},{"name":"The Star Inn","lat":51.32167,"lon":-2.80753,"postcode":"BS25 1QE","la":"Somerset","era":"trad","nn":1237,"risk":47,"cat":"amber"},{"name":"Wedmore Masonic Club","lat":51.22774,"lon":-2.80952,"postcode":"BS28 4AB","la":"Somerset","era":"trad","nn":243,"risk":35,"cat":"amber"},{"name":"Wellington Arms","lat":51.26673,"lon":-2.90727,"postcode":"BS26 2TE","la":"Somerset","era":"trad","nn":4033,"risk":66,"cat":"red"},{"name":"White Hart","lat":51.28146,"lon":-2.77225,"postcode":"BS27 3QN","la":"Somerset","era":"trad","nn":231,"risk":20,"cat":"green"},{"name":"501Bar","lat":51.48096,"lon":-2.50665,"postcode":"BS16 5NX","la":"South Gloucestershire","era":"other","nn":184,"risk":27,"cat":"green"},{"name":"501BAR","lat":51.46325,"lon":-2.50975,"postcode":"BS15 1RS","la":"South Gloucestershire","era":"other","nn":223,"risk":28,"cat":"green"},{"name":"Aek-Boco Football Club","lat":51.44825,"lon":-2.50556,"postcode":"BS15 3RX","la":"South Gloucestershire","era":"other","nn":313,"risk":28,"cat":"green"},{"name":"Air Balloon","lat":51.5091,"lon":-2.57619,"postcode":"BS34 7PY","la":"South Gloucestershire","era":"other","nn":197,"risk":33,"cat":"amber"},{"name":"Anchor Inn","lat":51.62966,"lon":-2.5661,"postcode":"BS35 1QA","la":"South Gloucestershire","era":"trad","nn":2838,"risk":69,"cat":"red"},{"name":"Bailey's Court Inn","lat":51.52524,"lon":-2.54017,"postcode":"BS32 8BH","la":"South Gloucestershire","era":"trad","nn":816,"risk":52,"cat":"amber"},{"name":"Beaufort Arms","lat":51.5161,"lon":-2.54555,"postcode":"BS34 8PB","la":"South Gloucestershire","era":"trad","nn":1082,"risk":56,"cat":"amber"},{"name":"Bitton A.F.C Sports & Social","lat":51.43029,"lon":-2.46899,"postcode":"BS30 6HX","la":"South Gloucestershire","era":"mod","nn":930,"risk":53,"cat":"amber"},{"name":"Blue Bowl Inn","lat":51.44627,"lon":-2.50876,"postcode":"BS15 3HJ","la":"South Gloucestershire","era":"trad","nn":313,"risk":28,"cat":"green"},{"name":"Cadbury Heath Football Club","lat":51.45089,"lon":-2.48118,"postcode":"BS30 8BX","la":"South Gloucestershire","era":"other","nn":0,"risk":29,"cat":"green"},{"name":"Cadbury Heath Sports & Social Club","lat":51.45089,"lon":-2.48118,"postcode":"BS30 8BX","la":"South Gloucestershire","era":"mod","nn":0,"risk":29,"cat":"green"},{"name":"Chipping Sodbury Rugby Club","lat":51.53851,"lon":-2.39411,"postcode":"BS37 6BQ","la":"South Gloucestershire","era":"other","nn":88,"risk":27,"cat":"green"},{"name":"Chipping Sodbury Town Football Club","lat":51.54214,"lon":-2.39434,"postcode":"BS37 6PQ","la":"South Gloucestershire","era":"other","nn":403,"risk":29,"cat":"green"},{"name":"Cleeve Hill Lawn Tennis Club","lat":51.49172,"lon":-2.50837,"postcode":"BS16 6EU","la":"South Gloucestershire","era":"other","nn":535,"risk":32,"cat":"amber"},{"name":"Cleve Rugby Club","lat":51.48311,"lon":-2.48379,"postcode":"BS16 9EN","la":"South Gloucestershire","era":"other","nn":0,"risk":29,"cat":"green"},