[{"name":"Admiral Benbow","lat":50.11732,"lon":-5.53462,"postcode":"TR18 4AF","la":"Cornwall","era":"other","nn":11,"risk":16,"cat":"green"},{"name":"Alexandra Inn","lat":50.11404,"lon":-5.54392,"postcode":"TR18 4LY","la":"Cornwall","era":"trad","nn":501,"risk":20,"cat":"green"},{"name":"Angarrack Inn","lat":50.19504,"lon":-5.38515,"postcode":"TR27 5JB","la":"Cornwall","era":"trad","nn":836,"risk":42,"cat":"amber"},{"name":"Balcony Bar & Kitchen","lat":50.21508,"lon":-5.47924,"postcode":"TR26 1LP","la":"Cornwall","era":"mod","nn":0,"risk":16,"cat":"green"},{"name":"Barnes Kitchen And Bar","lat":50.18941,"lon":-5.44071,"postcode":"TR26 3DZ","la":"Cornwall","era":"mod","nn":617,"risk":41,"cat":"amber"},{"name":"Barouche","lat":50.41339,"lon":-5.08616,"postcode":"TR7 1EP","la":"Cornwall","era":"other","nn":15,"risk":16,"cat":"green"},{"name":"Beefeater Carnon Inn","lat":50.22631,"lon":-5.08322,"postcode":"TR3 6JZ","la":"Cornwall","era":"trad","nn":537,"risk":40,"cat":"amber"},{"name":"Beerwolf Books","lat":50.15568,"lon":-5.07015,"postcode":"TR11 3AZ","la":"Cornwall","era":"other","nn":17,"risk":17,"cat":"green"},{"name":"Belushis","lat":50.41529,"lon":-5.08677,"postcode":"TR7 1HD","la":"Cornwall","era":"other","nn":66,"risk":17,"cat":"green"},{"name":"Bickford Smith Bowling Club","lat":50.2215,"lon":-5.28388,"postcode":"TR14 8RF","la":"Cornwall","era":"other","nn":437,"risk":39,"cat":"amber"},{"name":"Bird In Hand","lat":50.17786,"lon":-5.42493,"postcode":"TR27 4HY","la":"Cornwall","era":"other","nn":746,"risk":42,"cat":"amber"},{"name":"Blue Anchor Inn","lat":50.38406,"lon":-4.93948,"postcode":"TR9 6LS","la":"Cornwall","era":"trad","nn":735,"risk":42,"cat":"amber"},{"name":"Bowgie Inn","lat":50.4031,"lon":-5.1301,"postcode":"TR8 5SE","la":"Cornwall","era":"trad","nn":1464,"risk":49,"cat":"amber"},{"name":"Cafe Soul","lat":50.21237,"lon":-5.30002,"postcode":"TR14 8ET","la":"Cornwall","era":"other","nn":122,"risk":17,"cat":"green"},{"name":"Calloose Caravan Park","lat":50.16555,"lon":-5.36543,"postcode":"TR27 5ET","la":"Cornwall","era":"other","nn":841,"risk":42,"cat":"amber"},{"name":"Camborne R.F.C.","lat":50.21355,"lon":-5.30975,"postcode":"TR14 7PJ","la":"Cornwall","era":"other","nn":518,"risk":23,"cat":"green"},{"name":"Cape Cornwall Club","lat":50.12649,"lon":-5.6998,"postcode":"TR19 7NL","la":"Cornwall","era":"other","nn":1449,"risk":49,"cat":"amber"},{"name":"Carnon Downs Bowling Club","lat":50.22258,"lon":-5.08802,"postcode":"TR3 6HX","la":"Cornwall","era":"other","nn":537,"risk":40,"cat":"amber"},{"name":"Central Inn","lat":50.41373,"lon":-5.08683,"postcode":"TR7 1EU","la":"Cornwall","era":"trad","nn":0,"risk":16,"cat":"green"},{"name":"Chain Locker","lat":50.15279,"lon":-5.06614,"postcode":"TR11 3HH","la":"Cornwall","era":"other","nn":69,"risk":17,"cat":"green"},{"name":"Chiverton Arms","lat":50.27937,"lon":-5.16573,"postcode":"TR4 8HS","la":"Cornwall","era":"trad","nn":1506,"risk":49,"cat":"amber"},{"name":"City Inn","lat":50.26651,"lon":-5.05675,"postcode":"TR1 3SP","la":"Cornwall","era":"trad","nn":308,"risk":19,"cat":"green"},{"name":"Coach And Horses (Rosudgeon)","lat":50.11311,"lon":-5.40011,"postcode":"TR20 9AW","la":"Cornwall","era":"trad","nn":1125,"risk":47,"cat":"amber"},{"name":"Coinage Hall - Wetherspoons","lat":50.10098,"lon":-5.27571,"postcode":"TR13 8ER","la":"Cornwall","era":"other","nn":74,"risk":17,"cat":"green"},{"name":"Constantine Recreation And Social Club","lat":50.12021,"lon":-5.17768,"postcode":"TR11 5AG","la":"Cornwall","era":"mod","nn":388,"risk":39,"cat":"amber"},{"name":"Cornish Choughs","lat":50.21634,"lon":-5.31558,"postcode":"TR14 7NW","la":"Cornwall","era":"other","nn":518,"risk":40,"cat":"amber"},{"name":"County Arms","lat":50.26125,"lon":-5.07518,"postcode":"TR1 3PY","la":"Cornwall","era":"trad","nn":778,"risk":39,"cat":"amber"},{"name":"Dolphin Inn","lat":50.29878,"lon":-4.90032,"postcode":"TR2 4RR","la":"Cornwall","era":"trad","nn":2966,"risk":60,"cat":"amber"},{"name":"Dolphin Tavern","lat":50.11607,"lon":-5.5317,"postcode":"TR18 4BD","la":"Cornwall","era":"other","nn":0,"risk":16,"cat":"green"},{"name":"Ellenglaze Bar And Grill","lat":50.38459,"lon":-5.13943,"postcode":"TR8 5PR","la":"Cornwall","era":"mod","nn":256,"risk":38,"cat":"amber"},{"name":"Engine Inn","lat":50.18636,"lon":-5.50033,"postcode":"TR20 8NF","la":"Cornwall","era":"trad","nn":805,"risk":42,"cat":"amber"},{"name":"Falmouth Arms - TPA Leisure","lat":50.32058,"lon":-4.96213,"postcode":"TR2 4PG","la":"Cornwall","era":"trad","nn":2293,"risk":55,"cat":"amber"},{"name":"Falmouth Rugby Club","lat":50.15347,"lon":-5.08184,"postcode":"TR11 2EQ","la":"Cornwall","era":"other","nn":651,"risk":21,"cat":"green"},{"name":"Famous Barrel","lat":50.16632,"lon":-5.10112,"postcode":"TR10 8JP","la":"Cornwall","era":"other","nn":503,"risk":37,"cat":"amber"},{"name":"Farmers Arms","lat":50.42104,"lon":-5.04292,"postcode":"TR7 3EZ","la":"Cornwall","era":"trad","nn":247,"risk":23,"cat":"green"},{"name":"Ferryboat Inn","lat":50.10046,"lon":-5.12892,"postcode":"TR11 5LB","la":"Cornwall","era":"trad","nn":1001,"risk":46,"cat":"amber"},{"name":"First And Last Inn","lat":50.07249,"lon":-5.69503,"postcode":"TR19 7AD","la":"Cornwall","era":"trad","nn":647,"risk":41,"cat":"amber"},{"name":"Godolphin Arms","lat":50.41817,"lon":-5.05838,"postcode":"TR7 3BL","la":"Cornwall","era":"trad","nn":865,"risk":40,"cat":"amber"},{"name":"Grade Ruan Recreation Ground (The Pavilion)","lat":49.99301,"lon":-5.18198,"postcode":"TR12 7JL","la":"Cornwall","era":"trad","nn":632,"risk":41,"cat":"amber"},{"name":"Grampound Road Cricket Club","lat":50.31741,"lon":-4.93022,"postcode":"TR2 4DU","la":"Cornwall","era":"trad","nn":2293,"risk":55,"cat":"amber"},{"name":"Griffin Inn","lat":50.41479,"lon":-5.0774,"postcode":"TR7 1SP","la":"Cornwall","era":"trad","nn":49,"risk":17,"cat":"green"},{"name":"Gurnards Head Hotel","lat":50.18424,"lon":-5.59393,"postcode":"TR26 3DE","la":"Cornwall","era":"trad","nn":2048,"risk":53,"cat":"amber"},{"name":"Halsetown Inn","lat":50.19636,"lon":-5.49523,"postcode":"TR26 3NA","la":"Cornwall","era":"trad","nn":1170,"risk":47,"cat":"amber"},{"name":"Halzephron Inn","lat":50.05504,"lon":-5.27453,"postcode":"TR12 7QB","la":"Cornwall","era":"trad","nn":3834,"risk":66,"cat":"red"},{"name":"Harbour Inn","lat":50.08464,"lon":-5.31591,"postcode":"TR13 9JB","la":"Cornwall","era":"trad","nn":161,"risk":23,"cat":"green"},{"name":"Harbour Pool & Billiards Club","lat":50.21356,"lon":-5.48,"postcode":"TR26 1LF","la":"Cornwall","era":"other","nn":0,"risk":16,"cat":"green"},{"name":"Hawkins Arms","lat":50.29247,"lon":-4.95297,"postcode":"TR2 4JL","la":"Cornwall","era":"trad","nn":3193,"risk":61,"cat":"red"},{"name":"Hawkins Arms","lat":50.32685,"lon":-5.07555,"postcode":"TR4 9HU","la":"Cornwall","era":"trad","nn":2994,"risk":60,"cat":"amber"},{"name":"Hayle Rugby Club","lat":50.19449,"lon":-5.39687,"postcode":"TR27 5HX","la":"Cornwall","era":"other","nn":836,"risk":40,"cat":"amber"},{"name":"Heaven 'N' Earth","lat":50.16489,"lon":-5.43135,"postcode":"TR27 6HP","la":"Cornwall","era":"other","nn":1364,"risk":48,"cat":"amber"},{"name":"Helston Football Club","lat":50.10403,"lon":-5.26698,"postcode":"TR13 8PJ","la":"Cornwall","era":"other","nn":524,"risk":20,"cat":"green"},{"name":"Hendra Holiday Park","lat":50.40113,"lon":-5.04871,"postcode":"TR8 4NY","la":"Cornwall","era":"other","nn":1286,"risk":48,"cat":"amber"},{"name":"Inn And Still","lat":50.10037,"lon":-5.27614,"postcode":"TR13 8EQ","la":"Cornwall","era":"trad","nn":74,"risk":17,"cat":"green"},{"name":"Jackson's Wine Bar","lat":50.4123,"lon":-5.04399,"postcode":"TR8 4UX","la":"Cornwall","era":"other","nn":976,"risk":43,"cat":"amber"},{"name":"Jacobs Ladder Inn","lat":50.15486,"lon":-5.07082,"postcode":"TR11 3BQ","la":"Cornwall","era":"trad","nn":93,"risk":17,"cat":"green"},{"name":"John Francis Basset","lat":50.21327,"lon":-5.301,"postcode":"TR14 8JZ","la":"Cornwall","era":"other","nn":103,"risk":17,"cat":"green"},{"name":"Kernow Wine","lat":50.15468,"lon":-5.07266,"postcode":"TR11 3PN","la":"Cornwall","era":"other","nn":34,"risk":17,"cat":"green"},{"name":"King William IV","lat":50.13281,"lon":-5.56455,"postcode":"TR20 8SS","la":"Cornwall","era":"trad","nn":980,"risk":43,"cat":"amber"},{"name":"Kings Arms","lat":50.12456,"lon":-5.6797,"postcode":"TR19 7HF","la":"Cornwall","era":"trad","nn":48,"risk":34,"cat":"amber"},{"name":"Kings Arms Hotel","lat":50.26843,"lon":-4.91169,"postcode":"TR2 5RW","la":"Cornwall","era":"trad","nn":268,"risk":38,"cat":"amber"},{"name":"Kings Head","lat":50.24108,"lon":-4.95349,"postcode":"TR2 5NX","la":"Cornwall","era":"trad","nn":3307,"risk":62,"cat":"red"},{"name":"Lamp And Whistle","lat":50.1216,"lon":-5.53393,"postcode":"TR18 2EZ","la":"Cornwall","era":"other","nn":17,"risk":17,"cat":"green"},{"name":"Lanherne Inn","lat":50.41522,"lon":-5.06968,"postcode":"TR7 2PZ","la":"Cornwall","era":"trad","nn":540,"risk":20,"cat":"green"},{"name":"Lillos Kitchen","lat":50.26438,"lon":-5.05,"postcode":"TR1 2AQ","la":"Cornwall","era":"mod","nn":100,"risk":17,"cat":"green"},{"name":"Lion And Lamb","lat":50.1083,"lon":-5.35201,"postcode":"TR13 9RW","la":"Cornwall","era":"trad","nn":1410,"risk":49,"cat":"amber"},{"name":"Lizard Point Holiday Park","lat":50.02159,"lon":-5.20424,"postcode":"TR12 7LJ","la":"Cornwall","era":"other","nn":2823,"risk":59,"cat":"amber"},{"name":"London Inn","lat":50.36772,"lon":-4.96949,"postcode":"TR8 5EA","la":"Cornwall","era":"trad","nn":2098,"risk":54,"cat":"amber"},{"name":"Lugger Inn","lat":50.11448,"lon":-5.53693,"postcode":"TR18 4DL","la":"Cornwall","era":"trad","nn":99,"risk":17,"cat":"green"},{"name":"Mangos Bar","lat":50.15474,"lon":-5.06872,"postcode":"TR11 3DN","la":"Cornwall","era":"other","nn":41,"risk":17,"cat":"green"},{"name":"Mawnan Community Association","lat":50.11482,"lon":-5.10668,"postcode":"TR11 5JD","la":"Cornwall","era":"other","nn":314,"risk":39,"cat":"amber"},{"name":"Mermaid Inn","lat":50.42588,"lon":-5.05351,"postcode":"TR7 3NB","la":"Cornwall","era":"trad","nn":888,"risk":28,"cat":"green"},{"name":"Merrymoor Inn","lat":50.46472,"lon":-5.03148,"postcode":"TR8 4BA","la":"Cornwall","era":"trad","nn":84,"risk":37,"cat":"amber"},{"name":"Miners Arms","lat":50.31219,"lon":-5.16963,"postcode":"TR5 0QF","la":"Cornwall","era":"trad","nn":2076,"risk":53,"cat":"amber"},{"name":"Miners Arms","lat":50.23712,"lon":-5.23319,"postcode":"TR15 1JB","la":"Cornwall","era":"trad","nn":590,"risk":41,"cat":"amber"},{"name":"Monkey Tree Holiday Park - Cafe And Bar","lat":50.35234,"lon":-5.09202,"postcode":"TR8 5QR","la":"Cornwall","era":"trad","nn":409,"risk":39,"cat":"amber"},{"name":"Mount Ambrose Cricket Club","lat":50.2449,"lon":-5.20895,"postcode":"TR15 1RL","la":"Cornwall","era":"trad","nn":912,"risk":40,"cat":"amber"},{"name":"Mount View Hotel","lat":50.12967,"lon":-5.50011,"postcode":"TR20 8JJ","la":"Cornwall","era":"other","nn":1577,"risk":50,"cat":"amber"},{"name":"Mounts Bay Inn","lat":50.02725,"lon":-5.24276,"postcode":"TR12 7HN","la":"Cornwall","era":"trad","nn":0,"risk":34,"cat":"amber"},{"name":"Mounts Bay Sailing Club","lat":50.12341,"lon":-5.47447,"postcode":"TR17 0EN","la":"Cornwall","era":"other","nn":4,"risk":34,"cat":"amber"},{"name":"Muddle Wine Bar","lat":50.46499,"lon":-5.03037,"postcode":"TR8 4BA","la":"Cornwall","era":"other","nn":84,"risk":37,"cat":"amber"},{"name":"Mullion Football And Social Club","lat":50.0231,"lon":-5.24882,"postcode":"TR12 7EQ","la":"Cornwall","era":"other","nn":633,"risk":38,"cat":"amber"},{"name":"Mylor Yacht Club","lat":50.17703,"lon":-5.05199,"postcode":"TR11 5UF","la":"Cornwall","era":"other","nn":0,"risk":36,"cat":"amber"},{"name":"New Inn","lat":50.21872,"lon":-4.92285,"postcode":"TR2 5QA","la":"Cornwall","era":"trad","nn":2061,"risk":53,"cat":"amber"},{"name":"New Inn","lat":50.2365,"lon":-5.26943,"postcode":"TR15 3UF","la":"Cornwall","era":"trad","nn":1013,"risk":46,"cat":"amber"},{"name":"North Inn","lat":50.15147,"lon":-5.66578,"postcode":"TR19 7DN","la":"Cornwall","era":"trad","nn":800,"risk":42,"cat":"amber"},{"name":"Oddfellows Arms","lat":50.15208,"lon":-5.06713,"postcode":"TR11 3HA","la":"Cornwall","era":"trad","nn":105,"risk":17,"cat":"green"},{"name":"Old Albion Inn","lat":50.40243,"lon":-5.10947,"postcode":"TR8 5RB","la":"Cornwall","era":"trad","nn":1464,"risk":49,"cat":"amber"},{"name":"Old Ale House","lat":50.26306,"lon":-5.04869,"postcode":"TR1 2HD","la":"Cornwall","era":"other","nn":93,"risk":17,"cat":"green"},{"name":"Old Forge Bar","lat":50.13845,"lon":-5.52589,"postcode":"TR20 8YN","la":"Cornwall","era":"trad","nn":749,"risk":42,"cat":"amber"},{"name":"On The Boards","lat":50.26227,"lon":-5.05505,"postcode":"TR1 2SF","la":"Cornwall","era":"other","nn":100,"risk":17,"cat":"green"},{"name":"Packet Station","lat":50.15501,"lon":-5.07302,"postcode":"TR11 3QA","la":"Cornwall","era":"other","nn":0,"risk":16,"cat":"green"},{"name":"Pandora Inn","lat":50.19495,"lon":-5.06604,"postcode":"TR11 5ST","la":"Cornwall","era":"trad","nn":1312,"risk":48,"cat":"amber"},{"name":"Penhale Round Cookhouse And Pub","lat":50.37861,"lon":-4.94533,"postcode":"TR9 6NA","la":"Cornwall","era":"mod","nn":735,"risk":42,"cat":"amber"},{"name":"Pennycomequick","lat":50.15472,"lon":-5.07219,"postcode":"TR11 3PN","la":"Cornwall","era":"other","nn":34,"risk":17,"cat":"green"},{"name":"Perran Quay Touring Park","lat":50.35586,"lon":-5.09365,"postcode":"TR8 5QP","la":"Cornwall","era":"other","nn":409,"risk":39,"cat":"amber"},{"name":"Perranporth Inn","lat":50.34532,"lon":-5.15245,"postcode":"TR6 0BJ","la":"Cornwall","era":"trad","nn":203,"risk":23,"cat":"green"},{"name":"Plume Of Feathers","lat":50.17941,"lon":-4.97571,"postcode":"TR2 5HW","la":"Cornwall","era":"other","nn":407,"risk":39,"cat":"amber"},{"name":"Plume Of Feathers","lat":50.35138,"lon":-5.0111,"postcode":"TR8 5AX","la":"Cornwall","era":"other","nn":3466,"risk":63,"cat":"red"},{"name":"Plume Of Feathers","lat":50.25522,"lon":-5.19626,"postcode":"TR16 5BN","la":"Cornwall","era":"other","nn":263,"risk":38,"cat":"amber"},{"name":"Plume Of Feathers Ltd","lat":50.22739,"lon":-5.26965,"postcode":"TR15 3PF","la":"Cornwall","era":"other","nn":632,"risk":38,"cat":"amber"},{"name":"Praa Sands Holiday Park","lat":50.10639,"lon":-5.38832,"postcode":"TR20 9SH","la":"Cornwall","era":"other","nn":1125,"risk":47,"cat":"amber"},{"name":"Prince Of Wales","lat":50.15627,"lon":-5.07135,"postcode":"TR11 3DB","la":"Cornwall","era":"trad","nn":98,"risk":17,"cat":"green"},{"name":"Punchbowl And Ladle","lat":50.22467,"lon":-5.06179,"postcode":"TR3 6QY","la":"Cornwall","era":"other","nn":1536,"risk":50,"cat":"amber"},{"name":"PZ Royal British Legion Club","lat":50.11954,"lon":-5.53653,"postcode":"TR18 2EQ","la":"Cornwall","era":"trad","nn":95,"risk":17,"cat":"green"},{"name":"Quayside Inn","lat":50.15215,"lon":-5.0653,"postcode":"TR11 3LH","la":"Cornwall","era":"trad","nn":0,"risk":16,"cat":"green"},{"name":"Queens Arms","lat":50.13752,"lon":-5.68436,"postcode":"TR19 7QG","la":"Cornwall","era":"trad","nn":1240,"risk":48,"cat":"amber"},{"name":"Radnor Golf & Leisure","lat":50.2529,"lon":-5.21175,"postcode":"TR16 5EL","la":"Cornwall","era":"other","nn":912,"risk":40,"cat":"amber"},{"name":"Railway Club","lat":50.26394,"lon":-5.06414,"postcode":"TR1 3HH","la":"Cornwall","era":"trad","nn":574,"risk":20,"cat":"green"},{"name":"RAOB Institute","lat":50.12036,"lon":-5.53718,"postcode":"TR18 2BL","la":"Cornwall","era":"other","nn":102,"risk":17,"cat":"green"},{"name":"Red Lion","lat":50.41824,"lon":-5.08817,"postcode":"TR7 1HE","la":"Cornwall","era":"trad","nn":280,"risk":18,"cat":"green"},{"name":"Red Lion Inn","lat":50.10215,"lon":-5.54791,"postcode":"TR18 5JP","la":"Cornwall","era":"trad","nn":143,"risk":22,"cat":"green"},{"name":"Red Lion Pub","lat":50.11706,"lon":-5.10937,"postcode":"TR11 5EP","la":"Cornwall","era":"trad","nn":314,"risk":39,"cat":"amber"},{"name":"Red River Inn","lat":50.21921,"lon":-5.38235,"postcode":"TR27 5BW","la":"Cornwall","era":"trad","nn":1311,"risk":48,"cat":"amber"},{"name":"Redjackets Tavern","lat":50.21255,"lon":-5.29488,"postcode":"TR14 8HZ","la":"Cornwall","era":"other","nn":229,"risk":20,"cat":"green"},{"name":"Redruth Cricket Club","lat":50.22819,"lon":-5.22833,"postcode":"TR15 2TB","la":"Cornwall","era":"other","nn":678,"risk":41,"cat":"amber"},{"name":"Restronguet Sailing Club","lat":50.17703,"lon":-5.05199,"postcode":"TR11 5UF","la":"Cornwall","era":"other","nn":0,"risk":36,"cat":"amber"},{"name":"Ring O Bells Kitchen","lat":50.43586,"lon":-4.93918,"postcode":"TR9 6AT","la":"Cornwall","era":"mod","nn":0,"risk":21,"cat":"green"},{"name":"Royal Cornwall Yacht Club","lat":50.15955,"lon":-5.07383,"postcode":"TR11 2SP","la":"Cornwall","era":"trad","nn":183,"risk":18,"cat":"green"},{"name":"Royal Standard Inn","lat":50.16483,"lon":-5.0703,"postcode":"TR11 5TP","la":"Cornwall","era":"trad","nn":639,"risk":21,"cat":"green"},{"name":"Sailors Arms","lat":50.4142,"lon":-5.08643,"postcode":"TR7 1HB","la":"Cornwall","era":"trad","nn":33,"risk":17,"cat":"green"},{"name":"Seaview Inn","lat":50.15318,"lon":-5.06982,"postcode":"TR11 3EP","la":"Cornwall","era":"trad","nn":129,"risk":17,"cat":"green"},{"name":"Seiners Arms","lat":50.34563,"lon":-5.15636,"postcode":"TR6 0DP","la":"Cornwall","era":"trad","nn":142,"risk":22,"cat":"green"},{"name":"Senor Dicks","lat":50.41443,"lon":-5.07946,"postcode":"TR7 1EE","la":"Cornwall","era":"other","nn":102,"risk":17,"cat":"green"},{"name":"Seven Stars","lat":50.11761,"lon":-5.53712,"postcode":"TR18 4BU","la":"Cornwall","era":"other","nn":34,"risk":17,"cat":"green"},{"name":"Seven Stars","lat":50.15501,"lon":-5.07302,"postcode":"TR11 3QA","la":"Cornwall","era":"other","nn":0,"risk":16,"cat":"green"},{"name":"Seven Stars Inn","lat":50.18992,"lon":-5.17889,"postcode":"TR3 7DH","la":"Cornwall","era":"trad","nn":2629,"risk":57,"cat":"amber"},{"name":"Ship Inn","lat":50.21847,"lon":-4.89388,"postcode":"TR2 5RA","la":"Cornwall","era":"trad","nn":2061,"risk":53,"cat":"amber"},{"name":"Ship Inn","lat":50.08311,"lon":-5.53937,"postcode":"TR19 6QX","la":"Cornwall","era":"trad","nn":2098,"risk":54,"cat":"amber"},{"name":"Shoals Brewery","lat":50.08574,"lon":-5.31739,"postcode":"TR13 9JY","la":"Cornwall","era":"other","nn":161,"risk":23,"cat":"green"},{"name":"Simmons Inns (White Hart) Ltd","lat":50.21387,"lon":-5.29989,"postcode":"TR14 8JS","la":"Cornwall","era":"trad","nn":103,"risk":17,"cat":"green"},{"name":"Slug & Lettuce","lat":50.41351,"lon":-5.08605,"postcode":"TR7 1ER","la":"Cornwall","era":"other","nn":15,"risk":16,"cat":"green"},{"name":"Smugglers Den","lat":50.37491,"lon":-5.11931,"postcode":"TR8 5PY","la":"Cornwall","era":"other","nn":1787,"risk":51,"cat":"amber"},{"name":"Southleigh Manor Holiday Club","lat":50.42208,"lon":-4.93184,"postcode":"TR9 6HY","la":"Cornwall","era":"other","nn":1332,"risk":48,"cat":"amber"},{"name":"Sportsmans Arms","lat":50.12836,"lon":-5.55269,"postcode":"TR18 3EH","la":"Cornwall","era":"trad","nn":980,"risk":43,"cat":"amber"},{"name":"Sportsmans Arms","lat":50.1994,"lon":-5.24147,"postcode":"TR16 6LR","la":"Cornwall","era":"trad","nn":396,"risk":39,"cat":"amber"},{"name":"St Agnes Hotel","lat":50.31258,"lon":-5.20371,"postcode":"TR5 0QP","la":"Cornwall","era":"other","nn":350,"risk":24,"cat":"green"},{"name":"St Buryan Inn","lat":50.07435,"lon":-5.62242,"postcode":"TR19 6BA","la":"Cornwall","era":"trad","nn":3007,"risk":60,"cat":"amber"},{"name":"St Day Inn","lat":50.23878,"lon":-5.18509,"postcode":"TR16 5JU","la":"Cornwall","era":"trad","nn":510,"risk":40,"cat":"amber"},{"name":"St Gluvias Cricket Club","lat":50.16643,"lon":-5.11453,"postcode":"TR10 8NT","la":"Cornwall","era":"other","nn":652,"risk":38,"cat":"amber"},{"name":"St Ives Royal British Legion","lat":50.20878,"lon":-5.48996,"postcode":"TR26 1DB","la":"Cornwall","era":"trad","nn":758,"risk":22,"cat":"green"},{"name":"Star Inn","lat":50.12329,"lon":-5.67959,"postcode":"TR19 7LL","la":"Cornwall","era":"trad","nn":96,"risk":35,"cat":"amber"},{"name":"Star Inn","lat":50.23794,"lon":-5.19214,"postcode":"TR16 5NP","la":"Cornwall","era":"trad","nn":510,"risk":40,"cat":"amber"},{"name":"Taphouse","lat":50.31199,"lon":-5.19886,"postcode":"TR5 0QU","la":"Cornwall","era":"other","nn":0,"risk":21,"cat":"green"},{"name":"Tehidy Golf Club (Cygnets Restaurant)","lat":50.24401,"lon":-5.29075,"postcode":"TR14 0HH","la":"Cornwall","era":"other","nn":1706,"risk":51,"cat":"amber"},{"name":"The Angel Hotel","lat":50.10061,"lon":-5.27464,"postcode":"TR13 8EB","la":"Cornwall","era":"trad","nn":30,"risk":17,"cat":"green"},{"name":"The Arwenack Club","lat":50.15313,"lon":-5.06695,"postcode":"TR11 3JA","la":"Cornwall","era":"other","nn":69,"risk":17,"cat":"green"},{"name":"The Atlantic Inn","lat":50.08231,"lon":-5.3141,"postcode":"TR13 9DZ","la":"Cornwall","era":"trad","nn":290,"risk":23,"cat":"green"},{"name":"The Badger Inn","lat":50.18391,"lon":-5.43954,"postcode":"TR26 3JT","la":"Cornwall","era":"trad","nn":617,"risk":23,"cat":"green"},{"name":"The Basset Arms","lat":50.26018,"lon":-5.29029,"postcode":"TR16 4NG","la":"Cornwall","era":"trad","nn":94,"risk":37,"cat":"amber"},{"name":"The Bearded Brewery Public House","lat":50.43625,"lon":-4.96701,"postcode":"TR8 4DZ","la":"Cornwall","era":"other","nn":1834,"risk":52,"cat":"amber"},{"name":"The Beehive","lat":50.10085,"lon":-5.27445,"postcode":"TR13 8EB","la":"Cornwall","era":"other","nn":30,"risk":17,"cat":"green"},{"name":"The Bell Inn","lat":50.1,"lon":-5.27308,"postcode":"TR13 8AA","la":"Cornwall","era":"trad","nn":130,"risk":17,"cat":"green"},{"name":"The Black Swan","lat":50.09732,"lon":-5.20821,"postcode":"TR12 6TU","la":"Cornwall","era":"trad","nn":1854,"risk":52,"cat":"amber"},{"name":"The Boathouse","lat":50.15791,"lon":-5.07406,"postcode":"TR11 2AG","la":"Cornwall","era":"other","nn":132,"risk":17,"cat":"green"},{"name":"The Bridge Inn","lat":50.25738,"lon":-5.26484,"postcode":"TR16 4QW","la":"Cornwall","era":"trad","nn":1203,"risk":47,"cat":"amber"},{"name":"The Bucket Of Blood","lat":50.19519,"lon":-5.41469,"postcode":"TR27 5AE","la":"Cornwall","era":"other","nn":541,"risk":38,"cat":"amber"},{"name":"The Cadgwith Cove Inn","lat":49.98749,"lon":-5.17984,"postcode":"TR12 7JX","la":"Cornwall","era":"trad","nn":632,"risk":41,"cat":"amber"},{"name":"The Castle Inn","lat":50.21315,"lon":-5.48025,"postcode":"TR26 1AB","la":"Cornwall","era":"trad","nn":0,"risk":16,"cat":"green"},{"name":"The Chintz","lat":50.15719,"lon":-5.07232,"postcode":"TR11 2BY","la":"Cornwall","era":"other","nn":31,"risk":17,"cat":"green"},{"name":"The Club Kitchen","lat":50.10177,"lon":-5.27343,"postcode":"TR13 8PS","la":"Cornwall","era":"mod","nn":126,"risk":17,"cat":"green"},{"name":"The Coaching Inn","lat":50.43586,"lon":-4.93918,"postcode":"TR9 6AT","la":"Cornwall","era":"trad","nn":0,"risk":21,"cat":"green"},{"name":"The Coldstreamer","lat":50.13223,"lon":-5.52186,"postcode":"TR18 3BB","la":"Cornwall","era":"other","nn":749,"risk":42,"cat":"amber"},{"name":"The Commercial Hotel","lat":50.12414,"lon":-5.6798,"postcode":"TR19 7HE","la":"Cornwall","era":"other","nn":48,"risk":34,"cat":"amber"},{"name":"The Copper Coast","lat":50.22465,"lon":-5.28022,"postcode":"TR14 0BJ","la":"Cornwall","era":"other","nn":437,"risk":24,"cat":"green"},{"name":"The Copper House Inn","lat":50.19089,"lon":-5.40909,"postcode":"TR27 4DX","la":"Cornwall","era":"other","nn":280,"risk":23,"cat":"green"},{"name":"The Coppice Inn","lat":50.2157,"lon":-5.1916,"postcode":"TR16 6JB","la":"Cornwall","era":"trad","nn":1027,"risk":46,"cat":"amber"},{"name":"The Cornish Arms","lat":50.11805,"lon":-5.17341,"postcode":"TR11 5AB","la":"Cornwall","era":"trad","nn":388,"risk":37,"cat":"amber"},{"name":"The Cornish Arms","lat":50.19046,"lon":-5.41297,"postcode":"TR27 4DJ","la":"Cornwall","era":"trad","nn":280,"risk":21,"cat":"green"},{"name":"The Cornish Arms","lat":50.20037,"lon":-5.47448,"postcode":"TR26 2PG","la":"Cornwall","era":"trad","nn":1310,"risk":48,"cat":"amber"},{"name":"The Cornish Arms","lat":50.21901,"lon":-5.13881,"postcode":"TR4 8RP","la":"Cornwall","era":"trad","nn":1651,"risk":50,"cat":"amber"},{"name":"The Countryman (St Ives) Ltd","lat":50.18519,"lon":-5.48918,"postcode":"TR26 3JQ","la":"Cornwall","era":"other","nn":805,"risk":42,"cat":"amber"},{"name":"The Countryman Inn","lat":50.21265,"lon":-5.25341,"postcode":"TR16 6SG","la":"Cornwall","era":"trad","nn":1452,"risk":49,"cat":"amber"},{"name":"The Crown Inn","lat":50.12094,"lon":-5.53546,"postcode":"TR18 2EP","la":"Cornwall","era":"trad","nn":132,"risk":17,"cat":"green"},{"name":"The Dead Famous","lat":50.41434,"lon":-5.08602,"postcode":"TR7 1ES","la":"Cornwall","era":"other","nn":33,"risk":17,"cat":"green"},{"name":"The Dock Inn","lat":50.11607,"lon":-5.5317,"postcode":"TR18 4BD","la":"Cornwall","era":"trad","nn":0,"risk":16,"cat":"green"},{"name":"The Duke Of Leeds","lat":50.16089,"lon":-5.35613,"postcode":"TR27 6DB","la":"Cornwall","era":"trad","nn":841,"risk":42,"cat":"amber"},{"name":"The Falcon Inn","lat":50.45417,"lon":-4.99721,"postcode":"TR8 4EP","la":"Cornwall","era":"trad","nn":676,"risk":41,"cat":"amber"},{"name":"The Fishermans Arms Newlyn","lat":50.10146,"lon":-5.54623,"postcode":"TR18 5JR","la":"Cornwall","era":"trad","nn":143,"risk":22,"cat":"green"},{"name":"The Fort Inn","lat":50.41579,"lon":-5.08727,"postcode":"TR7 1HA","la":"Cornwall","era":"trad","nn":66,"risk":17,"cat":"green"},{"name":"The Fountain Inn","lat":50.12882,"lon":-5.60644,"postcode":"TR20 8QH","la":"Cornwall","era":"trad","nn":3018,"risk":60,"cat":"amber"},{"name":"The Fountain Tavern","lat":50.12119,"lon":-5.53994,"postcode":"TR18 2PD","la":"Cornwall","era":"other","nn":218,"risk":18,"cat":"green"},{"name":"The Fox And Hounds","lat":50.25374,"lon":-5.19337,"postcode":"TR16 5BS","la":"Cornwall","era":"trad","nn":263,"risk":38,"cat":"amber"},{"name":"The Fox And Hounds","lat":50.21527,"lon":-5.17718,"postcode":"TR16 6AX","la":"Cornwall","era":"trad","nn":1027,"risk":46,"cat":"amber"},{"name":"The Front","lat":50.15215,"lon":-5.0653,"postcode":"TR11 3JT","la":"Cornwall","era":"other","nn":0,"risk":16,"cat":"green"},{"name":"The Games Room","lat":50.15565,"lon":-5.07039,"postcode":"TR11 3AE","la":"Cornwall","era":"other","nn":17,"risk":17,"cat":"green"},{"name":"The Globe And Ale House","lat":50.11763,"lon":-5.53664,"postcode":"TR18 4BJ","la":"Cornwall","era":"other","nn":34,"risk":17,"cat":"green"},{"name":"The Godolphin","lat":50.12337,"lon":-5.47446,"postcode":"TR17 0EN","la":"Cornwall","era":"other","nn":4,"risk":34,"cat":"amber"},{"name":"The Golden Lion","lat":50.21209,"lon":-5.48065,"postcode":"TR26 1RS","la":"Cornwall","era":"trad","nn":36,"risk":17,"cat":"green"},{"name":"The Golden Lion","lat":50.188,"lon":-5.2157,"postcode":"TR16 6NW","la":"Cornwall","era":"trad","nn":2230,"risk":54,"cat":"amber"},{"name":"The Green Parrot","lat":50.34437,"lon":-5.15607,"postcode":"TR6 0JP","la":"Cornwall","era":"other","nn":78,"risk":22,"cat":"green"},{"name":"The Hain Line","lat":50.21163,"lon":-5.47989,"postcode":"TR26 2DS","la":"Cornwall","era":"other","nn":75,"risk":17,"cat":"green"},{"name":"The Halfway House","lat":50.1595,"lon":-5.18611,"postcode":"TR10 9ED","la":"Cornwall","era":"other","nn":560,"risk":40,"cat":"amber"},{"name":"The Heathcoat Social Club","lat":50.22181,"lon":-5.26797,"postcode":"TR15 3QJ","la":"Cornwall","era":"mod","nn":632,"risk":38,"cat":"amber"},{"name":"The Heron Inn","lat":50.24493,"lon":-5.02468,"postcode":"TR1 1SL","la":"Cornwall","era":"trad","nn":2642,"risk":57,"cat":"amber"},{"name":"The Kings","lat":50.15323,"lon":-5.06801,"postcode":"TR11 3EQ","la":"Cornwall","era":"trad","nn":77,"risk":17,"cat":"green"},{"name":"The Kings Arms","lat":50.12363,"lon":-5.47308,"postcode":"TR17 0AP","la":"Cornwall","era":"trad","nn":103,"risk":35,"cat":"amber"},{"name":"The Lamorna Wink","lat":50.06438,"lon":-5.56737,"postcode":"TR19 6XQ","la":"Cornwall","era":"other","nn":2886,"risk":59,"cat":"amber"},{"name":"The Lemon Arms","lat":50.18521,"lon":-5.07644,"postcode":"TR11 5NA","la":"Cornwall","era":"trad","nn":1312,"risk":48,"cat":"amber"},{"name":"The Lifeboat Inn","lat":50.21356,"lon":-5.48,"postcode":"TR26 1LF","la":"Cornwall","era":"trad","nn":0,"risk":16,"cat":"green"},{"name":"The Logan Rock Inn","lat":50.05036,"lon":-5.64182,"postcode":"TR19 6LG","la":"Cornwall","era":"trad","nn":3007,"risk":60,"cat":"amber"},{"name":"The London Inn","lat":50.11921,"lon":-5.53788,"postcode":"TR18 2SR","la":"Cornwall","era":"trad","nn":103,"risk":17,"cat":"green"},{"name":"The Longboat Hotel","lat":50.12162,"lon":-5.53369,"postcode":"TR18 2HZ","la":"Cornwall","era":"other","nn":17,"risk":17,"cat":"green"},{"name":"The Manor Arms","lat":50.4044,"lon":-4.95134,"postcode":"TR8 4LX","la":"Cornwall","era":"trad","nn":2403,"risk":56,"cat":"amber"},{"name":"The Mariners","lat":50.151,"lon":-5.06451,"postcode":"TR11 4AU","la":"Cornwall","era":"other","nn":139,"risk":17,"cat":"green"},{"name":"The May Tree Table Table","lat":50.10015,"lon":-5.25887,"postcode":"TR13 8FZ","la":"Cornwall","era":"other","nn":722,"risk":41,"cat":"amber"},{"name":"The Navy Inn","lat":50.11506,"lon":-5.53587,"postcode":"TR18 4DE","la":"Cornwall","era":"trad","nn":99,"risk":17,"cat":"green"},{"name":"The New Inn","lat":50.16308,"lon":-5.13223,"postcode":"TR10 9HN","la":"Cornwall","era":"trad","nn":1314,"risk":48,"cat":"amber"},{"name":"The New Inn","lat":50.34238,"lon":-5.11,"postcode":"TR4 9QD","la":"Cornwall","era":"trad","nn":1689,"risk":51,"cat":"amber"},{"name":"The New Inn Manaccan","lat":50.08218,"lon":-5.12693,"postcode":"TR12 6HA","la":"Cornwall","era":"trad","nn":1328,"risk":48,"cat":"amber"},{"name":"The Norway Inn","lat":50.2073,"lon":-5.1149,"postcode":"TR3 7NU","la":"Cornwall","era":"trad","nn":526,"risk":40,"cat":"amber"},{"name":"The Old Forge","lat":50.17592,"lon":-5.43972,"postcode":"TR27 6JG","la":"Cornwall","era":"trad","nn":0,"risk":21,"cat":"green"},{"name":"The Old Inn","lat":50.02725,"lon":-5.24276,"postcode":"TR12 7HN","la":"Cornwall","era":"trad","nn":0,"risk":34,"cat":"amber"},{"name":"The Old Plough Inn","lat":50.28794,"lon":-5.07797,"postcode":"TR4 9DY","la":"Cornwall","era":"trad","nn":2820,"risk":59,"cat":"amber"},{"name":"The Old Quay House","lat":50.17592,"lon":-5.43972,"postcode":"TR27 6JG","la":"Cornwall","era":"other","nn":0,"risk":21,"cat":"green"},{"name":"The Old Quay Inn","lat":50.21033,"lon":-5.08877,"postcode":"TR3 6ND","la":"Cornwall","era":"trad","nn":1363,"risk":48,"cat":"amber"},{"name":"The Old Shire Inn","lat":50.19415,"lon":-5.30028,"postcode":"TR14 0RT","la":"Cornwall","era":"trad","nn":2026,"risk":53,"cat":"amber"},{"name":"The Old Success Inn","lat":50.07767,"lon":-5.69913,"postcode":"TR19 7DG","la":"Cornwall","era":"trad","nn":647,"risk":41,"cat":"amber"},{"name":"The Paris Hotel","lat":50.02264,"lon":-5.09509,"postcode":"TR12 6SX","la":"Cornwall","era":"other","nn":3129,"risk":61,"cat":"red"},{"name":"The Peterville Inn","lat":50.31199,"lon":-5.19886,"postcode":"TR5 0QU","la":"Cornwall","era":"trad","nn":0,"risk":21,"cat":"green"},{"name":"The Pheasant Inn","lat":50.36759,"lon":-5.05485,"postcode":"TR8 5LJ","la":"Cornwall","era":"trad","nn":3046,"risk":60,"cat":"amber"},{"name":"The Pirate Inn","lat":50.11607,"lon":-5.55095,"postcode":"TR18 4PS","la":"Cornwall","era":"trad","nn":550,"risk":25,"cat":"green"},{"name":"The Queens Arms Inn","lat":50.10816,"lon":-5.33224,"postcode":"TR13 9PD","la":"Cornwall","era":"trad","nn":1410,"risk":49,"cat":"amber"},{"name":"The Queens Hotel","lat":50.21237,"lon":-5.4809,"postcode":"TR26 1RR","la":"Cornwall","era":"trad","nn":36,"risk":17,"cat":"green"},{"name":"The Railway Inn","lat":50.30915,"lon":-5.20338,"postcode":"TR5 0TJ","la":"Cornwall","era":"trad","nn":382,"risk":24,"cat":"green"},{"name":"The Red Lion","lat":50.23415,"lon":-5.22632,"postcode":"TR15 2AE","la":"Cornwall","era":"trad","nn":590,"risk":38,"cat":"amber"},{"name":"The Red Lion","lat":50.43502,"lon":-4.94074,"postcode":"TR9 6AL","la":"Cornwall","era":"trad","nn":144,"risk":22,"cat":"green"},{"name":"The Red Lion","lat":50.26985,"lon":-5.18079,"postcode":"TR4 8EU","la":"Cornwall","era":"trad","nn":1506,"risk":49,"cat":"amber"},{"name":"The Rising Sun","lat":50.2649,"lon":-5.0477,"postcode":"TR1 1ED","la":"Cornwall","era":"other","nn":137,"risk":17,"cat":"green"},{"name":"The Robartes Arms","lat":50.24665,"lon":-5.26711,"postcode":"TR16 4RX","la":"Cornwall","era":"trad","nn":1141,"risk":47,"cat":"amber"},{"name":"The Rock Pool","lat":50.23042,"lon":-5.38805,"postcode":"TR27 5ED","la":"Cornwall","era":"other","nn":1311,"risk":48,"cat":"amber"},{"name":"The Royal Oak","lat":50.2112,"lon":-5.11907,"postcode":"TR3 7PX","la":"Cornwall","era":"trad","nn":526,"risk":40,"cat":"amber"},{"name":"The Royal Standard","lat":50.18772,"lon":-5.42255,"postcode":"TR27 4BH","la":"Cornwall","era":"trad","nn":438,"risk":37,"cat":"amber"},{"name":"The Ship Inn","lat":50.08092,"lon":-5.20353,"postcode":"TR12 6AD","la":"Cornwall","era":"trad","nn":1854,"risk":52,"cat":"amber"},{"name":"The Ship Inn","lat":50.08309,"lon":-5.31804,"postcode":"TR13 9JS","la":"Cornwall","era":"trad","nn":230,"risk":23,"cat":"green"},{"name":"The Shipwrights Arms","lat":50.09265,"lon":-5.13589,"postcode":"TR12 6JX","la":"Cornwall","era":"trad","nn":1001,"risk":46,"cat":"amber"},{"name":"The Silver Ball","lat":50.43219,"lon":-4.94191,"postcode":"TR9 6RL","la":"Cornwall","era":"other","nn":325,"risk":24,"cat":"green"},{"name":"The Sloop Inn","lat":50.21508,"lon":-5.47924,"postcode":"TR26 1LP","la":"Cornwall","era":"trad","nn":0,"risk":16,"cat":"green"},{"name":"The Smugglers Inn","lat":50.44813,"lon":-4.99835,"postcode":"TR8 4EQ","la":"Cornwall","era":"trad","nn":676,"risk":41,"cat":"amber"},{"name":"The Standard Inn","lat":50.178,"lon":-4.98098,"postcode":"TR2 5EB","la":"Cornwall","era":"trad","nn":407,"risk":39,"cat":"amber"},{"name":"The Star And Garter","lat":50.15747,"lon":-5.07233,"postcode":"TR11 2AF","la":"Cornwall","era":"other","nn":31,"risk":17,"cat":"green"},{"name":"The Star Inn","lat":50.1188,"lon":-5.53587,"postcode":"TR18 2LD","la":"Cornwall","era":"trad","nn":57,"risk":17,"cat":"green"},{"name":"The Star Inn","lat":50.15566,"lon":-5.23151,"postcode":"TR13 0JR","la":"Cornwall","era":"trad","nn":2754,"risk":58,"cat":"amber"},{"name":"The Swordfish","lat":50.10613,"lon":-5.54964,"postcode":"TR18 5HN","la":"Cornwall","era":"other","nn":95,"risk":20,"cat":"green"},{"name":"The Tavern Inn","lat":50.40567,"lon":-5.07059,"postcode":"TR7 2LQ","la":"Cornwall","era":"trad","nn":1064,"risk":46,"cat":"amber"},{"name":"The Thirsty Scholar","lat":50.16925,"lon":-5.10651,"postcode":"TR10 8EW","la":"Cornwall","era":"other","nn":503,"risk":37,"cat":"amber"},{"name":"The Thomas Daniell","lat":50.26011,"lon":-5.05643,"postcode":"TR1 2JA","la":"Cornwall","era":"other","nn":260,"risk":18,"cat":"green"},{"name":"The Three Tuns","lat":50.05066,"lon":-5.08751,"postcode":"TR12 6NA","la":"Cornwall","era":"other","nn":42,"risk":37,"cat":"amber"},{"name":"The Tinners Arms","lat":50.19226,"lon":-5.56803,"postcode":"TR26 3BY","la":"Cornwall","era":"trad","nn":2048,"risk":53,"cat":"amber"},{"name":"The Top House Inn","lat":49.96849,"lon":-5.20474,"postcode":"TR12 7NQ","la":"Cornwall","era":"other","nn":79,"risk":37,"cat":"amber"},{"name":"The Towan Blystra","lat":50.41438,"lon":-5.07718,"postcode":"TR7 1SG","la":"Cornwall","era":"other","nn":49,"risk":17,"cat":"green"},{"name":"The Treleigh Arms","lat":50.24683,"lon":-5.22158,"postcode":"TR16 4AY","la":"Cornwall","era":"trad","nn":923,"risk":40,"cat":"amber"},{"name":"The Trelowarren Arms","lat":50.14703,"lon":-5.10329,"postcode":"TR11 5DR","la":"Cornwall","era":"trad","nn":1688,"risk":51,"cat":"amber"},{"name":"The Trevelyan Arms","lat":50.12495,"lon":-5.43651,"postcode":"TR20 9JU","la":"Cornwall","era":"trad","nn":1227,"risk":47,"cat":"amber"},{"name":"The Turks Head","lat":50.11731,"lon":-5.53477,"postcode":"TR18 4AF","la":"Cornwall","era":"trad","nn":11,"risk":16,"cat":"green"},{"name":"The Turnpike Inn","lat":50.20384,"lon":-5.37201,"postcode":"TR27 5DT","la":"Cornwall","era":"trad","nn":1353,"risk":48,"cat":"amber"},{"name":"The Unicorn On The Beach","lat":50.28585,"lon":-5.24033,"postcode":"TR4 8AD","la":"Cornwall","era":"other","nn":1427,"risk":49,"cat":"amber"},{"name":"The Union Inn","lat":50.21315,"lon":-5.48025,"postcode":"TR26 1AB","la":"Cornwall","era":"trad","nn":0,"risk":16,"cat":"green"},{"name":"The Venue Bar","lat":50.43114,"lon":-5.04409,"postcode":"TR8 4AS","la":"Cornwall","era":"other","nn":888,"risk":43,"cat":"amber"},{"name":"The Victoria Inn","lat":50.2022,"lon":-5.23803,"postcode":"TR16 6PZ","la":"Cornwall","era":"trad","nn":396,"risk":39,"cat":"amber"},{"name":"The Victoria Inn","lat":50.11509,"lon":-5.44421,"postcode":"TR20 9NP","la":"Cornwall","era":"trad","nn":1227,"risk":47,"cat":"amber"},{"name":"The Waterfront Inn","lat":50.261,"lon":-5.29056,"postcode":"TR16 4NL","la":"Cornwall","era":"trad","nn":94,"risk":37,"cat":"amber"},{"name":"The Watermill","lat":50.17685,"lon":-5.4456,"postcode":"TR27 6LQ","la":"Cornwall","era":"trad","nn":431,"risk":24,"cat":"green"},{"name":"The White Hart","lat":50.2639,"lon":-5.04881,"postcode":"TR1 2AA","la":"Cornwall","era":"trad","nn":93,"risk":17,"cat":"green"},{"name":"The White Hart","lat":50.14487,"lon":-5.49243,"postcode":"TR20 8EY","la":"Cornwall","era":"trad","nn":1777,"risk":51,"cat":"amber"},{"name":"The White Hart Hotel","lat":50.18398,"lon":-5.42061,"postcode":"TR27 4HQ","la":"Cornwall","era":"trad","nn":438,"risk":24,"cat":"green"},{"name":"The Wig & Pen","lat":50.26377,"lon":-5.05607,"postcode":"TR1 3DP","la":"Cornwall","era":"other","nn":116,"risk":17,"cat":"green"},{"name":"The Witchball","lat":49.96811,"lon":-5.20381,"postcode":"TR12 7NJ","la":"Cornwall","era":"other","nn":79,"risk":37,"cat":"amber"},{"name":"The Yacht Inn","lat":50.1158,"lon":-5.53283,"postcode":"TR18 4AU","la":"Cornwall","era":"trad","nn":86,"risk":17,"cat":"green"},{"name":"Toast","lat":50.15438,"lon":-5.06858,"postcode":"TR11 3DR","la":"Cornwall","era":"other","nn":41,"risk":17,"cat":"green"},{"name":"Toast Cafe And Wine Bar","lat":50.41373,"lon":-5.08683,"postcode":"TR7 1EU","la":"Cornwall","era":"other","nn":0,"risk":16,"cat":"green"},{"name":"Tolcarne Inn","lat":50.10675,"lon":-5.54872,"postcode":"TR18 5PR","la":"Cornwall","era":"trad","nn":95,"risk":20,"cat":"green"},{"name":"Tom Thumb Cocktail Bar","lat":50.41419,"lon":-5.08086,"postcode":"TR7 1DN","la":"Cornwall","era":"other","nn":102,"risk":17,"cat":"green"},{"name":"Travellers Rest","lat":50.45586,"lon":-5.02881,"postcode":"TR8 4AQ","la":"Cornwall","era":"other","nn":1003,"risk":46,"cat":"amber"},{"name":"Tregony Sports Club","lat":50.27064,"lon":-4.91015,"postcode":"TR2 5RP","la":"Cornwall","era":"other","nn":268,"risk":38,"cat":"amber"},{"name":"Treguth Inn","lat":50.38672,"lon":-5.14079,"postcode":"TR8 5PP","la":"Cornwall","era":"trad","nn":256,"risk":38,"cat":"amber"},{"name":"Treloy Tourist Park","lat":50.42445,"lon":-5.01817,"postcode":"TR8 4JN","la":"Cornwall","era":"other","nn":1565,"risk":50,"cat":"amber"},{"name":"Tremenheere","lat":50.11856,"lon":-5.53658,"postcode":"TR18 2JA","la":"Cornwall","era":"other","nn":57,"risk":17,"cat":"green"},{"name":"Trengilly Wartha Inn","lat":50.11043,"lon":-5.17435,"postcode":"TR11 5RP","la":"Cornwall","era":"trad","nn":850,"risk":42,"cat":"amber"},{"name":"Trewellard Arms Hotel","lat":50.14592,"lon":-5.67291,"postcode":"TR19 7TA","la":"Cornwall","era":"trad","nn":800,"risk":42,"cat":"amber"},{"name":"Tricky's","lat":50.23996,"lon":-5.24804,"postcode":"TR15 3TA","la":"Cornwall","era":"other","nn":1102,"risk":47,"cat":"amber"},{"name":"Truro City F C","lat":50.25807,"lon":-5.06543,"postcode":"TR1 2TH","la":"Cornwall","era":"other","nn":659,"risk":21,"cat":"green"},{"name":"Try Dowr","lat":50.2629,"lon":-5.051,"postcode":"TR1 2LQ","la":"Cornwall","era":"other","nn":165,"risk":18,"cat":"green"},{"name":"Two Clomes","lat":50.40132,"lon":-5.02235,"postcode":"TR8 4PD","la":"Cornwall","era":"other","nn":1869,"risk":52,"cat":"amber"},{"name":"Tywarnhayle Inn","lat":50.34448,"lon":-5.15498,"postcode":"TR6 0ER","la":"Cornwall","era":"trad","nn":78,"risk":22,"cat":"green"},{"name":"Victoria Inn","lat":50.26342,"lon":-5.11343,"postcode":"TR3 6BY","la":"Cornwall","era":"trad","nn":2730,"risk":58,"cat":"amber"},{"name":"Victory Inn","lat":50.29072,"lon":-5.22175,"postcode":"TR4 8BN","la":"Cornwall","era":"trad","nn":1427,"risk":49,"cat":"amber"},{"name":"Vyvyan Arms Hotel","lat":50.21456,"lon":-5.29419,"postcode":"TR14 8AN","la":"Cornwall","era":"trad","nn":229,"risk":20,"cat":"green"},{"name":"Walkabout Newquay","lat":50.41468,"lon":-5.08492,"postcode":"TR7 1DS","la":"Cornwall","era":"other","nn":87,"risk":17,"cat":"green"},{"name":"Wax","lat":50.44473,"lon":-5.03938,"postcode":"TR8 4AB","la":"Cornwall","era":"other","nn":1446,"risk":49,"cat":"amber"},{"name":"Wendron Cricket Club","lat":50.16084,"lon":-5.19369,"postcode":"TR13 0EH","la":"Cornwall","era":"other","nn":560,"risk":40,"cat":"amber"},{"name":"Whiskers","lat":50.41366,"lon":-5.08589,"postcode":"TR7 1ER","la":"Cornwall","era":"other","nn":21,"risk":17,"cat":"green"},{"name":"White Hart Hotel","lat":50.0504,"lon":-5.08792,"postcode":"TR12 6ND","la":"Cornwall","era":"trad","nn":42,"risk":37,"cat":"amber"},{"name":"William IV","lat":50.26315,"lon":-5.05476,"postcode":"TR1 3DJ","la":"Cornwall","era":"other","nn":100,"risk":17,"cat":"green"},{"name":"Fraggle Rock Bar","lat":49.95361,"lon":-6.35266,"postcode":"TR23 0PR","la":"Isles of Scilly","era":"other","nn":1134,"risk":66,"cat":"red"},{"name":"Jacks Micro Bar","lat":49.91479,"lon":-6.31663,"postcode":"TR21 0LL","la":"Isles of Scilly","era":"other","nn":116,"risk":54,"cat":"amber"},{"name":"Mermaid Inn","lat":49.91564,"lon":-6.31775,"postcode":"TR21 0HY","la":"Isles of Scilly","era":"trad","nn":124,"risk":54,"cat":"amber"},{"name":"New Inn","lat":49.957,"lon":-6.3377,"postcode":"TR24 0QG","la":"Isles of Scilly","era":"trad","nn":1134,"risk":66,"cat":"red"},{"name":"Seven Stones Inn","lat":49.96585,"lon":-6.30163,"postcode":"TR25 0QW","la":"Isles of Scilly","era":"trad","nn":2762,"risk":78,"cat":"red"},{"name":"The Old Town Inn","lat":49.91382,"lon":-6.29961,"postcode":"TR21 0NN","la":"Isles of Scilly","era":"trad","nn":1112,"risk":66,"cat":"red"},{"name":"The Scillonian Club","lat":49.91441,"lon":-6.31512,"postcode":"TR21 0LP","la":"Isles of Scilly","era":"other","nn":116,"risk":54,"cat":"amber"},{"name":"The Turks Head","lat":49.89249,"lon":-6.34476,"postcode":"TR22 0PL","la":"Isles of Scilly","era":"trad","nn":3196,"risk":81,"cat":"red"}]