[{"name":"Barnet Elizabethans Rugby Football Club","lat":51.65768,"lon":-0.21333,"postcode":"EN5 4NS","la":"Barnet","era":"other","nn":433,"risk":29,"cat":"green"},{"name":"Barnet Table Tennis Club","lat":51.64585,"lon":-0.19299,"postcode":"EN5 2DN","la":"Barnet","era":"other","nn":223,"risk":27,"cat":"green"},{"name":"Bodens","lat":51.64828,"lon":-0.1684,"postcode":"EN4 8RF","la":"Barnet","era":"other","nn":252,"risk":28,"cat":"green"},{"name":"Builders Arms","lat":51.65089,"lon":-0.17331,"postcode":"EN4 9SH","la":"Barnet","era":"trad","nn":111,"risk":27,"cat":"green"},{"name":"East Barnet Valley United Services Club","lat":51.64982,"lon":-0.17107,"postcode":"EN4 8RN","la":"Barnet","era":"other","nn":0,"risk":26,"cat":"green"},{"name":"Hadley Football Club","lat":51.64205,"lon":-0.24415,"postcode":"EN5 3LD","la":"Barnet","era":"other","nn":118,"risk":47,"cat":"amber"},{"name":"Kings Head","lat":51.65347,"lon":-0.20089,"postcode":"EN5 5SN","la":"Barnet","era":"trad","nn":100,"risk":27,"cat":"green"},{"name":"Lord Kitchener","lat":51.64982,"lon":-0.17107,"postcode":"EN4 8RN","la":"Barnet","era":"mod","nn":0,"risk":26,"cat":"green"},{"name":"Maccabi London","lat":51.65436,"lon":-0.24513,"postcode":"EN5 3HW","la":"Barnet","era":"other","nn":1370,"risk":58,"cat":"amber"},{"name":"Oak Hill Bowls Club","lat":51.63605,"lon":-0.14887,"postcode":"EN4 8JS","la":"Barnet","era":"trad","nn":621,"risk":30,"cat":"green"},{"name":"Old Elizabethans Social Club","lat":51.63844,"lon":-0.22864,"postcode":"EN5 2AG","la":"Barnet","era":"mod","nn":1033,"risk":56,"cat":"amber"},{"name":"Pure Gym","lat":51.64984,"lon":-0.1727,"postcode":"EN4 8RW","la":"Barnet","era":"other","nn":113,"risk":27,"cat":"green"},{"name":"Queens Arms","lat":51.64666,"lon":-0.18806,"postcode":"EN5 1AB","la":"Barnet","era":"trad","nn":139,"risk":29,"cat":"green"},{"name":"Railway Tavern","lat":51.65019,"lon":-0.17445,"postcode":"EN4 8RR","la":"Barnet","era":"trad","nn":111,"risk":27,"cat":"green"},{"name":"Rainbow Centre","lat":51.64434,"lon":-0.19512,"postcode":"EN5 2UN","la":"Barnet","era":"other","nn":223,"risk":30,"cat":"green"},{"name":"Red Lion","lat":51.6528,"lon":-0.19983,"postcode":"EN5 5UW","la":"Barnet","era":"trad","nn":39,"risk":26,"cat":"green"},{"name":"Sebright Arms","lat":51.65611,"lon":-0.20759,"postcode":"EN5 4ET","la":"Barnet","era":"trad","nn":363,"risk":28,"cat":"green"},{"name":"St Peter's Social Club","lat":51.6482,"lon":-0.1771,"postcode":"EN5 1RF","la":"Barnet","era":"mod","nn":286,"risk":28,"cat":"green"},{"name":"The Arkley","lat":51.65216,"lon":-0.22059,"postcode":"EN5 3EP","la":"Barnet","era":"other","nn":675,"risk":36,"cat":"amber"},{"name":"The Barrington","lat":51.64609,"lon":-0.18626,"postcode":"EN5 1EU","la":"Barnet","era":"other","nn":139,"risk":27,"cat":"green"},{"name":"The Black Horse","lat":51.65332,"lon":-0.20487,"postcode":"EN5 4BW","la":"Barnet","era":"trad","nn":275,"risk":28,"cat":"green"},{"name":"The Butchers Arms","lat":51.65574,"lon":-0.20148,"postcode":"EN5 5XP","la":"Barnet","era":"trad","nn":230,"risk":27,"cat":"green"},{"name":"The Cock Inn","lat":51.65451,"lon":-0.15454,"postcode":"EN4 9HU","la":"Barnet","era":"trad","nn":245,"risk":45,"cat":"amber"},{"name":"The Gate Public House","lat":51.64203,"lon":-0.24244,"postcode":"EN5 3LA","la":"Barnet","era":"other","nn":118,"risk":47,"cat":"amber"},{"name":"The Lord Nelson","lat":51.65236,"lon":-0.2108,"postcode":"EN5 2SA","la":"Barnet","era":"trad","nn":423,"risk":29,"cat":"green"},{"name":"Ye Olde Mitre","lat":51.65311,"lon":-0.19956,"postcode":"EN5 5SJ","la":"Barnet","era":"other","nn":39,"risk":26,"cat":"green"},{"name":"Ye Olde Monken Holt","lat":51.65781,"lon":-0.2015,"postcode":"EN5 5SU","la":"Barnet","era":"trad","nn":230,"risk":27,"cat":"green"},{"name":"Bogdan Catering","lat":51.7613,"lon":-0.01188,"postcode":"EN11 8TN","la":"Broxbourne","era":"other","nn":31,"risk":28,"cat":"green"},{"name":"British Legion","lat":51.7647,"lon":-0.01116,"postcode":"EN11 8UA","la":"Broxbourne","era":"other","nn":77,"risk":29,"cat":"green"},{"name":"Broxbourne Sports Club","lat":51.74373,"lon":-0.01895,"postcode":"EN10 7BA","la":"Broxbourne","era":"other","nn":222,"risk":35,"cat":"amber"},{"name":"Cheshunt Football Club","lat":51.69548,"lon":-0.04254,"postcode":"EN8 8RU","la":"Broxbourne","era":"other","nn":542,"risk":32,"cat":"amber"},{"name":"Cheshunt Royal British Legion Club","lat":51.69331,"lon":-0.03488,"postcode":"EN8 8LR","la":"Broxbourne","era":"trad","nn":246,"risk":30,"cat":"green"},{"name":"Goffs Oak Comrades Club","lat":51.71015,"lon":-0.086,"postcode":"EN7 5ET","la":"Broxbourne","era":"trad","nn":105,"risk":46,"cat":"amber"},{"name":"Hoddesdon Labour Club","lat":51.76713,"lon":-0.00627,"postcode":"EN11 0JR","la":"Broxbourne","era":"other","nn":432,"risk":31,"cat":"amber"},{"name":"J D Wetherspoon The Star","lat":51.76156,"lon":-0.01204,"postcode":"EN11 8TN","la":"Broxbourne","era":"other","nn":0,"risk":28,"cat":"green"},{"name":"Merkur Cashino","lat":51.68567,"lon":-0.0314,"postcode":"EN8 7LA","la":"Broxbourne","era":"other","nn":117,"risk":31,"cat":"amber"},{"name":"Prince Of Wales Public House","lat":51.71225,"lon":-0.07547,"postcode":"EN7 6SL","la":"Broxbourne","era":"trad","nn":762,"risk":38,"cat":"amber"},{"name":"Rye Park Conservative Club","lat":51.768,"lon":0.00218,"postcode":"EN11 0JD","la":"Broxbourne","era":"other","nn":392,"risk":36,"cat":"amber"},{"name":"Stanboroughs Conservative Club","lat":51.7594,"lon":-0.0109,"postcode":"EN11 8EP","la":"Broxbourne","era":"other","nn":214,"risk":30,"cat":"green"},{"name":"The Bell Hotel  (including B&B)","lat":51.76212,"lon":-0.01049,"postcode":"EN11 8HP","la":"Broxbourne","era":"other","nn":124,"risk":29,"cat":"green"},{"name":"The Bull","lat":51.74568,"lon":-0.01967,"postcode":"EN10 7DZ","la":"Broxbourne","era":"trad","nn":69,"risk":31,"cat":"amber"},{"name":"The Bulls Head","lat":51.72241,"lon":-0.026,"postcode":"EN10 6BZ","la":"Broxbourne","era":"trad","nn":1036,"risk":58,"cat":"amber"},{"name":"The Coach House","lat":51.70629,"lon":-0.06958,"postcode":"EN7 5QH","la":"Broxbourne","era":"trad","nn":777,"risk":53,"cat":"amber"},{"name":"The Crocodile","lat":51.7033,"lon":-0.0451,"postcode":"EN8 9NQ","la":"Broxbourne","era":"other","nn":689,"risk":38,"cat":"amber"},{"name":"The Freemasons","lat":51.71008,"lon":-0.04867,"postcode":"EN8 0HH","la":"Broxbourne","era":"trad","nn":361,"risk":36,"cat":"amber"},{"name":"The George","lat":51.7524,"lon":-0.01474,"postcode":"EN11 8BL","la":"Broxbourne","era":"trad","nn":624,"risk":32,"cat":"amber"},{"name":"The Goffs Oak","lat":51.71081,"lon":-0.0871,"postcode":"EN7 5RH","la":"Broxbourne","era":"trad","nn":105,"risk":46,"cat":"amber"},{"name":"The Golden Lion","lat":51.75788,"lon":-0.01282,"postcode":"EN11 8SX","la":"Broxbourne","era":"trad","nn":214,"risk":30,"cat":"green"},{"name":"The King William IV","lat":51.76073,"lon":-0.02006,"postcode":"EN11 8NQ","la":"Broxbourne","era":"trad","nn":560,"risk":32,"cat":"amber"},{"name":"The Maltsters Public House","lat":51.70334,"lon":-0.02507,"postcode":"EN8 9AW","la":"Broxbourne","era":"other","nn":60,"risk":46,"cat":"amber"},{"name":"The Moon and Cross","lat":51.68493,"lon":-0.03261,"postcode":"EN8 7BX","la":"Broxbourne","era":"trad","nn":117,"risk":31,"cat":"amber"},{"name":"The Old Anchor Public House","lat":51.713,"lon":-0.0318,"postcode":"EN8 0AY","la":"Broxbourne","era":"trad","nn":789,"risk":54,"cat":"amber"},{"name":"The Old English Gentleman","lat":51.70655,"lon":-0.03658,"postcode":"EN8 9DG","la":"Broxbourne","era":"other","nn":689,"risk":33,"cat":"amber"},{"name":"The Old Star","lat":51.73355,"lon":-0.02382,"postcode":"EN10 6LE","la":"Broxbourne","era":"other","nn":223,"risk":47,"cat":"amber"},{"name":"The Plough","lat":51.71292,"lon":-0.05118,"postcode":"EN8 0JB","la":"Broxbourne","era":"trad","nn":361,"risk":51,"cat":"amber"},{"name":"The Queens Head","lat":51.73171,"lon":-0.02512,"postcode":"EN10 6JN","la":"Broxbourne","era":"trad","nn":223,"risk":47,"cat":"amber"},{"name":"The Red Cow","lat":51.70285,"lon":-0.02545,"postcode":"EN8 9AF","la":"Broxbourne","era":"other","nn":60,"risk":33,"cat":"amber"},{"name":"The Roman Urn(no food prepared)","lat":51.69666,"lon":-0.03491,"postcode":"EN8 8LY","la":"Broxbourne","era":"other","nn":372,"risk":31,"cat":"amber"},{"name":"The Sun","lat":51.76435,"lon":-0.01213,"postcode":"EN11 8TX","la":"Broxbourne","era":"other","nn":77,"risk":29,"cat":"green"},{"name":"The Vine Public House","lat":51.68993,"lon":-0.03403,"postcode":"EN8 7AY","la":"Broxbourne","era":"other","nn":211,"risk":30,"cat":"green"},{"name":"The Wheatsheaf PH and Accomodation","lat":51.69126,"lon":-0.03621,"postcode":"EN8 7BG","la":"Broxbourne","era":"trad","nn":211,"risk":30,"cat":"green"},{"name":"The White Bear Public House","lat":51.74581,"lon":-0.01869,"postcode":"EN10 7BN","la":"Broxbourne","era":"other","nn":69,"risk":31,"cat":"amber"},{"name":"The White Swan","lat":51.76156,"lon":-0.01204,"postcode":"EN11 8TN","la":"Broxbourne","era":"trad","nn":0,"risk":28,"cat":"green"},{"name":"Wormley Sports Club","lat":51.73437,"lon":-0.03827,"postcode":"EN10 7QE","la":"Broxbourne","era":"other","nn":952,"risk":52,"cat":"amber"},{"name":"Rye House Public House","lat":51.77004,"lon":0.00682,"postcode":"EN11 0EH","la":"East Hertfordshire","era":"mod","nn":392,"risk":44,"cat":"amber"},{"name":"The Woodman & Olive","lat":51.73709,"lon":-0.06576,"postcode":"EN10 7QN","la":"East Hertfordshire","era":"other","nn":1917,"risk":60,"cat":"amber"},{"name":"Botany Bay Cricket Club","lat":51.67786,"lon":-0.12125,"postcode":"EN2 8AS","la":"Enfield","era":"other","nn":496,"risk":49,"cat":"amber"},{"name":"Bush Hill Park Bowls Tennis And Social Club","lat":51.64348,"lon":-0.07214,"postcode":"EN1 2QP","la":"Enfield","era":"mod","nn":285,"risk":30,"cat":"green"},{"name":"Bush Hill Park PH","lat":51.64185,"lon":-0.06896,"postcode":"EN1 1BA","la":"Enfield","era":"other","nn":285,"risk":28,"cat":"green"},{"name":"Buzz Bingo","lat":51.65091,"lon":-0.0574,"postcode":"EN1 3FB","la":"Enfield","era":"other","nn":658,"risk":30,"cat":"green"},{"name":"Cockfosters Bowling Club","lat":51.6527,"lon":-0.15252,"postcode":"EN4 9JG","la":"Enfield","era":"other","nn":0,"risk":43,"cat":"amber"},{"name":"Cockfosters Football Club","lat":51.6527,"lon":-0.15252,"postcode":"EN4 9JG","la":"Enfield","era":"other","nn":0,"risk":43,"cat":"amber"},{"name":"Crown & Horseshoes","lat":51.65608,"lon":-0.08712,"postcode":"EN2 6PZ","la":"Enfield","era":"trad","nn":33,"risk":26,"cat":"green"},{"name":"Enfield Chase Tennis Club","lat":51.64305,"lon":-0.07787,"postcode":"EN1 2LH","la":"Enfield","era":"other","nn":398,"risk":29,"cat":"green"},{"name":"Enfield Cricket Club","lat":51.64776,"lon":-0.07719,"postcode":"EN1 2RY","la":"Enfield","era":"other","nn":527,"risk":30,"cat":"green"},{"name":"Enfield Highway Conservative Club","lat":51.67146,"lon":-0.04067,"postcode":"EN3 6LZ","la":"Enfield","era":"other","nn":0,"risk":26,"cat":"green"},{"name":"Enfield Ignatians RFC","lat":51.65906,"lon":-0.06025,"postcode":"EN1 3PL","la":"Enfield","era":"other","nn":0,"risk":28,"cat":"green"},{"name":"Enfield Lawn Tennis Club","lat":51.6609,"lon":-0.1012,"postcode":"EN2 8NA","la":"Enfield","era":"other","nn":330,"risk":28,"cat":"green"},{"name":"Enfield Town Conservative Club","lat":51.65256,"lon":-0.08838,"postcode":"EN2 6PR","la":"Enfield","era":"other","nn":134,"risk":27,"cat":"green"},{"name":"Enfield Town Football Club","lat":51.65906,"lon":-0.06025,"postcode":"EN1 3PL","la":"Enfield","era":"other","nn":0,"risk":28,"cat":"green"},{"name":"Golf Club Kitchen","lat":51.68436,"lon":-0.10939,"postcode":"EN2 8AZ","la":"Enfield","era":"mod","nn":517,"risk":49,"cat":"amber"},{"name":"Hadley Wood Golf Club","lat":51.66649,"lon":-0.16577,"postcode":"EN4 0JJ","la":"Enfield","era":"other","nn":712,"risk":51,"cat":"amber"},{"name":"Hadley Wood Lawn Tennis Club","lat":51.66858,"lon":-0.17552,"postcode":"EN4 0EL","la":"Enfield","era":"other","nn":712,"risk":51,"cat":"amber"},{"name":"Harvester","lat":51.64356,"lon":-0.02954,"postcode":"EN3 4XX","la":"Enfield","era":"trad","nn":336,"risk":31,"cat":"amber"},{"name":"Holtwhites Sports & Social","lat":51.66028,"lon":-0.09014,"postcode":"EN2 0RU","la":"Enfield","era":"mod","nn":215,"risk":27,"cat":"green"},{"name":"Inn on the Park","lat":51.6769,"lon":-0.02166,"postcode":"EN3 7XY","la":"Enfield","era":"trad","nn":689,"risk":33,"cat":"amber"},{"name":"Jura Lounge","lat":51.64931,"lon":-0.02933,"postcode":"EN3 7TY","la":"Enfield","era":"mod","nn":322,"risk":31,"cat":"amber"},{"name":"Lawns Bar & Restaurant","lat":51.65955,"lon":-0.06114,"postcode":"EN1 4LF","la":"Enfield","era":"mod","nn":82,"risk":31,"cat":"amber"},{"name":"Lion","lat":51.66371,"lon":-0.0445,"postcode":"EN3 5PP","la":"Enfield","era":"trad","nn":588,"risk":30,"cat":"green"},{"name":"Mary Maddens Bar","lat":51.6531,"lon":-0.08041,"postcode":"EN1 3EF","la":"Enfield","era":"other","nn":78,"risk":26,"cat":"green"},{"name":"Misty Bar & Lounge","lat":51.65248,"lon":-0.08095,"postcode":"EN1 3ED","la":"Enfield","era":"mod","nn":78,"risk":26,"cat":"green"},{"name":"Moon Under Water","lat":51.65917,"lon":-0.08758,"postcode":"EN2 6NN","la":"Enfield","era":"other","nn":199,"risk":27,"cat":"green"},{"name":"North Enfield Conservative Club Bar","lat":51.66233,"lon":-0.07844,"postcode":"EN1 3LD","la":"Enfield","era":"other","nn":157,"risk":27,"cat":"green"},{"name":"North Enfield Cricket Club","lat":51.6736,"lon":-0.09853,"postcode":"EN2 9JE","la":"Enfield","era":"other","nn":1056,"risk":56,"cat":"amber"},{"name":"Old Ignatian Association Ltd","lat":51.67397,"lon":-0.05559,"postcode":"EN1 4NW","la":"Enfield","era":"other","nn":1066,"risk":56,"cat":"amber"},{"name":"O'Neill's Enfield","lat":51.65185,"lon":-0.0815,"postcode":"EN2 6LE","la":"Enfield","era":"other","nn":79,"risk":26,"cat":"green"},{"name":"Ponders End Working Mens Social Club Limited","lat":51.64411,"lon":-0.04353,"postcode":"EN3 4LB","la":"Enfield","era":"other","nn":324,"risk":28,"cat":"green"},{"name":"Ponders End Youth Centre","lat":51.6425,"lon":-0.03841,"postcode":"EN3 4PX","la":"Enfield","era":"other","nn":396,"risk":29,"cat":"green"},{"name":"Prince Albert Enfield","lat":51.67127,"lon":-0.04027,"postcode":"EN3 6UP","la":"Enfield","era":"trad","nn":34,"risk":26,"cat":"green"},{"name":"Rammey Marsh Cruising Club","lat":51.67884,"lon":-0.01173,"postcode":"EN9 1AL","la":"Enfield","era":"trad","nn":74,"risk":26,"cat":"green"},{"name":"Royal British Legion","lat":51.64807,"lon":-0.04216,"postcode":"EN3 7AP","la":"Enfield","era":"trad","nn":416,"risk":29,"cat":"green"},{"name":"Royal Small Arms Angling Club","lat":51.67818,"lon":-0.01188,"postcode":"EN9 1AL","la":"Enfield","era":"trad","nn":74,"risk":26,"cat":"green"},{"name":"Southgate Hockey Centre","lat":51.65774,"lon":-0.13683,"postcode":"EN4 0PS","la":"Enfield","era":"other","nn":1120,"risk":56,"cat":"amber"},{"name":"Sun And Woolpack","lat":51.67146,"lon":-0.04067,"postcode":"EN3 6LZ","la":"Enfield","era":"trad","nn":0,"risk":26,"cat":"green"},{"name":"The Cricketers","lat":51.65634,"lon":-0.08736,"postcode":"EN2 6QA","la":"Enfield","era":"other","nn":33,"risk":26,"cat":"green"},{"name":"The Goat","lat":51.64596,"lon":-0.04715,"postcode":"EN3 4EZ","la":"Enfield","era":"other","nn":324,"risk":31,"cat":"amber"},{"name":"The Greyhound","lat":51.66929,"lon":-0.01861,"postcode":"EN3 6HR","la":"Enfield","era":"trad","nn":634,"risk":48,"cat":"amber"},{"name":"The Hop Poles","lat":51.66343,"lon":-0.07701,"postcode":"EN1 3LH","la":"Enfield","era":"other","nn":157,"risk":27,"cat":"green"},{"name":"The Jolly Butchers","lat":51.65947,"lon":-0.08011,"postcode":"EN1 3JS","la":"Enfield","era":"other","nn":104,"risk":27,"cat":"green"},{"name":"The Jolly Farmers","lat":51.65468,"lon":-0.10777,"postcode":"EN2 7QS","la":"Enfield","era":"other","nn":826,"risk":49,"cat":"amber"},{"name":"The King and Tinker","lat":51.68065,"lon":-0.06717,"postcode":"EN2 9HJ","la":"Enfield","era":"trad","nn":1090,"risk":56,"cat":"amber"},{"name":"The Kings Head","lat":51.65271,"lon":-0.08264,"postcode":"EN2 6LL","la":"Enfield","era":"trad","nn":119,"risk":27,"cat":"green"},{"name":"The Lincoln Arms","lat":51.64782,"lon":-0.06553,"postcode":"EN1 1QT","la":"Enfield","era":"trad","nn":658,"risk":33,"cat":"amber"},{"name":"The Old Wheatsheaf","lat":51.6538,"lon":-0.08969,"postcode":"EN2 6SE","la":"Enfield","era":"trad","nn":165,"risk":27,"cat":"green"},{"name":"The Plough","lat":51.68327,"lon":-0.10211,"postcode":"EN2 9DJ","la":"Enfield","era":"trad","nn":517,"risk":49,"cat":"amber"},{"name":"The Railway Inn","lat":51.67097,"lon":-0.0274,"postcode":"EN3 6HA","la":"Enfield","era":"trad","nn":634,"risk":30,"cat":"green"},{"name":"The Ridgeway Tavern","lat":51.6631,"lon":-0.10442,"postcode":"EN2 8JF","la":"Enfield","era":"other","nn":330,"risk":46,"cat":"amber"},{"name":"The Robin Hood","lat":51.6771,"lon":-0.12834,"postcode":"EN2 8AP","la":"Enfield","era":"other","nn":496,"risk":49,"cat":"amber"},{"name":"The Rose & Crown","lat":51.6712,"lon":-0.08372,"postcode":"EN2 9AJ","la":"Enfield","era":"trad","nn":871,"risk":49,"cat":"amber"},{"name":"The Six Bells","lat":51.6609,"lon":-0.08683,"postcode":"EN2 0PT","la":"Enfield","era":"other","nn":199,"risk":27,"cat":"green"},{"name":"The Sporting Green","lat":51.65657,"lon":-0.04718,"postcode":"EN3 5JF","la":"Enfield","era":"other","nn":814,"risk":34,"cat":"amber"},{"name":"The Stag","lat":51.65289,"lon":-0.08652,"postcode":"EN2 6PH","la":"Enfield","era":"trad","nn":134,"risk":27,"cat":"green"},{"name":"The Wheatsheaf","lat":51.66018,"lon":-0.07911,"postcode":"EN1 3JT","la":"Enfield","era":"trad","nn":104,"risk":27,"cat":"green"},{"name":"The White House","lat":51.66871,"lon":-0.0417,"postcode":"EN3 5SU","la":"Enfield","era":"other","nn":302,"risk":30,"cat":"green"},{"name":"The Wonder","lat":51.66344,"lon":-0.08548,"postcode":"EN2 0JG","la":"Enfield","era":"other","nn":298,"risk":28,"cat":"green"},{"name":"VBO Lounge & Bar Restaurant","lat":51.64651,"lon":-0.03052,"postcode":"EN3 7UL","la":"Enfield","era":"mod","nn":322,"risk":28,"cat":"green"},{"name":"Abbey Church Centre","lat":51.68882,"lon":-0.00262,"postcode":"EN9 1XQ","la":"Epping Forest","era":"trad","nn":157,"risk":27,"cat":"green"},{"name":"Bakers Arms Public House","lat":51.66805,"lon":0.00244,"postcode":"EN9 3QF","la":"Epping Forest","era":"trad","nn":469,"risk":49,"cat":"amber"},{"name":"Black Swan PH","lat":51.74319,"lon":0.05677,"postcode":"EN9 2DF","la":"Epping Forest","era":"trad","nn":537,"risk":50,"cat":"amber"},{"name":"Broxbourne Sailing Club","lat":51.74814,"lon":0.00624,"postcode":"EN9 2PB","la":"Epping Forest","era":"other","nn":905,"risk":52,"cat":"amber"},{"name":"Crown Hotel","lat":51.74217,"lon":-0.01308,"postcode":"EN10 6QT","la":"Epping Forest","era":"trad","nn":440,"risk":31,"cat":"amber"},{"name":"King Harolds Head","lat":51.72703,"lon":0.04282,"postcode":"EN9 2RY","la":"Epping Forest","era":"trad","nn":941,"risk":52,"cat":"amber"},{"name":"Macs Sports and Social Bar","lat":51.68671,"lon":0.00746,"postcode":"EN9 1NJ","la":"Epping Forest","era":"mod","nn":256,"risk":28,"cat":"green"},{"name":"Nazeing Golf Club Ltd","lat":51.73101,"lon":0.03076,"postcode":"EN9 2LW","la":"Epping Forest","era":"other","nn":941,"risk":52,"cat":"amber"},{"name":"Pink Zebra","lat":51.68636,"lon":0.00112,"postcode":"EN9 1PH","la":"Epping Forest","era":"other","nn":88,"risk":26,"cat":"green"},{"name":"Rushymead Club House","lat":51.74219,"lon":-0.00272,"postcode":"EN10 6SY","la":"Epping Forest","era":"other","nn":714,"risk":48,"cat":"amber"},{"name":"Sun Inn","lat":51.73885,"lon":0.05335,"postcode":"EN9 2DE","la":"Epping Forest","era":"trad","nn":537,"risk":50,"cat":"amber"},{"name":"The Angel Public House","lat":51.68688,"lon":0.00016,"postcode":"EN9 1EJ","la":"Epping Forest","era":"trad","nn":88,"risk":26,"cat":"green"},{"name":"The Crooked Billet","lat":51.73563,"lon":0.0153,"postcode":"EN9 2LD","la":"Epping Forest","era":"other","nn":1183,"risk":57,"cat":"amber"},{"name":"The Crown","lat":51.6882,"lon":-0.00468,"postcode":"EN9 1QZ","la":"Epping Forest","era":"trad","nn":157,"risk":27,"cat":"green"},{"name":"The Horseshoes Public House","lat":51.68988,"lon":0.04721,"postcode":"EN9 3SN","la":"Epping Forest","era":"trad","nn":1296,"risk":57,"cat":"amber"},{"name":"The Queens Arms","lat":51.68653,"lon":-0.00224,"postcode":"EN9 1DP","la":"Epping Forest","era":"trad","nn":45,"risk":26,"cat":"green"},{"name":"The Queens Head","lat":51.69079,"lon":0.02021,"postcode":"EN9 3LA","la":"Epping Forest","era":"trad","nn":796,"risk":49,"cat":"amber"},{"name":"The Royal British Legion","lat":51.68394,"lon":-0.00109,"postcode":"EN9 1HW","la":"Epping Forest","era":"trad","nn":195,"risk":27,"cat":"green"},{"name":"The Sultan","lat":51.68492,"lon":0.00127,"postcode":"EN9 1PD","la":"Epping Forest","era":"other","nn":161,"risk":27,"cat":"green"},{"name":"The Sun Inn Public House","lat":51.68665,"lon":-0.00162,"postcode":"EN9 1ER","la":"Epping Forest","era":"trad","nn":45,"risk":26,"cat":"green"},{"name":"The Woodbine","lat":51.67862,"lon":0.04242,"postcode":"EN9 3QT","la":"Epping Forest","era":"other","nn":1296,"risk":57,"cat":"amber"},{"name":"Town Mead Sports And Social Club","lat":51.6818,"lon":-0.00289,"postcode":"EN9 1JH","la":"Epping Forest","era":"mod","nn":0,"risk":26,"cat":"green"},{"name":"Waltham Abbey Football Club","lat":51.6823,"lon":0.00535,"postcode":"EN9 1LU","la":"Epping Forest","era":"trad","nn":405,"risk":29,"cat":"green"},{"name":"Waltham Abbey Youth 2000","lat":51.6818,"lon":-0.00289,"postcode":"EN9 1JH","la":"Epping Forest","era":"trad","nn":0,"risk":26,"cat":"green"},{"name":"Waltham Holy Cross Conservative Club","lat":51.68637,"lon":0.01113,"postcode":"EN9 3AS","la":"Epping Forest","era":"trad","nn":256,"risk":28,"cat":"green"},{"name":"Welsh Harp","lat":51.68715,"lon":-0.00254,"postcode":"EN9 1DL","la":"Epping Forest","era":"other","nn":71,"risk":26,"cat":"green"},{"name":"Black Horse","lat":51.69949,"lon":-0.23497,"postcode":"EN6 3PS","la":"Hertsmere","era":"trad","nn":1450,"risk":63,"cat":"red"},{"name":"Bluebeckers At The Duke Of York","lat":51.68152,"lon":-0.18717,"postcode":"EN5 4SG","la":"Hertsmere","era":"trad","nn":1441,"risk":63,"cat":"red"},{"name":"Cask And Stillage","lat":51.69319,"lon":-0.17808,"postcode":"EN6 5AJ","la":"Hertsmere","era":"other","nn":328,"risk":38,"cat":"amber"},{"name":"P Bar Crusaders Sports Club","lat":51.70092,"lon":-0.20519,"postcode":"EN6 3BN","la":"Hertsmere","era":"mod","nn":261,"risk":50,"cat":"amber"},{"name":"Potters  Bar Cricket Club","lat":51.69545,"lon":-0.18316,"postcode":"EN6 1QE","la":"Hertsmere","era":"mod","nn":173,"risk":34,"cat":"amber"},{"name":"Potters Bar Tennis Club","lat":51.69566,"lon":-0.18067,"postcode":"EN6 1QL","la":"Hertsmere","era":"mod","nn":173,"risk":34,"cat":"amber"},{"name":"Royal British Legion","lat":51.69852,"lon":-0.17233,"postcode":"EN6 5JG","la":"Hertsmere","era":"trad","nn":657,"risk":40,"cat":"amber"},{"name":"The Green Dragon","lat":51.67487,"lon":-0.21651,"postcode":"EN5 4RE","la":"Hertsmere","era":"trad","nn":1924,"risk":66,"cat":"red"},{"name":"The Old Guinea","lat":51.6885,"lon":-0.2463,"postcode":"EN6 3LH","la":"Hertsmere","era":"other","nn":1450,"risk":63,"cat":"red"},{"name":"The Old Manor","lat":51.6967,"lon":-0.19375,"postcode":"EN6 2JD","la":"Hertsmere","era":"other","nn":743,"risk":41,"cat":"amber"},{"name":"The Strafford","lat":51.701,"lon":-0.20897,"postcode":"EN6 3BA","la":"Hertsmere","era":"other","nn":261,"risk":52,"cat":"amber"},{"name":"Builders Arms","lat":51.70637,"lon":-0.18202,"postcode":"EN6 1LR","la":"Welwyn Hatfield","era":"trad","nn":1099,"risk":60,"cat":"amber"},{"name":"Judges","lat":51.70567,"lon":-0.15236,"postcode":"EN6 4NL","la":"Welwyn Hatfield","era":"other","nn":285,"risk":52,"cat":"amber"},{"name":"The Plough","lat":51.70986,"lon":-0.11519,"postcode":"EN6 4DW","la":"Welwyn Hatfield","era":"trad","nn":1938,"risk":66,"cat":"red"},{"name":"The Two Brewers","lat":51.70407,"lon":-0.14914,"postcode":"EN6 4NW","la":"Welwyn Hatfield","era":"other","nn":285,"risk":52,"cat":"amber"}]