[{"name":"Belvedere Sports & Social Club","lat":51.48298,"lon":0.13652,"postcode":"SE2 0DY","la":"Bexley","era":"mod","nn":315,"risk":27,"cat":"green"},{"name":"Falcon Harvester","lat":51.45925,"lon":0.07981,"postcode":"SE9 2RN","la":"Bexley","era":"trad","nn":969,"risk":52,"cat":"amber"},{"name":"Sporting Club Thamesmead Football Club","lat":51.50581,"lon":0.12921,"postcode":"SE28 8NJ","la":"Bexley","era":"other","nn":1325,"risk":57,"cat":"amber"},{"name":"Anerley Arms","lat":51.41338,"lon":-0.06624,"postcode":"SE20 8AB","la":"Bromley","era":"trad","nn":400,"risk":26,"cat":"green"},{"name":"Bannatyne Health Club","lat":51.43564,"lon":0.02549,"postcode":"SE12 9PN","la":"Bromley","era":"other","nn":1043,"risk":53,"cat":"amber"},{"name":"Bridge House Tavern","lat":51.41807,"lon":-0.06066,"postcode":"SE20 8RZ","la":"Bromley","era":"mod","nn":289,"risk":26,"cat":"green"},{"name":"Conservative Club","lat":51.41133,"lon":-0.05467,"postcode":"SE20 7TG","la":"Bromley","era":"other","nn":150,"risk":25,"cat":"green"},{"name":"Craft Metropolis","lat":51.41713,"lon":-0.05677,"postcode":"SE20 7HW","la":"Bromley","era":"mod","nn":289,"risk":26,"cat":"green"},{"name":"Crooked Billet","lat":51.41574,"lon":-0.05302,"postcode":"SE20 7DT","la":"Bromley","era":"other","nn":54,"risk":24,"cat":"green"},{"name":"Goldsmiths Arms","lat":51.41294,"lon":-0.05264,"postcode":"SE20 7TJ","la":"Bromley","era":"trad","nn":136,"risk":25,"cat":"green"},{"name":"Maple Tree","lat":51.41151,"lon":-0.05861,"postcode":"SE20 8HE","la":"Bromley","era":"other","nn":274,"risk":26,"cat":"green"},{"name":"Moon And Stars","lat":51.4124,"lon":-0.05056,"postcode":"SE20 7QS","la":"Bromley","era":"other","nn":156,"risk":25,"cat":"green"},{"name":"Pawleyne Arms","lat":51.41413,"lon":-0.05217,"postcode":"SE20 7EU","la":"Bromley","era":"trad","nn":136,"risk":25,"cat":"green"},{"name":"Penge Brewing Co","lat":51.41589,"lon":-0.05228,"postcode":"SE20 7JD","la":"Bromley","era":"other","nn":54,"risk":24,"cat":"green"},{"name":"Prince Of Wales","lat":51.43359,"lon":0.04769,"postcode":"SE9 4SP","la":"Bromley","era":"trad","nn":328,"risk":46,"cat":"amber"},{"name":"South East London Masonic Club","lat":51.41039,"lon":-0.05312,"postcode":"SE20 7RT","la":"Bromley","era":"trad","nn":150,"risk":25,"cat":"green"},{"name":"Sydenham Lawn Tennis And Croquet Club","lat":51.42165,"lon":-0.05938,"postcode":"SE26 6ET","la":"Bromley","era":"other","nn":407,"risk":26,"cat":"green"},{"name":"The Alexandra","lat":51.41617,"lon":-0.04956,"postcode":"SE20 7JH","la":"Bromley","era":"other","nn":191,"risk":25,"cat":"green"},{"name":"The Alma","lat":51.4176,"lon":-0.08051,"postcode":"SE19 2TA","la":"Bromley","era":"other","nn":73,"risk":24,"cat":"green"},{"name":"The Douglas Fir","lat":51.41496,"lon":-0.07142,"postcode":"SE20 8DL","la":"Bromley","era":"other","nn":400,"risk":26,"cat":"green"},{"name":"Edf Energy London Eye, Silver Bonito","lat":51.50316,"lon":-0.11931,"postcode":"SE1 7PB","la":"Lambeth","era":"other","nn":37,"risk":24,"cat":"green"},{"name":"1885 Lounge","lat":51.39927,"lon":-0.07531,"postcode":"SE25 6EZ","la":"Croydon","era":"mod","nn":30,"risk":27,"cat":"green"},{"name":"Cocktail Embassy","lat":51.41962,"lon":-0.0793,"postcode":"SE19 1SB","la":"Croydon","era":"other","nn":31,"risk":27,"cat":"green"},{"name":"Royal Albert","lat":51.41965,"lon":-0.08145,"postcode":"SE19 1RX","la":"Croydon","era":"trad","nn":0,"risk":26,"cat":"green"},{"name":"The Albert Tavern","lat":51.39749,"lon":-0.06662,"postcode":"SE25 4LX","la":"Croydon","era":"other","nn":365,"risk":29,"cat":"green"},{"name":"The Albion","lat":51.39999,"lon":-0.07422,"postcode":"SE25 6HA","la":"Croydon","era":"other","nn":110,"risk":27,"cat":"green"},{"name":"The Cherry Tree","lat":51.39737,"lon":-0.07558,"postcode":"SE25 5AG","la":"Croydon","era":"other","nn":128,"risk":27,"cat":"green"},{"name":"The Clifton Arms","lat":51.39623,"lon":-0.08602,"postcode":"SE25 6NJ","la":"Croydon","era":"trad","nn":526,"risk":30,"cat":"green"},{"name":"The Conquering Hero","lat":51.41974,"lon":-0.10632,"postcode":"SE19 3HF","la":"Croydon","era":"other","nn":1237,"risk":58,"cat":"amber"},{"name":"The Joiners Arms","lat":51.38685,"lon":-0.07053,"postcode":"SE25 5EU","la":"Croydon","era":"trad","nn":795,"risk":49,"cat":"amber"},{"name":"The Jolly Sailor","lat":51.39901,"lon":-0.07518,"postcode":"SE25 6EB","la":"Croydon","era":"other","nn":30,"risk":27,"cat":"green"},{"name":"The Portland Arms","lat":51.39425,"lon":-0.06748,"postcode":"SE25 4PT","la":"Croydon","era":"trad","nn":365,"risk":29,"cat":"green"},{"name":"The Sparrowhawk","lat":51.41965,"lon":-0.08145,"postcode":"SE19 1RX","la":"Croydon","era":"other","nn":0,"risk":26,"cat":"green"},{"name":"The White Hart","lat":51.41723,"lon":-0.08138,"postcode":"SE19 2EZ","la":"Croydon","era":"trad","nn":73,"risk":27,"cat":"green"},{"name":"Trude Rotisserie","lat":51.39849,"lon":-0.07593,"postcode":"SE25 6EA","la":"Croydon","era":"other","nn":78,"risk":27,"cat":"green"},{"name":"Abbey Arms","lat":51.4907,"lon":0.12107,"postcode":"SE2 9RH","la":"Greenwich","era":"trad","nn":890,"risk":52,"cat":"amber"},{"name":"Anchor & Hope","lat":51.49362,"lon":0.02875,"postcode":"SE7 7SS","la":"Greenwich","era":"trad","nn":673,"risk":48,"cat":"amber"},{"name":"Angerstein Hotel","lat":51.48631,"lon":0.01748,"postcode":"SE10 0LE","la":"Greenwich","era":"other","nn":328,"risk":31,"cat":"amber"},{"name":"Anglesea Arms","lat":51.48869,"lon":0.06712,"postcode":"SE18 6EF","la":"Greenwich","era":"trad","nn":137,"risk":27,"cat":"green"},{"name":"Ashburnham Arms","lat":51.47577,"lon":-0.01522,"postcode":"SE10 8UH","la":"Greenwich","era":"trad","nn":158,"risk":27,"cat":"green"},{"name":"Bang Bang Burger","lat":51.4817,"lon":-0.00982,"postcode":"SE10 9BL","la":"Greenwich","era":"other","nn":0,"risk":26,"cat":"green"},{"name":"Belushi's","lat":51.47803,"lon":-0.01276,"postcode":"SE10 8JA","la":"Greenwich","era":"other","nn":264,"risk":28,"cat":"green"},{"name":"Berry & Barrel Limited","lat":51.45666,"lon":0.05118,"postcode":"SE9 6SP","la":"Greenwich","era":"other","nn":586,"risk":30,"cat":"green"},{"name":"Blackheath & Newbridge","lat":51.47812,"lon":0.0222,"postcode":"SE3 7HG","la":"Greenwich","era":"other","nn":257,"risk":28,"cat":"green"},{"name":"Blackheath Cricket Club","lat":51.47933,"lon":0.02786,"postcode":"SE7 7EY","la":"Greenwich","era":"other","nn":366,"risk":31,"cat":"amber"},{"name":"British Oak","lat":51.47622,"lon":0.02613,"postcode":"SE3 8SU","la":"Greenwich","era":"trad","nn":345,"risk":29,"cat":"green"},{"name":"Bull Tavern","lat":51.48952,"lon":0.06938,"postcode":"SE18 6RF","la":"Greenwich","era":"trad","nn":150,"risk":27,"cat":"green"},{"name":"Charlton Park Rugby Club","lat":51.4658,"lon":0.03634,"postcode":"SE3 8NB","la":"Greenwich","era":"other","nn":748,"risk":49,"cat":"amber"},{"name":"Crofton Albion Sports & Social Club","lat":51.45749,"lon":0.01857,"postcode":"SE12 8HF","la":"Greenwich","era":"mod","nn":560,"risk":33,"cat":"amber"},{"name":"Crown","lat":51.48495,"lon":0.00474,"postcode":"SE10 9TZ","la":"Greenwich","era":"trad","nn":265,"risk":28,"cat":"green"},{"name":"Cutty Sark Tavern","lat":51.48631,"lon":-0.00036,"postcode":"SE10 9PD","la":"Greenwich","era":"other","nn":212,"risk":28,"cat":"green"},{"name":"Dial Arch","lat":51.49258,"lon":0.06974,"postcode":"SE18 6GH","la":"Greenwich","era":"other","nn":0,"risk":26,"cat":"green"},{"name":"Elephant and Castle","lat":51.49082,"lon":0.06885,"postcode":"SE18 6JY","la":"Greenwich","era":"other","nn":150,"risk":27,"cat":"green"},{"name":"Eltham GPO","lat":51.45032,"lon":0.05373,"postcode":"SE9 5DQ","la":"Greenwich","era":"other","nn":80,"risk":27,"cat":"green"},{"name":"Eltham Hill Club & Instit","lat":51.45167,"lon":0.04661,"postcode":"SE9 5SU","la":"Greenwich","era":"other","nn":207,"risk":28,"cat":"green"},{"name":"Enderby house","lat":51.49069,"lon":0.00279,"postcode":"SE10 0TH","la":"Greenwich","era":"other","nn":418,"risk":29,"cat":"green"},{"name":"Farmhouse Public House","lat":51.42679,"lon":0.0588,"postcode":"SE9 3DH","la":"Greenwich","era":"mod","nn":1068,"risk":56,"cat":"amber"},{"name":"Footscray Rugby Sports Athletics Club","lat":51.44206,"lon":0.06591,"postcode":"SE9 2EL","la":"Greenwich","era":"other","nn":265,"risk":28,"cat":"green"},{"name":"Fox & Hounds","lat":51.48232,"lon":0.06973,"postcode":"SE18 3AS","la":"Greenwich","era":"trad","nn":630,"risk":31,"cat":"amber"},{"name":"George & Dragon","lat":51.47289,"lon":-0.01517,"postcode":"SE10 8DE","la":"Greenwich","era":"trad","nn":35,"risk":26,"cat":"green"},{"name":"Great Harry (Wetherspoons)","lat":51.48989,"lon":0.0667,"postcode":"SE18 6PQ","la":"Greenwich","era":"other","nn":48,"risk":27,"cat":"green"},{"name":"Guildford Arms","lat":51.47436,"lon":-0.01487,"postcode":"SE10 8JY","la":"Greenwich","era":"trad","nn":137,"risk":27,"cat":"green"},{"name":"Hardys Free house","lat":51.48392,"lon":0.00129,"postcode":"SE10 9UW","la":"Greenwich","era":"other","nn":127,"risk":27,"cat":"green"},{"name":"Hungry Horse (Fox Under the Hill)","lat":51.47377,"lon":0.0397,"postcode":"SE18 4LT","la":"Greenwich","era":"trad","nn":624,"risk":36,"cat":"amber"},{"name":"King's Arms","lat":51.48091,"lon":-0.00809,"postcode":"SE10 9JH","la":"Greenwich","era":"trad","nn":86,"risk":27,"cat":"green"},{"name":"M'Arks Sky Bar","lat":51.45047,"lon":0.05664,"postcode":"SE9 1BJ","la":"Greenwich","era":"other","nn":139,"risk":27,"cat":"green"},{"name":"Meridian Sports & Social Club","lat":51.47869,"lon":0.04406,"postcode":"SE7 8QS","la":"Greenwich","era":"mod","nn":624,"risk":51,"cat":"amber"},{"name":"Mitre","lat":51.48017,"lon":-0.00975,"postcode":"SE10 8NA","la":"Greenwich","era":"other","nn":138,"risk":27,"cat":"green"},{"name":"New Eltham Conservative Club Ltd","lat":51.43582,"lon":0.06849,"postcode":"SE9 3QE","la":"Greenwich","era":"other","nn":410,"risk":29,"cat":"green"},{"name":"New Eltham Social Club","lat":51.43864,"lon":0.07471,"postcode":"SE9 2BD","la":"Greenwich","era":"mod","nn":273,"risk":28,"cat":"green"},{"name":"North Pole Bar & Restaurant","lat":51.47689,"lon":-0.01678,"postcode":"SE10 8JA","la":"Greenwich","era":"mod","nn":165,"risk":27,"cat":"green"},{"name":"Old Brewery","lat":51.48243,"lon":-0.00607,"postcode":"SE10 9LW","la":"Greenwich","era":"other","nn":219,"risk":28,"cat":"green"},{"name":"Olivers","lat":51.4796,"lon":-0.00798,"postcode":"SE10 9JL","la":"Greenwich","era":"other","nn":138,"risk":27,"cat":"green"},{"name":"Park Tavern","lat":51.44977,"lon":0.05446,"postcode":"SE9 5DA","la":"Greenwich","era":"other","nn":80,"risk":27,"cat":"green"},{"name":"Plumstead Common Working Mens Club","lat":51.47912,"lon":0.08934,"postcode":"SE18 2JS","la":"Greenwich","era":"trad","nn":464,"risk":29,"cat":"green"},{"name":"Plumstead Radical Club","lat":51.48931,"lon":0.0847,"postcode":"SE18 7DZ","la":"Greenwich","era":"other","nn":212,"risk":28,"cat":"green"},{"name":"Prince of Greenwich","lat":51.47625,"lon":-0.00999,"postcode":"SE10 8RT","la":"Greenwich","era":"trad","nn":41,"risk":26,"cat":"green"},{"name":"Richard 1","lat":51.47658,"lon":-0.00973,"postcode":"SE10 8RT","la":"Greenwich","era":"other","nn":41,"risk":26,"cat":"green"},{"name":"Rising Sun","lat":51.45099,"lon":0.05847,"postcode":"SE9 1TS","la":"Greenwich","era":"other","nn":139,"risk":27,"cat":"green"},{"name":"Roses Public House","lat":51.4932,"lon":0.06341,"postcode":"SE18 6NE","la":"Greenwich","era":"other","nn":135,"risk":27,"cat":"green"},{"name":"Royal Standard","lat":51.47695,"lon":0.01661,"postcode":"SE3 7JQ","la":"Greenwich","era":"trad","nn":156,"risk":27,"cat":"green"},{"name":"SALT WOOLWICH","lat":51.49238,"lon":0.07172,"postcode":"SE18 6GD","la":"Greenwich","era":"other","nn":140,"risk":27,"cat":"green"},{"name":"SET Vault","lat":51.49348,"lon":0.06543,"postcode":"SE18 6BU","la":"Greenwich","era":"other","nn":144,"risk":27,"cat":"green"},{"name":"Shooters Hill Golf Club Ltd","lat":51.4718,"lon":0.07329,"postcode":"SE18 3DA","la":"Greenwich","era":"other","nn":255,"risk":33,"cat":"amber"},{"name":"sourdough saloon pizza @thestarse18","lat":51.48081,"lon":0.07851,"postcode":"SE18 2UL","la":"Greenwich","era":"other","nn":0,"risk":26,"cat":"green"},{"name":"Spanish Galleon","lat":51.4817,"lon":-0.00982,"postcode":"SE10 9BL","la":"Greenwich","era":"other","nn":0,"risk":26,"cat":"green"},{"name":"St Patricks Social Club","lat":51.48744,"lon":0.08527,"postcode":"SE18 1AQ","la":"Greenwich","era":"mod","nn":212,"risk":28,"cat":"green"},{"name":"Star INN","lat":51.48081,"lon":0.07851,"postcode":"SE18 2UL","la":"Greenwich","era":"trad","nn":0,"risk":26,"cat":"green"},{"name":"Star of Greenwich","lat":51.48421,"lon":-0.00049,"postcode":"SE10 9NY","la":"Greenwich","era":"other","nn":127,"risk":27,"cat":"green"},{"name":"STC2 Sports Club","lat":51.43969,"lon":0.0663,"postcode":"SE9 2AJ","la":"Greenwich","era":"other","nn":265,"risk":28,"cat":"green"},{"name":"Studio 338","lat":51.49543,"lon":0.00479,"postcode":"SE10 0PF","la":"Greenwich","era":"mod","nn":391,"risk":34,"cat":"amber"},{"name":"The Bankers Draft","lat":51.45058,"lon":0.05229,"postcode":"SE9 1BW","la":"Greenwich","era":"other","nn":104,"risk":27,"cat":"green"},{"name":"The Bat and Ball","lat":51.43632,"lon":0.04592,"postcode":"SE9 4TH","la":"Greenwich","era":"other","nn":328,"risk":49,"cat":"amber"},{"name":"The Beehive","lat":51.43919,"lon":0.07087,"postcode":"SE9 2DR","la":"Greenwich","era":"other","nn":273,"risk":28,"cat":"green"},{"name":"The Belfry","lat":51.48793,"lon":0.09008,"postcode":"SE18 1SJ","la":"Greenwich","era":"other","nn":153,"risk":27,"cat":"green"},{"name":"The Birchwood P.H","lat":51.49778,"lon":0.11508,"postcode":"SE2 9BB","la":"Greenwich","era":"other","nn":890,"risk":52,"cat":"amber"},{"name":"The Brockleians RFC","lat":51.44925,"lon":0.03682,"postcode":"SE9 5LX","la":"Greenwich","era":"other","nn":730,"risk":36,"cat":"amber"},{"name":"The Bull Hotel","lat":51.46878,"lon":0.07053,"postcode":"SE18 3HP","la":"Greenwich","era":"trad","nn":297,"risk":33,"cat":"amber"},{"name":"The Castle Tavern Amma\u2019s Fare","lat":51.4927,"lon":0.06163,"postcode":"SE18 6JL","la":"Greenwich","era":"other","nn":135,"risk":27,"cat":"green"},{"name":"The Coach & Horses","lat":51.48148,"lon":-0.00895,"postcode":"SE10 9HZ","la":"Greenwich","era":"trad","nn":65,"risk":27,"cat":"green"},{"name":"The Cutty Sark","lat":51.50708,"lon":0.10704,"postcode":"SE28 8RA","la":"Greenwich","era":"other","nn":1174,"risk":57,"cat":"amber"},{"name":"The Depot","lat":51.46188,"lon":0.02757,"postcode":"SE3 9FW","la":"Greenwich","era":"mod","nn":748,"risk":49,"cat":"amber"},{"name":"The Draughts P.H","lat":51.45097,"lon":0.05015,"postcode":"SE9 1BT","la":"Greenwich","era":"other","nn":50,"risk":27,"cat":"green"},{"name":"The Duke","lat":51.4812,"lon":-0.02041,"postcode":"SE8 3BU","la":"Greenwich","era":"trad","nn":431,"risk":29,"cat":"green"},{"name":"The Duke of Greenwich","lat":51.48341,"lon":0.00792,"postcode":"SE10 9EZ","la":"Greenwich","era":"trad","nn":278,"risk":28,"cat":"green"},{"name":"The Earl of Chatham","lat":51.49031,"lon":0.06653,"postcode":"SE18 6HU","la":"Greenwich","era":"other","nn":48,"risk":27,"cat":"green"},{"name":"The George IV","lat":51.49048,"lon":0.06058,"postcode":"SE18 5BY","la":"Greenwich","era":"trad","nn":258,"risk":28,"cat":"green"},{"name":"The Gipsy Moth","lat":51.4823,"lon":-0.00972,"postcode":"SE10 9BL","la":"Greenwich","era":"other","nn":67,"risk":27,"cat":"green"},{"name":"The Graduate","lat":51.47317,"lon":-0.0154,"postcode":"SE10 8PD","la":"Greenwich","era":"other","nn":35,"risk":26,"cat":"green"},{"name":"The Green Goddess","lat":51.47713,"lon":0.01884,"postcode":"SE3 7AA","la":"Greenwich","era":"other","nn":156,"risk":30,"cat":"green"},{"name":"The Greyhound","lat":51.4926,"lon":0.05557,"postcode":"SE18 5QE","la":"Greenwich","era":"trad","nn":420,"risk":29,"cat":"green"},{"name":"The Guard House","lat":51.49258,"lon":0.06974,"postcode":"SE18 6GH","la":"Greenwich","era":"other","nn":0,"risk":26,"cat":"green"},{"name":"The Long Pond","lat":51.45694,"lon":0.05962,"postcode":"SE9 1UT","la":"Greenwich","era":"other","nn":586,"risk":30,"cat":"green"},{"name":"The Old Mill","lat":51.48171,"lon":0.0841,"postcode":"SE18 1QG","la":"Greenwich","era":"trad","nn":277,"risk":28,"cat":"green"},{"name":"The Pavillion Sports & Leisure Club","lat":51.4459,"lon":0.06362,"postcode":"SE9 2SY","la":"Greenwich","era":"trad","nn":455,"risk":29,"cat":"green"},{"name":"The Pelton Arms","lat":51.48693,"lon":0.00254,"postcode":"SE10 9PQ","la":"Greenwich","era":"trad","nn":212,"risk":28,"cat":"green"},{"name":"The Pilot Inn","lat":51.49621,"lon":0.0103,"postcode":"SE10 0BE","la":"Greenwich","era":"trad","nn":391,"risk":46,"cat":"amber"},{"name":"The Plum Tree Beer Shop","lat":51.48083,"lon":0.07866,"postcode":"SE18 2UL","la":"Greenwich","era":"other","nn":11,"risk":26,"cat":"green"},{"name":"The Red Lion","lat":51.47069,"lon":0.06025,"postcode":"SE18 3RN","la":"Greenwich","era":"trad","nn":657,"risk":36,"cat":"amber"},{"name":"The River Ale House","lat":51.48629,"lon":0.01274,"postcode":"SE10 0RJ","la":"Greenwich","era":"other","nn":328,"risk":29,"cat":"green"},{"name":"The Rose Inn","lat":51.48607,"lon":0.07897,"postcode":"SE18 7TN","la":"Greenwich","era":"trad","nn":462,"risk":29,"cat":"green"},{"name":"The Royal Oak","lat":51.48835,"lon":0.03938,"postcode":"SE7 8LA","la":"Greenwich","era":"trad","nn":940,"risk":53,"cat":"amber"},{"name":"The Sail Loft","lat":51.48299,"lon":-0.01428,"postcode":"SE10 9FR","la":"Greenwich","era":"other","nn":325,"risk":28,"cat":"green"},{"name":"The Ship","lat":51.4811,"lon":0.08021,"postcode":"SE18 2UJ","la":"Greenwich","era":"trad","nn":112,"risk":27,"cat":"green"},{"name":"The Trafalgar Rowing Centre","lat":51.4847,"lon":-0.00405,"postcode":"SE10 9NP","la":"Greenwich","era":"other","nn":12,"risk":26,"cat":"green"},{"name":"The Volunteer","lat":51.48734,"lon":0.09208,"postcode":"SE18 1JQ","la":"Greenwich","era":"other","nn":153,"risk":27,"cat":"green"},{"name":"The Yacht","lat":51.4847,"lon":-0.00388,"postcode":"SE10 9NP","la":"Greenwich","era":"other","nn":12,"risk":26,"cat":"green"},{"name":"Trafalgar Tavern","lat":51.48407,"lon":-0.00355,"postcode":"SE10 9NW","la":"Greenwich","era":"other","nn":74,"risk":27,"cat":"green"},{"name":"White Hart Eltham","lat":51.45113,"lon":0.04946,"postcode":"SE9 1DA","la":"Greenwich","era":"trad","nn":50,"risk":27,"cat":"green"},{"name":"Woolwich & Plumstead BC","lat":51.47139,"lon":0.06967,"postcode":"SE18 3DB","la":"Greenwich","era":"other","nn":255,"risk":33,"cat":"amber"},{"name":"All Bar One","lat":51.50256,"lon":-0.11674,"postcode":"SE1 7PY","la":"Lambeth","era":"mod","nn":0,"risk":23,"cat":"green"},{"name":"Ashtar Lounge","lat":51.48798,"lon":-0.12375,"postcode":"SE1 7TP","la":"Lambeth","era":"mod","nn":122,"risk":24,"cat":"green"},{"name":"Bar Elba (Roof Top)","lat":51.50273,"lon":-0.11008,"postcode":"SE1 8UL","la":"Lambeth","era":"mod","nn":141,"risk":24,"cat":"green"},{"name":"Commercial Hotel","lat":51.45297,"lon":-0.10265,"postcode":"SE24 0JT","la":"Lambeth","era":"other","nn":33,"risk":26,"cat":"green"},{"name":"Duchy Arms","lat":51.48893,"lon":-0.11311,"postcode":"SE11 5UG","la":"Lambeth","era":"trad","nn":114,"risk":24,"cat":"green"},{"name":"Eagle London South Central","lat":51.48621,"lon":-0.11943,"postcode":"SE11 5QY","la":"Lambeth","era":"trad","nn":0,"risk":23,"cat":"green"},{"name":"Hanover Arms","lat":51.48168,"lon":-0.11309,"postcode":"SE11 4PP","la":"Lambeth","era":"trad","nn":0,"risk":23,"cat":"green"},{"name":"Hole In The Wall","lat":51.50411,"lon":-0.11368,"postcode":"SE1 8SQ","la":"Lambeth","era":"other","nn":90,"risk":24,"cat":"green"},{"name":"Kings Arms","lat":51.49002,"lon":-0.1082,"postcode":"SE11 4XD","la":"Lambeth","era":"trad","nn":177,"risk":25,"cat":"green"},{"name":"Knowles Of Norwood","lat":51.43526,"lon":-0.1044,"postcode":"SE27 9AF","la":"Lambeth","era":"other","nn":454,"risk":27,"cat":"green"},{"name":"Metropolis London Bar","lat":51.48745,"lon":-0.12219,"postcode":"SE11 5AW","la":"Lambeth","era":"other","nn":45,"risk":24,"cat":"green"},{"name":"Mother Kelly's","lat":51.48705,"lon":-0.12222,"postcode":"SE11 5AW","la":"Lambeth","era":"other","nn":45,"risk":24,"cat":"green"},{"name":"Namco Funscape","lat":51.50283,"lon":-0.11926,"postcode":"SE1 7PB","la":"Lambeth","era":"other","nn":37,"risk":24,"cat":"green"},{"name":"Old Red Lion","lat":51.48935,"lon":-0.1054,"postcode":"SE11 4RS","la":"Lambeth","era":"trad","nn":3,"risk":23,"cat":"green"},{"name":"Prince Of Wales","lat":51.48813,"lon":-0.10875,"postcode":"SE11 4EA","la":"Lambeth","era":"trad","nn":148,"risk":25,"cat":"green"},{"name":"Railway Bell","lat":51.42268,"lon":-0.08277,"postcode":"SE19 1PF","la":"Lambeth","era":"trad","nn":81,"risk":24,"cat":"green"},{"name":"Railway Tavern","lat":51.4399,"lon":-0.10572,"postcode":"SE27 9BW","la":"Lambeth","era":"trad","nn":221,"risk":25,"cat":"green"},{"name":"Royal National Theatre","lat":51.50721,"lon":-0.11364,"postcode":"SE1 9PX","la":"Lambeth","era":"trad","nn":237,"risk":25,"cat":"green"},{"name":"Royal Oak","lat":51.48621,"lon":-0.11943,"postcode":"SE11 5QY","la":"Lambeth","era":"trad","nn":0,"risk":23,"cat":"green"},{"name":"Royal Oak","lat":51.49325,"lon":-0.11292,"postcode":"SE11 6QU","la":"Lambeth","era":"trad","nn":198,"risk":25,"cat":"green"},{"name":"Slug \\\\&  Lettuce","lat":51.50256,"lon":-0.11674,"postcode":"SE1 7PY","la":"Lambeth","era":"other","nn":0,"risk":23,"cat":"green"},{"name":"The Anchor And Hope","lat":51.50352,"lon":-0.10669,"postcode":"SE1 8LP","la":"Lambeth","era":"trad","nn":111,"risk":24,"cat":"green"},{"name":"The Beehive","lat":51.48513,"lon":-0.11886,"postcode":"SE11 5JA","la":"Lambeth","era":"other","nn":127,"risk":24,"cat":"green"},{"name":"The Black Dog","lat":51.48876,"lon":-0.12108,"postcode":"SE11 5ER","la":"Lambeth","era":"other","nn":145,"risk":24,"cat":"green"},{"name":"The Black Prince","lat":51.48974,"lon":-0.11211,"postcode":"SE11 6HS","la":"Lambeth","era":"trad","nn":99,"risk":24,"cat":"green"},{"name":"The Bricklayers Arms","lat":51.4301,"lon":-0.09154,"postcode":"SE27 9RZ","la":"Lambeth","era":"trad","nn":383,"risk":26,"cat":"green"},{"name":"The Brown Derby","lat":51.48168,"lon":-0.11309,"postcode":"SE11 4PP","la":"Lambeth","era":"other","nn":0,"risk":23,"cat":"green"},{"name":"The Dog House","lat":51.49003,"lon":-0.11076,"postcode":"SE11 6BY","la":"Lambeth","era":"other","nn":99,"risk":24,"cat":"green"},{"name":"The Duke Of Sussex","lat":51.50105,"lon":-0.11026,"postcode":"SE1 7AY","la":"Lambeth","era":"trad","nn":110,"risk":24,"cat":"green"},{"name":"The Florence","lat":51.45279,"lon":-0.10303,"postcode":"SE24 0NG","la":"Lambeth","era":"other","nn":33,"risk":26,"cat":"green"},{"name":"The Golden Goose","lat":51.47801,"lon":-0.1034,"postcode":"SE5 0RR","la":"Lambeth","era":"other","nn":207,"risk":25,"cat":"green"},{"name":"The Great North Wood","lat":51.431,"lon":-0.1041,"postcode":"SE27 0HS","la":"Lambeth","era":"other","nn":35,"risk":24,"cat":"green"},{"name":"The Great Southern","lat":51.42312,"lon":-0.0837,"postcode":"SE19 1QH","la":"Lambeth","era":"other","nn":81,"risk":24,"cat":"green"},{"name":"The Hope","lat":51.43048,"lon":-0.10169,"postcode":"SE27 9JS","la":"Lambeth","era":"other","nn":177,"risk":25,"cat":"green"},{"name":"The Horns Tavern","lat":51.43118,"lon":-0.10451,"postcode":"SE27 0JD","la":"Lambeth","era":"other","nn":35,"risk":24,"cat":"green"},{"name":"The Horse And Stables","lat":51.49973,"lon":-0.11377,"postcode":"SE1 7RW","la":"Lambeth","era":"trad","nn":8,"risk":24,"cat":"green"},{"name":"The Kennington","lat":51.47912,"lon":-0.10598,"postcode":"SE5 0RS","la":"Lambeth","era":"other","nn":218,"risk":25,"cat":"green"},{"name":"The Kings Arms","lat":51.50458,"lon":-0.10981,"postcode":"SE1 8TB","la":"Lambeth","era":"trad","nn":145,"risk":24,"cat":"green"},{"name":"The Mansion House","lat":51.48934,"lon":-0.10536,"postcode":"SE11 4RS","la":"Lambeth","era":"other","nn":3,"risk":23,"cat":"green"},{"name":"The Mulberry Bush","lat":51.50745,"lon":-0.11024,"postcode":"SE1 9PP","la":"Lambeth","era":"other","nn":237,"risk":25,"cat":"green"},{"name":"The New Crown & Cushion","lat":51.49946,"lon":-0.11404,"postcode":"SE1 7HR","la":"Lambeth","era":"trad","nn":35,"risk":24,"cat":"green"},{"name":"The Paxton","lat":51.42754,"lon":-0.08783,"postcode":"SE27 9QY","la":"Lambeth","era":"other","nn":0,"risk":23,"cat":"green"},{"name":"The Pilgrim","lat":51.48675,"lon":-0.11354,"postcode":"SE11 5QU","la":"Lambeth","era":"other","nn":244,"risk":25,"cat":"green"},{"name":"The Pineapple","lat":51.49724,"lon":-0.11375,"postcode":"SE1 7DZ","la":"Lambeth","era":"other","nn":81,"risk":24,"cat":"green"},{"name":"The Prince Regent","lat":51.45425,"lon":-0.10757,"postcode":"SE24 0NJ","la":"Lambeth","era":"trad","nn":355,"risk":26,"cat":"green"},{"name":"The Rose","lat":51.48962,"lon":-0.12266,"postcode":"SE1 7TL","la":"Lambeth","era":"other","nn":145,"risk":24,"cat":"green"},{"name":"The Rosendale","lat":51.43572,"lon":-0.0942,"postcode":"SE21 8EZ","la":"Lambeth","era":"other","nn":419,"risk":26,"cat":"green"},{"name":"The Royal Vauxhall Tavern","lat":51.48653,"lon":-0.11972,"postcode":"SE11 5HY","la":"Lambeth","era":"trad","nn":42,"risk":24,"cat":"green"},{"name":"The Stage Door Public House","lat":51.50127,"lon":-0.10756,"postcode":"SE1 8QA","la":"Lambeth","era":"trad","nn":189,"risk":25,"cat":"green"},{"name":"The Steam Engine","lat":51.49718,"lon":-0.11258,"postcode":"SE1 7BU","la":"Lambeth","era":"other","nn":81,"risk":24,"cat":"green"},{"name":"The Sun Of Camberwell","lat":51.46968,"lon":-0.09576,"postcode":"SE5 9NS","la":"Lambeth","era":"other","nn":363,"risk":26,"cat":"green"},{"name":"The Tankard","lat":51.49421,"lon":-0.11052,"postcode":"SE11 6SF","la":"Lambeth","era":"other","nn":198,"risk":25,"cat":"green"},{"name":"The Three Stags","lat":51.4969,"lon":-0.11135,"postcode":"SE1 7PZ","la":"Lambeth","era":"trad","nn":91,"risk":24,"cat":"green"},{"name":"The Tommyfield","lat":51.48895,"lon":-0.11043,"postcode":"SE11 4EZ","la":"Lambeth","era":"other","nn":123,"risk":24,"cat":"green"},{"name":"The Two Towers","lat":51.42754,"lon":-0.08783,"postcode":"SE27 9QY","la":"Lambeth","era":"other","nn":0,"risk":23,"cat":"green"},{"name":"The Victory Pub \\\\& Kitchen","lat":51.50316,"lon":-0.11327,"postcode":"SE1 7LY","la":"Lambeth","era":"mod","nn":109,"risk":24,"cat":"green"},{"name":"The Walrus","lat":51.49978,"lon":-0.1137,"postcode":"SE1 7RW","la":"Lambeth","era":"other","nn":8,"risk":24,"cat":"green"},{"name":"The Wellington Hotel","lat":51.50409,"lon":-0.11176,"postcode":"SE1 8UD","la":"Lambeth","era":"trad","nn":133,"risk":24,"cat":"green"},{"name":"The White Bear","lat":51.48675,"lon":-0.10803,"postcode":"SE11 4DJ","la":"Lambeth","era":"other","nn":161,"risk":25,"cat":"green"},{"name":"The Windmill","lat":51.49313,"lon":-0.12052,"postcode":"SE1 7JS","la":"Lambeth","era":"trad","nn":194,"risk":25,"cat":"green"},{"name":"The Windmill","lat":51.50305,"lon":-0.1081,"postcode":"SE1 8LW","la":"Lambeth","era":"trad","nn":111,"risk":24,"cat":"green"},{"name":"Tulse Hill Tavern","lat":51.44186,"lon":-0.10622,"postcode":"SE24 9AY","la":"Lambeth","era":"other","nn":221,"risk":43,"cat":"amber"},{"name":"Vaulty Towers Public House","lat":51.50105,"lon":-0.11185,"postcode":"SE1 7RG","la":"Lambeth","era":"other","nn":110,"risk":24,"cat":"green"},{"name":"Walker Briggs","lat":51.42011,"lon":-0.08229,"postcode":"SE19 1TQ","la":"Lambeth","era":"other","nn":78,"risk":24,"cat":"green"},{"name":"Waterloo Tap","lat":51.50448,"lon":-0.11483,"postcode":"SE1 7ES","la":"Lambeth","era":"mod","nn":90,"risk":24,"cat":"green"},{"name":"Westow House","lat":51.4199,"lon":-0.07936,"postcode":"SE19 1TX","la":"Lambeth","era":"other","nn":31,"risk":24,"cat":"green"},{"name":"Zeitgeist @ The Jolly Gardeners","lat":51.49165,"lon":-0.11903,"postcode":"SE11 6AB","la":"Lambeth","era":"other","nn":194,"risk":25,"cat":"green"},{"name":"88 Lounge Ltd","lat":51.47008,"lon":-0.02821,"postcode":"SE4 1UY","la":"Lewisham","era":"mod","nn":188,"risk":28,"cat":"green"},{"name":"All Inn One","lat":51.43851,"lon":-0.0525,"postcode":"SE23 2NE","la":"Lewisham","era":"trad","nn":88,"risk":27,"cat":"green"},{"name":"Bellingham Ex-servicemen's club","lat":51.43094,"lon":-0.01703,"postcode":"SE6 3DD","la":"Lewisham","era":"other","nn":297,"risk":48,"cat":"amber"},{"name":"Bird In Hand","lat":51.43796,"lon":-0.05418,"postcode":"SE23 3HN","la":"Lewisham","era":"other","nn":18,"risk":26,"cat":"green"},{"name":"Blythe Hill Tavern","lat":51.44249,"lon":-0.03496,"postcode":"SE23 1JB","la":"Lewisham","era":"other","nn":466,"risk":30,"cat":"green"},{"name":"Brickfields","lat":51.46025,"lon":-0.03384,"postcode":"SE4 2SA","la":"Lewisham","era":"other","nn":124,"risk":27,"cat":"green"},{"name":"Brockley Jack","lat":51.45342,"lon":-0.03852,"postcode":"SE4 2DH","la":"Lewisham","era":"other","nn":141,"risk":27,"cat":"green"},{"name":"Brookmill Pub","lat":51.47096,"lon":-0.02215,"postcode":"SE8 4EJ","la":"Lewisham","era":"trad","nn":428,"risk":29,"cat":"green"},{"name":"Catford Bridge Tavern","lat":51.44467,"lon":-0.02448,"postcode":"SE6 4PZ","la":"Lewisham","era":"other","nn":0,"risk":26,"cat":"green"},{"name":"Catford Fairytop","lat":51.44704,"lon":-0.0197,"postcode":"SE6 4HW","la":"Lewisham","era":"other","nn":100,"risk":27,"cat":"green"},{"name":"Catford Mews","lat":51.44628,"lon":-0.02048,"postcode":"SE6 4JU","la":"Lewisham","era":"other","nn":100,"risk":27,"cat":"green"},{"name":"Crofton Park Tavern","lat":51.45612,"lon":-0.03668,"postcode":"SE4 2BT","la":"Lewisham","era":"other","nn":185,"risk":28,"cat":"green"},{"name":"Dirty South","lat":51.45931,"lon":-0.00373,"postcode":"SE13 5PR","la":"Lewisham","era":"other","nn":77,"risk":27,"cat":"green"},{"name":"Dirty South ( Bar only)","lat":51.45873,"lon":-0.00312,"postcode":"SE13 5PR","la":"Lewisham","era":"mod","nn":77,"risk":27,"cat":"green"},{"name":"Drink at Bob's","lat":51.45087,"lon":-0.00631,"postcode":"SE13 6RT","la":"Lewisham","era":"other","nn":101,"risk":27,"cat":"green"},{"name":"Duke of Edinburgh","lat":51.45646,"lon":0.01067,"postcode":"SE12 8RW","la":"Lewisham","era":"trad","nn":150,"risk":27,"cat":"green"},{"name":"Earl of Derby","lat":51.47035,"lon":-0.05044,"postcode":"SE14 5LW","la":"Lewisham","era":"other","nn":171,"risk":28,"cat":"green"},{"name":"Five Bells","lat":51.47604,"lon":-0.04747,"postcode":"SE14 5DJ","la":"Lewisham","era":"other","nn":377,"risk":29,"cat":"green"},{"name":"Fox's","lat":51.43095,"lon":-0.06002,"postcode":"SE26 4BB","la":"Lewisham","era":"trad","nn":156,"risk":27,"cat":"green"},{"name":"Hare & Billet","lat":51.46786,"lon":0.00363,"postcode":"SE3 0QJ","la":"Lewisham","era":"other","nn":284,"risk":31,"cat":"amber"},{"name":"Hill","lat":51.4378,"lon":-0.05428,"postcode":"SE23 3HN","la":"Lewisham","era":"other","nn":18,"risk":26,"cat":"green"},{"name":"Hither Green Railway Club","lat":51.4516,"lon":-0.00545,"postcode":"SE13 6EQ","la":"Lewisham","era":"trad","nn":101,"risk":30,"cat":"green"},{"name":"Jazzbourne","lat":51.47583,"lon":-0.03019,"postcode":"SE14 6TA","la":"Lewisham","era":"other","nn":241,"risk":28,"cat":"green"},{"name":"Joyce","lat":51.45916,"lon":-0.0342,"postcode":"SE4 2RA","la":"Lewisham","era":"other","nn":124,"risk":27,"cat":"green"},{"name":"Ladywell Tavern","lat":51.4563,"lon":-0.02143,"postcode":"SE13 7HS","la":"Lewisham","era":"other","nn":0,"risk":26,"cat":"green"},{"name":"Lewisham Tavern","lat":51.46234,"lon":-0.00845,"postcode":"SE13 5LD","la":"Lewisham","era":"other","nn":175,"risk":28,"cat":"green"},{"name":"Little Faith","lat":51.47624,"lon":-0.02234,"postcode":"SE8 4SA","la":"Lewisham","era":"other","nn":172,"risk":28,"cat":"green"},{"name":"Marquis of Granby","lat":51.47567,"lon":-0.03421,"postcode":"SE14 6AG","la":"Lewisham","era":"other","nn":179,"risk":28,"cat":"green"},{"name":"Meatliquor","lat":51.43866,"lon":-0.05375,"postcode":"SE23 3HN","la":"Lewisham","era":"other","nn":84,"risk":27,"cat":"green"},{"name":"MERKUR Slots,","lat":51.47601,"lon":-0.0257,"postcode":"SE8 4AF","la":"Lewisham","era":"other","nn":52,"risk":27,"cat":"green"},{"name":"MOT Venue Ltd","lat":51.48468,"lon":-0.04884,"postcode":"SE14 5RT","la":"Lewisham","era":"other","nn":547,"risk":30,"cat":"green"},{"name":"New Cross Inn","lat":51.47562,"lon":-0.03829,"postcode":"SE14 6AS","la":"Lewisham","era":"trad","nn":112,"risk":27,"cat":"green"},{"name":"Orange Buffalo","lat":51.44467,"lon":-0.02448,"postcode":"SE6 4RE","la":"Lewisham","era":"other","nn":0,"risk":26,"cat":"green"},{"name":"Poodle Club Ltd","lat":51.42587,"lon":-0.04758,"postcode":"SE26 5HB","la":"Lewisham","era":"other","nn":0,"risk":26,"cat":"green"},{"name":"Prince of Wales","lat":51.43364,"lon":-0.04249,"postcode":"SE23 2QL","la":"Lewisham","era":"trad","nn":662,"risk":31,"cat":"amber"},{"name":"Princess of Wales","lat":51.46823,"lon":0.00963,"postcode":"SE3 0RL","la":"Lewisham","era":"trad","nn":247,"risk":31,"cat":"amber"},{"name":"Railway Tavern","lat":51.42802,"lon":-0.03384,"postcode":"SE26 5BH","la":"Lewisham","era":"trad","nn":228,"risk":28,"cat":"green"},{"name":"Rising Sun","lat":51.46551,"lon":-0.01805,"postcode":"SE13 7SN","la":"Lewisham","era":"other","nn":442,"risk":29,"cat":"green"},{"name":"Rivoli Ballroom","lat":51.45461,"lon":-0.03778,"postcode":"SE4 2BY","la":"Lewisham","era":"other","nn":141,"risk":27,"cat":"green"},{"name":"Royal Albert","lat":51.47489,"lon":-0.02706,"postcode":"SE14 6TJ","la":"Lewisham","era":"trad","nn":118,"risk":27,"cat":"green"},{"name":"Royal Standard","lat":51.47362,"lon":-0.02743,"postcode":"SE8 4PN","la":"Lewisham","era":"trad","nn":144,"risk":27,"cat":"green"},{"name":"SAA - Venue Club","lat":51.47595,"lon":-0.03675,"postcode":"SE14 6JP","la":"Lewisham","era":"other","nn":112,"risk":27,"cat":"green"},{"name":"Silks","lat":51.44489,"lon":-0.01948,"postcode":"SE6 4BD","la":"Lewisham","era":"other","nn":20,"risk":26,"cat":"green"},{"name":"Sip City","lat":51.48029,"lon":-0.02645,"postcode":"SE8 3NT","la":"Lewisham","era":"other","nn":337,"risk":29,"cat":"green"},{"name":"Skehans Freehouse","lat":51.46765,"lon":-0.04861,"postcode":"SE14 5TW","la":"Lewisham","era":"other","nn":290,"risk":28,"cat":"green"},{"name":"Stockton Bar","lat":51.47555,"lon":-0.0257,"postcode":"SE8 4AF","la":"Lewisham","era":"other","nn":52,"risk":27,"cat":"green"},{"name":"Suttons Radio","lat":51.46089,"lon":-0.01035,"postcode":"SE13 6AA","la":"Lewisham","era":"other","nn":168,"risk":28,"cat":"green"},{"name":"The  Alfred","lat":51.42583,"lon":-0.0429,"postcode":"SE26 5RP","la":"Lewisham","era":"other","nn":325,"risk":29,"cat":"green"},{"name":"The Anchor","lat":51.46568,"lon":-0.01071,"postcode":"SE13 7PY","la":"Lewisham","era":"trad","nn":303,"risk":28,"cat":"green"},{"name":"The Bell Flex","lat":51.42884,"lon":-0.03685,"postcode":"SE26 5SJ","la":"Lewisham","era":"other","nn":228,"risk":28,"cat":"green"},{"name":"The Birds Nest","lat":51.47484,"lon":-0.02337,"postcode":"SE8 4RZ","la":"Lewisham","era":"other","nn":172,"risk":28,"cat":"green"},{"name":"The Bricklayers Arms","lat":51.43235,"lon":-0.05995,"postcode":"SE26 4QY","la":"Lewisham","era":"trad","nn":156,"risk":27,"cat":"green"},{"name":"The Brockley Barge","lat":51.46407,"lon":-0.03651,"postcode":"SE4 2RR","la":"Lewisham","era":"other","nn":463,"risk":30,"cat":"green"},{"name":"The Catford Bridge Tavern","lat":51.44467,"lon":-0.02448,"postcode":"SE6 4RE","la":"Lewisham","era":"other","nn":0,"risk":26,"cat":"green"},{"name":"The Chandos","lat":51.44768,"lon":-0.0412,"postcode":"SE23 1LN","la":"Lewisham","era":"other","nn":337,"risk":29,"cat":"green"},{"name":"The Crown","lat":51.44369,"lon":0.01777,"postcode":"SE12 0AJ","la":"Lewisham","era":"trad","nn":219,"risk":45,"cat":"amber"},{"name":"The Crown (Blackheath)","lat":51.46661,"lon":0.0072,"postcode":"SE3 0BS","la":"Lewisham","era":"trad","nn":171,"risk":30,"cat":"green"},{"name":"The Dacre Arm's","lat":51.46094,"lon":0.00337,"postcode":"SE13 5BU","la":"Lewisham","era":"other","nn":512,"risk":30,"cat":"green"},{"name":"The Dog & Bell","lat":51.4833,"lon":-0.02587,"postcode":"SE8 3JD","la":"Lewisham","era":"other","nn":337,"risk":29,"cat":"green"},{"name":"The Dolphin","lat":51.42587,"lon":-0.04758,"postcode":"SE26 5HB","la":"Lewisham","era":"other","nn":0,"risk":26,"cat":"green"},{"name":"The Fellowship Inn","lat":51.43271,"lon":-0.02023,"postcode":"SE6 3BT","la":"Lewisham","era":"trad","nn":297,"risk":48,"cat":"amber"},{"name":"The Fox & Firkin","lat":51.45698,"lon":-0.0144,"postcode":"SE13 6JZ","la":"Lewisham","era":"trad","nn":355,"risk":29,"cat":"green"},{"name":"The Genaral Napier-W G Moore Tavwens","lat":51.44548,"lon":-0.04455,"postcode":"SE23 1EX","la":"Lewisham","era":"other","nn":0,"risk":26,"cat":"green"},{"name":"The General Napier","lat":51.44548,"lon":-0.04455,"postcode":"SE23 1EX","la":"Lewisham","era":"other","nn":0,"risk":26,"cat":"green"},{"name":"The Golden Lion PH Ltd","lat":51.42557,"lon":-0.04847,"postcode":"SE26 5JX","la":"Lewisham","era":"trad","nn":70,"risk":27,"cat":"green"},{"name":"The Greyhound","lat":51.42714,"lon":-0.05547,"postcode":"SE26 4QB","la":"Lewisham","era":"trad","nn":516,"risk":30,"cat":"green"},{"name":"The Honor Oak","lat":51.44338,"lon":-0.04153,"postcode":"SE23 1RH","la":"Lewisham","era":"trad","nn":313,"risk":29,"cat":"green"},{"name":"The Ladywell Tavern","lat":51.4563,"lon":-0.02142,"postcode":"SE13 7HS","la":"Lewisham","era":"other","nn":0,"risk":26,"cat":"green"},{"name":"The London & Rye","lat":51.44696,"lon":-0.01801,"postcode":"SE6 4AF","la":"Lewisham","era":"other","nn":118,"risk":27,"cat":"green"},{"name":"The Lord Northbrook","lat":51.45091,"lon":0.01214,"postcode":"SE12 8PU","la":"Lewisham","era":"other","nn":625,"risk":31,"cat":"amber"},{"name":"The Love Shack","lat":51.46296,"lon":-0.01079,"postcode":"SE13 5JH","la":"Lewisham","era":"other","nn":175,"risk":28,"cat":"green"},{"name":"The Old Tigers Head","lat":51.45741,"lon":0.00914,"postcode":"SE12 8RU","la":"Lewisham","era":"trad","nn":150,"risk":27,"cat":"green"},{"name":"The Railway","lat":51.46539,"lon":0.00871,"postcode":"SE3 9LE","la":"Lewisham","era":"trad","nn":171,"risk":28,"cat":"green"},{"name":"The Rose Inn","lat":51.47468,"lon":-0.04249,"postcode":"SE14 5UL","la":"Lewisham","era":"trad","nn":309,"risk":29,"cat":"green"},{"name":"The Royal George","lat":51.4717,"lon":-0.02897,"postcode":"SE8 4QD","la":"Lewisham","era":"trad","nn":188,"risk":28,"cat":"green"},{"name":"The Summerfield Pub","lat":51.4432,"lon":0.01472,"postcode":"SE12 0PS","la":"Lewisham","era":"other","nn":219,"risk":45,"cat":"amber"},{"name":"The Talbot","lat":51.46725,"lon":-0.02378,"postcode":"SE4 1QG","la":"Lewisham","era":"trad","nn":428,"risk":29,"cat":"green"},{"name":"The Victoria","lat":51.4879,"lon":-0.03447,"postcode":"SE8 3QQ","la":"Lewisham","era":"trad","nn":708,"risk":31,"cat":"amber"},{"name":"The Watch House","lat":51.45984,"lon":-0.0121,"postcode":"SE13 6JP","la":"Lewisham","era":"other","nn":168,"risk":28,"cat":"green"},{"name":"Twerk 'N' Jerk Limited","lat":51.44507,"lon":-0.01951,"postcode":"SE6 4BD","la":"Lewisham","era":"other","nn":20,"risk":26,"cat":"green"},{"name":"All bar one","lat":51.5032,"lon":-0.07269,"postcode":"SE1 2YG","la":"Southwark","era":"mod","nn":247,"risk":24,"cat":"green"},{"name":"Alleyns head","lat":51.43685,"lon":-0.08843,"postcode":"SE21 8BW","la":"Lambeth","era":"trad","nn":419,"risk":31,"cat":"amber"},{"name":"Amazing grace also trading as halo burgers","lat":51.50501,"lon":-0.08843,"postcode":"SE1 9RY","la":"Southwark","era":"other","nn":42,"risk":23,"cat":"green"},{"name":"Anchor tap","lat":51.50334,"lon":-0.07626,"postcode":"SE1 2LN","la":"Southwark","era":"other","nn":23,"risk":23,"cat":"green"},{"name":"Ancient foresters","lat":51.49201,"lon":-0.06055,"postcode":"SE16 2HB","la":"Southwark","era":"other","nn":192,"risk":24,"cat":"green"},{"name":"Aquarius golf club (licensed bar)","lat":51.4523,"lon":-0.05464,"postcode":"SE22 0RY","la":"Southwark","era":"other","nn":372,"risk":30,"cat":"green"},{"name":"Asylum tavern","lat":51.478,"lon":-0.0593,"postcode":"SE15 2RL","la":"Southwark","era":"other","nn":326,"risk":25,"cat":"green"},{"name":"Barrow boy & banker","lat":51.50638,"lon":-0.08871,"postcode":"SE1 9QQ","la":"Southwark","era":"other","nn":42,"risk":23,"cat":"green"},{"name":"Beer hawk","lat":51.50551,"lon":-0.08803,"postcode":"SE1 9GE","la":"Southwark","era":"other","nn":45,"risk":23,"cat":"green"},{"name":"Belushis & st christophers village","lat":51.50271,"lon":-0.09185,"postcode":"SE1 1HR","la":"Southwark","era":"other","nn":40,"risk":23,"cat":"green"},{"name":"Better world brewing","lat":51.48812,"lon":-0.09696,"postcode":"SE17 3FR","la":"Southwark","era":"other","nn":209,"risk":24,"cat":"green"},{"name":"Brew by numbers","lat":51.49759,"lon":-0.07227,"postcode":"SE16 3RA","la":"Southwark","era":"other","nn":10,"risk":22,"cat":"green"},{"name":"Brick brewery","lat":51.46944,"lon":-0.0703,"postcode":"SE15 4QL","la":"Southwark","era":"other","nn":117,"risk":23,"cat":"green"},{"name":"Bunch of grapes","lat":51.50465,"lon":-0.089,"postcode":"SE1 9RS","la":"Southwark","era":"other","nn":47,"risk":23,"cat":"green"},{"name":"Canterbury arms","lat":51.48273,"lon":-0.10297,"postcode":"SE17 3NH","la":"Southwark","era":"trad","nn":453,"risk":26,"cat":"green"},{"name":"Castle public house","lat":51.4513,"lon":-0.07423,"postcode":"SE22 9JJ","la":"Southwark","era":"other","nn":157,"risk":23,"cat":"green"},{"name":"China hall","lat":51.49422,"lon":-0.04881,"postcode":"SE16 2XL","la":"Southwark","era":"other","nn":148,"risk":23,"cat":"green"},{"name":"Clarendon arms","lat":51.47736,"lon":-0.1006,"postcode":"SE5 0TH","la":"Southwark","era":"trad","nn":207,"risk":24,"cat":"green"},{"name":"Club 701","lat":51.4844,"lon":-0.06845,"postcode":"SE1 5BA","la":"Southwark","era":"other","nn":516,"risk":26,"cat":"green"},{"name":"Colab tavern","lat":51.49648,"lon":-0.09384,"postcode":"SE1 6AD","la":"Southwark","era":"other","nn":223,"risk":24,"cat":"green"},{"name":"Control risks group limited","lat":51.50608,"lon":-0.08474,"postcode":"SE1 2TT","la":"Southwark","era":"other","nn":84,"risk":23,"cat":"green"},{"name":"Cool and cozzy lounge","lat":51.47871,"lon":-0.0856,"postcode":"SE5 7SY","la":"Southwark","era":"mod","nn":164,"risk":24,"cat":"green"},{"name":"Craft beer junction","lat":51.49772,"lon":-0.07253,"postcode":"SE16 3RA","la":"Southwark","era":"mod","nn":14,"risk":22,"cat":"green"},{"name":"Diogenes the dog","lat":51.49151,"lon":-0.09105,"postcode":"SE17 1BG","la":"Southwark","era":"other","nn":301,"risk":24,"cat":"green"},{"name":"Doggetts coat & badge","lat":51.50846,"lon":-0.10487,"postcode":"SE1 9UD","la":"Southwark","era":"other","nn":162,"risk":23,"cat":"green"},{"name":"Dover castle ph","lat":51.50073,"lon":-0.09303,"postcode":"SE1 4XW","la":"Southwark","era":"other","nn":89,"risk":23,"cat":"green"},{"name":"Duke of sussex","lat":51.47929,"lon":-0.06536,"postcode":"SE15 1QS","la":"Southwark","era":"trad","nn":444,"risk":25,"cat":"green"},{"name":"Dulwich hamlet fc clubhouse","lat":51.4619,"lon":-0.08371,"postcode":"SE22 8BD","la":"Southwark","era":"other","nn":354,"risk":25,"cat":"green"},{"name":"East dulwich tavern","lat":51.45985,"lon":-0.07497,"postcode":"SE22 8EW","la":"Southwark","era":"other","nn":13,"risk":22,"cat":"green"},{"name":"Ethika","lat":51.4987,"lon":-0.09813,"postcode":"SE1 6DR","la":"Southwark","era":"other","nn":0,"risk":22,"cat":"green"},{"name":"Farriers arms","lat":51.49077,"lon":-0.0436,"postcode":"SE8 5DJ","la":"Southwark","era":"trad","nn":246,"risk":24,"cat":"green"},{"name":"Flowers of the forest","lat":51.4988,"lon":-0.10656,"postcode":"SE1 7QX","la":"Southwark","era":"other","nn":191,"risk":24,"cat":"green"},{"name":"Founders arms","lat":51.5082,"lon":-0.10189,"postcode":"SE1 9JH","la":"Southwark","era":"trad","nn":208,"risk":24,"cat":"green"},{"name":"Fourpure brewing co","lat":51.48944,"lon":-0.05444,"postcode":"SE16 3LL","la":"Southwark","era":"other","nn":510,"risk":26,"cat":"green"},{"name":"George canning","lat":51.46809,"lon":-0.08609,"postcode":"SE5 8BG","la":"Southwark","era":"trad","nn":205,"risk":24,"cat":"green"},{"name":"Good neighbour","lat":51.47411,"lon":-0.09073,"postcode":"SE5 8TR","la":"Southwark","era":"other","nn":55,"risk":23,"cat":"green"},{"name":"Great guns social","lat":51.50191,"lon":-0.09817,"postcode":"SE1 0EF","la":"Southwark","era":"mod","nn":129,"risk":23,"cat":"green"},{"name":"Griffin sports club","lat":51.45164,"lon":-0.0871,"postcode":"SE21 7AL","la":"Southwark","era":"trad","nn":778,"risk":33,"cat":"amber"},{"name":"Hermits cave","lat":51.47381,"lon":-0.09136,"postcode":"SE5 8QU","la":"Southwark","era":"other","nn":55,"risk":23,"cat":"green"},{"name":"Hora dorada","lat":51.49352,"lon":-0.09872,"postcode":"SE17 1LB","la":"Southwark","era":"other","nn":111,"risk":23,"cat":"green"},{"name":"Horangee pocha","lat":51.49385,"lon":-0.0939,"postcode":"SE1 6TU","la":"Southwark","era":"other","nn":89,"risk":23,"cat":"green"},{"name":"Huntsman & hound","lat":51.49026,"lon":-0.08636,"postcode":"SE17 1QG","la":"Southwark","era":"trad","nn":354,"risk":25,"cat":"green"},{"name":"Italian beer company connection limtied","lat":51.4987,"lon":-0.09813,"postcode":"SE1 6DR","la":"Southwark","era":"other","nn":0,"risk":22,"cat":"green"},{"name":"John the unicorn","lat":51.4686,"lon":-0.06724,"postcode":"SE15 4TL","la":"Southwark","era":"other","nn":111,"risk":23,"cat":"green"},{"name":"Jumbi","lat":51.47001,"lon":-0.06574,"postcode":"SE15 3SN","la":"Southwark","era":"other","nn":110,"risk":23,"cat":"green"},{"name":"Katzenjammers","lat":51.5049,"lon":-0.09105,"postcode":"SE1 1TY","la":"Southwark","era":"other","nn":24,"risk":23,"cat":"green"},{"name":"Kings arms","lat":51.50158,"lon":-0.07592,"postcode":"SE1 2JX","la":"Southwark","era":"trad","nn":124,"risk":23,"cat":"green"},{"name":"Lant street","lat":51.50121,"lon":-0.09457,"postcode":"SE1 1QN","la":"Southwark","era":"other","nn":30,"risk":23,"cat":"green"},{"name":"London cider house","lat":51.50609,"lon":-0.09093,"postcode":"SE1 9AG","la":"Southwark","era":"other","nn":34,"risk":23,"cat":"green"},{"name":"Lord clyde","lat":51.50286,"lon":-0.09559,"postcode":"SE1 1ER","la":"Southwark","era":"other","nn":116,"risk":23,"cat":"green"},{"name":"Lord palmerston","lat":51.45799,"lon":-0.07485,"postcode":"SE22 8EP","la":"Southwark","era":"other","nn":194,"risk":24,"cat":"green"},{"name":"Malt","lat":51.49816,"lon":-0.07578,"postcode":"SE1 3PA","la":"Southwark","era":"other","nn":182,"risk":24,"cat":"green"},{"name":"Mambo 190 bar and lounge","lat":51.49035,"lon":-0.08113,"postcode":"SE1 5TY","la":"Southwark","era":"mod","nn":0,"risk":22,"cat":"green"},{"name":"Man of kent","lat":51.46531,"lon":-0.05822,"postcode":"SE15 3QF","la":"Southwark","era":"other","nn":0,"risk":22,"cat":"green"},{"name":"Mar i terra","lat":51.50433,"lon":-0.10264,"postcode":"SE1 0XH","la":"Southwark","era":"other","nn":92,"risk":23,"cat":"green"},{"name":"Mc & sons","lat":51.50388,"lon":-0.10039,"postcode":"SE1 0LH","la":"Southwark","era":"other","nn":119,"risk":23,"cat":"green"},{"name":"Miraflores bar & lounge","lat":51.50508,"lon":-0.09533,"postcode":"SE1 1UN","la":"Southwark","era":"mod","nn":138,"risk":23,"cat":"green"},{"name":"Moby dick","lat":51.49546,"lon":-0.0396,"postcode":"SE16 7PL","la":"Southwark","era":"other","nn":351,"risk":25,"cat":"green"},{"name":"Moor beer company","lat":51.49764,"lon":-0.07237,"postcode":"SE16 3RA","la":"Southwark","era":"other","nn":10,"risk":22,"cat":"green"},{"name":"Nags head p h","lat":51.47679,"lon":-0.09434,"postcode":"SE5 0DP","la":"Southwark","era":"trad","nn":128,"risk":23,"cat":"green"},{"name":"Number 1 bar limited","lat":51.50593,"lon":-0.08749,"postcode":"SE1 2SW","la":"Southwark","era":"mod","nn":60,"risk":23,"cat":"green"},{"name":"Old dispensary","lat":51.47548,"lon":-0.09613,"postcode":"SE5 0TF","la":"Southwark","era":"other","nn":63,"risk":23,"cat":"green"},{"name":"Old kings head","lat":51.50458,"lon":-0.08967,"postcode":"SE1 1NA","la":"Southwark","era":"trad","nn":47,"risk":23,"cat":"green"},{"name":"Old nuns head","lat":51.46529,"lon":-0.05965,"postcode":"SE15 3QQ","la":"Southwark","era":"trad","nn":99,"risk":23,"cat":"green"},{"name":"Old salt quay","lat":51.50424,"lon":-0.04853,"postcode":"SE16 5QU","la":"Southwark","era":"other","nn":367,"risk":25,"cat":"green"},{"name":"Old thameside inn","lat":51.507,"lon":-0.09088,"postcode":"SE1 9DG","la":"Southwark","era":"trad","nn":86,"risk":23,"cat":"green"},{"name":"Orbit beers ltd - taproom","lat":51.48477,"lon":-0.09561,"postcode":"SE17 3HJ","la":"Southwark","era":"mod","nn":83,"risk":23,"cat":"green"},{"name":"Orbit brewing ltd - brewery","lat":51.48542,"lon":-0.09505,"postcode":"SE17 3HD","la":"Southwark","era":"other","nn":83,"risk":23,"cat":"green"},{"name":"Peckham liberal club","lat":51.47079,"lon":-0.07101,"postcode":"SE15 5DE","la":"Southwark","era":"other","nn":158,"risk":23,"cat":"green"},{"name":"Phoenix","lat":51.46889,"lon":-0.08875,"postcode":"SE5 8BB","la":"Southwark","era":"other","nn":205,"risk":24,"cat":"green"},{"name":"Pommeler's rest","lat":51.50243,"lon":-0.07709,"postcode":"SE1 2UN","la":"Southwark","era":"other","nn":49,"risk":23,"cat":"green"},{"name":"Prince albert","lat":51.46826,"lon":-0.07223,"postcode":"SE15 4QY","la":"Southwark","era":"trad","nn":117,"risk":23,"cat":"green"},{"name":"Prince of peckham","lat":51.47358,"lon":-0.06531,"postcode":"SE15 5JA","la":"Southwark","era":"trad","nn":14,"risk":22,"cat":"green"},{"name":"Prince of wales","lat":51.49586,"lon":-0.1047,"postcode":"SE1 6ER","la":"Southwark","era":"trad","nn":178,"risk":24,"cat":"green"},{"name":"Prosecco house","lat":51.50377,"lon":-0.07816,"postcode":"SE1 2SE","la":"Southwark","era":"other","nn":50,"risk":23,"cat":"green"},{"name":"Pyrotechnist arms","lat":51.46531,"lon":-0.05822,"postcode":"SE15 3QF","la":"Southwark","era":"trad","nn":0,"risk":22,"cat":"green"},{"name":"Queen elizabeth p h","lat":51.48589,"lon":-0.09228,"postcode":"SE17 2NH","la":"Southwark","era":"trad","nn":129,"risk":23,"cat":"green"},{"name":"Queen victoria","lat":51.49234,"lon":-0.06771,"postcode":"SE16 3RP","la":"Southwark","era":"trad","nn":315,"risk":25,"cat":"green"},{"name":"Red lion","lat":51.48497,"lon":-0.0934,"postcode":"SE17 2AW","la":"Southwark","era":"trad","nn":125,"risk":23,"cat":"green"},{"name":"Redwood sports pub & kitchen","lat":51.50462,"lon":-0.08587,"postcode":"SE1 9GP","la":"Southwark","era":"mod","nn":154,"risk":23,"cat":"green"},{"name":"Rising sun","lat":51.49451,"lon":-0.09319,"postcode":"SE1 6AQ","la":"Southwark","era":"other","nn":89,"risk":23,"cat":"green"},{"name":"Rockingham arms","lat":51.4959,"lon":-0.09889,"postcode":"SE1 6DQ","la":"Southwark","era":"trad","nn":116,"risk":23,"cat":"green"},{"name":"Rose & crown","lat":51.50385,"lon":-0.09504,"postcode":"SE1 1SG","la":"Southwark","era":"trad","nn":104,"risk":23,"cat":"green"},{"name":"Royal oak","lat":51.50013,"lon":-0.09155,"postcode":"SE1 4JU","la":"Southwark","era":"trad","nn":123,"risk":23,"cat":"green"},{"name":"Ship","lat":51.49951,"lon":-0.0969,"postcode":"SE1 1DX","la":"Southwark","era":"trad","nn":90,"risk":23,"cat":"green"},{"name":"Ship & whale public house","lat":51.49689,"lon":-0.03508,"postcode":"SE16 7LT","la":"Southwark","era":"trad","nn":351,"risk":25,"cat":"green"},{"name":"Shipwrights arms","lat":51.50456,"lon":-0.08364,"postcode":"SE1 2TF","la":"Southwark","era":"trad","nn":149,"risk":23,"cat":"green"},{"name":"Simon the tanner","lat":51.49837,"lon":-0.08298,"postcode":"SE1 4PR","la":"Southwark","era":"other","nn":244,"risk":24,"cat":"green"},{"name":"Slap & pickle burgers","lat":51.50207,"lon":-0.08757,"postcode":"SE1 3SS","la":"Southwark","era":"other","nn":0,"risk":22,"cat":"green"},{"name":"Southwark cyprus turkish association","lat":51.49035,"lon":-0.08113,"postcode":"SE1 5TY","la":"Southwark","era":"other","nn":0,"risk":22,"cat":"green"},{"name":"Southwark sports bowls club","lat":51.44282,"lon":-0.07826,"postcode":"SE21 7EU","la":"Southwark","era":"other","nn":503,"risk":28,"cat":"green"},{"name":"Spit & sawdust","lat":51.49534,"lon":-0.08804,"postcode":"SE1 4AL","la":"Southwark","era":"other","nn":332,"risk":25,"cat":"green"},{"name":"St christopher's","lat":51.5036,"lon":-0.09119,"postcode":"SE1 1NP","la":"Southwark","era":"other","nn":87,"risk":23,"cat":"green"},{"name":"St georges tavern","lat":51.47935,"lon":-0.08346,"postcode":"SE5 7TG","la":"Southwark","era":"trad","nn":164,"risk":24,"cat":"green"},{"name":"St james of bermondsey","lat":51.49545,"lon":-0.06604,"postcode":"SE16 4QZ","la":"Southwark","era":"other","nn":232,"risk":24,"cat":"green"},{"name":"St. thomas the apostle church (licensed bar)","lat":51.46661,"lon":-0.05633,"postcode":"SE15 3HL","la":"Southwark","era":"other","nn":195,"risk":24,"cat":"green"},{"name":"Stanley arms public house","lat":51.4948,"lon":-0.05819,"postcode":"SE16 2ET","la":"Southwark","era":"trad","nn":351,"risk":25,"cat":"green"},{"name":"Stansfeld oxford & bermondsey club","lat":51.49558,"lon":-0.08215,"postcode":"SE1 4RP","la":"Southwark","era":"other","nn":77,"risk":23,"cat":"green"},{"name":"Stormbird","lat":51.47406,"lon":-0.0896,"postcode":"SE5 8TR","la":"Southwark","era":"other","nn":0,"risk":22,"cat":"green"},{"name":"Streatham and marlborough cricket club","lat":51.44314,"lon":-0.07102,"postcode":"SE21 7EX","la":"Southwark","era":"other","nn":503,"risk":31,"cat":"amber"},{"name":"Surdoc social club ltd","lat":51.49249,"lon":-0.04677,"postcode":"SE16 2UJ","la":"Southwark","era":"mod","nn":76,"risk":23,"cat":"green"},{"name":"Surrey docks","lat":51.49258,"lon":-0.04564,"postcode":"SE16 2LW","la":"Southwark","era":"other","nn":79,"risk":23,"cat":"green"},{"name":"The actress","lat":51.45812,"lon":-0.07141,"postcode":"SE22 9EY","la":"Southwark","era":"other","nn":239,"risk":24,"cat":"green"},{"name":"The albert arms","lat":51.49745,"lon":-0.10485,"postcode":"SE1 6EY","la":"Southwark","era":"trad","nn":178,"risk":24,"cat":"green"},{"name":"The alexander hay","lat":51.5059,"lon":-0.08355,"postcode":"SE1 2HD","la":"Southwark","era":"other","nn":0,"risk":22,"cat":"green"},{"name":"The anchor bankside","lat":51.50701,"lon":-0.09295,"postcode":"SE1 9EF","la":"Southwark","era":"trad","nn":139,"risk":23,"cat":"green"},{"name":"The angel at rotherhithe","lat":51.50069,"lon":-0.05905,"postcode":"SE16 4NB","la":"Southwark","era":"trad","nn":272,"risk":24,"cat":"green"},{"name":"The barrel project/ta london beer company","lat":51.49978,"lon":-0.07542,"postcode":"SE1 2HQ","la":"Southwark","era":"other","nn":182,"risk":24,"cat":"green"},{"name":"The bear","lat":51.47492,"lon":-0.09595,"postcode":"SE5 0RP","la":"Southwark","era":"other","nn":63,"risk":23,"cat":"green"},{"name":"The beer rebellion","lat":51.47509,"lon":-0.05872,"postcode":"SE15 2NB","la":"Southwark","era":"trad","nn":326,"risk":25,"cat":"green"},{"name":"The bishop","lat":51.45974,"lon":-0.07493,"postcode":"SE22 8EW","la":"Southwark","era":"trad","nn":13,"risk":22,"cat":"green"},{"name":"The blue anchor p h","lat":51.49257,"lon":-0.06317,"postcode":"SE16 3TS","la":"Southwark","era":"trad","nn":192,"risk":24,"cat":"green"},{"name":"The boot & flogger","lat":51.50419,"lon":-0.09365,"postcode":"SE1 1TA","la":"Southwark","era":"other","nn":104,"risk":23,"cat":"green"},{"name":"The bridge tap","lat":51.5045,"lon":-0.09074,"postcode":"SE1 1XU","la":"Southwark","era":"mod","nn":32,"risk":23,"cat":"green"},{"name":"The bridge theatre","lat":51.50345,"lon":-0.07866,"postcode":"SE1 2SG","la":"Southwark","era":"other","nn":50,"risk":23,"cat":"green"},{"name":"The britannia-smok'd","lat":51.50121,"lon":-0.08713,"postcode":"SE1 3RU","la":"Southwark","era":"trad","nn":100,"risk":23,"cat":"green"},{"name":"The brunel","lat":51.50133,"lon":-0.05104,"postcode":"SE16 4JN","la":"Southwark","era":"other","nn":137,"risk":23,"cat":"green"},{"name":"The bull & finch","lat":51.4245,"lon":-0.08342,"postcode":"SE19 1PL","la":"Southwark","era":"trad","nn":57,"risk":23,"cat":"green"},{"name":"The camberwell arms","lat":51.47406,"lon":-0.0896,"postcode":"SE5 8TR","la":"Southwark","era":"trad","nn":0,"risk":22,"cat":"green"},{"name":"The cherry tree","lat":51.46166,"lon":-0.0786,"postcode":"SE22 8EQ","la":"Southwark","era":"other","nn":322,"risk":25,"cat":"green"},{"name":"The clf art cafe","lat":51.46991,"lon":-0.06416,"postcode":"SE15 3SN","la":"Southwark","era":"other","nn":110,"risk":23,"cat":"green"},{"name":"The clf art lounge","lat":51.47002,"lon":-0.0689,"postcode":"SE15 4RX","la":"Southwark","era":"mod","nn":117,"risk":23,"cat":"green"},{"name":"The clockhouse","lat":51.45971,"lon":-0.06661,"postcode":"SE22 9QA","la":"Southwark","era":"other","nn":377,"risk":25,"cat":"green"},{"name":"The colby arms","lat":51.42501,"lon":-0.08348,"postcode":"SE19 1PW","la":"Southwark","era":"trad","nn":57,"risk":23,"cat":"green"},{"name":"The copper tap","lat":51.47371,"lon":-0.06533,"postcode":"SE15 5EG","la":"Southwark","era":"mod","nn":14,"risk":22,"cat":"green"},{"name":"The elephant and castle pub","lat":51.49694,"lon":-0.09909,"postcode":"SE1 6BN","la":"Southwark","era":"other","nn":116,"risk":23,"cat":"green"},{"name":"The fox on the hill","lat":51.46484,"lon":-0.08992,"postcode":"SE5 8EH","la":"Southwark","era":"trad","nn":449,"risk":26,"cat":"green"},{"name":"The george","lat":51.49546,"lon":-0.08325,"postcode":"SE1 4TR","la":"Southwark","era":"trad","nn":77,"risk":23,"cat":"green"},{"name":"The george inn","lat":51.50425,"lon":-0.0905,"postcode":"SE1 1NH","la":"Southwark","era":"trad","nn":32,"risk":23,"cat":"green"},{"name":"The gladstone","lat":51.48913,"lon":-0.09312,"postcode":"SE17 1DQ","la":"Southwark","era":"other","nn":141,"risk":23,"cat":"green"},{"name":"The gladstone","lat":51.5008,"lon":-0.09445,"postcode":"SE1 1QN","la":"Southwark","era":"other","nn":33,"risk":23,"cat":"green"},{"name":"The golden anchor","lat":51.46916,"lon":-0.05201,"postcode":"SE15 2DX","la":"Southwark","era":"trad","nn":171,"risk":24,"cat":"green"},{"name":"The good intent public house","lat":51.48798,"lon":-0.09395,"postcode":"SE17 2DN","la":"Southwark","era":"other","nn":141,"risk":23,"cat":"green"},{"name":"The gowlett arms","lat":51.46384,"lon":-0.07049,"postcode":"SE15 4HY","la":"Southwark","era":"trad","nn":324,"risk":25,"cat":"green"},{"name":"The grange","lat":51.49439,"lon":-0.07609,"postcode":"SE1 3BW","la":"Southwark","era":"other","nn":320,"risk":25,"cat":"green"},{"name":"The great exhibition","lat":51.45491,"lon":-0.07164,"postcode":"SE22 9EP","la":"Southwark","era":"other","nn":269,"risk":24,"cat":"green"},{"name":"The gregorian","lat":51.49752,"lon":-0.06644,"postcode":"SE16 4SQ","la":"Southwark","era":"other","nn":232,"risk":24,"cat":"green"},{"name":"The greyhound","lat":51.47416,"lon":-0.06857,"postcode":"SE15 5SE","la":"Southwark","era":"trad","nn":25,"risk":23,"cat":"green"},{"name":"The herne tavern","lat":51.45343,"lon":-0.06231,"postcode":"SE22 0RR","la":"Southwark","era":"other","nn":245,"risk":24,"cat":"green"},{"name":"The horniman at hays","lat":51.5059,"lon":-0.08355,"postcode":"SE1 2HD","la":"Southwark","era":"other","nn":0,"risk":22,"cat":"green"},{"name":"The horseshoe inn","lat":51.50247,"lon":-0.08392,"postcode":"SE1 3QP","la":"Southwark","era":"trad","nn":47,"risk":23,"cat":"green"},{"name":"The hour glass","lat":51.48647,"lon":-0.08438,"postcode":"SE17 2BX","la":"Southwark","era":"other","nn":443,"risk":25,"cat":"green"},{"name":"The ivy house","lat":51.4585,"lon":-0.0528,"postcode":"SE15 3BE","la":"Southwark","era":"other","nn":490,"risk":26,"cat":"green"},{"name":"The joiners arms","lat":51.47239,"lon":-0.09282,"postcode":"SE5 8RS","la":"Southwark","era":"trad","nn":161,"risk":23,"cat":"green"},{"name":"The kentish drovers","lat":51.47384,"lon":-0.06931,"postcode":"SE15 5RS","la":"Southwark","era":"other","nn":63,"risk":23,"cat":"green"},{"name":"The kings arms public house","lat":51.50275,"lon":-0.09127,"postcode":"SE1 1YT","la":"Southwark","era":"trad","nn":40,"risk":23,"cat":"green"},{"name":"The leather exchange","lat":51.50033,"lon":-0.08454,"postcode":"SE1 3HN","la":"Southwark","era":"other","nn":174,"risk":24,"cat":"green"},{"name":"The libertine","lat":51.50077,"lon":-0.09787,"postcode":"SE1 1PQ","la":"Southwark","era":"other","nn":129,"risk":23,"cat":"green"},{"name":"The lord nelson","lat":51.5036,"lon":-0.10204,"postcode":"SE1 0LR","la":"Southwark","era":"trad","nn":21,"risk":23,"cat":"green"},{"name":"The lord nelson","lat":51.48697,"lon":-0.07465,"postcode":"SE1 5AA","la":"Southwark","era":"trad","nn":516,"risk":26,"cat":"green"},{"name":"The lordship","lat":51.45462,"lon":-0.07695,"postcode":"SE22 8HA","la":"Southwark","era":"trad","nn":369,"risk":25,"cat":"green"},{"name":"The mad hatter hotel","lat":51.50701,"lon":-0.10498,"postcode":"SE1 9NY","la":"Southwark","era":"other","nn":162,"risk":23,"cat":"green"},{"name":"The manor club","lat":51.4921,"lon":-0.09839,"postcode":"SE17 1JL","la":"Southwark","era":"other","nn":140,"risk":23,"cat":"green"},{"name":"The market porter","lat":51.50512,"lon":-0.09109,"postcode":"SE1 9AA","la":"Southwark","era":"other","nn":6,"risk":22,"cat":"green"},{"name":"The mayflower","lat":51.50198,"lon":-0.05322,"postcode":"SE16 4NF","la":"Southwark","era":"other","nn":45,"risk":23,"cat":"green"},{"name":"The midnight apothecary","lat":51.5016,"lon":-0.05298,"postcode":"SE16 4LF","la":"Southwark","era":"other","nn":45,"risk":23,"cat":"green"},{"name":"The miller","lat":51.50207,"lon":-0.08757,"postcode":"SE1 3SS","la":"Southwark","era":"trad","nn":0,"risk":22,"cat":"green"},{"name":"The ministry","lat":51.49903,"lon":-0.09793,"postcode":"SE1 1DN","la":"Southwark","era":"other","nn":38,"risk":23,"cat":"green"},{"name":"The montpelier","lat":51.46755,"lon":-0.07099,"postcode":"SE15 4AR","la":"Southwark","era":"other","nn":0,"risk":22,"cat":"green"},{"name":"The mudlark","lat":51.50617,"lon":-0.08921,"postcode":"SE1 9DA","la":"Southwark","era":"other","nn":42,"risk":23,"cat":"green"},{"name":"The mug house","lat":51.50647,"lon":-0.08809,"postcode":"SE1 2PF","la":"Southwark","era":"other","nn":44,"risk":23,"cat":"green"},{"name":"The nags head","lat":51.46769,"lon":-0.0666,"postcode":"SE15 4TP","la":"Southwark","era":"trad","nn":111,"risk":23,"cat":"green"},{"name":"The old school yard","lat":51.50077,"lon":-0.08896,"postcode":"SE1 4PH","la":"Southwark","era":"mod","nn":136,"risk":23,"cat":"green"},{"name":"The olde apple tree","lat":51.47966,"lon":-0.07387,"postcode":"SE15 6JU","la":"Southwark","era":"other","nn":591,"risk":26,"cat":"green"},{"name":"The planet nollywood","lat":51.47577,"lon":-0.0935,"postcode":"SE5 0HQ","la":"Southwark","era":"other","nn":128,"risk":23,"cat":"green"},{"name":"The plough","lat":51.44994,"lon":-0.07484,"postcode":"SE22 8JJ","la":"Southwark","era":"trad","nn":157,"risk":23,"cat":"green"},{"name":"The rake","lat":51.50628,"lon":-0.09131,"postcode":"SE1 9AG","la":"Southwark","era":"other","nn":34,"risk":23,"cat":"green"},{"name":"The raven","lat":51.50326,"lon":-0.07664,"postcode":"SE1 2UP","la":"Southwark","era":"other","nn":15,"risk":22,"cat":"green"},{"name":"The ring","lat":51.50351,"lon":-0.10488,"postcode":"SE1 8HA","la":"Southwark","era":"other","nn":125,"risk":23,"cat":"green"},{"name":"The roebuck","lat":51.49807,"lon":-0.09062,"postcode":"SE1 4YG","la":"Southwark","era":"other","nn":238,"risk":24,"cat":"green"},{"name":"The rose","lat":51.50219,"lon":-0.08554,"postcode":"SE1 3ST","la":"Southwark","era":"other","nn":116,"risk":23,"cat":"green"},{"name":"The rosy hue","lat":51.49386,"lon":-0.09722,"postcode":"SE17 1GQ","la":"Southwark","era":"other","nn":111,"risk":23,"cat":"green"},{"name":"The royal british legion","lat":51.48731,"lon":-0.10429,"postcode":"SE17 3RJ","la":"Southwark","era":"trad","nn":238,"risk":24,"cat":"green"},{"name":"The royal british legion club (social club)","lat":51.45587,"lon":-0.06808,"postcode":"SE22 0HR","la":"Southwark","era":"other","nn":269,"risk":24,"cat":"green"},{"name":"The ship","lat":51.50051,"lon":-0.054,"postcode":"SE16 4JE","la":"Southwark","era":"trad","nn":141,"risk":23,"cat":"green"},{"name":"The ship aground public house","lat":51.50072,"lon":-0.07116,"postcode":"SE1 2BP","la":"Southwark","era":"trad","nn":296,"risk":24,"cat":"green"},{"name":"The sourcing table","lat":51.46686,"lon":-0.07322,"postcode":"SE15 4BW","la":"Southwark","era":"other","nn":171,"risk":24,"cat":"green"},{"name":"The southwark tavern","lat":51.50484,"lon":-0.09166,"postcode":"SE1 1TU","la":"Southwark","era":"other","nn":43,"risk":23,"cat":"green"},{"name":"The tankard","lat":51.4909,"lon":-0.09777,"postcode":"SE17 1JL","la":"Southwark","era":"other","nn":120,"risk":23,"cat":"green"},{"name":"The tapas room","lat":51.47411,"lon":-0.06822,"postcode":"SE15 5SE","la":"Southwark","era":"mod","nn":25,"risk":23,"cat":"green"},{"name":"The tiger","lat":51.4738,"lon":-0.09234,"postcode":"SE5 7AA","la":"Southwark","era":"other","nn":68,"risk":23,"cat":"green"},{"name":"The union jack nolia gallary","lat":51.50353,"lon":-0.10232,"postcode":"SE1 0LR","la":"Southwark","era":"other","nn":21,"risk":23,"cat":"green"},{"name":"The vault","lat":51.50339,"lon":-0.07659,"postcode":"SE1 2UP","la":"Southwark","era":"other","nn":15,"risk":22,"cat":"green"},{"name":"The victoria","lat":51.49459,"lon":-0.0807,"postcode":"SE1 4HL","la":"Southwark","era":"trad","nn":149,"risk":23,"cat":"green"},{"name":"The victoria inn","lat":51.46755,"lon":-0.07099,"postcode":"SE15 4AR","la":"Southwark","era":"trad","nn":0,"risk":22,"cat":"green"},{"name":"The vinegar yard","lat":51.50287,"lon":-0.08408,"postcode":"SE1 3QU","la":"Southwark","era":"mod","nn":47,"risk":23,"cat":"green"},{"name":"The wheatsheaf","lat":51.50516,"lon":-0.09103,"postcode":"SE1 9AA","la":"Southwark","era":"trad","nn":6,"risk":22,"cat":"green"},{"name":"The white horse","lat":51.46556,"lon":-0.06672,"postcode":"SE15 4JR","la":"Southwark","era":"trad","nn":236,"risk":24,"cat":"green"},{"name":"The windsor","lat":51.47818,"lon":-0.05395,"postcode":"SE15 1NQ","la":"Southwark","era":"other","nn":371,"risk":25,"cat":"green"},{"name":"The woolpack","lat":51.50072,"lon":-0.08211,"postcode":"SE1 3UB","la":"Southwark","era":"trad","nn":174,"risk":24,"cat":"green"},{"name":"The yellow house","lat":51.49311,"lon":-0.04725,"postcode":"SE16 2UF","la":"Southwark","era":"other","nn":34,"risk":23,"cat":"green"},{"name":"Tito's latin club","lat":51.50537,"lon":-0.08863,"postcode":"SE1 9SG","la":"Southwark","era":"other","nn":42,"risk":23,"cat":"green"},{"name":"Tola","lat":51.47321,"lon":-0.07089,"postcode":"SE15 5DP","la":"Southwark","era":"other","nn":130,"risk":23,"cat":"green"},{"name":"Tower bridge arms","lat":51.50285,"lon":-0.07688,"postcode":"SE1 2UP","la":"Southwark","era":"trad","nn":48,"risk":23,"cat":"green"},{"name":"Trinity","lat":51.50106,"lon":-0.09421,"postcode":"SE1 1JX","la":"Southwark","era":"other","nn":30,"risk":23,"cat":"green"},{"name":"Watson's general telegraph","lat":51.4518,"lon":-0.05994,"postcode":"SE22 0RS","la":"Southwark","era":"other","nn":245,"risk":24,"cat":"green"},{"name":"Waverley arms","lat":51.46065,"lon":-0.04663,"postcode":"SE15 3BU","la":"Southwark","era":"trad","nn":490,"risk":26,"cat":"green"},{"name":"Whelan's free house","lat":51.49307,"lon":-0.04774,"postcode":"SE16 2PP","la":"Southwark","era":"other","nn":34,"risk":23,"cat":"green"},{"name":"White hart","lat":51.50525,"lon":-0.10171,"postcode":"SE1 0UG","la":"Southwark","era":"trad","nn":120,"risk":23,"cat":"green"},{"name":"White men cant jerk","lat":51.48266,"lon":-0.05605,"postcode":"SE15 1TF","la":"Southwark","era":"other","nn":520,"risk":26,"cat":"green"},{"name":"Wood house","lat":51.43274,"lon":-0.07275,"postcode":"SE26 6RS","la":"Southwark","era":"other","nn":888,"risk":46,"cat":"amber"},{"name":"Woodcraft folk","lat":51.49026,"lon":-0.09917,"postcode":"SE17 3BT","la":"Southwark","era":"mod","nn":120,"risk":23,"cat":"green"}]