[{"name":"Antelope","lat":53.1627,"lon":-2.20778,"postcode":"CW12 1RS","la":"Cheshire East","era":"other","nn":122,"risk":23,"cat":"green"},{"name":"Astbury Golf Club Ltd","lat":53.15046,"lon":-2.22692,"postcode":"CW12 4RE","la":"Cheshire East","era":"other","nn":349,"risk":44,"cat":"amber"},{"name":"Bar Six Sandbach Ltd","lat":53.14424,"lon":-2.36204,"postcode":"CW11 1AT","la":"Cheshire East","era":"mod","nn":5,"risk":22,"cat":"green"},{"name":"Bear Town Tap","lat":53.16441,"lon":-2.20627,"postcode":"CW12 1RL","la":"Cheshire East","era":"mod","nn":114,"risk":22,"cat":"green"},{"name":"Bench Bistro Bar","lat":53.06873,"lon":-2.52165,"postcode":"CW5 5NA","la":"Cheshire East","era":"other","nn":69,"risk":22,"cat":"green"},{"name":"Blue Bell Inn","lat":53.14324,"lon":-2.26671,"postcode":"CW11 2XA","la":"Cheshire East","era":"trad","nn":829,"risk":47,"cat":"amber"},{"name":"Boot and Shoe Inn","lat":53.06598,"lon":-2.51947,"postcode":"CW5 5RP","la":"Cheshire East","era":"trad","nn":1,"risk":22,"cat":"green"},{"name":"Bowling Green","lat":53.06704,"lon":-2.51942,"postcode":"CW5 5DN","la":"Cheshire East","era":"other","nn":117,"risk":22,"cat":"green"},{"name":"Bridge Inn","lat":53.10907,"lon":-2.44367,"postcode":"CW1 4JQ","la":"Cheshire East","era":"trad","nn":359,"risk":44,"cat":"amber"},{"name":"Bridge Inn","lat":52.98795,"lon":-2.50981,"postcode":"CW3 0DX","la":"Cheshire East","era":"trad","nn":137,"risk":43,"cat":"amber"},{"name":"British Lion","lat":53.08868,"lon":-2.43863,"postcode":"CW2 6AL","la":"Cheshire East","era":"trad","nn":78,"risk":22,"cat":"green"},{"name":"Broughton Arms","lat":53.09929,"lon":-2.39513,"postcode":"CW1 5QX","la":"Cheshire East","era":"trad","nn":354,"risk":42,"cat":"amber"},{"name":"Bulls Head Inn","lat":53.13723,"lon":-2.30398,"postcode":"CW11 2TY","la":"Cheshire East","era":"trad","nn":2015,"risk":58,"cat":"amber"},{"name":"Cheshire Cheese","lat":53.18889,"lon":-2.44166,"postcode":"CW10 9AX","la":"Cheshire East","era":"other","nn":220,"risk":23,"cat":"green"},{"name":"Cheshire Cheese","lat":53.12911,"lon":-2.3732,"postcode":"CW11 3RL","la":"Cheshire East","era":"other","nn":1165,"risk":52,"cat":"amber"},{"name":"Chimichangos","lat":53.19287,"lon":-2.44688,"postcode":"CW10 9AG","la":"Cheshire East","era":"other","nn":0,"risk":22,"cat":"green"},{"name":"Church House Inn","lat":53.17162,"lon":-2.18887,"postcode":"CW12 2DY","la":"Cheshire East","era":"other","nn":902,"risk":48,"cat":"amber"},{"name":"Civic Hall","lat":53.06822,"lon":-2.52061,"postcode":"CW5 5DG","la":"Cheshire East","era":"other","nn":90,"risk":22,"cat":"green"},{"name":"Coach & Horses","lat":53.15482,"lon":-2.1649,"postcode":"CW12 3PL","la":"Cheshire East","era":"trad","nn":848,"risk":48,"cat":"amber"},{"name":"Congleton RUFC","lat":53.16413,"lon":-2.20791,"postcode":"CW12 1EH","la":"Cheshire East","era":"other","nn":114,"risk":22,"cat":"green"},{"name":"Crewe Vagrants Sports Club","lat":53.0613,"lon":-2.47825,"postcode":"CW5 7EP","la":"Cheshire East","era":"other","nn":771,"risk":47,"cat":"amber"},{"name":"Cronkinson\u2019s Farm","lat":53.06166,"lon":-2.50376,"postcode":"CW5 7GZ","la":"Cheshire East","era":"other","nn":939,"risk":48,"cat":"amber"},{"name":"Crown Hotel","lat":53.09869,"lon":-2.43987,"postcode":"CW1 2BH","la":"Cheshire East","era":"trad","nn":49,"risk":22,"cat":"green"},{"name":"Dishers Pool & Snooker Club","lat":53.08767,"lon":-2.43762,"postcode":"CW2 6HL","la":"Cheshire East","era":"other","nn":131,"risk":23,"cat":"green"},{"name":"Duke of Bridgewater","lat":53.09497,"lon":-2.44188,"postcode":"CW2 7RA","la":"Cheshire East","era":"trad","nn":308,"risk":24,"cat":"green"},{"name":"Dusty Miller","lat":53.02738,"lon":-2.61173,"postcode":"CW5 8HG","la":"Cheshire East","era":"trad","nn":3602,"risk":69,"cat":"red"},{"name":"DV8","lat":53.16327,"lon":-2.21443,"postcode":"CW12 1AR","la":"Cheshire East","era":"other","nn":45,"risk":22,"cat":"green"},{"name":"Dysart Arms","lat":53.11877,"lon":-2.64587,"postcode":"CW6 9PH","la":"Cheshire East","era":"trad","nn":449,"risk":45,"cat":"amber"},{"name":"Egerton Arms Country Inn","lat":53.15114,"lon":-2.23202,"postcode":"CW12 4RQ","la":"Cheshire East","era":"trad","nn":349,"risk":44,"cat":"amber"},{"name":"Eight Farmers","lat":53.11821,"lon":-2.45721,"postcode":"CW1 4TP","la":"Cheshire East","era":"other","nn":1170,"risk":52,"cat":"amber"},{"name":"Flying Lady","lat":53.10148,"lon":-2.42605,"postcode":"CW1 5LE","la":"Cheshire East","era":"other","nn":593,"risk":28,"cat":"green"},{"name":"Forresters Arms","lat":53.11543,"lon":-2.37755,"postcode":"CW11 4RF","la":"Cheshire East","era":"trad","nn":1548,"risk":55,"cat":"amber"},{"name":"Four Eagles","lat":53.09864,"lon":-2.4562,"postcode":"CW1 3AW","la":"Cheshire East","era":"trad","nn":591,"risk":43,"cat":"amber"},{"name":"George & Dragon","lat":53.20283,"lon":-2.35969,"postcode":"CW4 7EA","la":"Cheshire East","era":"trad","nn":201,"risk":41,"cat":"amber"},{"name":"George Inn","lat":53.14299,"lon":-2.36149,"postcode":"CW11 1AL","la":"Cheshire East","era":"trad","nn":0,"risk":22,"cat":"green"},{"name":"Haslington Cosey Social Club","lat":53.09627,"lon":-2.39349,"postcode":"CW1 5ST","la":"Cheshire East","era":"mod","nn":354,"risk":42,"cat":"amber"},{"name":"Heath Farm","lat":53.16134,"lon":-2.24223,"postcode":"CW12 4LR","la":"Cheshire East","era":"other","nn":1323,"risk":53,"cat":"amber"},{"name":"Hickory's Smokehouse Gresty Green","lat":53.07513,"lon":-2.43996,"postcode":"CW2 5AF","la":"Cheshire East","era":"mod","nn":421,"risk":42,"cat":"amber"},{"name":"Horse Shoe Hotel","lat":53.11225,"lon":-2.44276,"postcode":"CW1 4NL","la":"Cheshire East","era":"trad","nn":359,"risk":44,"cat":"amber"},{"name":"Horseshoe Inn","lat":53.13574,"lon":-2.21057,"postcode":"CW12 3NL","la":"Cheshire East","era":"trad","nn":1966,"risk":58,"cat":"amber"},{"name":"Kings Lock Inn","lat":53.18696,"lon":-2.44095,"postcode":"CW10 0JJ","la":"Cheshire East","era":"trad","nn":220,"risk":23,"cat":"green"},{"name":"Malbank Hotel","lat":53.06826,"lon":-2.52231,"postcode":"CW5 5LL","la":"Cheshire East","era":"other","nn":69,"risk":22,"cat":"green"},{"name":"Malkins Bank Golf Club","lat":53.12892,"lon":-2.35574,"postcode":"CW11 4XP","la":"Cheshire East","era":"other","nn":1165,"risk":52,"cat":"amber"},{"name":"Market Tavern","lat":53.14419,"lon":-2.36247,"postcode":"CW11 1AT","la":"Cheshire East","era":"other","nn":27,"risk":22,"cat":"green"},{"name":"Middlewich Masonic Hall","lat":53.19287,"lon":-2.44175,"postcode":"CW10 0JE","la":"Cheshire East","era":"trad","nn":0,"risk":22,"cat":"green"},{"name":"Midland Inn","lat":53.14973,"lon":-2.39184,"postcode":"CW11 3JF","la":"Cheshire East","era":"trad","nn":374,"risk":44,"cat":"amber"},{"name":"NAGS HEAD","lat":53.11609,"lon":-2.65089,"postcode":"CW6 9PB","la":"Cheshire East","era":"trad","nn":449,"risk":45,"cat":"amber"},{"name":"Nags Head","lat":53.07128,"lon":-2.47866,"postcode":"CW5 6QP","la":"Cheshire East","era":"trad","nn":340,"risk":44,"cat":"amber"},{"name":"Nantwich Conservative Club","lat":53.06737,"lon":-2.52117,"postcode":"CW5 5DE","la":"Cheshire East","era":"other","nn":101,"risk":22,"cat":"green"},{"name":"Newton Brewery Inn","lat":53.19544,"lon":-2.44789,"postcode":"CW10 9DN","la":"Cheshire East","era":"trad","nn":3,"risk":22,"cat":"green"},{"name":"Oddfellows Arms","lat":53.06758,"lon":-2.52942,"postcode":"CW5 5ET","la":"Cheshire East","era":"trad","nn":273,"risk":24,"cat":"green"},{"name":"Old Hall","lat":53.14299,"lon":-2.36149,"postcode":"CW11 1AL","la":"Cheshire East","era":"other","nn":0,"risk":22,"cat":"green"},{"name":"Olde Barbridge Inn","lat":53.10632,"lon":-2.57556,"postcode":"CW5 6AY","la":"Cheshire East","era":"trad","nn":4264,"risk":74,"cat":"red"},{"name":"Post Office Sports Club","lat":53.1001,"lon":-2.41745,"postcode":"CW1 5LU","la":"Cheshire East","era":"other","nn":1,"risk":27,"cat":"green"},{"name":"Queens Head Hotel","lat":53.158,"lon":-2.19432,"postcode":"CW12 3DE","la":"Cheshire East","era":"trad","nn":150,"risk":40,"cat":"amber"},{"name":"Queens Park Golf Club","lat":53.09654,"lon":-2.47314,"postcode":"CW2 7SU","la":"Cheshire East","era":"trad","nn":1155,"risk":52,"cat":"amber"},{"name":"Railway Hotel","lat":53.06383,"lon":-2.51957,"postcode":"CW5 5SS","la":"Cheshire East","era":"trad","nn":239,"risk":23,"cat":"green"},{"name":"Railway Inn","lat":53.15702,"lon":-2.19276,"postcode":"CW12 3JS","la":"Cheshire East","era":"trad","nn":150,"risk":40,"cat":"amber"},{"name":"Rams Head","lat":53.16689,"lon":-2.21489,"postcode":"CW12 1HL","la":"Cheshire East","era":"trad","nn":145,"risk":23,"cat":"green"},{"name":"Retro Bar","lat":53.08978,"lon":-2.4384,"postcode":"CW2 7AA","la":"Cheshire East","era":"other","nn":124,"risk":23,"cat":"green"},{"name":"Rising Sun","lat":53.09797,"lon":-2.43366,"postcode":"CW1 2AF","la":"Cheshire East","era":"other","nn":422,"risk":25,"cat":"green"},{"name":"Rumba","lat":53.16356,"lon":-2.21491,"postcode":"CW12 1AH","la":"Cheshire East","era":"other","nn":0,"risk":22,"cat":"green"},{"name":"Sacred Orchard","lat":53.07931,"lon":-2.51118,"postcode":"CW5 6RU","la":"Cheshire East","era":"other","nn":926,"risk":48,"cat":"amber"},{"name":"Sandbach Cricket Club","lat":53.13825,"lon":-2.38719,"postcode":"CW11 3LZ","la":"Cheshire East","era":"other","nn":0,"risk":42,"cat":"amber"},{"name":"Sandbach Golf Club","lat":53.14547,"lon":-2.37422,"postcode":"CW11 1FH","la":"Cheshire East","era":"other","nn":626,"risk":26,"cat":"green"},{"name":"Sandbach United Football Club","lat":53.13825,"lon":-2.38719,"postcode":"CW11 3LZ","la":"Cheshire East","era":"other","nn":0,"risk":42,"cat":"amber"},{"name":"Shavington Social Club","lat":53.0652,"lon":-2.44366,"postcode":"CW2 5DL","la":"Cheshire East","era":"mod","nn":476,"risk":42,"cat":"amber"},{"name":"Six Nantwich","lat":53.06598,"lon":-2.51948,"postcode":"CW5 5RP","la":"Cheshire East","era":"other","nn":1,"risk":22,"cat":"green"},{"name":"Streat @ Middlewich Tap House","lat":53.194,"lon":-2.45254,"postcode":"CW10 9ET","la":"Cheshire East","era":"mod","nn":345,"risk":24,"cat":"green"},{"name":"Swan & Chequers","lat":53.14453,"lon":-2.36414,"postcode":"CW11 1AE","la":"Cheshire East","era":"trad","nn":78,"risk":22,"cat":"green"},{"name":"Swan Inn","lat":53.19892,"lon":-2.35454,"postcode":"CW4 7AU","la":"Cheshire East","era":"trad","nn":365,"risk":42,"cat":"amber"},{"name":"Swan Inn","lat":53.04538,"lon":-2.45039,"postcode":"CW5 7NA","la":"Cheshire East","era":"trad","nn":1541,"risk":55,"cat":"amber"},{"name":"Swettenham Arms","lat":53.2018,"lon":-2.29989,"postcode":"CW12 2LF","la":"Cheshire East","era":"trad","nn":2148,"risk":59,"cat":"amber"},{"name":"Sydney Arms","lat":53.1001,"lon":-2.41747,"postcode":"CW1 5LU","la":"Cheshire East","era":"trad","nn":1,"risk":27,"cat":"green"},{"name":"The Badger Inn","lat":53.14019,"lon":-2.50199,"postcode":"CW5 6DY","la":"Cheshire East","era":"trad","nn":3861,"risk":71,"cat":"red"},{"name":"The Bears Head Hotel","lat":53.17533,"lon":-2.33614,"postcode":"CW11 1RS","la":"Cheshire East","era":"trad","nn":2734,"risk":63,"cat":"red"},{"name":"The Bears Paw","lat":53.14794,"lon":-2.43643,"postcode":"CW11 3QN","la":"Cheshire East","era":"other","nn":2826,"risk":64,"cat":"red"},{"name":"The Beer Emporium","lat":53.1442,"lon":-2.36207,"postcode":"CW11 1AT","la":"Cheshire East","era":"other","nn":5,"risk":22,"cat":"green"},{"name":"The Big Lock Inn","lat":53.19544,"lon":-2.44794,"postcode":"CW10 9DN","la":"Cheshire East","era":"trad","nn":3,"risk":22,"cat":"green"},{"name":"The Boars Head Hotel","lat":53.19287,"lon":-2.44175,"postcode":"CW10 0JE","la":"Cheshire East","era":"trad","nn":0,"risk":22,"cat":"green"},{"name":"The Brownlow Inn","lat":53.14191,"lon":-2.25447,"postcode":"CW12 4TH","la":"Cheshire East","era":"trad","nn":829,"risk":47,"cat":"amber"},{"name":"The Brunswick","lat":53.08883,"lon":-2.43977,"postcode":"CW2 6AW","la":"Cheshire East","era":"other","nn":78,"risk":22,"cat":"green"},{"name":"The Castle Inn","lat":53.15034,"lon":-2.17519,"postcode":"CW12 3LP","la":"Cheshire East","era":"trad","nn":848,"risk":48,"cat":"amber"},{"name":"The Cheese Hall","lat":53.09856,"lon":-2.44057,"postcode":"CW1 2BS","la":"Cheshire East","era":"other","nn":49,"risk":22,"cat":"green"},{"name":"The Cheshire Cat","lat":53.06756,"lon":-2.52533,"postcode":"CW5 5ED","la":"Cheshire East","era":"other","nn":182,"risk":23,"cat":"green"},{"name":"The Club","lat":53.16209,"lon":-2.21164,"postcode":"CW12 4AB","la":"Cheshire East","era":"other","nn":69,"risk":22,"cat":"green"},{"name":"The Counting House","lat":53.16356,"lon":-2.21491,"postcode":"CW12 1AH","la":"Cheshire East","era":"other","nn":0,"risk":22,"cat":"green"},{"name":"The Crazy Moose","lat":53.16281,"lon":-2.20961,"postcode":"CW12 1RP","la":"Cheshire East","era":"other","nn":0,"risk":22,"cat":"green"},{"name":"The Crown Inn","lat":53.22702,"lon":-2.33519,"postcode":"CW4 8PE","la":"Cheshire East","era":"trad","nn":441,"risk":45,"cat":"amber"},{"name":"The Delamere Arms","lat":53.1048,"lon":-2.45716,"postcode":"CW1 3LE","la":"Cheshire East","era":"trad","nn":689,"risk":46,"cat":"amber"},{"name":"The Duke of Gloucester","lat":53.09326,"lon":-2.41518,"postcode":"CW1 5NP","la":"Cheshire East","era":"trad","nn":775,"risk":45,"cat":"amber"},{"name":"The Elephant","lat":53.05798,"lon":-2.45999,"postcode":"CW2 5DZ","la":"Cheshire East","era":"other","nn":908,"risk":48,"cat":"amber"},{"name":"The Fox Inn","lat":53.1526,"lon":-2.39477,"postcode":"CW11 3BF","la":"Cheshire East","era":"trad","nn":374,"risk":44,"cat":"amber"},{"name":"The Hawk Inn","lat":53.1024,"lon":-2.39384,"postcode":"CW1 5RG","la":"Cheshire East","era":"trad","nn":356,"risk":42,"cat":"amber"},{"name":"The Hop Pole","lat":53.09516,"lon":-2.44951,"postcode":"CW2 7RQ","la":"Cheshire East","era":"other","nn":510,"risk":25,"cat":"green"},{"name":"The Imperial","lat":53.09223,"lon":-2.44125,"postcode":"CW2 7HR","la":"Cheshire East","era":"other","nn":308,"risk":24,"cat":"green"},{"name":"The Lamb","lat":53.06822,"lon":-2.47885,"postcode":"CW5 6PX","la":"Cheshire East","era":"other","nn":340,"risk":42,"cat":"amber"},{"name":"The Legs Of Man","lat":53.15363,"lon":-2.31684,"postcode":"CW11 2UG","la":"Cheshire East","era":"other","nn":2015,"risk":58,"cat":"amber"},{"name":"The Lion","lat":53.14382,"lon":-2.36323,"postcode":"CW11 1AH","la":"Cheshire East","era":"trad","nn":65,"risk":22,"cat":"green"},{"name":"The Lord Mountbatten","lat":53.16606,"lon":-2.21321,"postcode":"CW12 1AG","la":"Cheshire East","era":"other","nn":145,"risk":23,"cat":"green"},{"name":"The Lower Chequer Inn","lat":53.14484,"lon":-2.36242,"postcode":"CW11 1FW","la":"Cheshire East","era":"trad","nn":71,"risk":22,"cat":"green"},{"name":"The Old Red Lion","lat":53.20178,"lon":-2.35724,"postcode":"CW4 7AQ","la":"Cheshire East","era":"trad","nn":201,"risk":41,"cat":"amber"},{"name":"The Peacock","lat":53.06898,"lon":-2.49677,"postcode":"CW5 6NE","la":"Cheshire East","era":"other","nn":939,"risk":48,"cat":"amber"},{"name":"The Plough Inn","lat":53.18651,"lon":-2.19569,"postcode":"CW12 2NH","la":"Cheshire East","era":"trad","nn":1400,"risk":54,"cat":"amber"},{"name":"The Prince of Wales","lat":53.16281,"lon":-2.20961,"postcode":"CW12 1RP","la":"Cheshire East","era":"trad","nn":0,"risk":22,"cat":"green"},{"name":"The Raven","lat":53.08113,"lon":-2.44512,"postcode":"CW2 6NA","la":"Cheshire East","era":"other","nn":751,"risk":29,"cat":"green"},{"name":"The Rifleman","lat":53.07203,"lon":-2.51791,"postcode":"CW5 5QE","la":"Cheshire East","era":"other","nn":444,"risk":25,"cat":"green"},{"name":"The Royal Oak","lat":53.10419,"lon":-2.51179,"postcode":"CW5 6DN","la":"Cheshire East","era":"trad","nn":2717,"risk":63,"cat":"red"},{"name":"The Shroppie Fly","lat":52.98889,"lon":-2.51114,"postcode":"CW3 0DX","la":"Cheshire East","era":"other","nn":137,"risk":43,"cat":"amber"},{"name":"The Space Invader","lat":53.22522,"lon":-2.32929,"postcode":"CW4 8PJ","la":"Cheshire East","era":"other","nn":441,"risk":45,"cat":"amber"},{"name":"The Station Pilot","lat":53.0718,"lon":-2.43694,"postcode":"CW2 5UZ","la":"Cheshire East","era":"other","nn":421,"risk":42,"cat":"amber"},{"name":"The Studio","lat":53.06681,"lon":-2.52291,"postcode":"CW5 5BA","la":"Cheshire East","era":"mod","nn":30,"risk":22,"cat":"green"},{"name":"The Throstles Nest","lat":53.16892,"lon":-2.20163,"postcode":"CW12 2DW","la":"Cheshire East","era":"other","nn":589,"risk":26,"cat":"green"},{"name":"The Turnpike","lat":53.179,"lon":-2.43864,"postcode":"CW10 0DJ","la":"Cheshire East","era":"other","nn":899,"risk":48,"cat":"amber"},{"name":"The Vine Inn","lat":53.06374,"lon":-2.45036,"postcode":"CW2 5DT","la":"Cheshire East","era":"trad","nn":476,"risk":42,"cat":"amber"},{"name":"The Wheatsheaf","lat":53.14414,"lon":-2.3651,"postcode":"CW11 1AG","la":"Cheshire East","era":"trad","nn":78,"risk":22,"cat":"green"},{"name":"The White Bear","lat":53.19288,"lon":-2.44688,"postcode":"CW10 9AG","la":"Cheshire East","era":"other","nn":0,"risk":22,"cat":"green"},{"name":"The White Horse Inn","lat":53.06605,"lon":-2.52196,"postcode":"CW5 5BD","la":"Cheshire East","era":"trad","nn":82,"risk":22,"cat":"green"},{"name":"Travellers Rest","lat":53.13441,"lon":-2.6322,"postcode":"CW6 9JA","la":"Cheshire East","era":"other","nn":1964,"risk":58,"cat":"amber"},{"name":"Waggon & Horses","lat":53.19005,"lon":-2.21585,"postcode":"CW12 2JD","la":"Cheshire East","era":"trad","nn":1400,"risk":54,"cat":"amber"},{"name":"Welles & Cross","lat":53.14526,"lon":-2.36404,"postcode":"CW11 1GT","la":"Cheshire East","era":"trad","nn":81,"risk":22,"cat":"green"},{"name":"Wharf Inn","lat":53.15744,"lon":-2.20234,"postcode":"CW12 3AP","la":"Cheshire East","era":"trad","nn":539,"risk":25,"cat":"green"},{"name":"White Hart Inn","lat":53.05746,"lon":-2.4283,"postcode":"CW2 5JS","la":"Cheshire East","era":"trad","nn":1339,"risk":54,"cat":"amber"},{"name":"White Lion","lat":53.0034,"lon":-2.49393,"postcode":"CW3 0JA","la":"Cheshire East","era":"trad","nn":1982,"risk":58,"cat":"amber"},{"name":"Wickstead Arms","lat":53.06654,"lon":-2.52287,"postcode":"CW5 5ST","la":"Cheshire East","era":"trad","nn":30,"risk":22,"cat":"green"},{"name":"Ye Olde Kings Arms","lat":53.16299,"lon":-2.21094,"postcode":"CW12 1BN","la":"Cheshire East","era":"trad","nn":44,"risk":22,"cat":"green"},{"name":"Ye Olde White Lion","lat":53.16269,"lon":-2.21137,"postcode":"CW12 1BD","la":"Cheshire East","era":"trad","nn":44,"risk":22,"cat":"green"},{"name":"Bar No.4","lat":53.18971,"lon":-2.53987,"postcode":"CW7 2LS","la":"Cheshire West and Chester","era":"mod","nn":176,"risk":45,"cat":"amber"},{"name":"Barnton Cricket Club","lat":53.27599,"lon":-2.55092,"postcode":"CW8 4QL","la":"Cheshire West and Chester","era":"other","nn":739,"risk":49,"cat":"amber"},{"name":"Blue Barrel Inn","lat":53.25595,"lon":-2.5247,"postcode":"CW8 1HH","la":"Cheshire West and Chester","era":"trad","nn":139,"risk":25,"cat":"green"},{"name":"Blue Cap","lat":53.23225,"lon":-2.58951,"postcode":"CW8 2DN","la":"Cheshire West and Chester","era":"other","nn":1031,"risk":54,"cat":"amber"},{"name":"Brighton Belle Inn","lat":53.19083,"lon":-2.49343,"postcode":"CW7 3NQ","la":"Cheshire West and Chester","era":"trad","nn":767,"risk":49,"cat":"amber"},{"name":"C Stead Ltd","lat":53.25532,"lon":-2.52651,"postcode":"CW8 1HH","la":"Cheshire West and Chester","era":"other","nn":139,"risk":25,"cat":"green"},{"name":"Castle Private Club","lat":53.25522,"lon":-2.52084,"postcode":"CW8 1HE","la":"Cheshire West and Chester","era":"other","nn":269,"risk":26,"cat":"green"},{"name":"Cheshire Woodland Weddings /Cheshire Outdoors","lat":53.22859,"lon":-2.60374,"postcode":"CW8 2EB","la":"Cheshire West and Chester","era":"other","nn":53,"risk":42,"cat":"amber"},{"name":"Davenham Royal British Legion (Social) Club Ltd","lat":53.23449,"lon":-2.5132,"postcode":"CW9 8JB","la":"Cheshire West and Chester","era":"other","nn":127,"risk":45,"cat":"amber"},{"name":"Debees","lat":53.19239,"lon":-2.5162,"postcode":"CW7 3DA","la":"Cheshire West and Chester","era":"other","nn":2,"risk":24,"cat":"green"},{"name":"Delamere Forest Golf Club","lat":53.22751,"lon":-2.66531,"postcode":"CW8 2JE","la":"Cheshire West and Chester","era":"other","nn":2374,"risk":63,"cat":"red"},{"name":"Dockyard Barons Quay","lat":53.26243,"lon":-2.51455,"postcode":"CW9 5FT","la":"Cheshire West and Chester","era":"mod","nn":97,"risk":24,"cat":"green"},{"name":"Fishermans Tale","lat":53.18506,"lon":-2.51466,"postcode":"CW7 4EF","la":"Cheshire West and Chester","era":"other","nn":572,"risk":28,"cat":"green"},{"name":"Forest View Inn","lat":53.23578,"lon":-2.63243,"postcode":"CW8 2TG","la":"Cheshire West and Chester","era":"trad","nn":1669,"risk":58,"cat":"amber"},{"name":"Foresters Arms","lat":53.15561,"lon":-2.66785,"postcode":"CW6 0AX","la":"Cheshire West and Chester","era":"trad","nn":1223,"risk":55,"cat":"amber"},{"name":"George & Dragon Hotel","lat":53.19058,"lon":-2.54207,"postcode":"CW7 2LX","la":"Cheshire West and Chester","era":"trad","nn":176,"risk":45,"cat":"amber"},{"name":"Greenbank Hotel","lat":53.25209,"lon":-2.53338,"postcode":"CW8 4AG","la":"Cheshire West and Chester","era":"other","nn":465,"risk":27,"cat":"green"},{"name":"Hartford Golf Club","lat":53.25498,"lon":-2.54766,"postcode":"CW8 3AP","la":"Cheshire West and Chester","era":"trad","nn":575,"risk":48,"cat":"amber"},{"name":"Hartford Hall","lat":53.24083,"lon":-2.5367,"postcode":"CW8 1PW","la":"Cheshire West and Chester","era":"trad","nn":1236,"risk":55,"cat":"amber"},{"name":"Kelsall Social Club","lat":53.20752,"lon":-2.71112,"postcode":"CW6 0SB","la":"Cheshire West and Chester","era":"mod","nn":2112,"risk":61,"cat":"red"},{"name":"Knights Grange Pub","lat":53.19965,"lon":-2.54076,"postcode":"CW7 2PT","la":"Cheshire West and Chester","era":"other","nn":58,"risk":44,"cat":"amber"},{"name":"Leigh Arms","lat":53.28067,"lon":-2.60066,"postcode":"CW8 4QT","la":"Cheshire West and Chester","era":"trad","nn":2948,"risk":67,"cat":"red"},{"name":"Lostock Sports & Social Club","lat":53.26685,"lon":-2.47822,"postcode":"CW9 7NW","la":"Cheshire West and Chester","era":"mod","nn":614,"risk":48,"cat":"amber"},{"name":"Northwich Cricket Club","lat":53.25715,"lon":-2.53124,"postcode":"CW8 4BG","la":"Cheshire West and Chester","era":"other","nn":374,"risk":26,"cat":"green"},{"name":"Oakmere Cricket Club","lat":53.22575,"lon":-2.6135,"postcode":"CW8 2EL","la":"Cheshire West and Chester","era":"trad","nn":703,"risk":46,"cat":"amber"},{"name":"Old Broken Cross","lat":53.2545,"lon":-2.4762,"postcode":"CW9 7EB","la":"Cheshire West and Chester","era":"trad","nn":692,"risk":49,"cat":"amber"},{"name":"Penny Black","lat":53.26216,"lon":-2.50854,"postcode":"CW9 5AA","la":"Cheshire West and Chester","era":"other","nn":43,"risk":24,"cat":"green"},{"name":"Portal Premier Golf & Country Club","lat":53.16568,"lon":-2.66048,"postcode":"CW6 0HX","la":"Cheshire West and Chester","era":"other","nn":1223,"risk":55,"cat":"amber"},{"name":"Red lion","lat":53.19336,"lon":-2.51642,"postcode":"CW7 3AA","la":"Cheshire West and Chester","era":"trad","nn":107,"risk":25,"cat":"green"},{"name":"Rifleman Inn","lat":53.19018,"lon":-2.52191,"postcode":"CW7 4AE","la":"Cheshire West and Chester","era":"trad","nn":176,"risk":25,"cat":"green"},{"name":"Rudheath Private Social Club","lat":53.25724,"lon":-2.48555,"postcode":"CW9 7DN","la":"Cheshire West and Chester","era":"mod","nn":692,"risk":49,"cat":"amber"},{"name":"sandiway ales","lat":53.22812,"lon":-2.6037,"postcode":"CW8 2EB","la":"Cheshire West and Chester","era":"other","nn":53,"risk":42,"cat":"amber"},{"name":"Swinging Witch","lat":53.26161,"lon":-2.51405,"postcode":"CW9 5AX","la":"Cheshire West and Chester","era":"other","nn":37,"risk":24,"cat":"green"},{"name":"The Ark","lat":53.1924,"lon":-2.5162,"postcode":"CW7 3DA","la":"Cheshire West and Chester","era":"other","nn":2,"risk":24,"cat":"green"},{"name":"The Barn Owl","lat":53.27001,"lon":-2.54609,"postcode":"CW8 4ET","la":"Cheshire West and Chester","era":"other","nn":739,"risk":49,"cat":"amber"},{"name":"The Bull Ring","lat":53.26051,"lon":-2.51546,"postcode":"CW9 5BU","la":"Cheshire West and Chester","era":"trad","nn":45,"risk":24,"cat":"green"},{"name":"The Grape & Bean","lat":53.26128,"lon":-2.51418,"postcode":"CW9 5BD","la":"Cheshire West and Chester","era":"other","nn":37,"risk":24,"cat":"green"},{"name":"The Green Dragon","lat":53.26255,"lon":-2.50594,"postcode":"CW9 5LP","la":"Cheshire West and Chester","era":"trad","nn":137,"risk":25,"cat":"green"},{"name":"The Kingfisher","lat":53.24309,"lon":-2.51852,"postcode":"CW9 8UW","la":"Cheshire West and Chester","era":"trad","nn":924,"risk":50,"cat":"amber"},{"name":"The Lion Hotel","lat":53.22305,"lon":-2.51703,"postcode":"CW9 8PB","la":"Cheshire West and Chester","era":"trad","nn":1298,"risk":55,"cat":"amber"},{"name":"The Oddfellows Arms","lat":53.23558,"lon":-2.5126,"postcode":"CW9 8JA","la":"Cheshire West and Chester","era":"trad","nn":127,"risk":42,"cat":"amber"},{"name":"The Plough","lat":53.20882,"lon":-2.56339,"postcode":"CW8 2BP","la":"Cheshire West and Chester","era":"trad","nn":1768,"risk":59,"cat":"amber"},{"name":"The Princes Feathers","lat":53.19072,"lon":-2.50494,"postcode":"CW7 3DQ","la":"Cheshire West and Chester","era":"trad","nn":559,"risk":28,"cat":"green"},{"name":"The quayside","lat":53.26246,"lon":-2.50804,"postcode":"CW9 5DY","la":"Cheshire West and Chester","era":"other","nn":34,"risk":24,"cat":"green"},{"name":"The SalthouseNW","lat":53.25945,"lon":-2.5152,"postcode":"CW9 5HD","la":"Cheshire West and Chester","era":"other","nn":120,"risk":25,"cat":"green"},{"name":"The Salty Dog","lat":53.26087,"lon":-2.51512,"postcode":"CW9 5BY","la":"Cheshire West and Chester","era":"other","nn":45,"risk":24,"cat":"green"},{"name":"The Slow and Easy","lat":53.26957,"lon":-2.47019,"postcode":"CW9 7PJ","la":"Cheshire West and Chester","era":"other","nn":614,"risk":48,"cat":"amber"},{"name":"Top House Winsford","lat":53.19376,"lon":-2.51358,"postcode":"CW7 3AE","la":"Cheshire West and Chester","era":"mod","nn":195,"risk":25,"cat":"green"},{"name":"Vale Royal Abbey Golf Club","lat":53.22467,"lon":-2.54258,"postcode":"CW8 2BA","la":"Cheshire West and Chester","era":"trad","nn":1710,"risk":58,"cat":"amber"},{"name":"Ways Green Conservative Club","lat":53.18873,"lon":-2.523,"postcode":"CW7 4AN","la":"Cheshire West and Chester","era":"other","nn":176,"risk":25,"cat":"green"},{"name":"Weaverham Cricket Club","lat":53.26083,"lon":-2.57124,"postcode":"CW8 3JN","la":"Cheshire West and Chester","era":"other","nn":1698,"risk":58,"cat":"amber"},{"name":"Wharton Conservative Club","lat":53.19549,"lon":-2.5076,"postcode":"CW7 3EE","la":"Cheshire West and Chester","era":"trad","nn":442,"risk":27,"cat":"green"},{"name":"Winnington Park Recreation Club","lat":53.26449,"lon":-2.53197,"postcode":"CW8 4EB","la":"Cheshire West and Chester","era":"trad","nn":817,"risk":50,"cat":"amber"},{"name":"Winnington Park Rugby Football Club","lat":53.25222,"lon":-2.54036,"postcode":"CW8 3AA","la":"Cheshire West and Chester","era":"trad","nn":465,"risk":30,"cat":"green"},{"name":"Winsford Cricket Club","lat":53.20011,"lon":-2.54117,"postcode":"CW7 2PT","la":"Cheshire West and Chester","era":"other","nn":58,"risk":44,"cat":"amber"},{"name":"Winsford Flash Sailing Club","lat":53.18055,"lon":-2.51051,"postcode":"CW7 4EE","la":"Cheshire West and Chester","era":"other","nn":572,"risk":48,"cat":"amber"},{"name":"Witton Chimes","lat":53.26217,"lon":-2.5079,"postcode":"CW9 5NW","la":"Cheshire West and Chester","era":"other","nn":34,"risk":24,"cat":"green"},{"name":"CROWN INN","lat":53.02123,"lon":-2.37141,"postcode":"CW3 9BT","la":"Newcastle-under-Lyme","era":"trad","nn":205,"risk":47,"cat":"amber"},{"name":"HAND & TRUMPET INN","lat":53.01987,"lon":-2.36935,"postcode":"CW3 9BY","la":"Newcastle-under-Lyme","era":"trad","nn":205,"risk":47,"cat":"amber"},{"name":"MADELEY WORKINGMENS CLUB","lat":53.0025,"lon":-2.33823,"postcode":"CW3 9JH","la":"Newcastle-under-Lyme","era":"trad","nn":291,"risk":48,"cat":"amber"},{"name":"THE CREWE ARMS HOTEL","lat":53.00742,"lon":-2.31985,"postcode":"CW3 9LP","la":"Newcastle-under-Lyme","era":"trad","nn":345,"risk":48,"cat":"amber"},{"name":"THE OFFLEY ARMS","lat":53.00007,"lon":-2.33982,"postcode":"CW3 9DX","la":"Newcastle-under-Lyme","era":"trad","nn":291,"risk":48,"cat":"amber"},{"name":"THE OLD SWAN","lat":53.00791,"lon":-2.32494,"postcode":"CW3 9LD","la":"Newcastle-under-Lyme","era":"trad","nn":345,"risk":48,"cat":"amber"},{"name":"THE SWAN","lat":53.03532,"lon":-2.36881,"postcode":"CW3 9AB","la":"Newcastle-under-Lyme","era":"trad","nn":1577,"risk":59,"cat":"amber"},{"name":"WHEATSHEAF INN","lat":52.98594,"lon":-2.36949,"postcode":"CW3 9QF","la":"Newcastle-under-Lyme","era":"trad","nn":2532,"risk":66,"cat":"red"}]