[{"name":"Kwality Hotel Limited","lat":53.54545,"lon":-2.37247,"postcode":"M26 1GF","la":"Bolton","era":"other","nn":230,"risk":24,"cat":"green"},{"name":"Market Street Tavern","lat":53.5461,"lon":-2.36916,"postcode":"M26 1HF","la":"Bolton","era":"other","nn":0,"risk":23,"cat":"green"},{"name":"The Grapes Hotel","lat":53.5461,"lon":-2.36916,"postcode":"M26 1HF","la":"Bolton","era":"other","nn":0,"risk":23,"cat":"green"},{"name":"The Horseshoe","lat":53.54317,"lon":-2.35773,"postcode":"M26 1FT","la":"Bolton","era":"trad","nn":822,"risk":46,"cat":"amber"},{"name":"All the Shapes","lat":53.53213,"lon":-2.28584,"postcode":"M25 3HN","la":"Bury","era":"other","nn":137,"risk":29,"cat":"green"},{"name":"Drinks and Food Ltd","lat":53.5299,"lon":-2.26695,"postcode":"M25 1SS","la":"Bury","era":"other","nn":200,"risk":50,"cat":"amber"},{"name":"Macca's Bar and Grill","lat":53.53302,"lon":-2.2844,"postcode":"M25 1AY","la":"Bury","era":"mod","nn":117,"risk":29,"cat":"green"},{"name":"Northern Craft House","lat":53.5527,"lon":-2.29718,"postcode":"M45 8QP","la":"Bury","era":"mod","nn":1082,"risk":58,"cat":"amber"},{"name":"Overdraught Bar","lat":53.5596,"lon":-2.32564,"postcode":"M26 1NQ","la":"Bury","era":"other","nn":1174,"risk":59,"cat":"amber"},{"name":"Railway Hotel","lat":53.57576,"lon":-2.33994,"postcode":"M26 4HN","la":"Bury","era":"trad","nn":1580,"risk":62,"cat":"red"},{"name":"The Church Inn","lat":53.53033,"lon":-2.28513,"postcode":"M25 1AJ","la":"Bury","era":"trad","nn":203,"risk":32,"cat":"amber"},{"name":"The Crooked Man","lat":53.534,"lon":-2.28505,"postcode":"M25 1AS","la":"Bury","era":"other","nn":117,"risk":29,"cat":"green"},{"name":"The Old Cross Hotel","lat":53.56676,"lon":-2.31258,"postcode":"M26 2YG","la":"Bury","era":"trad","nn":1174,"risk":59,"cat":"amber"},{"name":"The Ostrich Hotel","lat":53.52815,"lon":-2.26634,"postcode":"M25 1JF","la":"Bury","era":"other","nn":200,"risk":50,"cat":"amber"},{"name":"The Parkfield Inn","lat":53.54101,"lon":-2.30606,"postcode":"M45 7GT","la":"Bury","era":"trad","nn":1426,"risk":61,"cat":"red"},{"name":"The Red Lion Hotel","lat":53.52998,"lon":-2.28211,"postcode":"M25 1AR","la":"Bury","era":"trad","nn":203,"risk":32,"cat":"amber"},{"name":"The Same Yet Inn","lat":53.55103,"lon":-2.2455,"postcode":"M25 2SF","la":"Bury","era":"trad","nn":1252,"risk":59,"cat":"amber"},{"name":"The Welcome Inn","lat":53.53926,"lon":-2.28116,"postcode":"M45 6TA","la":"Bury","era":"trad","nn":639,"risk":38,"cat":"amber"},{"name":"33 Oldham Street","lat":53.48232,"lon":-2.23633,"postcode":"M1 1JG","la":"Manchester","era":"other","nn":20,"risk":16,"cat":"green"},{"name":"532 Bar & Kitchen","lat":53.46439,"lon":-2.23221,"postcode":"M13 9PR","la":"Manchester","era":"mod","nn":64,"risk":16,"cat":"green"},{"name":"7 Sins","lat":53.48288,"lon":-2.23364,"postcode":"M1 1DE","la":"Manchester","era":"other","nn":0,"risk":16,"cat":"green"},{"name":"Admiral Casino","lat":53.4814,"lon":-2.23574,"postcode":"M1 1LQ","la":"Manchester","era":"other","nn":47,"risk":16,"cat":"green"},{"name":"Admiral Casino","lat":53.37935,"lon":-2.26134,"postcode":"M22 5RN","la":"Manchester","era":"other","nn":1062,"risk":46,"cat":"amber"},{"name":"Admiral Casino","lat":53.51265,"lon":-2.2119,"postcode":"M9 4DH","la":"Manchester","era":"other","nn":167,"risk":17,"cat":"green"},{"name":"Afflecks & Brown","lat":53.48318,"lon":-2.23542,"postcode":"M4 1NB","la":"Manchester","era":"other","nn":58,"risk":16,"cat":"green"},{"name":"Albert's Schloss","lat":53.4784,"lon":-2.24889,"postcode":"M2 5QR","la":"Manchester","era":"other","nn":0,"risk":16,"cat":"green"},{"name":"All Bar One","lat":53.48104,"lon":-2.24265,"postcode":"M2 4NG","la":"Manchester","era":"mod","nn":53,"risk":16,"cat":"green"},{"name":"Alliance Inn","lat":53.51686,"lon":-2.21366,"postcode":"M9 8AJ","la":"Manchester","era":"trad","nn":254,"risk":18,"cat":"green"},{"name":"Alvarium","lat":53.48387,"lon":-2.23501,"postcode":"M4 1LU","la":"Manchester","era":"other","nn":29,"risk":16,"cat":"green"},{"name":"Amber Alehouse","lat":53.36188,"lon":-2.27084,"postcode":"M90 1QX","la":"Manchester","era":"other","nn":1,"risk":16,"cat":"green"},{"name":"Anton's Bar","lat":53.40799,"lon":-2.2573,"postcode":"M22 4FY","la":"Manchester","era":"other","nn":0,"risk":16,"cat":"green"},{"name":"Ape And Apple","lat":53.48032,"lon":-2.24643,"postcode":"M2 6HQ","la":"Manchester","era":"other","nn":81,"risk":17,"cat":"green"},{"name":"Arcane Bar","lat":53.48094,"lon":-2.24707,"postcode":"M2 6DQ","la":"Manchester","era":"other","nn":43,"risk":16,"cat":"green"},{"name":"Aspire Lounge","lat":53.36189,"lon":-2.27086,"postcode":"M90 1QX","la":"Manchester","era":"mod","nn":0,"risk":16,"cat":"green"},{"name":"Atlas Bar Cafe","lat":53.47499,"lon":-2.25187,"postcode":"M3 4LY","la":"Manchester","era":"mod","nn":44,"risk":16,"cat":"green"},{"name":"Avan Lounge & Bar","lat":53.49172,"lon":-2.24879,"postcode":"M3 1FF","la":"Manchester","era":"mod","nn":196,"risk":17,"cat":"green"},{"name":"B Lounge","lat":53.48,"lon":-2.23315,"postcode":"M1 2DB","la":"Manchester","era":"mod","nn":67,"risk":16,"cat":"green"},{"name":"Baby Platinum","lat":53.47638,"lon":-2.23841,"postcode":"M1 6JB","la":"Manchester","era":"other","nn":5,"risk":16,"cat":"green"},{"name":"Band on the Wall","lat":53.48507,"lon":-2.23393,"postcode":"M4 5JZ","la":"Manchester","era":"other","nn":35,"risk":16,"cat":"green"},{"name":"Bar","lat":53.40715,"lon":-2.25589,"postcode":"M22 4NW","la":"Manchester","era":"other","nn":98,"risk":17,"cat":"green"},{"name":"Bar 11","lat":53.48121,"lon":-2.2496,"postcode":"M3 3BQ","la":"Manchester","era":"mod","nn":9,"risk":16,"cat":"green"},{"name":"Bar 256","lat":53.44301,"lon":-2.21897,"postcode":"M14 6LB","la":"Manchester","era":"mod","nn":0,"risk":16,"cat":"green"},{"name":"Bar 4 Eighty","lat":53.44276,"lon":-2.27888,"postcode":"M21 9AS","la":"Manchester","era":"mod","nn":73,"risk":16,"cat":"green"},{"name":"Bar Fringe","lat":53.48516,"lon":-2.23335,"postcode":"M4 5JN","la":"Manchester","era":"mod","nn":40,"risk":16,"cat":"green"},{"name":"Bar Hutte also T/a Great Northern Beach Club & Pong & Puck","lat":53.47796,"lon":-2.25014,"postcode":"M3 4BQ","la":"Manchester","era":"mod","nn":8,"risk":16,"cat":"green"},{"name":"Bar MCR","lat":53.36189,"lon":-2.27086,"postcode":"M90 1QX","la":"Manchester","era":"mod","nn":0,"risk":16,"cat":"green"},{"name":"Bar Pop","lat":53.47729,"lon":-2.23677,"postcode":"M1 3EZ","la":"Manchester","era":"mod","nn":0,"risk":16,"cat":"green"},{"name":"Bar Rogue/Jenny's/ Wave Cafe Bar","lat":53.47886,"lon":-2.2375,"postcode":"M1 3LA","la":"Manchester","era":"mod","nn":57,"risk":16,"cat":"green"},{"name":"Bar San Juan","lat":53.43876,"lon":-2.28057,"postcode":"M21 9EG","la":"Manchester","era":"mod","nn":0,"risk":16,"cat":"green"},{"name":"Barlow Croft","lat":53.408,"lon":-2.22045,"postcode":"M20 5PG","la":"Manchester","era":"other","nn":0,"risk":16,"cat":"green"},{"name":"Base Manchester Ltd","lat":53.48879,"lon":-2.23958,"postcode":"M4 4DR","la":"Manchester","era":"other","nn":109,"risk":17,"cat":"green"},{"name":"Be At One","lat":53.48257,"lon":-2.24741,"postcode":"M3 2ER","la":"Manchester","era":"other","nn":32,"risk":16,"cat":"green"},{"name":"Beech House Bowling & Social Club","lat":53.443,"lon":-2.19787,"postcode":"M19 2HW","la":"Manchester","era":"mod","nn":112,"risk":17,"cat":"green"},{"name":"Beech Inn","lat":53.43876,"lon":-2.28057,"postcode":"M21 9EG","la":"Manchester","era":"trad","nn":0,"risk":16,"cat":"green"},{"name":"Beermoth","lat":53.48129,"lon":-2.24193,"postcode":"M2 1EN","la":"Manchester","era":"other","nn":45,"risk":16,"cat":"green"},{"name":"Behind Closed Doors","lat":53.48365,"lon":-2.23451,"postcode":"M4 1LW","la":"Manchester","era":"other","nn":8,"risk":16,"cat":"green"},{"name":"Benito Lounge","lat":53.44222,"lon":-2.27825,"postcode":"M21 9AJ","la":"Manchester","era":"mod","nn":73,"risk":16,"cat":"green"},{"name":"Big Hands Bar","lat":53.4629,"lon":-2.23052,"postcode":"M13 9NS","la":"Manchester","era":"other","nn":161,"risk":17,"cat":"green"},{"name":"Black Boy Hotel","lat":53.39316,"lon":-2.28514,"postcode":"M23 1JX","la":"Manchester","era":"other","nn":229,"risk":23,"cat":"green"},{"name":"Blinker","lat":53.47996,"lon":-2.24148,"postcode":"M2 2BQ","la":"Manchester","era":"other","nn":54,"risk":16,"cat":"green"},{"name":"Bliss Club","lat":53.47465,"lon":-2.24765,"postcode":"M1 5LN","la":"Manchester","era":"other","nn":43,"risk":16,"cat":"green"},{"name":"Blockbusters NQ","lat":53.4834,"lon":-2.23402,"postcode":"M4 1LE","la":"Manchester","era":"other","nn":0,"risk":16,"cat":"green"},{"name":"Boogalu","lat":53.48143,"lon":-2.23259,"postcode":"M1 2FF","la":"Manchester","era":"other","nn":23,"risk":16,"cat":"green"},{"name":"Boom Battle Bar","lat":53.48519,"lon":-2.24076,"postcode":"M4 2BS","la":"Manchester","era":"other","nn":0,"risk":16,"cat":"green"},{"name":"BrewDog Outpost Manchester","lat":53.46764,"lon":-2.23588,"postcode":"M13 9GP","la":"Manchester","era":"other","nn":245,"risk":18,"cat":"green"},{"name":"Brick House Social","lat":53.47352,"lon":-2.24266,"postcode":"M1 5NP","la":"Manchester","era":"mod","nn":0,"risk":16,"cat":"green"},{"name":"Bridge Street Tavern","lat":53.48089,"lon":-2.24932,"postcode":"M3 3BW","la":"Manchester","era":"other","nn":11,"risk":16,"cat":"green"},{"name":"Britons Protection","lat":53.47496,"lon":-2.24726,"postcode":"M1 5LE","la":"Manchester","era":"other","nn":43,"risk":16,"cat":"green"},{"name":"Browns","lat":53.48109,"lon":-2.24134,"postcode":"M2 2AW","la":"Manchester","era":"other","nn":45,"risk":16,"cat":"green"},{"name":"Brunning and Price","lat":53.47367,"lon":-2.25676,"postcode":"M15 4ST","la":"Manchester","era":"other","nn":316,"risk":18,"cat":"green"},{"name":"Bruntwood","lat":53.47944,"lon":-2.23277,"postcode":"M1 2HY","la":"Manchester","era":"other","nn":53,"risk":16,"cat":"green"},{"name":"Bunny Jacksons","lat":53.47356,"lon":-2.24575,"postcode":"M15 4RA","la":"Manchester","era":"other","nn":175,"risk":17,"cat":"green"},{"name":"Calcio!","lat":53.48158,"lon":-2.23411,"postcode":"M1 1FY","la":"Manchester","era":"other","nn":40,"risk":16,"cat":"green"},{"name":"Carlton Social And Bowling Club","lat":53.45154,"lon":-2.26367,"postcode":"M16 8BE","la":"Manchester","era":"mod","nn":395,"risk":19,"cat":"green"},{"name":"Cask","lat":53.48387,"lon":-2.22516,"postcode":"M4 6FQ","la":"Manchester","era":"other","nn":128,"risk":17,"cat":"green"},{"name":"Castle Hotel","lat":53.48368,"lon":-2.23385,"postcode":"M4 1LE","la":"Manchester","era":"other","nn":6,"risk":16,"cat":"green"},{"name":"Centre Stage","lat":53.47691,"lon":-2.23805,"postcode":"M1 3LY","la":"Manchester","era":"trad","nn":0,"risk":16,"cat":"green"},{"name":"Chorlton Cum Hardy Golf Club","lat":53.42596,"lon":-2.26667,"postcode":"M21 7JJ","la":"Manchester","era":"other","nn":1432,"risk":48,"cat":"amber"},{"name":"Cibus Manchester","lat":53.44394,"lon":-2.19116,"postcode":"M19 3PW","la":"Manchester","era":"other","nn":12,"risk":16,"cat":"green"},{"name":"Circus Tavern","lat":53.47776,"lon":-2.24015,"postcode":"M1 4GX","la":"Manchester","era":"other","nn":0,"risk":16,"cat":"green"},{"name":"City Arms","lat":53.47934,"lon":-2.24295,"postcode":"M2 4BQ","la":"Manchester","era":"trad","nn":0,"risk":16,"cat":"green"},{"name":"City Road Inn","lat":53.47403,"lon":-2.2484,"postcode":"M1 5NZ","la":"Manchester","era":"trad","nn":85,"risk":17,"cat":"green"},{"name":"Cleveland Hotel","lat":53.51789,"lon":-2.23897,"postcode":"M8 5SR","la":"Manchester","era":"other","nn":455,"risk":39,"cat":"amber"},{"name":"Club Liv","lat":53.48092,"lon":-2.24771,"postcode":"M3 2BQ","la":"Manchester","era":"other","nn":43,"risk":16,"cat":"green"},{"name":"Common also T/as Nell's Ice Cream & Nells Pizza","lat":53.48424,"lon":-2.23601,"postcode":"M4 1HW","la":"Manchester","era":"other","nn":37,"risk":16,"cat":"green"},{"name":"Corbiere's Wine Bar","lat":53.4819,"lon":-2.24478,"postcode":"M2 7PB","la":"Manchester","era":"other","nn":35,"risk":16,"cat":"green"},{"name":"Crafty Pig","lat":53.48192,"lon":-2.23606,"postcode":"M1 1JQ","la":"Manchester","era":"mod","nn":48,"risk":16,"cat":"green"},{"name":"Crown And Anchor","lat":53.48463,"lon":-2.24437,"postcode":"M3 1SQ","la":"Manchester","era":"trad","nn":20,"risk":16,"cat":"green"},{"name":"Crown and Kettle","lat":53.48481,"lon":-2.23229,"postcode":"M4 5FE","la":"Manchester","era":"trad","nn":57,"risk":16,"cat":"green"},{"name":"Crown Inn","lat":53.40733,"lon":-2.25445,"postcode":"M22 4WE","la":"Manchester","era":"trad","nn":98,"risk":17,"cat":"green"},{"name":"Derby Brewery Arms","lat":53.49339,"lon":-2.2404,"postcode":"M8 8PY","la":"Manchester","era":"trad","nn":258,"risk":18,"cat":"green"},{"name":"Didsbury Golf Club","lat":53.41082,"lon":-2.24263,"postcode":"M22 4NQ","la":"Manchester","era":"other","nn":526,"risk":20,"cat":"green"},{"name":"Directors Box K-Town Chik Box Locked&Loaded Pizza Amore Dough Masters","lat":53.47959,"lon":-2.24201,"postcode":"M2 4AA","la":"Manchester","era":"other","nn":54,"risk":16,"cat":"green"},{"name":"Disorder","lat":53.48422,"lon":-2.23752,"postcode":"M4 1ES","la":"Manchester","era":"other","nn":42,"risk":16,"cat":"green"},{"name":"Dog & Partridge","lat":53.41786,"lon":-2.23131,"postcode":"M20 6RA","la":"Manchester","era":"other","nn":0,"risk":16,"cat":"green"},{"name":"Duffy's Bar","lat":53.44168,"lon":-2.27614,"postcode":"M21 8AD","la":"Manchester","era":"other","nn":72,"risk":16,"cat":"green"},{"name":"Dulcimer","lat":53.44234,"lon":-2.2765,"postcode":"M21 0AE","la":"Manchester","era":"other","nn":30,"risk":16,"cat":"green"},{"name":"Dusk Til Pawn","lat":53.48247,"lon":-2.23541,"postcode":"M1 1JA","la":"Manchester","era":"other","nn":17,"risk":16,"cat":"green"},{"name":"Eagle Bar","lat":53.47748,"lon":-2.23704,"postcode":"M1 3HZ","la":"Manchester","era":"trad","nn":20,"risk":16,"cat":"green"},{"name":"Edinburgh Castle","lat":53.48424,"lon":-2.22987,"postcode":"M4 5EP","la":"Manchester","era":"other","nn":49,"risk":16,"cat":"green"},{"name":"Egerton Inn","lat":53.51472,"lon":-2.24331,"postcode":"M8 5BY","la":"Manchester","era":"trad","nn":455,"risk":39,"cat":"amber"},{"name":"Electric Shuffle","lat":53.4789,"lon":-2.24883,"postcode":"M3 3NW","la":"Manchester","era":"other","nn":37,"risk":16,"cat":"green"},{"name":"Electrik","lat":53.44232,"lon":-2.27605,"postcode":"M21 0AE","la":"Manchester","era":"other","nn":30,"risk":16,"cat":"green"},{"name":"Elnecot","lat":53.48473,"lon":-2.22875,"postcode":"M4 6AJ","la":"Manchester","era":"other","nn":45,"risk":16,"cat":"green"},{"name":"Embassy Club Leisure Bar","lat":53.51271,"lon":-2.21442,"postcode":"M9 4XJ","la":"Manchester","era":"other","nn":167,"risk":17,"cat":"green"},{"name":"English Lounge","lat":53.48384,"lon":-2.23834,"postcode":"M4 1EA","la":"Manchester","era":"mod","nn":29,"risk":16,"cat":"green"},{"name":"Escape Bar 2","lat":53.40799,"lon":-2.2573,"postcode":"M22 4FY","la":"Manchester","era":"mod","nn":0,"risk":16,"cat":"green"},{"name":"EVA","lat":53.47728,"lon":-2.23746,"postcode":"M1 3LZ","la":"Manchester","era":"other","nn":1,"risk":16,"cat":"green"},{"name":"Factory 251","lat":53.47398,"lon":-2.23731,"postcode":"M1 7EN","la":"Manchester","era":"other","nn":70,"risk":16,"cat":"green"},{"name":"Farmers Arms","lat":53.40582,"lon":-2.26268,"postcode":"M22 4JR","la":"Manchester","era":"trad","nn":193,"risk":17,"cat":"green"},{"name":"Farmers Arms","lat":53.43014,"lon":-2.2014,"postcode":"M19 1EN","la":"Manchester","era":"trad","nn":227,"risk":23,"cat":"green"},{"name":"Feel Good Club","lat":53.48154,"lon":-2.23229,"postcode":"M1 2EH","la":"Manchester","era":"other","nn":23,"risk":16,"cat":"green"},{"name":"Fierce Bar","lat":53.48411,"lon":-2.23652,"postcode":"M4 1NA","la":"Manchester","era":"other","nn":0,"risk":16,"cat":"green"},{"name":"Finders Keepers","lat":53.48321,"lon":-2.22357,"postcode":"M4 6JL","la":"Manchester","era":"other","nn":9,"risk":16,"cat":"green"},{"name":"Flawd","lat":53.48316,"lon":-2.22347,"postcode":"M4 6GL","la":"Manchester","era":"other","nn":9,"risk":16,"cat":"green"},{"name":"Flight Club Darts","lat":53.4806,"lon":-2.24293,"postcode":"M2 4WU","la":"Manchester","era":"other","nn":53,"risk":16,"cat":"green"},{"name":"Flok","lat":53.48277,"lon":-2.23374,"postcode":"M1 1DN","la":"Manchester","era":"other","nn":13,"risk":16,"cat":"green"},{"name":"Flying Horse","lat":53.53177,"lon":-2.22962,"postcode":"M9 8ND","la":"Manchester","era":"trad","nn":633,"risk":40,"cat":"amber"},{"name":"Freight Island Bar","lat":53.47512,"lon":-2.2276,"postcode":"M1 2PY","la":"Manchester","era":"other","nn":0,"risk":16,"cat":"green"},{"name":"Friendship Inn","lat":53.44057,"lon":-2.21876,"postcode":"M14 6XS","la":"Manchester","era":"trad","nn":109,"risk":17,"cat":"green"},{"name":"Frog & Bucket Comedy Club","lat":53.48433,"lon":-2.23287,"postcode":"M4 1LJ","la":"Manchester","era":"other","nn":37,"risk":16,"cat":"green"},{"name":"Fudwaves","lat":53.43297,"lon":-2.23278,"postcode":"M20 3EB","la":"Manchester","era":"other","nn":199,"risk":17,"cat":"green"},{"name":"Fuel Cafe Bar","lat":53.43502,"lon":-2.22786,"postcode":"M20 3BW","la":"Manchester","era":"other","nn":0,"risk":16,"cat":"green"},{"name":"Gardeners Arms","lat":53.52449,"lon":-2.17751,"postcode":"M40 5RZ","la":"Manchester","era":"trad","nn":584,"risk":25,"cat":"green"},{"name":"Gas Lamp","lat":53.48085,"lon":-2.24948,"postcode":"M3 3BW","la":"Manchester","era":"other","nn":11,"risk":16,"cat":"green"},{"name":"G-A-Y Manchester","lat":53.47679,"lon":-2.23763,"postcode":"M1 3WB","la":"Manchester","era":"other","nn":13,"risk":16,"cat":"green"},{"name":"Gilmer Hall Bar","lat":53.45759,"lon":-2.22351,"postcode":"M14 5RR","la":"Manchester","era":"other","nn":0,"risk":16,"cat":"green"},{"name":"Grafton Arms","lat":53.46335,"lon":-2.22805,"postcode":"M13 9WU","la":"Manchester","era":"trad","nn":171,"risk":17,"cat":"green"},{"name":"Grand Central","lat":53.47423,"lon":-2.24106,"postcode":"M1 5NH","la":"Manchester","era":"other","nn":24,"risk":16,"cat":"green"},{"name":"Green Arches (BAR)","lat":53.48973,"lon":-2.23907,"postcode":"M4 4HF","la":"Manchester","era":"other","nn":85,"risk":17,"cat":"green"},{"name":"Grey Horse","lat":53.47791,"lon":-2.23995,"postcode":"M1 4QX","la":"Manchester","era":"trad","nn":21,"risk":16,"cat":"green"},{"name":"Grove Inn","lat":53.52306,"lon":-2.21602,"postcode":"M9 7FW","la":"Manchester","era":"trad","nn":706,"risk":38,"cat":"amber"},{"name":"GRUB","lat":53.49163,"lon":-2.23786,"postcode":"M4 4HF","la":"Manchester","era":"other","nn":141,"risk":17,"cat":"green"},{"name":"Guilty by Association","lat":53.48221,"lon":-2.23371,"postcode":"M1 1DW","la":"Manchester","era":"other","nn":14,"risk":16,"cat":"green"},{"name":"Gullivers","lat":53.48363,"lon":-2.23462,"postcode":"M4 1LW","la":"Manchester","era":"other","nn":0,"risk":16,"cat":"green"},{"name":"Hare & Hounds","lat":53.46864,"lon":-2.15571,"postcode":"M18 8TN","la":"Manchester","era":"trad","nn":594,"risk":20,"cat":"green"},{"name":"Hare And Hounds","lat":53.48523,"lon":-2.23749,"postcode":"M4 4AA","la":"Manchester","era":"trad","nn":58,"risk":16,"cat":"green"},{"name":"Head of Steam","lat":53.41846,"lon":-2.23127,"postcode":"M20 6QZ","la":"Manchester","era":"trad","nn":0,"risk":16,"cat":"green"},{"name":"Hennigans Sports Bar","lat":53.44516,"lon":-2.19186,"postcode":"M19 3AD","la":"Manchester","era":"other","nn":55,"risk":16,"cat":"green"},{"name":"Higher Blackley Conservative Club","lat":53.53349,"lon":-2.20988,"postcode":"M9 6GS","la":"Manchester","era":"other","nn":968,"risk":43,"cat":"amber"},{"name":"Higher Openshaw W M Club","lat":53.47226,"lon":-2.16232,"postcode":"M11 1LE","la":"Manchester","era":"other","nn":151,"risk":17,"cat":"green"},{"name":"Hinterland","lat":53.48374,"lon":-2.23793,"postcode":"M4 1DZ","la":"Manchester","era":"other","nn":29,"risk":16,"cat":"green"},{"name":"History","lat":53.47799,"lon":-2.25004,"postcode":"M3 4BQ","la":"Manchester","era":"other","nn":8,"risk":16,"cat":"green"},{"name":"Honey Trap Club","lat":53.48206,"lon":-2.23339,"postcode":"M1 1HR","la":"Manchester","era":"other","nn":27,"risk":16,"cat":"green"},{"name":"Horse and Jockey","lat":53.43856,"lon":-2.2833,"postcode":"M21 9HS","la":"Manchester","era":"trad","nn":162,"risk":17,"cat":"green"},{"name":"Horseshoe Inn","lat":53.44433,"lon":-2.19068,"postcode":"M19 3QA","la":"Manchester","era":"trad","nn":45,"risk":16,"cat":"green"},{"name":"Hudson Social","lat":53.48065,"lon":-2.24374,"postcode":"M2 1AQ","la":"Manchester","era":"mod","nn":53,"risk":16,"cat":"green"},{"name":"Iconic Bar","lat":53.47728,"lon":-2.23745,"postcode":"M1 3LZ","la":"Manchester","era":"other","nn":1,"risk":16,"cat":"green"},{"name":"Impossible Manchester","lat":53.47803,"lon":-2.24841,"postcode":"M2 5GP","la":"Manchester","era":"other","nn":29,"risk":16,"cat":"green"},{"name":"Jam Street Bar & Grill","lat":53.45152,"lon":-2.26963,"postcode":"M16 0BH","la":"Manchester","era":"mod","nn":0,"risk":16,"cat":"green"},{"name":"Junior Jacksons","lat":53.48363,"lon":-2.23391,"postcode":"M4 1LE","la":"Manchester","era":"other","nn":0,"risk":16,"cat":"green"},{"name":"K2 Karaoke Night Club","lat":53.47906,"lon":-2.24056,"postcode":"M1 4HF","la":"Manchester","era":"other","nn":21,"risk":16,"cat":"green"},{"name":"Kielys Irish Bar","lat":53.47724,"lon":-2.2481,"postcode":"M3 4EE","la":"Manchester","era":"other","nn":89,"risk":17,"cat":"green"},{"name":"Klondyke Club - Levenshulme Bowl/Social Club","lat":53.44357,"lon":-2.19648,"postcode":"M19 2HQ","la":"Manchester","era":"mod","nn":112,"risk":17,"cat":"green"},{"name":"Kopparberg","lat":53.47512,"lon":-2.2276,"postcode":"M1 2PY","la":"Manchester","era":"other","nn":0,"risk":16,"cat":"green"},{"name":"Kro Bar","lat":53.46486,"lon":-2.23164,"postcode":"M13 9PG","la":"Manchester","era":"other","nn":64,"risk":16,"cat":"green"},{"name":"LA Live Ltd","lat":53.40705,"lon":-2.26046,"postcode":"M22 4JT","la":"Manchester","era":"other","nn":9,"risk":16,"cat":"green"},{"name":"Ladybarn Social Club","lat":53.43593,"lon":-2.21116,"postcode":"M14 6TL","la":"Manchester","era":"mod","nn":721,"risk":21,"cat":"green"},{"name":"Lass O'Gowrie","lat":53.47412,"lon":-2.23835,"postcode":"M1 7DB","la":"Manchester","era":"other","nn":1,"risk":16,"cat":"green"},{"name":"Lauriston Club","lat":53.44179,"lon":-2.28246,"postcode":"M21 9JG","la":"Manchester","era":"other","nn":116,"risk":17,"cat":"green"},{"name":"Lightbowne Social Club","lat":53.51275,"lon":-2.19707,"postcode":"M40 9JQ","la":"Manchester","era":"mod","nn":448,"risk":37,"cat":"amber"},{"name":"Lion's Den","lat":53.47757,"lon":-2.24974,"postcode":"M3 4EN","la":"Manchester","era":"trad","nn":0,"risk":16,"cat":"green"},{"name":"Lola Lo","lat":53.47461,"lon":-2.25042,"postcode":"M1 5LH","la":"Manchester","era":"other","nn":0,"risk":16,"cat":"green"},{"name":"Long Legs Ltd","lat":53.4792,"lon":-2.24037,"postcode":"M1 4HF","la":"Manchester","era":"other","nn":21,"risk":16,"cat":"green"},{"name":"Lono Cove","lat":53.48462,"lon":-2.23776,"postcode":"M4 1DH","la":"Manchester","era":"other","nn":9,"risk":16,"cat":"green"},{"name":"Lord Nelson","lat":53.46034,"lon":-2.16761,"postcode":"M18 7FA","la":"Manchester","era":"trad","nn":0,"risk":21,"cat":"green"},{"name":"Lord Nelson","lat":53.46034,"lon":-2.16761,"postcode":"M18 7FA","la":"Manchester","era":"trad","nn":0,"risk":21,"cat":"green"},{"name":"Lord Raglan","lat":53.4727,"lon":-2.16448,"postcode":"M11 1JJ","la":"Manchester","era":"other","nn":151,"risk":17,"cat":"green"},{"name":"Lost Cat","lat":53.48363,"lon":-2.23391,"postcode":"M4 1LE","la":"Manchester","era":"other","nn":0,"risk":16,"cat":"green"},{"name":"Lost in Tokyo","lat":53.48226,"lon":-2.2339,"postcode":"M1 1DW","la":"Manchester","era":"other","nn":0,"risk":16,"cat":"green"},{"name":"Lower Turks Head","lat":53.48478,"lon":-2.23829,"postcode":"M4 1EZ","la":"Manchester","era":"trad","nn":15,"risk":16,"cat":"green"},{"name":"Luck, Lust, Liquor and Burn","lat":53.48448,"lon":-2.23686,"postcode":"M4 1HP","la":"Manchester","era":"other","nn":23,"risk":16,"cat":"green"},{"name":"Lux Lounge","lat":53.44109,"lon":-2.27562,"postcode":"M21 8BH","la":"Manchester","era":"mod","nn":73,"risk":16,"cat":"green"},{"name":"MAG Hospitality Premium Lounge also T/as Escape & 1903","lat":53.36189,"lon":-2.27086,"postcode":"M90 1QX","la":"Manchester","era":"mod","nn":0,"risk":16,"cat":"green"},{"name":"Mala","lat":53.48202,"lon":-2.23503,"postcode":"M1 1JA","la":"Manchester","era":"other","nn":39,"risk":16,"cat":"green"},{"name":"Manchester 235 also T/as James Martin Manchester","lat":53.47619,"lon":-2.24892,"postcode":"M3 4LP","la":"Manchester","era":"other","nn":129,"risk":17,"cat":"green"},{"name":"Manchester Union Brewery","lat":53.47501,"lon":-2.2216,"postcode":"M12 6JL","la":"Manchester","era":"other","nn":397,"risk":19,"cat":"green"},{"name":"Marble Arch Inn","lat":53.48836,"lon":-2.2325,"postcode":"M4 4HY","la":"Manchester","era":"trad","nn":224,"risk":18,"cat":"green"},{"name":"Mary D's","lat":53.48018,"lon":-2.19696,"postcode":"M11 3DQ","la":"Manchester","era":"other","nn":593,"risk":38,"cat":"amber"},{"name":"Matt & Phreds Jazz Club","lat":53.48363,"lon":-2.23462,"postcode":"M4 1LW","la":"Manchester","era":"other","nn":0,"risk":16,"cat":"green"},{"name":"Mean Eyed Cat Bar","lat":53.4834,"lon":-2.23402,"postcode":"M4 1LE","la":"Manchester","era":"other","nn":0,"risk":16,"cat":"green"},{"name":"Micro Bar","lat":53.48374,"lon":-2.23915,"postcode":"M4 3AH","la":"Manchester","era":"other","nn":55,"risk":16,"cat":"green"},{"name":"Millstone Public House","lat":53.48369,"lon":-2.23566,"postcode":"M4 1LQ","la":"Manchester","era":"trad","nn":48,"risk":16,"cat":"green"},{"name":"Mint Lounge","lat":53.4834,"lon":-2.23402,"postcode":"M4 1LE","la":"Manchester","era":"mod","nn":0,"risk":16,"cat":"green"},{"name":"Mojo","lat":53.48121,"lon":-2.24973,"postcode":"M3 3BQ","la":"Manchester","era":"other","nn":9,"risk":16,"cat":"green"},{"name":"Mother Macs","lat":53.48145,"lon":-2.23485,"postcode":"M1 1HP","la":"Manchester","era":"other","nn":36,"risk":16,"cat":"green"},{"name":"Movement Wine and Music Bar","lat":53.48388,"lon":-2.23442,"postcode":"M4 1LG","la":"Manchester","era":"other","nn":21,"risk":16,"cat":"green"},{"name":"Mowers Arms","lat":53.51335,"lon":-2.20376,"postcode":"M9 4HF","la":"Manchester","era":"trad","nn":448,"risk":19,"cat":"green"},{"name":"Mr Thomas's Chop House","lat":53.48143,"lon":-2.24498,"postcode":"M2 7AR","la":"Manchester","era":"other","nn":54,"risk":16,"cat":"green"},{"name":"Mulligans","lat":53.48117,"lon":-2.24885,"postcode":"M3 2RB","la":"Manchester","era":"other","nn":44,"risk":16,"cat":"green"},{"name":"Municipal Bar","lat":53.47757,"lon":-2.24974,"postcode":"M3 4EN","la":"Manchester","era":"other","nn":0,"risk":16,"cat":"green"},{"name":"Nam","lat":53.48455,"lon":-2.22935,"postcode":"M4 6AJ","la":"Manchester","era":"other","nn":45,"risk":16,"cat":"green"},{"name":"National Squash Centre","lat":53.48422,"lon":-2.20281,"postcode":"M11 3FF","la":"Manchester","era":"other","nn":593,"risk":40,"cat":"amber"},{"name":"Nelson","lat":53.41779,"lon":-2.23266,"postcode":"M20 6TN","la":"Manchester","era":"trad","nn":90,"risk":17,"cat":"green"},{"name":"New Moston Club Company Ltd","lat":53.52003,"lon":-2.15988,"postcode":"M40 3RQ","la":"Manchester","era":"other","nn":505,"risk":20,"cat":"green"},{"name":"New Moston Conservative Club","lat":53.52307,"lon":-2.169,"postcode":"M40 0JJ","la":"Manchester","era":"other","nn":392,"risk":21,"cat":"green"},{"name":"New York New York","lat":53.47691,"lon":-2.23805,"postcode":"M1 3LY","la":"Manchester","era":"other","nn":0,"risk":16,"cat":"green"},{"name":"Newton Heath Catholic Mens Club","lat":53.49594,"lon":-2.17488,"postcode":"M40 1LY","la":"Manchester","era":"other","nn":220,"risk":23,"cat":"green"},{"name":"Newton Heath Cricket Club","lat":53.49758,"lon":-2.17303,"postcode":"M40 1GB","la":"Manchester","era":"other","nn":220,"risk":23,"cat":"green"},{"name":"Night & Day Cafe Bar","lat":53.48261,"lon":-2.23529,"postcode":"M1 1JN","la":"Manchester","era":"other","nn":17,"risk":16,"cat":"green"},{"name":"Nordie","lat":53.44099,"lon":-2.18918,"postcode":"M19 3WX","la":"Manchester","era":"other","nn":85,"risk":17,"cat":"green"},{"name":"North Westward Ho","lat":53.48177,"lon":-2.24382,"postcode":"M2 1HN","la":"Manchester","era":"other","nn":0,"risk":16,"cat":"green"},{"name":"Northenden Golf Club","lat":53.41159,"lon":-2.25544,"postcode":"M22 4FR","la":"Manchester","era":"other","nn":243,"risk":18,"cat":"green"},{"name":"Northenden Social Club","lat":53.40701,"lon":-2.26057,"postcode":"M22 4JT","la":"Manchester","era":"mod","nn":9,"risk":16,"cat":"green"},{"name":"Northern Monkey","lat":53.48503,"lon":-2.23976,"postcode":"M4 2AD","la":"Manchester","era":"trad","nn":30,"risk":16,"cat":"green"},{"name":"NQ 64 Arcade Bars Limited","lat":53.48285,"lon":-2.2346,"postcode":"M1 1JF","la":"Manchester","era":"other","nn":53,"risk":16,"cat":"green"},{"name":"NQ64","lat":53.48248,"lon":-2.23621,"postcode":"M4 1AA","la":"Manchester","era":"other","nn":20,"risk":16,"cat":"green"},{"name":"NQ64","lat":53.48219,"lon":-2.23698,"postcode":"M4 1SH","la":"Manchester","era":"other","nn":45,"risk":16,"cat":"green"},{"name":"NQ64","lat":53.47828,"lon":-2.24827,"postcode":"M2 5QJ","la":"Manchester","era":"other","nn":0,"risk":16,"cat":"green"},{"name":"O2 Ritz Manchester","lat":53.47442,"lon":-2.2431,"postcode":"M1 5NQ","la":"Manchester","era":"other","nn":74,"risk":16,"cat":"green"},{"name":"Old Monkey","lat":53.47776,"lon":-2.24015,"postcode":"M1 4GX","la":"Manchester","era":"trad","nn":0,"risk":16,"cat":"green"},{"name":"Old Wellington","lat":53.48469,"lon":-2.24407,"postcode":"M3 1SW","la":"Manchester","era":"trad","nn":1,"risk":16,"cat":"green"},{"name":"ON Bar","lat":53.47681,"lon":-2.23743,"postcode":"M1 3WD","la":"Manchester","era":"other","nn":0,"risk":16,"cat":"green"},{"name":"One Eight Six Barbers & Bar","lat":53.47906,"lon":-2.24932,"postcode":"M3 3WB","la":"Manchester","era":"other","nn":37,"risk":16,"cat":"green"},{"name":"Oscars Bar","lat":53.47681,"lon":-2.23743,"postcode":"M1 3WD","la":"Manchester","era":"other","nn":0,"risk":16,"cat":"green"},{"name":"O'Sheas","lat":53.47522,"lon":-2.23855,"postcode":"M1 6NF","la":"Manchester","era":"other","nn":90,"risk":17,"cat":"green"},{"name":"Overdraught","lat":53.44405,"lon":-2.19115,"postcode":"M19 3PW","la":"Manchester","era":"other","nn":12,"risk":16,"cat":"green"},{"name":"Parkview Pub","lat":53.53689,"lon":-2.23378,"postcode":"M9 0QJ","la":"Manchester","era":"other","nn":600,"risk":38,"cat":"amber"},{"name":"Peaky Blinders","lat":53.47828,"lon":-2.24827,"postcode":"M2 5QJ","la":"Manchester","era":"other","nn":0,"risk":16,"cat":"green"},{"name":"Peer Hat","lat":53.4827,"lon":-2.23294,"postcode":"M1 1BE","la":"Manchester","era":"other","nn":50,"risk":16,"cat":"green"},{"name":"Pelican","lat":53.48136,"lon":-2.23296,"postcode":"M1 2HF","la":"Manchester","era":"other","nn":26,"risk":16,"cat":"green"},{"name":"Peveril of The Peak","lat":53.47499,"lon":-2.24464,"postcode":"M1 5JQ","la":"Manchester","era":"other","nn":57,"risk":16,"cat":"green"},{"name":"Piccadilly Central","lat":53.47742,"lon":-2.23239,"postcode":"M1 2PF","la":"Manchester","era":"other","nn":119,"risk":17,"cat":"green"},{"name":"Pixel Bar","lat":53.48455,"lon":-2.23784,"postcode":"M4 1DH","la":"Manchester","era":"other","nn":9,"risk":16,"cat":"green"},{"name":"Platt Lane Sport Complex","lat":53.44854,"lon":-2.22967,"postcode":"M14 7UU","la":"Manchester","era":"other","nn":550,"risk":20,"cat":"green"},{"name":"Ply","lat":53.48226,"lon":-2.2339,"postcode":"M1 1DW","la":"Manchester","era":"other","nn":0,"risk":16,"cat":"green"},{"name":"Point Blank Shooting Manchester","lat":53.48282,"lon":-2.24715,"postcode":"M3 2FW","la":"Manchester","era":"other","nn":0,"risk":16,"cat":"green"},{"name":"Polish Parish Club","lat":53.45851,"lon":-2.23626,"postcode":"M14 4QB","la":"Manchester","era":"other","nn":485,"risk":19,"cat":"green"},{"name":"Port Street Beer House","lat":53.48187,"lon":-2.23185,"postcode":"M1 2EQ","la":"Manchester","era":"other","nn":47,"risk":16,"cat":"green"},{"name":"Provence","lat":53.48013,"lon":-2.25067,"postcode":"M3 3HF","la":"Manchester","era":"other","nn":30,"risk":16,"cat":"green"},{"name":"Queens Hotel","lat":53.50019,"lon":-2.21367,"postcode":"M40 8QU","la":"Manchester","era":"trad","nn":477,"risk":37,"cat":"amber"},{"name":"Railway Inn","lat":53.4278,"lon":-2.24021,"postcode":"M20 2NT","la":"Manchester","era":"trad","nn":54,"risk":16,"cat":"green"},{"name":"Ramona","lat":53.48585,"lon":-2.23435,"postcode":"M4 5JG","la":"Manchester","era":"trad","nn":60,"risk":16,"cat":"green"},{"name":"Reasons to be Cheerful","lat":53.42109,"lon":-2.2172,"postcode":"M20 6EL","la":"Manchester","era":"other","nn":393,"risk":19,"cat":"green"},{"name":"Rebellion Bar","lat":53.47419,"lon":-2.25051,"postcode":"M1 5WZ","la":"Manchester","era":"trad","nn":47,"risk":16,"cat":"green"},{"name":"Red Bank Pop Up 21","lat":53.49044,"lon":-2.23861,"postcode":"M4 4HF","la":"Manchester","era":"other","nn":85,"risk":17,"cat":"green"},{"name":"Retro Bar","lat":53.47504,"lon":-2.23536,"postcode":"M1 3NJ","la":"Manchester","era":"other","nn":134,"risk":17,"cat":"green"},{"name":"Revolucion de Cuba","lat":53.4784,"lon":-2.24889,"postcode":"M2 5QR","la":"Manchester","era":"other","nn":0,"risk":16,"cat":"green"},{"name":"Revolution","lat":53.47461,"lon":-2.25042,"postcode":"M1 5LH","la":"Manchester","era":"other","nn":0,"risk":16,"cat":"green"},{"name":"Rising Sun","lat":53.47937,"lon":-2.2473,"postcode":"M2 5HX","la":"Manchester","era":"other","nn":52,"risk":16,"cat":"green"},{"name":"Rose & Monkey Hotel","lat":53.48524,"lon":-2.23439,"postcode":"M4 5JZ","la":"Manchester","era":"trad","nn":35,"risk":16,"cat":"green"},{"name":"Royal Oak","lat":53.46333,"lon":-2.16659,"postcode":"M18 8NZ","la":"Manchester","era":"trad","nn":282,"risk":20,"cat":"green"},{"name":"Royal Oak","lat":53.44346,"lon":-2.27767,"postcode":"M21 0BQ","la":"Manchester","era":"trad","nn":112,"risk":17,"cat":"green"},{"name":"Sadler's Cat","lat":53.48682,"lon":-2.2401,"postcode":"M4 4AH","la":"Manchester","era":"other","nn":120,"risk":17,"cat":"green"},{"name":"Saison","lat":53.42641,"lon":-2.24329,"postcode":"M20 2LW","la":"Manchester","era":"other","nn":0,"risk":16,"cat":"green"},{"name":"Salt Dog Slims","lat":53.48036,"lon":-2.24479,"postcode":"M2 4FW","la":"Manchester","era":"other","nn":25,"risk":16,"cat":"green"},{"name":"Salutation Tavern","lat":53.46857,"lon":-2.23934,"postcode":"M15 6ED","la":"Manchester","era":"other","nn":113,"risk":17,"cat":"green"},{"name":"Sammy's","lat":53.48543,"lon":-2.23377,"postcode":"M4 5JQ","la":"Manchester","era":"other","nn":41,"risk":16,"cat":"green"},{"name":"Sams Chop House","lat":53.48177,"lon":-2.24382,"postcode":"M2 1HN","la":"Manchester","era":"other","nn":0,"risk":16,"cat":"green"},{"name":"Sandinista!","lat":53.48217,"lon":-2.24506,"postcode":"M2 7PF","la":"Manchester","era":"other","nn":35,"risk":16,"cat":"green"},{"name":"Satans Hollow","lat":53.47694,"lon":-2.23915,"postcode":"M1 6DD","la":"Manchester","era":"other","nn":73,"risk":16,"cat":"green"},{"name":"Sawyers Arms","lat":53.48075,"lon":-2.24837,"postcode":"M3 2RP","la":"Manchester","era":"trad","nn":21,"risk":16,"cat":"green"},{"name":"Schofield's Bar","lat":53.47883,"lon":-2.25049,"postcode":"M3 3JZ","la":"Manchester","era":"other","nn":57,"risk":16,"cat":"green"},{"name":"Seven Oaks","lat":53.47899,"lon":-2.24089,"postcode":"M1 4HL","la":"Manchester","era":"trad","nn":23,"risk":16,"cat":"green"},{"name":"Seven Sins also T/as Basic Kneads","lat":53.48288,"lon":-2.23364,"postcode":"M1 1FN","la":"Manchester","era":"other","nn":0,"risk":16,"cat":"green"},{"name":"Sinclairs Oyster Bar","lat":53.48468,"lon":-2.24409,"postcode":"M3 1SW","la":"Manchester","era":"other","nn":1,"risk":16,"cat":"green"},{"name":"Sir Ralph Abercromby also T/as Dog House","lat":53.47853,"lon":-2.24775,"postcode":"M2 5GU","la":"Manchester","era":"other","nn":30,"risk":16,"cat":"green"},{"name":"Slug & Lettuce also T/as Loco Loco, El Rodeo, Mexicano,Burrito Bandits","lat":53.41846,"lon":-2.23127,"postcode":"M20 6QZ","la":"Manchester","era":"other","nn":0,"risk":16,"cat":"green"},{"name":"Slug and Lettuce","lat":53.48294,"lon":-2.24687,"postcode":"M3 2EN","la":"Manchester","era":"other","nn":11,"risk":16,"cat":"green"},{"name":"Slug and Lettuce","lat":53.47924,"lon":-2.2462,"postcode":"M2 5HD","la":"Manchester","era":"other","nn":51,"risk":16,"cat":"green"},{"name":"Smedley Hotel","lat":53.50626,"lon":-2.22552,"postcode":"M9 5SU","la":"Manchester","era":"other","nn":636,"risk":38,"cat":"amber"},{"name":"Society","lat":53.47616,"lon":-2.24493,"postcode":"M2 3BG","la":"Manchester","era":"mod","nn":131,"risk":17,"cat":"green"},{"name":"South West Manchester Cricket Club","lat":53.44389,"lon":-2.27007,"postcode":"M21 0SG","la":"Manchester","era":"other","nn":300,"risk":18,"cat":"green"},{"name":"Southside Tequila and Taco Joint","lat":53.43403,"lon":-2.22793,"postcode":"M20 4AN","la":"Manchester","era":"other","nn":46,"risk":16,"cat":"green"},{"name":"Speak in Code","lat":53.4792,"lon":-2.24803,"postcode":"M2 5WD","la":"Manchester","era":"other","nn":0,"risk":16,"cat":"green"},{"name":"St Anselm Hall Cellar Club","lat":53.45491,"lon":-2.21449,"postcode":"M14 5BX","la":"Manchester","era":"trad","nn":667,"risk":26,"cat":"green"},{"name":"St James's Club","lat":53.48066,"lon":-2.24182,"postcode":"M2 2BG","la":"Manchester","era":"other","nn":57,"risk":16,"cat":"green"},{"name":"St John Bosco Church Hall","lat":53.5236,"lon":-2.19387,"postcode":"M9 7BD","la":"Manchester","era":"other","nn":472,"risk":37,"cat":"amber"},{"name":"St John's Social Centre","lat":53.43904,"lon":-2.27887,"postcode":"M21 9DX","la":"Manchester","era":"mod","nn":117,"risk":17,"cat":"green"},{"name":"St Kentigern's Social Club","lat":53.44359,"lon":-2.23,"postcode":"M14 7DW","la":"Manchester","era":"mod","nn":550,"risk":20,"cat":"green"},{"name":"St Margaret's Social Centre","lat":53.44573,"lon":-2.26309,"postcode":"M21 0TT","la":"Manchester","era":"mod","nn":483,"risk":19,"cat":"green"},{"name":"Star And Garter","lat":53.47638,"lon":-2.23277,"postcode":"M1 3GF","la":"Manchester","era":"other","nn":72,"risk":16,"cat":"green"},{"name":"Station Hop","lat":53.44527,"lon":-2.19105,"postcode":"M19 3BS","la":"Manchester","era":"other","nn":55,"risk":16,"cat":"green"},{"name":"Station Hotel","lat":53.41887,"lon":-2.2322,"postcode":"M20 2DN","la":"Manchester","era":"other","nn":77,"risk":17,"cat":"green"},{"name":"Steelworks Tavern","lat":53.46778,"lon":-2.18154,"postcode":"M18 8DA","la":"Manchester","era":"mod","nn":1106,"risk":46,"cat":"amber"},{"name":"Strange Brew","lat":53.43811,"lon":-2.27408,"postcode":"M21 8AZ","la":"Manchester","era":"other","nn":334,"risk":18,"cat":"green"},{"name":"Strawberry Duck","lat":53.47993,"lon":-2.17222,"postcode":"M11 4GU","la":"Manchester","era":"other","nn":366,"risk":19,"cat":"green"},{"name":"Tank & Paddle","lat":53.48519,"lon":-2.24076,"postcode":"M4 2BS","la":"Manchester","era":"other","nn":0,"risk":16,"cat":"green"},{"name":"Terrace","lat":53.48411,"lon":-2.23652,"postcode":"M4 1NA","la":"Manchester","era":"other","nn":0,"risk":16,"cat":"green"},{"name":"The Abel Heywood","lat":53.48356,"lon":-2.23738,"postcode":"M4 1DZ","la":"Manchester","era":"other","nn":42,"risk":16,"cat":"green"},{"name":"The Airport Bar & Grill","lat":53.3642,"lon":-2.26028,"postcode":"M22 5WH","la":"Manchester","era":"mod","nn":682,"risk":21,"cat":"green"},{"name":"The Albert Hall","lat":53.47828,"lon":-2.24758,"postcode":"M2 5QJ","la":"Manchester","era":"other","nn":30,"risk":16,"cat":"green"},{"name":"The Albert Inn","lat":53.43442,"lon":-2.22819,"postcode":"M20 3BG","la":"Manchester","era":"trad","nn":46,"risk":16,"cat":"green"},{"name":"The Alchemist","lat":53.47987,"lon":-2.2508,"postcode":"M3 3HF","la":"Manchester","era":"other","nn":30,"risk":16,"cat":"green"},{"name":"The Angel","lat":53.48716,"lon":-2.23523,"postcode":"M4 4BR","la":"Manchester","era":"trad","nn":158,"risk":17,"cat":"green"},{"name":"The Ark","lat":53.47461,"lon":-2.25042,"postcode":"M1 5LH","la":"Manchester","era":"other","nn":0,"risk":16,"cat":"green"},{"name":"The Bank","lat":53.47974,"lon":-2.24042,"postcode":"M2 3FF","la":"Manchester","era":"other","nn":60,"risk":16,"cat":"green"},{"name":"The Banyan Tree","lat":53.47219,"lon":-2.26084,"postcode":"M15 4JY","la":"Manchester","era":"other","nn":316,"risk":18,"cat":"green"},{"name":"The Bay Horse","lat":53.48428,"lon":-2.23678,"postcode":"M4 1NA","la":"Manchester","era":"trad","nn":23,"risk":16,"cat":"green"},{"name":"The Beer House Chorlton (Ltd)","lat":53.44548,"lon":-2.27861,"postcode":"M21 9PW","la":"Manchester","era":"mod","nn":136,"risk":17,"cat":"green"},{"name":"The Beerhouse","lat":53.48636,"lon":-2.24173,"postcode":"M3 1NX","la":"Manchester","era":"other","nn":50,"risk":16,"cat":"green"},{"name":"The Beeswing Wine Bar & Kitchen","lat":53.47767,"lon":-2.23471,"postcode":"M1 3EF","la":"Manchester","era":"mod","nn":68,"risk":16,"cat":"green"},{"name":"The Blues Kitchen","lat":53.47848,"lon":-2.25112,"postcode":"M3 3HN","la":"Manchester","era":"mod","nn":57,"risk":16,"cat":"green"},{"name":"The Botanist","lat":53.48282,"lon":-2.24715,"postcode":"M3 2FW","la":"Manchester","era":"other","nn":0,"risk":16,"cat":"green"},{"name":"The Bowling Green Hotel","lat":53.43618,"lon":-2.28167,"postcode":"M21 8FF","la":"Manchester","era":"other","nn":254,"risk":18,"cat":"green"},{"name":"The Box","lat":53.48024,"lon":-2.248,"postcode":"M3 2BY","la":"Manchester","era":"other","nn":53,"risk":16,"cat":"green"},{"name":"The Bread Shed","lat":53.47106,"lon":-2.23574,"postcode":"M1 7HL","la":"Manchester","era":"other","nn":0,"risk":16,"cat":"green"},{"name":"The Brewers Manchester","lat":53.478,"lon":-2.23564,"postcode":"M1 3HE","la":"Manchester","era":"other","nn":14,"risk":16,"cat":"green"},{"name":"The Brotherhood of Pursuits and Pastimes","lat":53.47866,"lon":-2.24597,"postcode":"M2 5WQ","la":"Manchester","era":"other","nn":65,"risk":16,"cat":"green"},{"name":"The Bulls Head Hotel","lat":53.47637,"lon":-2.23169,"postcode":"M1 2PN","la":"Manchester","era":"trad","nn":72,"risk":16,"cat":"green"},{"name":"The Charlestown Hotel","lat":53.52266,"lon":-2.18692,"postcode":"M9 7ED","la":"Manchester","era":"other","nn":472,"risk":24,"cat":"green"},{"name":"The Chorlton Green","lat":53.43841,"lon":-2.28086,"postcode":"M21 9EQ","la":"Manchester","era":"other","nn":0,"risk":16,"cat":"green"},{"name":"The Chorlton Tap","lat":53.44226,"lon":-2.27367,"postcode":"M21 0UE","la":"Manchester","era":"mod","nn":158,"risk":17,"cat":"green"},{"name":"The City","lat":53.48428,"lon":-2.23359,"postcode":"M4 1LN","la":"Manchester","era":"other","nn":47,"risk":16,"cat":"green"},{"name":"The Claremont Hotel","lat":53.45317,"lon":-2.24382,"postcode":"M14 4RR","la":"Manchester","era":"other","nn":467,"risk":37,"cat":"amber"},{"name":"The Cornishman Hotel","lat":53.37009,"lon":-2.25741,"postcode":"M22 0JX","la":"Manchester","era":"other","nn":682,"risk":41,"cat":"amber"},{"name":"The Courtyard","lat":53.47226,"lon":-2.24037,"postcode":"M1 5SH","la":"Manchester","era":"mod","nn":201,"risk":17,"cat":"green"},{"name":"The Deansgate","lat":53.47507,"lon":-2.25122,"postcode":"M3 4LQ","la":"Manchester","era":"other","nn":44,"risk":16,"cat":"green"},{"name":"The Didsbury","lat":53.41026,"lon":-2.23095,"postcode":"M20 2SG","la":"Manchester","era":"other","nn":598,"risk":20,"cat":"green"},{"name":"The Dockyard Didsbury","lat":53.41786,"lon":-2.23131,"postcode":"M20 6RA","la":"Manchester","era":"mod","nn":0,"risk":16,"cat":"green"},{"name":"The Drawing Room","lat":53.42767,"lon":-2.24197,"postcode":"M20 1LH","la":"Manchester","era":"other","nn":118,"risk":17,"cat":"green"},{"name":"The Ducie Arms","lat":53.46316,"lon":-2.23503,"postcode":"M15 6HS","la":"Manchester","era":"trad","nn":232,"risk":18,"cat":"green"},{"name":"The Famous Crown","lat":53.41556,"lon":-2.23247,"postcode":"M20 2DR","la":"Manchester","era":"trad","nn":112,"risk":17,"cat":"green"},{"name":"The Firbank Pub & Kitchen","lat":53.38891,"lon":-2.27713,"postcode":"M23 2YP","la":"Manchester","era":"mod","nn":563,"risk":37,"cat":"amber"},{"name":"The Flour & Flagon also T/as 88th Street, Value Mighty,Sin City Burger","lat":53.47106,"lon":-2.23574,"postcode":"M1 7HL","la":"Manchester","era":"other","nn":0,"risk":16,"cat":"green"},{"name":"The Flying Horse","lat":53.369,"lon":-2.23946,"postcode":"M22 5LB","la":"Manchester","era":"trad","nn":501,"risk":39,"cat":"amber"},{"name":"The Font","lat":53.44747,"lon":-2.27754,"postcode":"M21 9PG","la":"Manchester","era":"other","nn":0,"risk":16,"cat":"green"},{"name":"The Ford Madox Brown","lat":53.4616,"lon":-2.22945,"postcode":"M13 9NG","la":"Manchester","era":"other","nn":96,"risk":17,"cat":"green"},{"name":"The Freemount","lat":53.48363,"lon":-2.23462,"postcode":"M4 1LW","la":"Manchester","era":"other","nn":0,"risk":16,"cat":"green"},{"name":"The Garratt","lat":53.47483,"lon":-2.23736,"postcode":"M1 7AG","la":"Manchester","era":"other","nn":90,"risk":17,"cat":"green"},{"name":"The Gateway/Wetherspoons","lat":53.408,"lon":-2.22045,"postcode":"M20 5PG","la":"Manchester","era":"other","nn":0,"risk":16,"cat":"green"},{"name":"The George Charles also T/as Unagi","lat":53.42641,"lon":-2.24329,"postcode":"M20 2LW","la":"Manchester","era":"trad","nn":0,"risk":16,"cat":"green"},{"name":"The Goose","lat":53.47735,"lon":-2.23743,"postcode":"M1 3JE","la":"Manchester","era":"other","nn":7,"risk":16,"cat":"green"},{"name":"The Grapes Lounge Bar","lat":53.40944,"lon":-2.25617,"postcode":"M22 4HH","la":"Manchester","era":"mod","nn":178,"risk":17,"cat":"green"},{"name":"The Great Central","lat":53.44152,"lon":-2.21921,"postcode":"M14 6NL","la":"Manchester","era":"other","nn":109,"risk":17,"cat":"green"},{"name":"The Grove Inn","lat":53.48314,"lon":-2.18421,"postcode":"M11 4SQ","la":"Manchester","era":"trad","nn":870,"risk":40,"cat":"amber"},{"name":"The Hillary Step","lat":53.45152,"lon":-2.26963,"postcode":"M16 0BH","la":"Manchester","era":"other","nn":0,"risk":16,"cat":"green"},{"name":"The Jane Eyre","lat":53.43873,"lon":-2.2808,"postcode":"M21 9EG","la":"Manchester","era":"other","nn":15,"risk":16,"cat":"green"},{"name":"The Jane Eyre Neighbourhood Bar","lat":53.48415,"lon":-2.22871,"postcode":"M4 6WX","la":"Manchester","era":"other","nn":61,"risk":16,"cat":"green"},{"name":"The Jolly Butcher","lat":53.39975,"lon":-2.30515,"postcode":"M23 9PS","la":"Manchester","era":"other","nn":515,"risk":25,"cat":"green"},{"name":"The Levenshulme","lat":53.44175,"lon":-2.18935,"postcode":"M19 3NP","la":"Manchester","era":"other","nn":85,"risk":17,"cat":"green"},{"name":"The Lion & Antelope","lat":53.36189,"lon":-2.27086,"postcode":"M90 1QX","la":"Manchester","era":"trad","nn":0,"risk":16,"cat":"green"},{"name":"The Lost Dene","lat":53.48058,"lon":-2.24854,"postcode":"M3 3EE","la":"Manchester","era":"other","nn":21,"risk":16,"cat":"green"},{"name":"The Manchester Bierkeller","lat":53.48519,"lon":-2.24076,"postcode":"M4 2BS","la":"Manchester","era":"other","nn":0,"risk":16,"cat":"green"},{"name":"The Manchester Lounge","lat":53.48464,"lon":-2.2407,"postcode":"M4 2BJ","la":"Manchester","era":"mod","nn":61,"risk":16,"cat":"green"},{"name":"The Metropolitan also T/as K-Town, Chik Box, Locked & Loaded, Pizza Amore and Dough Masters","lat":53.42732,"lon":-2.24012,"postcode":"M20 2WS","la":"Manchester","era":"other","nn":54,"risk":16,"cat":"green"},{"name":"The Mill","lat":53.47689,"lon":-2.22982,"postcode":"M1 2BN","la":"Manchester","era":"trad","nn":136,"risk":17,"cat":"green"},{"name":"The Molly House","lat":53.47733,"lon":-2.23719,"postcode":"M1 3NB","la":"Manchester","era":"other","nn":16,"risk":16,"cat":"green"},{"name":"The Moon Under Water","lat":53.4829,"lon":-2.24702,"postcode":"M3 2FN","la":"Manchester","era":"other","nn":11,"risk":16,"cat":"green"},{"name":"The New Union","lat":53.47635,"lon":-2.23834,"postcode":"M1 6JB","la":"Manchester","era":"other","nn":5,"risk":16,"cat":"green"},{"name":"The Nip and Tipple","lat":53.45152,"lon":-2.26963,"postcode":"M16 0BH","la":"Manchester","era":"other","nn":0,"risk":16,"cat":"green"},{"name":"The Old Nags Head","lat":53.4792,"lon":-2.24804,"postcode":"M2 5WD","la":"Manchester","era":"trad","nn":0,"risk":16,"cat":"green"},{"name":"The Paramount","lat":53.47672,"lon":-2.24264,"postcode":"M1 4BH","la":"Manchester","era":"trad","nn":0,"risk":16,"cat":"green"},{"name":"The Park Hotel","lat":53.40833,"lon":-2.29359,"postcode":"M23 0AE","la":"Manchester","era":"other","nn":1161,"risk":47,"cat":"amber"},{"name":"The Parrs Wood","lat":53.41662,"lon":-2.22056,"postcode":"M20 6JD","la":"Manchester","era":"other","nn":545,"risk":20,"cat":"green"},{"name":"The Pen and Pencil","lat":53.48115,"lon":-2.23141,"postcode":"M1 2EJ","la":"Manchester","era":"other","nn":40,"risk":16,"cat":"green"},{"name":"The Piccadilly Tavern","lat":53.48069,"lon":-2.23405,"postcode":"M1 2BS","la":"Manchester","era":"other","nn":89,"risk":17,"cat":"green"},{"name":"The Red Rose Inn","lat":53.39111,"lon":-2.28477,"postcode":"M23 1EU","la":"Manchester","era":"trad","nn":229,"risk":35,"cat":"amber"},{"name":"The Royal Oak","lat":53.41636,"lon":-2.23145,"postcode":"M20 6WF","la":"Manchester","era":"trad","nn":112,"risk":17,"cat":"green"},{"name":"The Salisbury","lat":53.47401,"lon":-2.2411,"postcode":"M1 5NE","la":"Manchester","era":"other","nn":24,"risk":16,"cat":"green"},{"name":"The Sedge Lynn","lat":53.44429,"lon":-2.27904,"postcode":"M21 9PN","la":"Manchester","era":"other","nn":129,"risk":17,"cat":"green"},{"name":"The Seven Stars","lat":53.48519,"lon":-2.24076,"postcode":"M4 2BS","la":"Manchester","era":"other","nn":0,"risk":16,"cat":"green"},{"name":"The Shakespeare","lat":53.48177,"lon":-2.24006,"postcode":"M2 2AA","la":"Manchester","era":"other","nn":56,"risk":16,"cat":"green"},{"name":"The Shiredale","lat":53.50775,"lon":-2.21624,"postcode":"M9 5UR","la":"Manchester","era":"other","nn":564,"risk":20,"cat":"green"},{"name":"The Smithfield Social","lat":53.48411,"lon":-2.23652,"postcode":"M4 1NA","la":"Manchester","era":"mod","nn":0,"risk":16,"cat":"green"},{"name":"The Spread Eagle","lat":53.44283,"lon":-2.28239,"postcode":"M21 9LD","la":"Manchester","era":"trad","nn":116,"risk":17,"cat":"green"},{"name":"The Squirrel's Bar","lat":53.44489,"lon":-2.21646,"postcode":"M14 6HD","la":"Manchester","era":"other","nn":267,"risk":18,"cat":"green"},{"name":"The Studio Bar","lat":53.44301,"lon":-2.21897,"postcode":"M14 6LB","la":"Manchester","era":"mod","nn":0,"risk":16,"cat":"green"},{"name":"The Sun in September","lat":53.42131,"lon":-2.21129,"postcode":"M19 1NA","la":"Manchester","era":"other","nn":393,"risk":24,"cat":"green"},{"name":"The Tatton Arms","lat":53.36531,"lon":-2.24378,"postcode":"M22 5LZ","la":"Manchester","era":"trad","nn":501,"risk":39,"cat":"amber"},{"name":"The Temple","lat":53.47495,"lon":-2.24378,"postcode":"M1 5JW","la":"Manchester","era":"other","nn":57,"risk":16,"cat":"green"},{"name":"The Thirsty Korean","lat":53.44747,"lon":-2.27754,"postcode":"M21 9PG","la":"Manchester","era":"other","nn":0,"risk":16,"cat":"green"},{"name":"The Trevor Arms","lat":53.43841,"lon":-2.28086,"postcode":"M21 9EQ","la":"Manchester","era":"trad","nn":0,"risk":16,"cat":"green"},{"name":"The Union MMU","lat":53.46756,"lon":-2.23958,"postcode":"M15 6AD","la":"Manchester","era":"other","nn":113,"risk":17,"cat":"green"},{"name":"The Valley","lat":53.50024,"lon":-2.22087,"postcode":"M40 7TD","la":"Manchester","era":"other","nn":477,"risk":24,"cat":"green"},{"name":"The Venue","lat":53.4792,"lon":-2.24804,"postcode":"M2 5WD","la":"Manchester","era":"other","nn":0,"risk":16,"cat":"green"},{"name":"The Vine","lat":53.47934,"lon":-2.24295,"postcode":"M2 4BQ","la":"Manchester","era":"other","nn":0,"risk":16,"cat":"green"},{"name":"The Waldorf","lat":53.47913,"lon":-2.23338,"postcode":"M1 3AQ","la":"Manchester","era":"other","nn":53,"risk":16,"cat":"green"},{"name":"The Wash House","lat":53.48477,"lon":-2.2396,"postcode":"M4 2AF","la":"Manchester","era":"other","nn":30,"risk":16,"cat":"green"},{"name":"The Waterhouse","lat":53.47902,"lon":-2.24272,"postcode":"M2 4EG","la":"Manchester","era":"other","nn":39,"risk":16,"cat":"green"},{"name":"The Wheatsheaf","lat":53.48447,"lon":-2.23476,"postcode":"M4 5JE","la":"Manchester","era":"trad","nn":68,"risk":16,"cat":"green"},{"name":"The Whiskey Jar","lat":53.48121,"lon":-2.23201,"postcode":"M1 2FF","la":"Manchester","era":"other","nn":40,"risk":16,"cat":"green"},{"name":"The White Lion","lat":53.47601,"lon":-2.25289,"postcode":"M3 4NQ","la":"Manchester","era":"trad","nn":132,"risk":17,"cat":"green"},{"name":"The Woodstock","lat":53.42184,"lon":-2.2462,"postcode":"M20 2DY","la":"Manchester","era":"other","nn":544,"risk":20,"cat":"green"},{"name":"The Zombie Shack","lat":53.47353,"lon":-2.24266,"postcode":"M1 5NP","la":"Manchester","era":"other","nn":0,"risk":16,"cat":"green"},{"name":"Three Sixty","lat":53.45451,"lon":-2.22515,"postcode":"M14 5AL","la":"Manchester","era":"other","nn":359,"risk":18,"cat":"green"},{"name":"Tib Street Tavern","lat":53.48373,"lon":-2.23464,"postcode":"M4 1LG","la":"Manchester","era":"other","nn":12,"risk":16,"cat":"green"},{"name":"Tisch Und Teller","lat":53.45152,"lon":-2.26963,"postcode":"M16 0BH","la":"Manchester","era":"other","nn":0,"risk":16,"cat":"green"},{"name":"Top Derby","lat":53.51459,"lon":-2.21321,"postcode":"M9 8AE","la":"Manchester","era":"other","nn":225,"risk":18,"cat":"green"},{"name":"Town Hall Tavern","lat":53.48034,"lon":-2.24441,"postcode":"M2 4JA","la":"Manchester","era":"other","nn":25,"risk":16,"cat":"green"},{"name":"Trof Cafe","lat":53.48488,"lon":-2.23814,"postcode":"M4 1EX","la":"Manchester","era":"other","nn":15,"risk":16,"cat":"green"},{"name":"Trove","lat":53.4817,"lon":-2.24091,"postcode":"M2 3AW","la":"Manchester","era":"other","nn":56,"risk":16,"cat":"green"},{"name":"Turing Tap also T/as Loco Loco, El Rodeo, Mexicano, Burrito Bandits","lat":53.46109,"lon":-2.22828,"postcode":"M13 9WG","la":"Manchester","era":"mod","nn":96,"risk":17,"cat":"green"},{"name":"Turtle Bay","lat":53.47673,"lon":-2.24264,"postcode":"M1 4BH","la":"Manchester","era":"other","nn":0,"risk":16,"cat":"green"},{"name":"Twenty Twenty Two","lat":53.48176,"lon":-2.23464,"postcode":"M1 1EZ","la":"Manchester","era":"other","nn":37,"risk":16,"cat":"green"},{"name":"Unit One","lat":53.46782,"lon":-2.24805,"postcode":"M15 5JH","la":"Manchester","era":"other","nn":561,"risk":20,"cat":"green"},{"name":"Vale Cottage Inn","lat":53.46079,"lon":-2.16675,"postcode":"M18 8WH","la":"Manchester","era":"trad","nn":76,"risk":22,"cat":"green"},{"name":"Velvet","lat":53.47808,"lon":-2.23548,"postcode":"M1 3HE","la":"Manchester","era":"other","nn":14,"risk":16,"cat":"green"},{"name":"Via","lat":53.47729,"lon":-2.23677,"postcode":"M1 3EZ","la":"Manchester","era":"other","nn":0,"risk":16,"cat":"green"},{"name":"Victoria Hotel","lat":53.43502,"lon":-2.22786,"postcode":"M20 3BW","la":"Manchester","era":"trad","nn":0,"risk":16,"cat":"green"},{"name":"Victoria Inn","lat":53.43216,"lon":-2.20098,"postcode":"M19 1FL","la":"Manchester","era":"trad","nn":227,"risk":35,"cat":"amber"},{"name":"Victoria Park Bar","lat":53.45759,"lon":-2.22351,"postcode":"M14 5RR","la":"Manchester","era":"trad","nn":0,"risk":16,"cat":"green"},{"name":"Victoria Tap","lat":53.48592,"lon":-2.24165,"postcode":"M3 1WY","la":"Manchester","era":"other","nn":50,"risk":16,"cat":"green"},{"name":"vivID lounge","lat":53.48042,"lon":-2.22335,"postcode":"M4 6DN","la":"Manchester","era":"mod","nn":304,"risk":18,"cat":"green"},{"name":"Walkabout","lat":53.48519,"lon":-2.24076,"postcode":"M4 2BS","la":"Manchester","era":"other","nn":0,"risk":16,"cat":"green"},{"name":"Wayfarer","lat":53.48463,"lon":-2.2331,"postcode":"M4 5JJ","la":"Manchester","era":"other","nn":37,"risk":16,"cat":"green"},{"name":"West Indian Sports & Social Club","lat":53.45736,"lon":-2.24333,"postcode":"M14 4SW","la":"Manchester","era":"mod","nn":467,"risk":24,"cat":"green"},{"name":"West Village","lat":53.42641,"lon":-2.24329,"postcode":"M20 2LW","la":"Manchester","era":"other","nn":0,"risk":16,"cat":"green"},{"name":"Wetherspoons","lat":53.48117,"lon":-2.23514,"postcode":"M1 2AP","la":"Manchester","era":"other","nn":36,"risk":16,"cat":"green"},{"name":"Whalley Range Amateur Football Club","lat":53.44181,"lon":-2.25994,"postcode":"M21 0XX","la":"Manchester","era":"other","nn":307,"risk":21,"cat":"green"},{"name":"Whalley Range Cricket & Tennis Club","lat":53.44155,"lon":-2.25531,"postcode":"M16 8NR","la":"Manchester","era":"other","nn":307,"risk":36,"cat":"amber"},{"name":"Whiskey Down","lat":53.47896,"lon":-2.24681,"postcode":"M2 5WA","la":"Manchester","era":"other","nn":51,"risk":16,"cat":"green"},{"name":"Wiltons Social","lat":53.4834,"lon":-2.23402,"postcode":"M4 1LE","la":"Manchester","era":"mod","nn":0,"risk":16,"cat":"green"},{"name":"Wine and Wallop","lat":53.4249,"lon":-2.23553,"postcode":"M20 6UR","la":"Manchester","era":"other","nn":406,"risk":19,"cat":"green"},{"name":"Winston Conservative Club","lat":53.39935,"lon":-2.27704,"postcode":"M23 1AQ","la":"Manchester","era":"other","nn":873,"risk":42,"cat":"amber"},{"name":"Witch Kings","lat":53.44375,"lon":-2.19959,"postcode":"M19 2BY","la":"Manchester","era":"trad","nn":141,"risk":17,"cat":"green"},{"name":"Withington Golf Club","lat":53.41354,"lon":-2.24913,"postcode":"M20 2UE","la":"Manchester","era":"other","nn":471,"risk":19,"cat":"green"},{"name":"Wood & Company","lat":53.48105,"lon":-2.24586,"postcode":"M2 6DE","la":"Manchester","era":"other","nn":72,"risk":16,"cat":"green"},{"name":"WPHI","lat":53.43332,"lon":-2.22983,"postcode":"M20 3ED","la":"Manchester","era":"other","nn":148,"risk":17,"cat":"green"},{"name":"Wythenshawe Cricket & Football Club","lat":53.40388,"lon":-2.25798,"postcode":"M22 4JF","la":"Manchester","era":"other","nn":379,"risk":19,"cat":"green"},{"name":"Yates's","lat":53.47847,"lon":-2.23804,"postcode":"M1 3LD","la":"Manchester","era":"other","nn":57,"risk":16,"cat":"green"},{"name":"YES","lat":53.47412,"lon":-2.23833,"postcode":"M1 7DB","la":"Manchester","era":"other","nn":1,"risk":16,"cat":"green"},{"name":"Anglers Arms","lat":53.51473,"lon":-2.15442,"postcode":"M35 9BH","la":"Oldham","era":"trad","nn":55,"risk":23,"cat":"green"},{"name":"Bricklayers Arms","lat":53.51009,"lon":-2.1631,"postcode":"M35 0DL","la":"Oldham","era":"trad","nn":169,"risk":24,"cat":"green"},{"name":"Brookdale Golf Club","lat":53.49739,"lon":-2.14736,"postcode":"M35 9WQ","la":"Oldham","era":"other","nn":669,"risk":27,"cat":"green"},{"name":"Church Inn","lat":53.51129,"lon":-2.1568,"postcode":"M35 0AA","la":"Oldham","era":"trad","nn":62,"risk":23,"cat":"green"},{"name":"Cotton Tree Inn","lat":53.51039,"lon":-2.14986,"postcode":"M35 9PR","la":"Oldham","era":"trad","nn":414,"risk":25,"cat":"green"},{"name":"Crown & Cushion","lat":53.51083,"lon":-2.1573,"postcode":"M35 0FH","la":"Oldham","era":"trad","nn":62,"risk":23,"cat":"green"},{"name":"Dog & Partridge","lat":53.50174,"lon":-2.14038,"postcode":"M35 9NP","la":"Oldham","era":"other","nn":261,"risk":24,"cat":"green"},{"name":"Dutch Birds Inn","lat":53.51392,"lon":-2.15183,"postcode":"M35 9DQ","la":"Oldham","era":"trad","nn":0,"risk":22,"cat":"green"},{"name":"Eight Bells","lat":53.5034,"lon":-2.15009,"postcode":"M35 0QW","la":"Oldham","era":"other","nn":496,"risk":26,"cat":"green"},{"name":"Failsworth Home Guard Club","lat":53.50461,"lon":-2.17095,"postcode":"M35 0HY","la":"Oldham","era":"other","nn":692,"risk":27,"cat":"green"},{"name":"Houghton Arms","lat":53.51637,"lon":-2.14816,"postcode":"M35 9FD","la":"Oldham","era":"trad","nn":108,"risk":23,"cat":"green"},{"name":"Mare and Foal","lat":53.50705,"lon":-2.16006,"postcode":"M35 0ES","la":"Oldham","era":"other","nn":0,"risk":22,"cat":"green"},{"name":"Millgate","lat":53.50705,"lon":-2.16006,"postcode":"M35 0ES","la":"Oldham","era":"trad","nn":0,"risk":22,"cat":"green"},{"name":"Mowbray Arms","lat":53.50857,"lon":-2.16288,"postcode":"M35 0EN","la":"Oldham","era":"trad","nn":169,"risk":24,"cat":"green"},{"name":"Nelson Tavern","lat":53.49614,"lon":-2.16114,"postcode":"M35 0QX","la":"Oldham","era":"trad","nn":644,"risk":29,"cat":"green"},{"name":"Radclyffe Arms","lat":53.5404,"lon":-2.16999,"postcode":"M24 1GQ","la":"Oldham","era":"trad","nn":0,"risk":22,"cat":"green"},{"name":"Railway and Linnet","lat":53.5404,"lon":-2.16999,"postcode":"M24 1GQ","la":"Oldham","era":"trad","nn":0,"risk":22,"cat":"green"},{"name":"Sun Inn","lat":53.51392,"lon":-2.15183,"postcode":"M35 9DQ","la":"Oldham","era":"trad","nn":0,"risk":22,"cat":"green"},{"name":"The Bay Bar","lat":53.51485,"lon":-2.1536,"postcode":"M35 9BJ","la":"Oldham","era":"other","nn":55,"risk":23,"cat":"green"},{"name":"The Wheatsheaf","lat":53.51729,"lon":-2.14768,"postcode":"M35 9AT","la":"Oldham","era":"trad","nn":108,"risk":23,"cat":"green"},{"name":"The Windmill","lat":53.5013,"lon":-2.1567,"postcode":"M35 0QH","la":"Oldham","era":"trad","nn":496,"risk":26,"cat":"green"},{"name":"Willow Tavern (Failsworth) Ltd","lat":53.50841,"lon":-2.14251,"postcode":"M35 9HD","la":"Oldham","era":"trad","nn":533,"risk":26,"cat":"green"},{"name":"Woodhouse Gardens Inn","lat":53.50346,"lon":-2.13768,"postcode":"M35 9WN","la":"Oldham","era":"other","nn":0,"risk":22,"cat":"green"},{"name":"Woodhouses Cricket Club","lat":53.50346,"lon":-2.13768,"postcode":"M35 9WN","la":"Oldham","era":"other","nn":0,"risk":22,"cat":"green"},{"name":"Woodhouses W. M. Club","lat":53.50346,"lon":-2.13768,"postcode":"M35 9WN","la":"Oldham","era":"other","nn":0,"risk":22,"cat":"green"},{"name":"Alkrington Tennis & Social Clu","lat":53.54212,"lon":-2.1964,"postcode":"M24 1EA","la":"Rochdale","era":"mod","nn":203,"risk":25,"cat":"green"},{"name":"Apple & Pears","lat":53.53678,"lon":-2.18328,"postcode":"M24 1TY","la":"Rochdale","era":"other","nn":620,"risk":28,"cat":"green"},{"name":"Blackley Golf Club","lat":53.5302,"lon":-2.19369,"postcode":"M9 7HW","la":"Manchester","era":"other","nn":734,"risk":26,"cat":"green"},{"name":"Boarshaw Working Mens Club","lat":53.5571,"lon":-2.19297,"postcode":"M24 6GB","la":"Rochdale","era":"trad","nn":185,"risk":25,"cat":"green"},{"name":"Britannia Inn","lat":53.54946,"lon":-2.19934,"postcode":"M24 4DF","la":"Rochdale","era":"trad","nn":0,"risk":23,"cat":"green"},{"name":"Carters Arms","lat":53.54411,"lon":-2.22368,"postcode":"M24 4PW","la":"Rochdale","era":"trad","nn":16,"risk":28,"cat":"green"},{"name":"Club 3000 Bingo","lat":53.54825,"lon":-2.20107,"postcode":"M24 4EL","la":"Rochdale","era":"other","nn":176,"risk":25,"cat":"green"},{"name":"Crown Inn","lat":53.55678,"lon":-2.19572,"postcode":"M24 2PU","la":"Rochdale","era":"trad","nn":159,"risk":24,"cat":"green"},{"name":"De VIP Lounge","lat":53.55097,"lon":-2.19645,"postcode":"M24 6AE","la":"Rochdale","era":"mod","nn":77,"risk":24,"cat":"green"},{"name":"Edgar Wood","lat":53.54946,"lon":-2.19934,"postcode":"M24 4DF","la":"Rochdale","era":"other","nn":0,"risk":23,"cat":"green"},{"name":"Gardeners Arms","lat":53.5441,"lon":-2.22392,"postcode":"M24 4PW","la":"Rochdale","era":"trad","nn":16,"risk":28,"cat":"green"},{"name":"Gardeners Arms","lat":53.56425,"lon":-2.20437,"postcode":"M24 5LE","la":"Rochdale","era":"trad","nn":907,"risk":50,"cat":"amber"},{"name":"Gardeners Arms","lat":53.54181,"lon":-2.1749,"postcode":"M24 2AU","la":"Rochdale","era":"trad","nn":249,"risk":25,"cat":"green"},{"name":"Harbord Harbord","lat":53.55037,"lon":-2.19804,"postcode":"M24 6TE","la":"Rochdale","era":"other","nn":111,"risk":24,"cat":"green"},{"name":"Hare & Hounds","lat":53.55002,"lon":-2.18797,"postcode":"M24 2JZ","la":"Rochdale","era":"trad","nn":166,"risk":25,"cat":"green"},{"name":"Hopwood Arms","lat":53.57659,"lon":-2.17545,"postcode":"M24 2RA","la":"Rochdale","era":"trad","nn":85,"risk":29,"cat":"green"},{"name":"Joiners Arms","lat":53.54959,"lon":-2.20388,"postcode":"M24 4AJ","la":"Rochdale","era":"trad","nn":89,"risk":24,"cat":"green"},{"name":"Jolly Carter Inn","lat":53.55065,"lon":-2.1857,"postcode":"M24 2DW","la":"Rochdale","era":"trad","nn":166,"risk":25,"cat":"green"},{"name":"Lancashire Fold","lat":53.54188,"lon":-2.19335,"postcode":"M24 1EP","la":"Rochdale","era":"other","nn":203,"risk":25,"cat":"green"},{"name":"Manchester Golf Club Ltd","lat":53.56046,"lon":-2.17858,"postcode":"M24 2PQ","la":"Rochdale","era":"other","nn":677,"risk":48,"cat":"amber"},{"name":"Middleton Cricket Club","lat":53.557,"lon":-2.19809,"postcode":"M24 5DA","la":"Rochdale","era":"other","nn":159,"risk":24,"cat":"green"},{"name":"Middleton Masonic Lodge","lat":53.54747,"lon":-2.20573,"postcode":"M24 4DY","la":"Rochdale","era":"trad","nn":184,"risk":25,"cat":"green"},{"name":"Old Cock Kitchen","lat":53.55091,"lon":-2.17427,"postcode":"M24 2EB","la":"Rochdale","era":"mod","nn":1,"risk":23,"cat":"green"},{"name":"Ring O'Bells","lat":53.55415,"lon":-2.19543,"postcode":"M24 6DJ","la":"Rochdale","era":"other","nn":173,"risk":25,"cat":"green"},{"name":"Ship Inn","lat":53.57193,"lon":-2.1754,"postcode":"M24 2RN","la":"Rochdale","era":"trad","nn":440,"risk":31,"cat":"amber"},{"name":"Tandle Hill Tavern","lat":53.57864,"lon":-2.15536,"postcode":"M24 2SD","la":"Rochdale","era":"other","nn":1295,"risk":55,"cat":"amber"},{"name":"The Albion","lat":53.54995,"lon":-2.19957,"postcode":"M24 4DH","la":"Rochdale","era":"other","nn":57,"risk":24,"cat":"green"},{"name":"The Cotton Tree Inn","lat":53.55659,"lon":-2.18651,"postcode":"M24 2WH","la":"Rochdale","era":"trad","nn":431,"risk":26,"cat":"green"},{"name":"The Gardeners Arms","lat":53.54699,"lon":-2.18117,"postcode":"M24 2FU","la":"Rochdale","era":"trad","nn":464,"risk":27,"cat":"green"},{"name":"The Middleton Archer","lat":53.54879,"lon":-2.20403,"postcode":"M24 4UA","la":"Rochdale","era":"other","nn":89,"risk":24,"cat":"green"},{"name":"The Minders Arms","lat":53.54289,"lon":-2.1716,"postcode":"M24 2AY","la":"Oldham","era":"trad","nn":249,"risk":24,"cat":"green"},{"name":"The New Inn","lat":53.55166,"lon":-2.19651,"postcode":"M24 6UQ","la":"Rochdale","era":"trad","nn":77,"risk":24,"cat":"green"},{"name":"The Nook","lat":53.55295,"lon":-2.19209,"postcode":"M24 6BR","la":"Rochdale","era":"other","nn":258,"risk":25,"cat":"green"},{"name":"The Ocean Lounge","lat":53.54321,"lon":-2.1782,"postcode":"M24 2AL","la":"Rochdale","era":"mod","nn":268,"risk":25,"cat":"green"},{"name":"The Oddfellows Arms","lat":53.54952,"lon":-2.1915,"postcode":"M24 2LD","la":"Rochdale","era":"trad","nn":240,"risk":25,"cat":"green"},{"name":"The Old Cock Inn","lat":53.5509,"lon":-2.17429,"postcode":"M24 2EB","la":"Rochdale","era":"trad","nn":1,"risk":23,"cat":"green"},{"name":"The Roebuck","lat":53.54946,"lon":-2.19934,"postcode":"M24 4DF","la":"Rochdale","era":"other","nn":0,"risk":23,"cat":"green"},{"name":"The Scratch Group @ North Manchester Golf Club","lat":53.54639,"lon":-2.2153,"postcode":"M24 4PE","la":"Rochdale","era":"other","nn":609,"risk":28,"cat":"green"},{"name":"The Wilton Arms Hotel","lat":53.54229,"lon":-2.23356,"postcode":"M24 4RF","la":"Rochdale","era":"trad","nn":600,"risk":33,"cat":"amber"},{"name":"Thornberries","lat":53.53728,"lon":-2.19263,"postcode":"M24 1LW","la":"Rochdale","era":"other","nn":514,"risk":27,"cat":"green"},{"name":"Thornham Cricket Club","lat":53.57588,"lon":-2.17498,"postcode":"M24 2RB","la":"Rochdale","era":"other","nn":85,"risk":29,"cat":"green"},{"name":"Woodside","lat":53.54038,"lon":-2.20092,"postcode":"M24 1JT","la":"Rochdale","era":"other","nn":356,"risk":26,"cat":"green"},{"name":"Woodside Working Mens Club","lat":53.55373,"lon":-2.20364,"postcode":"M24 5SW","la":"Rochdale","era":"trad","nn":454,"risk":27,"cat":"green"},{"name":"Ye Olde Boars Head","lat":53.55287,"lon":-2.19692,"postcode":"M24 6UE","la":"Rochdale","era":"trad","nn":137,"risk":24,"cat":"green"},{"name":"Adelphi Lads Club","lat":53.48696,"lon":-2.26214,"postcode":"M3 6EG","la":"Salford","era":"other","nn":166,"risk":25,"cat":"green"},{"name":"Albert Edward Inn","lat":53.48308,"lon":-2.33834,"postcode":"M30 0LS","la":"Salford","era":"trad","nn":51,"risk":25,"cat":"green"},{"name":"Albert's Restaurant And Bar","lat":53.50522,"lon":-2.34649,"postcode":"M27 0AA","la":"Salford","era":"other","nn":360,"risk":27,"cat":"green"},{"name":"Ashley Brook","lat":53.48378,"lon":-2.29687,"postcode":"M6 5QQ","la":"Salford","era":"other","nn":150,"risk":25,"cat":"green"},{"name":"Barley Farm","lat":53.46964,"lon":-2.37603,"postcode":"M30 7EY","la":"Salford","era":"other","nn":868,"risk":48,"cat":"amber"},{"name":"Bird in Hand","lat":53.48126,"lon":-2.35894,"postcode":"M30 0RY","la":"Salford","era":"other","nn":0,"risk":24,"cat":"green"},{"name":"Blind Pig, 88th Street, Mighty Burger, Sin City Burger","lat":53.49172,"lon":-2.35265,"postcode":"M30 9LJ","la":"Salford","era":"other","nn":100,"risk":25,"cat":"green"},{"name":"Blue Bell","lat":53.49262,"lon":-2.3526,"postcode":"M30 9LL","la":"Salford","era":"other","nn":100,"risk":25,"cat":"green"},{"name":"Boat House Inn","lat":53.4476,"lon":-2.414,"postcode":"M44 6DN","la":"Salford","era":"other","nn":500,"risk":33,"cat":"amber"},{"name":"Boothstown Conservative Club","lat":53.50478,"lon":-2.42299,"postcode":"M28 1BZ","la":"Salford","era":"other","nn":257,"risk":26,"cat":"green"},{"name":"Boothstown Royal British Legion","lat":53.50254,"lon":-2.42199,"postcode":"M28 1HQ","la":"Salford","era":"trad","nn":88,"risk":25,"cat":"green"},{"name":"Borough Social Club","lat":53.51748,"lon":-2.33533,"postcode":"M27 6BU","la":"Salford","era":"mod","nn":223,"risk":26,"cat":"green"},{"name":"Boundary Stone","lat":53.50908,"lon":-2.42326,"postcode":"M28 1AD","la":"Wigan","era":"other","nn":275,"risk":24,"cat":"green"},{"name":"Brackley Conservative Club","lat":53.50884,"lon":-2.35988,"postcode":"M28 2JU","la":"Salford","era":"other","nn":340,"risk":29,"cat":"green"},{"name":"Bricklayers Arms","lat":53.47355,"lon":-2.26935,"postcode":"M5 4TF","la":"Salford","era":"trad","nn":119,"risk":25,"cat":"green"},{"name":"Bridgewater Hotel","lat":53.48212,"lon":-2.35659,"postcode":"M30 0RZ","la":"Salford","era":"other","nn":49,"risk":25,"cat":"green"},{"name":"Broughton Cricket & Rugby Club","lat":53.50164,"lon":-2.2641,"postcode":"M7 2HL","la":"Salford","era":"other","nn":368,"risk":32,"cat":"amber"},{"name":"Buile Hill Park Hall Kitchen","lat":53.49018,"lon":-2.30408,"postcode":"M6 8GL","la":"Salford","era":"mod","nn":505,"risk":28,"cat":"green"},{"name":"Bulls Head (Wetherspoons)","lat":53.5242,"lon":-2.40018,"postcode":"M28 3NJ","la":"Salford","era":"trad","nn":205,"risk":26,"cat":"green"},{"name":"Cadishead Rhinos ARLFC","lat":53.4251,"lon":-2.44426,"postcode":"M44 5EH","la":"Salford","era":"trad","nn":348,"risk":29,"cat":"green"},{"name":"Chandos Sports and Social Club","lat":53.48533,"lon":-2.30254,"postcode":"M5 5LJ","la":"Salford","era":"mod","nn":278,"risk":26,"cat":"green"},{"name":"Church Inn","lat":53.51368,"lon":-2.34164,"postcode":"M27 6AZ","la":"Salford","era":"trad","nn":284,"risk":26,"cat":"green"},{"name":"Claremont Tennis & Social Club","lat":53.49645,"lon":-2.30473,"postcode":"M6 7FQ","la":"Salford","era":"mod","nn":310,"risk":26,"cat":"green"},{"name":"Clifton Cricket Club","lat":53.52976,"lon":-2.34619,"postcode":"M27 6NB","la":"Salford","era":"other","nn":810,"risk":47,"cat":"amber"},{"name":"Coach and Horses","lat":53.42377,"lon":-2.4395,"postcode":"M44 5DB","la":"Salford","era":"trad","nn":239,"risk":28,"cat":"green"},{"name":"Coal and Cotton","lat":53.50207,"lon":-2.41838,"postcode":"M28 1LR","la":"Salford","era":"other","nn":182,"risk":26,"cat":"green"},{"name":"Corner Lounge (Irlam) Ltd","lat":53.43644,"lon":-2.42937,"postcode":"M44 5BE","la":"Salford","era":"mod","nn":126,"risk":25,"cat":"green"},{"name":"Corridor Bar","lat":53.4843,"lon":-2.25006,"postcode":"M3 5DY","la":"Salford","era":"other","nn":41,"risk":25,"cat":"green"},{"name":"Cosmo Bingo Club","lat":53.4817,"lon":-2.35686,"postcode":"M30 0QN","la":"Salford","era":"other","nn":0,"risk":24,"cat":"green"},{"name":"Craft Brew","lat":53.47132,"lon":-2.29454,"postcode":"M50 3UB","la":"Salford","era":"mod","nn":84,"risk":25,"cat":"green"},{"name":"Cricketers Arms","lat":53.50806,"lon":-2.33138,"postcode":"M27 4TT","la":"Salford","era":"trad","nn":2,"risk":24,"cat":"green"},{"name":"Cyn's Tavern","lat":53.53007,"lon":-2.42324,"postcode":"M28 0AU","la":"Salford","era":"other","nn":72,"risk":25,"cat":"green"},{"name":"De La Salle Sports & Social Club","lat":53.4923,"lon":-2.32106,"postcode":"M6 8AQ","la":"Salford","era":"mod","nn":272,"risk":44,"cat":"amber"},{"name":"Dockyard Media City Limited","lat":53.47282,"lon":-2.29782,"postcode":"M50 2HF","la":"Salford","era":"mod","nn":56,"risk":25,"cat":"green"},{"name":"Dog and Partridge","lat":53.48301,"lon":-2.34473,"postcode":"M30 0LY","la":"Salford","era":"other","nn":423,"risk":27,"cat":"green"},{"name":"Dover Inn","lat":53.50022,"lon":-2.25906,"postcode":"M7 2ZG","la":"Salford","era":"trad","nn":368,"risk":29,"cat":"green"},{"name":"Duke of York","lat":53.48262,"lon":-2.33834,"postcode":"M30 0EJ","la":"Salford","era":"trad","nn":51,"risk":25,"cat":"green"},{"name":"Dukes Gate","lat":53.53657,"lon":-2.41541,"postcode":"M38 9NJ","la":"Salford","era":"trad","nn":889,"risk":35,"cat":"amber"},{"name":"Dun Mare Inn","lat":53.53633,"lon":-2.4407,"postcode":"M38 9XH","la":"Salford","era":"trad","nn":521,"risk":45,"cat":"amber"},{"name":"Dutton Arms","lat":53.47585,"lon":-2.35481,"postcode":"M30 7AE","la":"Salford","era":"trad","nn":163,"risk":25,"cat":"green"},{"name":"Eccles Masonic Hall","lat":53.48918,"lon":-2.33155,"postcode":"M30 9BA","la":"Salford","era":"trad","nn":447,"risk":27,"cat":"green"},{"name":"Egerton Arms","lat":53.49046,"lon":-2.37174,"postcode":"M30 8HU","la":"Salford","era":"trad","nn":412,"risk":32,"cat":"amber"},{"name":"Egerton Arms","lat":53.4829,"lon":-2.25672,"postcode":"M3 5FP","la":"Salford","era":"trad","nn":29,"risk":24,"cat":"green"},{"name":"Ellesmere Sports Club","lat":53.51085,"lon":-2.3903,"postcode":"M28 2RZ","la":"Salford","era":"other","nn":608,"risk":46,"cat":"amber"},{"name":"Fivefourstudios Ltd","lat":53.47937,"lon":-2.26758,"postcode":"M5 4LZ","la":"Salford","era":"mod","nn":321,"risk":26,"cat":"green"},{"name":"Gilda Brook Social Club","lat":53.48647,"lon":-2.33653,"postcode":"M30 0NP","la":"Salford","era":"mod","nn":208,"risk":26,"cat":"green"},{"name":"Grapes Hotel","lat":53.47879,"lon":-2.36424,"postcode":"M30 7HD","la":"Salford","era":"other","nn":321,"risk":26,"cat":"green"},{"name":"Graystone Action Sports Academy","lat":53.48351,"lon":-2.27588,"postcode":"M5 4BE","la":"Salford","era":"other","nn":370,"risk":27,"cat":"green"},{"name":"Grosvesnor Casino","lat":53.47542,"lon":-2.26412,"postcode":"M5 4SW","la":"Salford","era":"other","nn":404,"risk":27,"cat":"green"},{"name":"Henry Boddington","lat":53.50812,"lon":-2.31254,"postcode":"M27 8TG","la":"Salford","era":"other","nn":443,"risk":30,"cat":"green"},{"name":"Higher Irlam Social Club","lat":53.45206,"lon":-2.41492,"postcode":"M44 6JS","la":"Salford","era":"mod","nn":405,"risk":32,"cat":"amber"},{"name":"Host Social","lat":53.47193,"lon":-2.29962,"postcode":"M50 2ST","la":"Salford","era":"mod","nn":155,"risk":25,"cat":"green"},{"name":"Irlam Catholic Mens Club","lat":53.43746,"lon":-2.42855,"postcode":"M44 5BE","la":"Salford","era":"other","nn":0,"risk":24,"cat":"green"},{"name":"Irlam Steel Rec. & Soc. Club","lat":53.43973,"lon":-2.4266,"postcode":"M44 6AJ","la":"Salford","era":"other","nn":283,"risk":26,"cat":"green"},{"name":"Jolly Carter","lat":53.48534,"lon":-2.36422,"postcode":"M30 8LS","la":"Salford","era":"other","nn":380,"risk":27,"cat":"green"},{"name":"Joule","lat":53.48284,"lon":-2.25716,"postcode":"M3 5PD","la":"Salford","era":"other","nn":29,"risk":24,"cat":"green"},{"name":"Kings Arms","lat":53.48413,"lon":-2.25598,"postcode":"M3 6AN","la":"Salford","era":"trad","nn":146,"risk":25,"cat":"green"},{"name":"Kings Head","lat":53.47618,"lon":-2.35242,"postcode":"M30 0HY","la":"Salford","era":"trad","nn":163,"risk":25,"cat":"green"},{"name":"Lady James Hall","lat":53.4441,"lon":-2.42165,"postcode":"M44 6BR","la":"Salford","era":"other","nn":587,"risk":28,"cat":"green"},{"name":"Lamb Hotel","lat":53.48347,"lon":-2.33345,"postcode":"M30 0BP","la":"Salford","era":"other","nn":85,"risk":25,"cat":"green"},{"name":"Last Orders","lat":53.51503,"lon":-2.34529,"postcode":"M27 6AY","la":"Salford","era":"other","nn":210,"risk":26,"cat":"green"},{"name":"Little Hulton Conservative Club","lat":53.53046,"lon":-2.4241,"postcode":"M38 0EH","la":"Salford","era":"other","nn":72,"risk":25,"cat":"green"},{"name":"Little Hulton Cricket & Bowling Club","lat":53.53416,"lon":-2.43371,"postcode":"M38 9UW","la":"Salford","era":"other","nn":392,"risk":29,"cat":"green"},{"name":"Lycheekikimiumiu Ltd","lat":53.4924,"lon":-2.25162,"postcode":"M3 7LW","la":"Salford","era":"other","nn":61,"risk":25,"cat":"green"},{"name":"Malt Dog","lat":53.49015,"lon":-2.34996,"postcode":"M30 9GS","la":"Salford","era":"other","nn":0,"risk":24,"cat":"green"},{"name":"Maltdog Boothstown","lat":53.50301,"lon":-2.41611,"postcode":"M28 1FB","la":"Salford","era":"other","nn":183,"risk":26,"cat":"green"},{"name":"Manchester Tennis and Racquet","lat":53.48589,"lon":-2.25219,"postcode":"M3 7AQ","la":"Salford","era":"other","nn":168,"risk":25,"cat":"green"},{"name":"Marble Tap Room","lat":53.47905,"lon":-2.29976,"postcode":"M50 2GN","la":"Salford","era":"mod","nn":536,"risk":28,"cat":"green"},{"name":"Maxwells Wine Bar","lat":53.50884,"lon":-2.34157,"postcode":"M27 0NS","la":"Salford","era":"other","nn":315,"risk":26,"cat":"green"},{"name":"Mirage Queer Bar","lat":53.48158,"lon":-2.26334,"postcode":"M3 5HW","la":"Salford","era":"other","nn":241,"risk":26,"cat":"green"},{"name":"Monton Bowling Club Ltd","lat":53.49143,"lon":-2.34837,"postcode":"M30 9NE","la":"Salford","era":"other","nn":144,"risk":25,"cat":"green"},{"name":"Monton Sports Club","lat":53.49462,"lon":-2.34214,"postcode":"M30 9EH","la":"Salford","era":"other","nn":544,"risk":28,"cat":"green"},{"name":"Moorside Farm","lat":53.51006,"lon":-2.35517,"postcode":"M27 9LD","la":"Salford","era":"other","nn":132,"risk":25,"cat":"green"},{"name":"Moorside Social Club","lat":53.51105,"lon":-2.35406,"postcode":"M27 9LD","la":"Salford","era":"mod","nn":132,"risk":25,"cat":"green"},{"name":"Morning Star","lat":53.5185,"lon":-2.35948,"postcode":"M27 9QW","la":"Salford","era":"other","nn":805,"risk":35,"cat":"amber"},{"name":"Nags Head","lat":53.48361,"lon":-2.33546,"postcode":"M30 0BJ","la":"Salford","era":"trad","nn":13,"risk":24,"cat":"green"},{"name":"New Inn","lat":53.52588,"lon":-2.40843,"postcode":"M38 9AF","la":"Salford","era":"trad","nn":0,"risk":24,"cat":"green"},{"name":"Oddfellows Arms","lat":53.48478,"lon":-2.33516,"postcode":"M30 0DF","la":"Salford","era":"trad","nn":0,"risk":24,"cat":"green"},{"name":"Old Bulls Head","lat":53.48352,"lon":-2.33598,"postcode":"M30 0DA","la":"Salford","era":"trad","nn":35,"risk":24,"cat":"green"},{"name":"Packet House","lat":53.48036,"lon":-2.36017,"postcode":"M30 8GF","la":"Salford","era":"other","nn":129,"risk":25,"cat":"green"},{"name":"Palatine Inn","lat":53.49285,"lon":-2.25357,"postcode":"M7 1SP","la":"Salford","era":"trad","nn":139,"risk":25,"cat":"green"},{"name":"Park Hotel","lat":53.49056,"lon":-2.34999,"postcode":"M30 9QD","la":"Salford","era":"other","nn":46,"risk":25,"cat":"green"},{"name":"Patricroft Conservative Club","lat":53.47654,"lon":-2.35753,"postcode":"M30 7AW","la":"Salford","era":"other","nn":196,"risk":26,"cat":"green"},{"name":"Pendlebury Social Club","lat":53.51735,"lon":-2.32923,"postcode":"M27 4EJ","la":"Salford","era":"mod","nn":84,"risk":25,"cat":"green"},{"name":"Pendleton Ex Services Social Club Ltd","lat":53.48806,"lon":-2.29519,"postcode":"M6 5PQ","la":"Salford","era":"mod","nn":488,"risk":28,"cat":"green"},{"name":"Quay House Beefeater","lat":53.4713,"lon":-2.28778,"postcode":"M50 3SQ","la":"Salford","era":"mod","nn":448,"risk":27,"cat":"green"},{"name":"Queens Arms","lat":53.48495,"lon":-2.35852,"postcode":"M30 0SH","la":"Salford","era":"trad","nn":340,"risk":27,"cat":"green"},{"name":"Red Lion","lat":53.49936,"lon":-2.30653,"postcode":"M6 7GU","la":"Salford","era":"trad","nn":208,"risk":28,"cat":"green"},{"name":"Red Lion","lat":53.51562,"lon":-2.34831,"postcode":"M27 9UW","la":"Salford","era":"trad","nn":210,"risk":26,"cat":"green"},{"name":"Robin Hood","lat":53.52502,"lon":-2.33689,"postcode":"M27 6PE","la":"Salford","era":"other","nn":396,"risk":27,"cat":"green"},{"name":"Rock House","lat":53.47428,"lon":-2.35783,"postcode":"M30 7AY","la":"Salford","era":"other","nn":253,"risk":26,"cat":"green"},{"name":"Royal Sovereign","lat":53.48985,"lon":-2.3212,"postcode":"M6 8AG","la":"Salford","era":"trad","nn":272,"risk":31,"cat":"amber"},{"name":"Salford Arts Theatre","lat":53.48275,"lon":-2.28376,"postcode":"M5 4BS","la":"Salford","era":"other","nn":366,"risk":27,"cat":"green"},{"name":"Salford City Roosters","lat":53.4784,"lon":-2.37154,"postcode":"M30 7LS","la":"Salford","era":"other","nn":156,"risk":25,"cat":"green"},{"name":"Salford Masonic Hall","lat":53.48343,"lon":-2.27029,"postcode":"M5 4PE","la":"Salford","era":"trad","nn":370,"risk":27,"cat":"green"},{"name":"Salisbury Conservative Club","lat":53.51675,"lon":-2.33055,"postcode":"M27 6FF","la":"Salford","era":"other","nn":107,"risk":25,"cat":"green"},{"name":"Seven Brothers Beerhouse/Daddy's Dim sum","lat":53.47944,"lon":-2.26273,"postcode":"M5 4YU","la":"Salford","era":"other","nn":241,"risk":26,"cat":"green"},{"name":"Shamrock Tavern","lat":53.52677,"lon":-2.41141,"postcode":"M38 9AN","la":"Salford","era":"other","nn":220,"risk":26,"cat":"green"},{"name":"Showboat","lat":53.51926,"lon":-2.3338,"postcode":"M27 6FN","la":"Salford","era":"other","nn":223,"risk":26,"cat":"green"},{"name":"Spinner's Arms","lat":53.48126,"lon":-2.35894,"postcode":"M30 0RY","la":"Salford","era":"trad","nn":0,"risk":24,"cat":"green"},{"name":"St George's HAAB Club","lat":53.49555,"lon":-2.28063,"postcode":"M6 6SB","la":"Salford","era":"trad","nn":430,"risk":45,"cat":"amber"},{"name":"St Michaels Club","lat":53.477,"lon":-2.37168,"postcode":"M30 7LP","la":"Salford","era":"other","nn":156,"risk":25,"cat":"green"},{"name":"Stanley Arms","lat":53.4817,"lon":-2.35686,"postcode":"M30 0QN","la":"Salford","era":"trad","nn":0,"risk":24,"cat":"green"},{"name":"Star Inn","lat":53.50692,"lon":-2.26418,"postcode":"M7 2FR","la":"Salford","era":"trad","nn":587,"risk":46,"cat":"amber"},{"name":"Swinton Masonic Hall","lat":53.50844,"lon":-2.31923,"postcode":"M27 4EY","la":"Salford","era":"trad","nn":219,"risk":26,"cat":"green"},{"name":"The Barrfield Club","lat":53.49582,"lon":-2.30017,"postcode":"M6 7EH","la":"Salford","era":"other","nn":310,"risk":26,"cat":"green"},{"name":"The Barton Arms","lat":53.49766,"lon":-2.37588,"postcode":"M28 2ED","la":"Salford","era":"trad","nn":337,"risk":29,"cat":"green"},{"name":"The Bee Orchid","lat":53.46614,"lon":-2.28464,"postcode":"M50 3AE","la":"Salford","era":"other","nn":153,"risk":25,"cat":"green"},{"name":"The Black Lion","lat":53.4846,"lon":-2.24968,"postcode":"M3 5BZ","la":"Salford","era":"trad","nn":41,"risk":25,"cat":"green"},{"name":"The Botanist","lat":53.4731,"lon":-2.2971,"postcode":"M50 2HE","la":"Salford","era":"other","nn":56,"risk":25,"cat":"green"},{"name":"The Bridgewater Hotel","lat":53.49871,"lon":-2.38067,"postcode":"M28 2PD","la":"Salford","era":"other","nn":337,"risk":32,"cat":"amber"},{"name":"The Eagle Inn","lat":53.48728,"lon":-2.25119,"postcode":"M3 7DW","la":"Salford","era":"trad","nn":168,"risk":25,"cat":"green"},{"name":"The Eccles Cross","lat":53.48325,"lon":-2.33468,"postcode":"M30 0BP","la":"Salford","era":"trad","nn":65,"risk":25,"cat":"green"},{"name":"The Farmers Arms","lat":53.50756,"lon":-2.3289,"postcode":"M27 5TP","la":"Salford","era":"trad","nn":172,"risk":25,"cat":"green"},{"name":"The Firs","lat":53.42919,"lon":-2.44464,"postcode":"M44 5AG","la":"Salford","era":"other","nn":456,"risk":30,"cat":"green"},{"name":"The Grapes","lat":53.48371,"lon":-2.33538,"postcode":"M30 0BJ","la":"Salford","era":"other","nn":13,"risk":24,"cat":"green"},{"name":"The Grocers (Micro Pub)","lat":53.42566,"lon":-2.43781,"postcode":"M44 5DD","la":"Salford","era":"other","nn":56,"risk":27,"cat":"green"},{"name":"The John Gilbert","lat":53.50176,"lon":-2.38599,"postcode":"M28 2YA","la":"Salford","era":"other","nn":489,"risk":33,"cat":"amber"},{"name":"The Kitchen at EGC","lat":53.51809,"lon":-2.38255,"postcode":"M28 7HZ","la":"Salford","era":"mod","nn":954,"risk":51,"cat":"amber"},{"name":"The Lord Nelson Hotel","lat":53.5177,"lon":-2.33035,"postcode":"M27 4EJ","la":"Salford","era":"trad","nn":0,"risk":24,"cat":"green"},{"name":"The Lower Kersal Social Club","lat":53.50121,"lon":-2.27902,"postcode":"M7 3SD","la":"Salford","era":"mod","nn":638,"risk":46,"cat":"amber"},{"name":"The Monton Tap","lat":53.49015,"lon":-2.34996,"postcode":"M30 9GS","la":"Salford","era":"mod","nn":0,"risk":24,"cat":"green"},{"name":"The Moorings","lat":53.5001,"lon":-2.41213,"postcode":"M28 1YB","la":"Salford","era":"other","nn":418,"risk":27,"cat":"green"},{"name":"The Moorlands Sports and Social Club","lat":53.48386,"lon":-2.29914,"postcode":"M6 5GY","la":"Salford","era":"mod","nn":150,"risk":25,"cat":"green"},{"name":"The New Albion","lat":53.52588,"lon":-2.40843,"postcode":"M38 9AF","la":"Salford","era":"other","nn":0,"risk":24,"cat":"green"},{"name":"The New Oxford","lat":53.48362,"lon":-2.25936,"postcode":"M3 6DB","la":"Salford","era":"other","nn":170,"risk":25,"cat":"green"},{"name":"The Newmarket","lat":53.5177,"lon":-2.33035,"postcode":"M27 4EJ","la":"Salford","era":"other","nn":0,"risk":24,"cat":"green"},{"name":"The Northern Type","lat":53.48478,"lon":-2.33516,"postcode":"M30 0DF","la":"Salford","era":"other","nn":0,"risk":24,"cat":"green"},{"name":"The Oddfellows Arms","lat":53.52156,"lon":-2.33549,"postcode":"M27 6NY","la":"Salford","era":"trad","nn":279,"risk":26,"cat":"green"},{"name":"The Office Bar","lat":53.51002,"lon":-2.33617,"postcode":"M27 5XB","la":"Salford","era":"other","nn":274,"risk":26,"cat":"green"},{"name":"The Old Pint Pot","lat":53.48634,"lon":-2.26443,"postcode":"M3 6EN","la":"Salford","era":"other","nn":166,"risk":25,"cat":"green"},{"name":"The Park Inn","lat":53.50686,"lon":-2.33817,"postcode":"M27 5SP","la":"Salford","era":"trad","nn":241,"risk":26,"cat":"green"},{"name":"The Plough","lat":53.42613,"lon":-2.43748,"postcode":"M44 5DD","la":"Salford","era":"trad","nn":56,"risk":27,"cat":"green"},{"name":"The Priory Arms","lat":53.492,"lon":-2.28319,"postcode":"M6 6PP","la":"Salford","era":"trad","nn":430,"risk":32,"cat":"amber"},{"name":"The Royal Oak","lat":53.50287,"lon":-2.42078,"postcode":"M28 1LZ","la":"Salford","era":"trad","nn":88,"risk":25,"cat":"green"},{"name":"The Station","lat":53.43562,"lon":-2.43112,"postcode":"M44 5ZR","la":"Salford","era":"other","nn":148,"risk":28,"cat":"green"},{"name":"The Station Bar","lat":53.48478,"lon":-2.33516,"postcode":"M30 0DF","la":"Salford","era":"other","nn":0,"risk":24,"cat":"green"},{"name":"The Stocks Hotel","lat":53.52388,"lon":-2.39713,"postcode":"M28 3JX","la":"Salford","era":"other","nn":205,"risk":26,"cat":"green"},{"name":"The White Hotel","lat":53.49186,"lon":-2.25174,"postcode":"M3 7LW","la":"Salford","era":"other","nn":61,"risk":25,"cat":"green"},{"name":"The White Lion","lat":53.50772,"lon":-2.3328,"postcode":"M27 4TS","la":"Salford","era":"trad","nn":102,"risk":25,"cat":"green"},{"name":"The Winston","lat":53.48602,"lon":-2.28455,"postcode":"M6 5BU","la":"Salford","era":"other","nn":366,"risk":27,"cat":"green"},{"name":"The Wobbly Stool","lat":53.50807,"lon":-2.33136,"postcode":"M27 4TT","la":"Salford","era":"other","nn":2,"risk":24,"cat":"green"},{"name":"The Woodside","lat":53.50826,"lon":-2.41025,"postcode":"M28 1ES","la":"Salford","era":"other","nn":700,"risk":29,"cat":"green"},{"name":"Tiger Moth","lat":53.45464,"lon":-2.41924,"postcode":"M44 6PT","la":"Salford","era":"other","nn":405,"risk":45,"cat":"amber"},{"name":"Top Club","lat":53.53221,"lon":-2.42877,"postcode":"M38 9EG","la":"Salford","era":"other","nn":364,"risk":29,"cat":"green"},{"name":"Tower coffee shop","lat":53.4708,"lon":-2.29546,"postcode":"M50 3AZ","la":"Salford","era":"other","nn":84,"risk":25,"cat":"green"},{"name":"Union Tavern","lat":53.48043,"lon":-2.27269,"postcode":"M5 4LG","la":"Salford","era":"other","nn":358,"risk":27,"cat":"green"},{"name":"Vulcan Inn","lat":53.53557,"lon":-2.39997,"postcode":"M28 3QW","la":"Salford","era":"trad","nn":740,"risk":34,"cat":"amber"},{"name":"Waggon and Horses","lat":53.50068,"lon":-2.30875,"postcode":"M6 7NJ","la":"Salford","era":"trad","nn":0,"risk":24,"cat":"green"},{"name":"Walkden Cricket Club","lat":53.52703,"lon":-2.398,"postcode":"M28 3QA","la":"Salford","era":"other","nn":346,"risk":27,"cat":"green"},{"name":"Walkden Legion Club Limited","lat":53.52085,"lon":-2.39942,"postcode":"M28 3AJ","la":"Salford","era":"other","nn":369,"risk":27,"cat":"green"},{"name":"Wangies","lat":53.4817,"lon":-2.35686,"postcode":"M30 0QN","la":"Salford","era":"other","nn":0,"risk":24,"cat":"green"},{"name":"Weaste & Seedley Social Club","lat":53.48642,"lon":-2.30839,"postcode":"M5 5JL","la":"Salford","era":"mod","nn":406,"risk":27,"cat":"green"},{"name":"Welcome Inn","lat":53.47395,"lon":-2.27103,"postcode":"M5 3LT","la":"Salford","era":"trad","nn":119,"risk":25,"cat":"green"},{"name":"Wellington Hotel","lat":53.50068,"lon":-2.30875,"postcode":"M6 7NJ","la":"Salford","era":"trad","nn":0,"risk":24,"cat":"green"},{"name":"White Horse","lat":53.50338,"lon":-2.35668,"postcode":"M27 0FH","la":"Salford","era":"trad","nn":643,"risk":31,"cat":"amber"},{"name":"White Horse","lat":53.43746,"lon":-2.42855,"postcode":"M44 5BE","la":"Salford","era":"trad","nn":0,"risk":24,"cat":"green"},{"name":"White Swan","lat":53.50556,"lon":-2.34108,"postcode":"M27 5SN","la":"Salford","era":"trad","nn":241,"risk":26,"cat":"green"},{"name":"Winton Social Club","lat":53.49183,"lon":-2.37752,"postcode":"M30 8JW","la":"Salford","era":"mod","nn":412,"risk":32,"cat":"amber"},{"name":"Worsley Cruising Club","lat":53.47978,"lon":-2.35591,"postcode":"M30 0QF","la":"Salford","era":"other","nn":224,"risk":26,"cat":"green"},{"name":"Worsley Old Hall","lat":53.50539,"lon":-2.39091,"postcode":"M28 2QT","la":"Salford","era":"other","nn":519,"risk":45,"cat":"amber"},{"name":"Worsley Road Sports And Social Club","lat":53.50771,"lon":-2.33477,"postcode":"M27 5WN","la":"Salford","era":"mod","nn":130,"risk":25,"cat":"green"},{"name":"Acres Inn","lat":53.45307,"lon":-2.11603,"postcode":"M34 2AY","la":"Tameside","era":"trad","nn":302,"risk":24,"cat":"green"},{"name":"Aldwinians Rugby Union Football Club (RUFC)","lat":53.47867,"lon":-2.13697,"postcode":"M34 5SN","la":"Tameside","era":"other","nn":523,"risk":26,"cat":"green"},{"name":"Audenshaw Masonic Hall","lat":53.47281,"lon":-2.14604,"postcode":"M34 5GB","la":"Tameside","era":"trad","nn":0,"risk":22,"cat":"green"},{"name":"Buxton Inn","lat":53.48045,"lon":-2.16244,"postcode":"M43 6GE","la":"Tameside","era":"trad","nn":297,"risk":24,"cat":"green"},{"name":"Carters Arms","lat":53.45118,"lon":-2.1108,"postcode":"M34 6AQ","la":"Tameside","era":"trad","nn":115,"risk":23,"cat":"green"},{"name":"Chapel House","lat":53.44503,"lon":-2.09933,"postcode":"M34 7AJ","la":"Tameside","era":"other","nn":248,"risk":24,"cat":"green"},{"name":"Chapel House Inn","lat":53.45214,"lon":-2.1114,"postcode":"M34 6AQ","la":"Tameside","era":"other","nn":115,"risk":23,"cat":"green"},{"name":"Church Inn","lat":53.47933,"lon":-2.14487,"postcode":"M43 7BP","la":"Tameside","era":"trad","nn":102,"risk":23,"cat":"green"},{"name":"Cock Hotel","lat":53.44662,"lon":-2.10576,"postcode":"M34 7SZ","la":"Tameside","era":"other","nn":345,"risk":25,"cat":"green"},{"name":"Dane Bank Hotel","lat":53.4502,"lon":-2.14075,"postcode":"M34 2EY","la":"Tameside","era":"other","nn":402,"risk":30,"cat":"green"},{"name":"Denton Cricket And Sports Club","lat":53.46138,"lon":-2.12261,"postcode":"M34 3PW","la":"Tameside","era":"other","nn":414,"risk":25,"cat":"green"},{"name":"Denton Golf Club","lat":53.45959,"lon":-2.14191,"postcode":"M34 2GG","la":"Tameside","era":"other","nn":505,"risk":31,"cat":"amber"},{"name":"Denton Labour Club","lat":53.45909,"lon":-2.11504,"postcode":"M34 3JF","la":"Tameside","era":"other","nn":293,"risk":24,"cat":"green"},{"name":"Denton Liberal Club","lat":53.45576,"lon":-2.11541,"postcode":"M34 2AB","la":"Tameside","era":"other","nn":0,"risk":22,"cat":"green"},{"name":"Denton St Lawrence Cricket Club","lat":53.44963,"lon":-2.10702,"postcode":"M34 5EE","la":"Tameside","era":"other","nn":304,"risk":24,"cat":"green"},{"name":"Denton Town Football Club","lat":53.45039,"lon":-2.1014,"postcode":"M34 6BY","la":"Tameside","era":"other","nn":381,"risk":25,"cat":"green"},{"name":"Denton West Cricket Club","lat":53.45125,"lon":-2.14655,"postcode":"M34 5EE","la":"Tameside","era":"other","nn":402,"risk":25,"cat":"green"},{"name":"Denton West End WMC","lat":53.45734,"lon":-2.12231,"postcode":"M34 3WN","la":"Tameside","era":"other","nn":257,"risk":24,"cat":"green"},{"name":"Denton Working Mens Club","lat":53.46172,"lon":-2.11315,"postcode":"M34 3JB","la":"Tameside","era":"trad","nn":213,"risk":24,"cat":"green"},{"name":"Droylsden A F C","lat":53.48221,"lon":-2.14357,"postcode":"M43 7AY","la":"Tameside","era":"other","nn":0,"risk":22,"cat":"green"},{"name":"Droylsden Catholic Club","lat":53.48664,"lon":-2.1461,"postcode":"M43 7WW","la":"Tameside","era":"other","nn":384,"risk":25,"cat":"green"},{"name":"Droylsden Cricket Club","lat":53.48587,"lon":-2.14044,"postcode":"M43 7XA","la":"Tameside","era":"other","nn":287,"risk":24,"cat":"green"},{"name":"Droylsden Working Mens Club","lat":53.47945,"lon":-2.15686,"postcode":"M43 6UB","la":"Tameside","era":"trad","nn":62,"risk":23,"cat":"green"},{"name":"Fairfield Arms","lat":53.47281,"lon":-2.14604,"postcode":"M34 5GB","la":"Tameside","era":"trad","nn":0,"risk":22,"cat":"green"},{"name":"Fitzroy Social Club","lat":53.47765,"lon":-2.14681,"postcode":"M43 6DT","la":"Tameside","era":"mod","nn":138,"risk":23,"cat":"green"},{"name":"Fletchers Arms","lat":53.44379,"lon":-2.1159,"postcode":"M34 6EG","la":"Tameside","era":"trad","nn":681,"risk":27,"cat":"green"},{"name":"Greenwood Catering At Fairfield Golf & Sailing Club","lat":53.46927,"lon":-2.14242,"postcode":"M34 5FA","la":"Tameside","era":"other","nn":460,"risk":25,"cat":"green"},{"name":"Haddon Hall Hotel","lat":53.48662,"lon":-2.16381,"postcode":"M43 6LB","la":"Tameside","era":"other","nn":679,"risk":27,"cat":"green"},{"name":"Halfway House Hotel","lat":53.48079,"lon":-2.16689,"postcode":"M43 6JE","la":"Tameside","era":"mod","nn":297,"risk":24,"cat":"green"},{"name":"Hanging Gate Inn","lat":53.47343,"lon":-2.12327,"postcode":"M34 5NL","la":"Tameside","era":"trad","nn":516,"risk":26,"cat":"green"},{"name":"Haughton Green Conservative Club","lat":53.44307,"lon":-2.09753,"postcode":"M34 7QN","la":"Tameside","era":"other","nn":248,"risk":24,"cat":"green"},{"name":"Jolly Carter Inn","lat":53.48,"lon":-2.15706,"postcode":"M43 6HE","la":"Tameside","era":"trad","nn":62,"risk":23,"cat":"green"},{"name":"Jolly Hatters Inn","lat":53.44001,"lon":-2.09956,"postcode":"M34 7PW","la":"Tameside","era":"trad","nn":366,"risk":30,"cat":"green"},{"name":"Kings Head","lat":53.48221,"lon":-2.14357,"postcode":"M43 7AY","la":"Tameside","era":"trad","nn":0,"risk":22,"cat":"green"},{"name":"Lazy Toad","lat":53.47777,"lon":-2.14473,"postcode":"M43 7UB","la":"Tameside","era":"other","nn":138,"risk":23,"cat":"green"},{"name":"Old Peg","lat":53.45656,"lon":-2.10548,"postcode":"M34 3DW","la":"Tameside","era":"other","nn":137,"risk":23,"cat":"green"},{"name":"Pig On The Wall","lat":53.48647,"lon":-2.15323,"postcode":"M43 7RA","la":"Tameside","era":"other","nn":472,"risk":25,"cat":"green"},{"name":"Pitstop","lat":53.45604,"lon":-2.1191,"postcode":"M34 2AF","la":"Tameside","era":"other","nn":246,"risk":24,"cat":"green"},{"name":"Queens Arms","lat":53.47071,"lon":-2.11314,"postcode":"M34 5FF","la":"Tameside","era":"trad","nn":366,"risk":25,"cat":"green"},{"name":"Strawberry Gardens Inn","lat":53.48682,"lon":-2.13641,"postcode":"M43 7HL","la":"Tameside","era":"trad","nn":0,"risk":22,"cat":"green"},{"name":"The Beehive","lat":53.48004,"lon":-2.14583,"postcode":"M43 7AR","la":"Tameside","era":"other","nn":3,"risk":22,"cat":"green"},{"name":"The Boundary","lat":53.4756,"lon":-2.11638,"postcode":"M34 5HD","la":"Tameside","era":"other","nn":130,"risk":23,"cat":"green"},{"name":"The Bush","lat":53.48682,"lon":-2.13641,"postcode":"M43 7HL","la":"Tameside","era":"other","nn":0,"risk":22,"cat":"green"},{"name":"The Coach And Horses","lat":53.45649,"lon":-2.10755,"postcode":"M34 3BB","la":"Tameside","era":"trad","nn":137,"risk":23,"cat":"green"},{"name":"The Dance Emporium","lat":53.45576,"lon":-2.11541,"postcode":"M34 2AB","la":"Tameside","era":"other","nn":0,"risk":22,"cat":"green"},{"name":"The Jolly Hatters","lat":53.44945,"lon":-2.11983,"postcode":"M34 2DJ","la":"Tameside","era":"other","nn":474,"risk":26,"cat":"green"},{"name":"The Lowes Arms","lat":53.4555,"lon":-2.09834,"postcode":"M34 3FF","la":"Tameside","era":"trad","nn":487,"risk":26,"cat":"green"},{"name":"The Queen Vic","lat":53.45576,"lon":-2.11334,"postcode":"M34 6DB","la":"Tameside","era":"trad","nn":97,"risk":23,"cat":"green"},{"name":"The Railway Inn","lat":53.48859,"lon":-2.13379,"postcode":"M43 7LA","la":"Tameside","era":"trad","nn":262,"risk":24,"cat":"green"},{"name":"The Silly Country","lat":53.48004,"lon":-2.14588,"postcode":"M43 7AD","la":"Tameside","era":"other","nn":3,"risk":22,"cat":"green"},{"name":"The Snipe","lat":53.47919,"lon":-2.12579,"postcode":"M34 5RP","la":"Tameside","era":"other","nn":662,"risk":27,"cat":"green"},{"name":"The Stable Gate","lat":53.45534,"lon":-2.13345,"postcode":"M34 3SH","la":"Tameside","era":"other","nn":657,"risk":27,"cat":"green"},{"name":"The Sun Inn","lat":53.46744,"lon":-2.11392,"postcode":"M34 5EE","la":"Tameside","era":"trad","nn":366,"risk":25,"cat":"green"},{"name":"The Toll Point","lat":53.45496,"lon":-2.11275,"postcode":"M34 6NB","la":"Tameside","era":"other","nn":97,"risk":23,"cat":"green"},{"name":"The Windmill","lat":53.45513,"lon":-2.14337,"postcode":"M34 2WZ","la":"Tameside","era":"trad","nn":480,"risk":28,"cat":"green"},{"name":"White House Inn","lat":53.46161,"lon":-2.11636,"postcode":"M34 3JD","la":"Tameside","era":"other","nn":213,"risk":24,"cat":"green"},{"name":"02 at Victoria Warehouse","lat":53.46482,"lon":-2.28529,"postcode":"M17 1AG","la":"Trafford","era":"trad","nn":0,"risk":25,"cat":"green"},{"name":"All Bar One","lat":53.46619,"lon":-2.34902,"postcode":"M17 8EH","la":"Trafford","era":"mod","nn":440,"risk":33,"cat":"amber"},{"name":"Bent Brook Hungry Horse","lat":53.45897,"lon":-2.37247,"postcode":"M41 7NW","la":"Trafford","era":"trad","nn":1145,"risk":55,"cat":"amber"},{"name":"Block and Gasket","lat":53.42461,"lon":-2.31979,"postcode":"M33 7XY","la":"Trafford","era":"other","nn":75,"risk":25,"cat":"green"},{"name":"Brew Chimp","lat":53.44622,"lon":-2.31365,"postcode":"M32 8DP","la":"Trafford","era":"other","nn":286,"risk":27,"cat":"green"},{"name":"Brooklands Tap","lat":53.41858,"lon":-2.3241,"postcode":"M33 3YA","la":"Trafford","era":"mod","nn":278,"risk":27,"cat":"green"},{"name":"Bulls Head Hotel","lat":53.4261,"lon":-2.32449,"postcode":"M33 7AE","la":"Trafford","era":"trad","nn":77,"risk":25,"cat":"green"},{"name":"Cafe Bar 621","lat":53.46218,"lon":-2.27515,"postcode":"M16 0QA","la":"Trafford","era":"mod","nn":72,"risk":25,"cat":"green"},{"name":"Cafe Bar Eight46","lat":53.45572,"lon":-2.29767,"postcode":"M32 0QJ","la":"Trafford","era":"mod","nn":67,"risk":25,"cat":"green"},{"name":"Carters Arms","lat":53.41854,"lon":-2.28989,"postcode":"M33 2PG","la":"Trafford","era":"trad","nn":854,"risk":48,"cat":"amber"},{"name":"Castle in the Air","lat":53.4679,"lon":-2.36146,"postcode":"M41 7JA","la":"Trafford","era":"other","nn":248,"risk":26,"cat":"green"},{"name":"Church Inn","lat":53.44219,"lon":-2.38355,"postcode":"M41 6HS","la":"Trafford","era":"trad","nn":486,"risk":33,"cat":"amber"},{"name":"Coppice Wood Farm","lat":53.4659,"lon":-2.33216,"postcode":"M41 7PA","la":"Trafford","era":"other","nn":469,"risk":48,"cat":"amber"},{"name":"David Lloyd Leisure Ltd","lat":53.46999,"lon":-2.36015,"postcode":"M17 8RH","la":"Trafford","era":"other","nn":248,"risk":26,"cat":"green"},{"name":"Early Doors","lat":53.42372,"lon":-2.31664,"postcode":"M33 3BR","la":"Trafford","era":"other","nn":25,"risk":25,"cat":"green"},{"name":"Fibber Magee's","lat":53.41999,"lon":-2.30467,"postcode":"M33 3HE","la":"Trafford","era":"other","nn":103,"risk":25,"cat":"green"},{"name":"Flixton Conservative Club","lat":53.44887,"lon":-2.36725,"postcode":"M41 5DF","la":"Trafford","era":"other","nn":297,"risk":27,"cat":"green"},{"name":"Flixton Cricket & Sports Club","lat":53.45131,"lon":-2.38702,"postcode":"M41 8UU","la":"Trafford","era":"other","nn":533,"risk":33,"cat":"amber"},{"name":"Flixton Ex Service Mens Club","lat":53.44656,"lon":-2.38362,"postcode":"M41 6QY","la":"Trafford","era":"other","nn":486,"risk":28,"cat":"green"},{"name":"Flixton Golf Club & Course","lat":53.44167,"lon":-2.37542,"postcode":"M41 6EP","la":"Trafford","era":"other","nn":540,"risk":28,"cat":"green"},{"name":"Gorse Hill Hotel","lat":53.45396,"lon":-2.29941,"postcode":"M32 0PA","la":"Trafford","era":"other","nn":227,"risk":26,"cat":"green"},{"name":"Hops & Boogie","lat":53.42436,"lon":-2.32203,"postcode":"M33 7XZ","la":"Trafford","era":"other","nn":95,"risk":25,"cat":"green"},{"name":"J P Joules","lat":53.42382,"lon":-2.31697,"postcode":"M33 3BR","la":"Trafford","era":"other","nn":25,"risk":25,"cat":"green"},{"name":"Jackalope","lat":53.4252,"lon":-2.32181,"postcode":"M33 7ZD","la":"Trafford","era":"other","nn":95,"risk":25,"cat":"green"},{"name":"Jane Jarvis Dance Studio","lat":53.44749,"lon":-2.3512,"postcode":"M41 9AD","la":"Trafford","era":"mod","nn":126,"risk":25,"cat":"green"},{"name":"Kelder Ltd","lat":53.44735,"lon":-2.3531,"postcode":"M41 9JN","la":"Trafford","era":"other","nn":80,"risk":25,"cat":"green"},{"name":"Kings Ransom","lat":53.42486,"lon":-2.31874,"postcode":"M33 2AB","la":"Trafford","era":"trad","nn":75,"risk":25,"cat":"green"},{"name":"Legh Arms","lat":53.4197,"lon":-2.30263,"postcode":"M33 2SR","la":"Trafford","era":"trad","nn":140,"risk":28,"cat":"green"},{"name":"Little B","lat":53.41734,"lon":-2.32047,"postcode":"M33 3ND","la":"Trafford","era":"other","nn":278,"risk":27,"cat":"green"},{"name":"LMRCA  Club","lat":53.45566,"lon":-2.29666,"postcode":"M32 0RN","la":"Trafford","era":"other","nn":67,"risk":25,"cat":"green"},{"name":"Lord Nelson","lat":53.44633,"lon":-2.34785,"postcode":"M41 9LG","la":"Trafford","era":"trad","nn":202,"risk":26,"cat":"green"},{"name":"Manchester United","lat":53.46257,"lon":-2.29105,"postcode":"M16 0RA","la":"Trafford","era":"other","nn":206,"risk":26,"cat":"green"},{"name":"MeetspaceVR Manchester","lat":53.46218,"lon":-2.32883,"postcode":"M32 0TB","la":"Trafford","era":"other","nn":469,"risk":48,"cat":"amber"},{"name":"Melville Hotel","lat":53.45269,"lon":-2.3186,"postcode":"M32 8EA","la":"Trafford","era":"other","nn":590,"risk":31,"cat":"amber"},{"name":"Metro Sports and Social Club","lat":53.45122,"lon":-2.31003,"postcode":"M32 0AH","la":"Trafford","era":"mod","nn":162,"risk":26,"cat":"green"},{"name":"Morgans Bar","lat":53.46229,"lon":-2.27654,"postcode":"M16 0PF","la":"Trafford","era":"other","nn":44,"risk":25,"cat":"green"},{"name":"Old Trafford Bowling Club","lat":53.46034,"lon":-2.28097,"postcode":"M16 0PW","la":"Trafford","era":"other","nn":364,"risk":27,"cat":"green"},{"name":"Old Trafford Conservative Club","lat":53.45584,"lon":-2.27475,"postcode":"M16 0FF","la":"Trafford","era":"other","nn":588,"risk":29,"cat":"green"},{"name":"Partington Working Mens Club","lat":53.41769,"lon":-2.42545,"postcode":"M31 4FL","la":"Trafford","era":"trad","nn":1151,"risk":55,"cat":"amber"},{"name":"Prairie Schooner Taphouse","lat":53.44826,"lon":-2.35541,"postcode":"M41 5AW","la":"Trafford","era":"mod","nn":0,"risk":25,"cat":"green"},{"name":"Railway Tavern","lat":53.44832,"lon":-2.39331,"postcode":"M41 6NA","la":"Trafford","era":"trad","nn":533,"risk":31,"cat":"amber"},{"name":"Roebuck Hotel","lat":53.44301,"lon":-2.36759,"postcode":"M41 6HD","la":"Trafford","era":"other","nn":540,"risk":28,"cat":"green"},{"name":"Rokka Turkish Mediteranian Coktail Bar and Grill","lat":53.44826,"lon":-2.35541,"postcode":"M41 5AW","la":"Trafford","era":"mod","nn":0,"risk":25,"cat":"green"},{"name":"Ryans Wine Bar","lat":53.42569,"lon":-2.32356,"postcode":"M33 7YB","la":"Trafford","era":"other","nn":77,"risk":25,"cat":"green"},{"name":"Sale Excelsior Club","lat":53.42755,"lon":-2.31892,"postcode":"M33 7FJ","la":"Trafford","era":"other","nn":137,"risk":26,"cat":"green"},{"name":"Sale Nomads","lat":53.42243,"lon":-2.32392,"postcode":"M33 7UU","la":"Trafford","era":"other","nn":248,"risk":26,"cat":"green"},{"name":"Sale Sports Trading Ltd","lat":53.42639,"lon":-2.30562,"postcode":"M33 2DE","la":"Trafford","era":"other","nn":628,"risk":29,"cat":"green"},{"name":"Sam Brooks","lat":53.41289,"lon":-2.35168,"postcode":"M33 4WD","la":"Trafford","era":"other","nn":910,"risk":48,"cat":"amber"},{"name":"Slug and Lettuce","lat":53.42558,"lon":-2.31901,"postcode":"M33 7BS","la":"Trafford","era":"other","nn":82,"risk":25,"cat":"green"},{"name":"Soho","lat":53.44913,"lon":-2.35338,"postcode":"M41 0TZ","la":"Trafford","era":"other","nn":7,"risk":25,"cat":"green"},{"name":"Souljuice","lat":53.44513,"lon":-2.30871,"postcode":"M32 9BH","la":"Trafford","era":"other","nn":78,"risk":25,"cat":"green"},{"name":"St Alphonsus Parish Centre","lat":53.45786,"lon":-2.26507,"postcode":"M16 7QQ","la":"Trafford","era":"other","nn":679,"risk":29,"cat":"green"},{"name":"St Anns Parish Social Centre","lat":53.44823,"lon":-2.30378,"postcode":"M32 8LF","la":"Trafford","era":"mod","nn":369,"risk":27,"cat":"green"},{"name":"Steamhouse","lat":53.42424,"lon":-2.31703,"postcode":"M33 2DH","la":"Trafford","era":"other","nn":46,"risk":25,"cat":"green"},{"name":"Swinging Bridge","lat":53.47001,"lon":-2.35072,"postcode":"M41 7JE","la":"Trafford","era":"other","nn":440,"risk":28,"cat":"green"},{"name":"Temple Inn","lat":53.42074,"lon":-2.30558,"postcode":"M33 2FE","la":"Trafford","era":"trad","nn":103,"risk":25,"cat":"green"},{"name":"The Bishop Blaize","lat":53.4614,"lon":-2.28863,"postcode":"M32 0SF","la":"Trafford","era":"trad","nn":94,"risk":25,"cat":"green"},{"name":"The Bridge","lat":53.43062,"lon":-2.31306,"postcode":"M33 7QH","la":"Trafford","era":"other","nn":517,"risk":28,"cat":"green"},{"name":"The Brigadier","lat":53.42072,"lon":-2.35781,"postcode":"M33 4FB","la":"Trafford","era":"other","nn":961,"risk":51,"cat":"amber"},{"name":"The Buck Inn","lat":53.43052,"lon":-2.34301,"postcode":"M33 5PN","la":"Trafford","era":"trad","nn":32,"risk":45,"cat":"amber"},{"name":"The Copper Hatch","lat":53.44828,"lon":-2.36144,"postcode":"M41 5BG","la":"Trafford","era":"other","nn":189,"risk":26,"cat":"green"},{"name":"The Fox Pub & Kitchen","lat":53.45677,"lon":-2.394,"postcode":"M41 8QW","la":"Trafford","era":"other","nn":763,"risk":47,"cat":"amber"},{"name":"The Linden Club","lat":53.42142,"lon":-2.33281,"postcode":"M33 6RS","la":"Trafford","era":"other","nn":179,"risk":26,"cat":"green"},{"name":"The Longford Tap","lat":53.44569,"lon":-2.30944,"postcode":"M32 9BA","la":"Trafford","era":"mod","nn":78,"risk":25,"cat":"green"},{"name":"The Old Plough","lat":53.43052,"lon":-2.34253,"postcode":"M33 5PG","la":"Trafford","era":"trad","nn":32,"risk":45,"cat":"amber"},{"name":"The Quadrant","lat":53.45302,"lon":-2.28628,"postcode":"M32 8GR","la":"Trafford","era":"other","nn":747,"risk":30,"cat":"green"},{"name":"The Railway","lat":53.42632,"lon":-2.31894,"postcode":"M33 7FD","la":"Trafford","era":"trad","nn":82,"risk":25,"cat":"green"},{"name":"The Steamhouse","lat":53.44806,"lon":-2.35328,"postcode":"M41 9SB","la":"Trafford","era":"other","nn":80,"risk":25,"cat":"green"},{"name":"The Tim Bobbin","lat":53.44804,"lon":-2.35861,"postcode":"M41 5AN","la":"Trafford","era":"other","nn":189,"risk":26,"cat":"green"},{"name":"The Trafford","lat":53.4612,"lon":-2.28724,"postcode":"M16 0GW","la":"Trafford","era":"other","nn":94,"risk":25,"cat":"green"},{"name":"The Urmston Hotel","lat":53.44638,"lon":-2.33374,"postcode":"M41 9WE","la":"Trafford","era":"other","nn":934,"risk":49,"cat":"amber"},{"name":"Tollgate Inn","lat":53.46196,"lon":-2.27618,"postcode":"M16 0TG","la":"Trafford","era":"trad","nn":44,"risk":25,"cat":"green"},{"name":"Trafford F.C.","lat":53.44783,"lon":-2.37138,"postcode":"M41 5DL","la":"Trafford","era":"other","nn":297,"risk":27,"cat":"green"},{"name":"Trafford Social Club","lat":53.45023,"lon":-2.30823,"postcode":"M32 8BF","la":"Trafford","era":"mod","nn":162,"risk":26,"cat":"green"},{"name":"United Services Club","lat":53.43058,"lon":-2.32523,"postcode":"M33 6HQ","la":"Trafford","era":"other","nn":300,"risk":27,"cat":"green"},{"name":"Urmston Conservartive Club","lat":53.44907,"lon":-2.35338,"postcode":"M41 0TZ","la":"Trafford","era":"other","nn":7,"risk":25,"cat":"green"},{"name":"Urmston Cricket, Hockey, Bowls, Tennis & Social Club","lat":53.4512,"lon":-2.36111,"postcode":"M41 5UU","la":"Trafford","era":"mod","nn":326,"risk":27,"cat":"green"},{"name":"Urmston Masonic Hall","lat":53.45127,"lon":-2.34983,"postcode":"M41 0XQ","la":"Trafford","era":"trad","nn":335,"risk":27,"cat":"green"},{"name":"Urmston Mens Club","lat":53.44812,"lon":-2.34839,"postcode":"M41 9AP","la":"Trafford","era":"other","nn":199,"risk":26,"cat":"green"},{"name":"Victoria Warehouse","lat":53.46482,"lon":-2.28529,"postcode":"M17 1AG","la":"Trafford","era":"trad","nn":0,"risk":25,"cat":"green"},{"name":"Vine","lat":53.42043,"lon":-2.33068,"postcode":"M33 7UD","la":"Trafford","era":"other","nn":179,"risk":26,"cat":"green"},{"name":"Volunteer Hotel","lat":53.42869,"lon":-2.322,"postcode":"M33 7HH","la":"Trafford","era":"other","nn":240,"risk":26,"cat":"green"},{"name":"Watch House Cruising Club","lat":53.4409,"lon":-2.30814,"postcode":"M32 8WE","la":"Trafford","era":"mod","nn":472,"risk":30,"cat":"green"},{"name":"Woodheys Social Club","lat":53.41339,"lon":-2.33798,"postcode":"M33 4EE","la":"Trafford","era":"mod","nn":910,"risk":33,"cat":"amber"},{"name":"180 Dance Club","lat":53.51389,"lon":-2.46597,"postcode":"M29 8DS","la":"Wigan","era":"other","nn":104,"risk":23,"cat":"green"},{"name":"Astley & Tyldesley Miners Welfare Society","lat":53.50534,"lon":-2.47113,"postcode":"M29 7DW","la":"Wigan","era":"mod","nn":832,"risk":28,"cat":"green"},{"name":"Astley Community Club","lat":53.49925,"lon":-2.46062,"postcode":"M29 7DY","la":"Wigan","era":"other","nn":0,"risk":27,"cat":"green"},{"name":"Astley Conservative & Unionist Club","lat":53.49782,"lon":-2.44814,"postcode":"M29 7HZ","la":"Wigan","era":"other","nn":841,"risk":45,"cat":"amber"},{"name":"Astley Labour Club","lat":53.49925,"lon":-2.46062,"postcode":"M29 7DY","la":"Wigan","era":"other","nn":0,"risk":27,"cat":"green"},{"name":"Atherton Arms","lat":53.52348,"lon":-2.48947,"postcode":"M46 9DD","la":"Wigan","era":"trad","nn":29,"risk":22,"cat":"green"},{"name":"Atherton Conservative Club","lat":53.52359,"lon":-2.49452,"postcode":"M46 0DP","la":"Wigan","era":"other","nn":15,"risk":22,"cat":"green"},{"name":"Atherton LR Football Club","lat":53.53299,"lon":-2.4868,"postcode":"M46 9PA","la":"Wigan","era":"other","nn":990,"risk":49,"cat":"amber"},{"name":"Cellar Five","lat":53.5139,"lon":-2.46825,"postcode":"M29 8FJ","la":"Wigan","era":"other","nn":77,"risk":23,"cat":"green"},{"name":"Colliers Arms","lat":53.51428,"lon":-2.44006,"postcode":"M29 8PA","la":"Wigan","era":"trad","nn":855,"risk":48,"cat":"amber"},{"name":"Elliotts","lat":53.51421,"lon":-2.46929,"postcode":"M29 8FL","la":"Wigan","era":"other","nn":0,"risk":22,"cat":"green"},{"name":"Enchanted Bar Ltd","lat":53.52372,"lon":-2.49078,"postcode":"M46 0DW","la":"Wigan","era":"mod","nn":41,"risk":22,"cat":"green"},{"name":"Half Moon Inn","lat":53.51421,"lon":-2.46929,"postcode":"M29 8FL","la":"Wigan","era":"trad","nn":0,"risk":22,"cat":"green"},{"name":"Hop & Hazlewood Ltd","lat":53.51385,"lon":-2.4696,"postcode":"M29 8FJ","la":"Wigan","era":"other","nn":46,"risk":22,"cat":"green"},{"name":"King William VI","lat":53.50836,"lon":-2.42723,"postcode":"M28 1AE","la":"Wigan","era":"trad","nn":275,"risk":24,"cat":"green"},{"name":"Mechanics Rest @ The Taphouse","lat":53.52369,"lon":-2.49591,"postcode":"M46 0DF","la":"Wigan","era":"mod","nn":71,"risk":22,"cat":"green"},{"name":"Mort Arms","lat":53.51423,"lon":-2.46374,"postcode":"M29 8DG","la":"Wigan","era":"trad","nn":152,"risk":23,"cat":"green"},{"name":"Punch Bowl Hotel","lat":53.52358,"lon":-2.49696,"postcode":"M46 0DF","la":"Wigan","era":"other","nn":59,"risk":22,"cat":"green"},{"name":"Railway Inn","lat":53.51339,"lon":-2.46946,"postcode":"M29 8HS","la":"Wigan","era":"trad","nn":52,"risk":22,"cat":"green"},{"name":"Red Lion Hotel","lat":53.52419,"lon":-2.48904,"postcode":"M46 9DE","la":"Wigan","era":"trad","nn":63,"risk":22,"cat":"green"},{"name":"Rosso Bianco","lat":53.50833,"lon":-2.43186,"postcode":"M28 1AN","la":"Wigan","era":"other","nn":306,"risk":24,"cat":"green"},{"name":"Sky Lounge","lat":53.52319,"lon":-2.49756,"postcode":"M46 0DX","la":"Wigan","era":"mod","nn":59,"risk":22,"cat":"green"},{"name":"Society Cocktail Bar","lat":53.52363,"lon":-2.49352,"postcode":"M46 0DP","la":"Wigan","era":"mod","nn":51,"risk":22,"cat":"green"},{"name":"St Richards Parish Centre","lat":53.52253,"lon":-2.49264,"postcode":"M46 0AQ","la":"Wigan","era":"other","nn":119,"risk":23,"cat":"green"},{"name":"The Cabinet and Boardroom","lat":53.52373,"lon":-2.48959,"postcode":"M46 9DE","la":"Wigan","era":"other","nn":29,"risk":22,"cat":"green"},{"name":"The Jolly Nailor (Atherton) Ltd","lat":53.52353,"lon":-2.49131,"postcode":"M46 0DN","la":"Wigan","era":"other","nn":41,"risk":22,"cat":"green"},{"name":"The Lounge Bar","lat":53.5148,"lon":-2.47139,"postcode":"M29 8EW","la":"Wigan","era":"mod","nn":0,"risk":22,"cat":"green"},{"name":"The Mill","lat":53.5236,"lon":-2.49429,"postcode":"M46 0DP","la":"Wigan","era":"trad","nn":15,"risk":22,"cat":"green"},{"name":"The Pendle Witch","lat":53.52407,"lon":-2.49146,"postcode":"M46 0EQ","la":"Wigan","era":"other","nn":60,"risk":22,"cat":"green"},{"name":"The Plaza","lat":53.52359,"lon":-2.49236,"postcode":"M46 0DG","la":"Wigan","era":"other","nn":70,"risk":22,"cat":"green"},{"name":"Tyldesley Little Theatre","lat":53.5128,"lon":-2.47009,"postcode":"M29 8HT","la":"Wigan","era":"other","nn":77,"risk":23,"cat":"green"},{"name":"Tyldesley Rufc","lat":53.51321,"lon":-2.46705,"postcode":"M29 8HG","la":"Wigan","era":"other","nn":104,"risk":23,"cat":"green"},{"name":"Tyldesley Subscription Bowling Club","lat":53.51261,"lon":-2.46337,"postcode":"M29 8HD","la":"Wigan","era":"other","nn":181,"risk":23,"cat":"green"},{"name":"Union Arms","lat":53.5148,"lon":-2.47139,"postcode":"M29 8EW","la":"Wigan","era":"trad","nn":0,"risk":22,"cat":"green"},{"name":"Weavers Rest","lat":53.52338,"lon":-2.49014,"postcode":"M46 0EG","la":"Wigan","era":"other","nn":46,"risk":22,"cat":"green"}]