[{"name":"ACORN INN","lat":50.83857,"lon":-2.60644,"postcode":"DT2 0JW","la":"Dorset","era":"trad","nn":4853,"risk":74,"cat":"red"},{"name":"ADMIRAL HOOD","lat":50.84654,"lon":-2.77142,"postcode":"DT8 3HJ","la":"Dorset","era":"other","nn":1977,"risk":54,"cat":"amber"},{"name":"ANCHOR INN","lat":50.76593,"lon":-2.77339,"postcode":"DT6 5HU","la":"Dorset","era":"trad","nn":1986,"risk":54,"cat":"amber"},{"name":"ANCHOR INN","lat":50.70391,"lon":-2.72745,"postcode":"DT6 4QF","la":"Dorset","era":"trad","nn":143,"risk":39,"cat":"amber"},{"name":"ARTS CENTRE","lat":50.71744,"lon":-2.4427,"postcode":"DT1 1XR","la":"Dorset","era":"other","nn":270,"risk":20,"cat":"green"},{"name":"BAKERS ARMS","lat":50.70913,"lon":-2.43071,"postcode":"DT1 2DH","la":"Dorset","era":"trad","nn":491,"risk":21,"cat":"green"},{"name":"Bar Batida","lat":50.60844,"lon":-2.45486,"postcode":"DT4 8EH","la":"Dorset","era":"mod","nn":28,"risk":18,"cat":"green"},{"name":"Black Cow Saloon","lat":50.7247,"lon":-2.93542,"postcode":"DT7 3QE","la":"Dorset","era":"other","nn":0,"risk":18,"cat":"green"},{"name":"BLACK DOG","lat":50.6769,"lon":-2.38055,"postcode":"DT2 8ES","la":"Dorset","era":"other","nn":1379,"risk":50,"cat":"amber"},{"name":"Blackmore Vale Inn","lat":50.97429,"lon":-2.3244,"postcode":"DT10 1JJ","la":"Dorset","era":"trad","nn":1337,"risk":50,"cat":"amber"},{"name":"Blandford Bowling Club","lat":50.86146,"lon":-2.16852,"postcode":"DT11 7DB","la":"Dorset","era":"other","nn":443,"risk":21,"cat":"green"},{"name":"Blandford Constitutional Club","lat":50.85847,"lon":-2.16436,"postcode":"DT11 7PY","la":"Dorset","era":"other","nn":0,"risk":18,"cat":"green"},{"name":"Blandford Masonic Hall","lat":50.85521,"lon":-2.1664,"postcode":"DT11 7AW","la":"Dorset","era":"trad","nn":116,"risk":19,"cat":"green"},{"name":"Blandford Rugby Football Club","lat":50.85585,"lon":-2.16339,"postcode":"DT11 7DX","la":"Dorset","era":"other","nn":81,"risk":19,"cat":"green"},{"name":"Boot Inn","lat":50.60638,"lon":-2.45942,"postcode":"DT4 8JH","la":"Dorset","era":"trad","nn":0,"risk":18,"cat":"green"},{"name":"Brace of Pheasants","lat":50.81805,"lon":-2.40768,"postcode":"DT2 7RQ","la":"Dorset","era":"other","nn":2209,"risk":56,"cat":"amber"},{"name":"BRADFORD ABBAS SPORTS & SOCIAL CLUB","lat":50.92985,"lon":-2.59423,"postcode":"DT9 6RP","la":"Dorset","era":"mod","nn":684,"risk":43,"cat":"amber"},{"name":"BREWHOUSE AND KITCHEN - DORCHESTER","lat":50.70969,"lon":-2.43941,"postcode":"DT1 1QY","la":"Dorset","era":"mod","nn":106,"risk":19,"cat":"green"},{"name":"BRIDPORT AND WEST DORSET GOLF CLUB","lat":50.71133,"lon":-2.74787,"postcode":"DT6 4PS","la":"Dorset","era":"other","nn":911,"risk":42,"cat":"amber"},{"name":"Bridport Arms","lat":50.71044,"lon":-2.76136,"postcode":"DT6 4EN","la":"Dorset","era":"trad","nn":162,"risk":37,"cat":"amber"},{"name":"Britannia Inn","lat":50.55885,"lon":-2.44071,"postcode":"DT5 1LP","la":"Dorset","era":"trad","nn":126,"risk":19,"cat":"green"},{"name":"Bryanston Estate Club","lat":50.86139,"lon":-2.18547,"postcode":"DT11 0PR","la":"Dorset","era":"other","nn":1190,"risk":49,"cat":"amber"},{"name":"CELESTIAL","lat":50.71468,"lon":-2.43987,"postcode":"DT1 1TR","la":"Dorset","era":"other","nn":85,"risk":19,"cat":"green"},{"name":"CERNE ABBAS CRICKET CLUBHOUSE","lat":50.80709,"lon":-2.48101,"postcode":"DT2 7JS","la":"Dorset","era":"other","nn":362,"risk":26,"cat":"green"},{"name":"Chapelhay Tavern","lat":50.60544,"lon":-2.45794,"postcode":"DT4 8JU","la":"Dorset","era":"other","nn":137,"risk":19,"cat":"green"},{"name":"Charlton Marshall Lunch Club","lat":50.83361,"lon":-2.14213,"postcode":"DT11 9PA","la":"Dorset","era":"other","nn":153,"risk":39,"cat":"amber"},{"name":"CHETNOLE INN","lat":50.77915,"lon":-2.32035,"postcode":"DT9 6NU","la":"Dorset","era":"trad","nn":0,"risk":23,"cat":"green"},{"name":"Chic","lat":50.60968,"lon":-2.45371,"postcode":"DT4 8BB","la":"Dorset","era":"other","nn":96,"risk":19,"cat":"green"},{"name":"Clubhouse 1896 Ltd","lat":50.85886,"lon":-2.13273,"postcode":"DT11 9HN","la":"Dorset","era":"mod","nn":1178,"risk":49,"cat":"amber"},{"name":"Coach House Inn","lat":50.71318,"lon":-2.54455,"postcode":"DT2 9LU","la":"Dorset","era":"other","nn":3222,"risk":63,"cat":"red"},{"name":"Cobb Arms","lat":50.72135,"lon":-2.93911,"postcode":"DT7 3JF","la":"Dorset","era":"trad","nn":0,"risk":18,"cat":"green"},{"name":"COLLITON CLUB","lat":50.71592,"lon":-2.43971,"postcode":"DT1 1XZ","la":"Dorset","era":"other","nn":105,"risk":19,"cat":"green"},{"name":"Convivial Rabbit","lat":50.71446,"lon":-2.43768,"postcode":"DT1 1TT","la":"Dorset","era":"other","nn":51,"risk":18,"cat":"green"},{"name":"Corner House","lat":50.54492,"lon":-2.4346,"postcode":"DT5 1HG","la":"Dorset","era":"other","nn":219,"risk":25,"cat":"green"},{"name":"Cove House Inn","lat":50.56119,"lon":-2.4483,"postcode":"DT5 1AW","la":"Dorset","era":"other","nn":242,"risk":20,"cat":"green"},{"name":"CROWN INN","lat":50.7415,"lon":-2.70252,"postcode":"DT6 4NU","la":"Dorset","era":"trad","nn":1248,"risk":49,"cat":"amber"},{"name":"Crown Inn","lat":50.96809,"lon":-2.30804,"postcode":"DT10 1LN","la":"Dorset","era":"trad","nn":1337,"risk":50,"cat":"amber"},{"name":"DORCHESTER RUGBY FOOTBALL CLUB","lat":50.70927,"lon":-2.45646,"postcode":"DT1 2HX","la":"Dorset","era":"other","nn":702,"risk":28,"cat":"green"},{"name":"DORCHESTER TOWN FOOTBALL CLUB","lat":50.70286,"lon":-2.44415,"postcode":"DT1 2RY","la":"Dorset","era":"other","nn":788,"risk":26,"cat":"green"},{"name":"Dorchester Trinity Club Ltd","lat":50.7141,"lon":-2.43812,"postcode":"DT1 1TT","la":"Dorset","era":"other","nn":51,"risk":18,"cat":"green"},{"name":"DORSETFAYRE LTD","lat":50.80061,"lon":-2.42271,"postcode":"DT2 7QX","la":"Dorset","era":"other","nn":2209,"risk":56,"cat":"amber"},{"name":"Dry Dock","lat":50.6107,"lon":-2.45434,"postcode":"DT4 8EW","la":"Dorset","era":"other","nn":12,"risk":18,"cat":"green"},{"name":"Duchess Of Cornwall Inn","lat":50.71517,"lon":-2.46573,"postcode":"DT1 3DD","la":"Dorset","era":"trad","nn":925,"risk":44,"cat":"amber"},{"name":"Duke of Albany","lat":50.61412,"lon":-2.45457,"postcode":"DT4 7DE","la":"Dorset","era":"trad","nn":0,"risk":18,"cat":"green"},{"name":"Edinburgh Inn","lat":50.6106,"lon":-2.45426,"postcode":"DT4 8EW","la":"Dorset","era":"trad","nn":12,"risk":18,"cat":"green"},{"name":"Eight Kings","lat":50.52951,"lon":-2.44215,"postcode":"DT5 2DP","la":"Dorset","era":"trad","nn":1794,"risk":53,"cat":"amber"},{"name":"ELECTRIC PALACE","lat":50.73193,"lon":-2.75791,"postcode":"DT6 3NY","la":"Dorset","era":"other","nn":116,"risk":19,"cat":"green"},{"name":"Farquharson Arms","lat":50.87963,"lon":-2.13551,"postcode":"DT11 8TX","la":"Dorset","era":"trad","nn":1455,"risk":51,"cat":"amber"},{"name":"Finns","lat":50.61185,"lon":-2.45489,"postcode":"DT4 8NU","la":"Dorset","era":"trad","nn":41,"risk":18,"cat":"green"},{"name":"FIVE BELLS INN","lat":50.75434,"lon":-2.8545,"postcode":"DT6 6RH","la":"Dorset","era":"trad","nn":3600,"risk":66,"cat":"red"},{"name":"FOX AND HOUNDS","lat":50.79471,"lon":-2.57935,"postcode":"DT2 0JH","la":"Dorset","era":"trad","nn":2028,"risk":55,"cat":"amber"},{"name":"Gaggle of Geese Public House","lat":50.8432,"lon":-2.44507,"postcode":"DT2 7BS","la":"Dorset","era":"other","nn":3088,"risk":62,"cat":"red"},{"name":"GAMEKEEPER","lat":50.73695,"lon":-2.45749,"postcode":"DT2 9QZ","la":"Dorset","era":"other","nn":511,"risk":42,"cat":"amber"},{"name":"George Hotel","lat":50.73289,"lon":-2.7585,"postcode":"DT6 3NQ","la":"Dorset","era":"trad","nn":104,"risk":19,"cat":"green"},{"name":"GEORGE INN CHIDEOCK","lat":50.73222,"lon":-2.81415,"postcode":"DT6 6JD","la":"Dorset","era":"trad","nn":1206,"risk":49,"cat":"amber"},{"name":"Goldies","lat":50.71594,"lon":-2.43465,"postcode":"DT1 1HN","la":"Dorset","era":"other","nn":69,"risk":18,"cat":"green"},{"name":"GREYHOUND INN","lat":50.80917,"lon":-2.73887,"postcode":"DT8 3AW","la":"Dorset","era":"trad","nn":27,"risk":36,"cat":"amber"},{"name":"Greyhound Inn","lat":50.85571,"lon":-2.16494,"postcode":"DT11 7EB","la":"Dorset","era":"trad","nn":79,"risk":19,"cat":"green"},{"name":"Half Moon","lat":50.77537,"lon":-2.73111,"postcode":"DT6 3UD","la":"Dorset","era":"other","nn":1628,"risk":52,"cat":"amber"},{"name":"HALF MOON INN","lat":50.94637,"lon":-2.51584,"postcode":"DT9 3LN","la":"Dorset","era":"trad","nn":0,"risk":18,"cat":"green"},{"name":"Halsey Arms","lat":50.87646,"lon":-2.4188,"postcode":"DT2 7DZ","la":"Dorset","era":"trad","nn":2582,"risk":59,"cat":"amber"},{"name":"HARBOUR INN","lat":50.72135,"lon":-2.93911,"postcode":"DT7 3JF","la":"Dorset","era":"trad","nn":0,"risk":18,"cat":"green"},{"name":"Hardys","lat":50.7127,"lon":-2.43785,"postcode":"DT1 1TU","la":"Dorset","era":"other","nn":156,"risk":19,"cat":"green"},{"name":"Hardys Hop House","lat":50.60862,"lon":-2.45521,"postcode":"DT4 8EQ","la":"Dorset","era":"other","nn":31,"risk":18,"cat":"green"},{"name":"Hare & Hounds","lat":50.77872,"lon":-2.75366,"postcode":"DT6 5LQ","la":"Dorset","era":"trad","nn":1628,"risk":52,"cat":"amber"},{"name":"Harvester Spyglass Inn","lat":50.6351,"lon":-2.43043,"postcode":"DT3 6PN","la":"Dorset","era":"trad","nn":1482,"risk":51,"cat":"amber"},{"name":"Heritage Bridge Ales","lat":50.85698,"lon":-2.16063,"postcode":"DT11 7DR","la":"Dorset","era":"other","nn":154,"risk":19,"cat":"green"},{"name":"HOPE & ANCHOR INN","lat":50.7325,"lon":-2.76078,"postcode":"DT6 3RA","la":"Dorset","era":"trad","nn":147,"risk":19,"cat":"green"},{"name":"HUNTERS MOON","lat":50.86519,"lon":-2.47192,"postcode":"DT9 5QN","la":"Dorset","era":"other","nn":3088,"risk":62,"cat":"red"},{"name":"J P Squash & Fitness Club","lat":50.86916,"lon":-2.15779,"postcode":"DT11 7TE","la":"Dorset","era":"other","nn":1140,"risk":48,"cat":"amber"},{"name":"J&lvisions ltd","lat":50.95048,"lon":-2.51723,"postcode":"DT9 3JD","la":"Dorset","era":"other","nn":0,"risk":18,"cat":"green"},{"name":"JUNCTION HOTEL","lat":50.7112,"lon":-2.43952,"postcode":"DT1 1UF","la":"Dorset","era":"other","nn":168,"risk":19,"cat":"green"},{"name":"KING CHARLES TAVERN","lat":50.73633,"lon":-2.74908,"postcode":"DT6 3BL","la":"Dorset","era":"trad","nn":463,"risk":21,"cat":"green"},{"name":"Kings Arms","lat":50.60672,"lon":-2.4547,"postcode":"DT4 8TJ","la":"Dorset","era":"trad","nn":0,"risk":18,"cat":"green"},{"name":"KINGS ARMS","lat":50.6713,"lon":-2.56358,"postcode":"DT3 4ET","la":"Dorset","era":"trad","nn":2645,"risk":59,"cat":"amber"},{"name":"KINGS ARMS","lat":50.91583,"lon":-2.5648,"postcode":"DT9 6QD","la":"Dorset","era":"trad","nn":1902,"risk":54,"cat":"amber"},{"name":"KINGS HEAD","lat":50.74321,"lon":-2.74217,"postcode":"DT6 3DS","la":"Dorset","era":"trad","nn":892,"risk":42,"cat":"amber"},{"name":"KNAPP INN","lat":50.80995,"lon":-2.74475,"postcode":"DT8 3BU","la":"Dorset","era":"trad","nn":422,"risk":38,"cat":"amber"},{"name":"Langton Arms","lat":50.87788,"lon":-2.0794,"postcode":"DT11 8RX","la":"Dorset","era":"trad","nn":3380,"risk":64,"cat":"red"},{"name":"Lets do Lunch at Winfrith Newburgh Village Hall","lat":50.6632,"lon":-2.27559,"postcode":"DT2 8LR","la":"Dorset","era":"other","nn":573,"risk":39,"cat":"amber"},{"name":"Loders Arms","lat":50.74554,"lon":-2.71906,"postcode":"DT6 3SA","la":"Dorset","era":"trad","nn":1248,"risk":49,"cat":"amber"},{"name":"MARQUIS OF LORNE","lat":50.75815,"lon":-2.68546,"postcode":"DT6 3SY","la":"Dorset","era":"other","nn":489,"risk":41,"cat":"amber"},{"name":"Museum Inn","lat":50.93614,"lon":-2.0607,"postcode":"DT11 8DE","la":"Dorset","era":"trad","nn":3635,"risk":66,"cat":"red"},{"name":"Nelsons Cheese & Ale House","lat":50.85847,"lon":-2.16436,"postcode":"DT11 7PY","la":"Dorset","era":"trad","nn":0,"risk":18,"cat":"green"},{"name":"NEW INN","lat":50.80881,"lon":-2.47663,"postcode":"DT2 7JF","la":"Dorset","era":"trad","nn":0,"risk":23,"cat":"green"},{"name":"New Inn","lat":50.72205,"lon":-2.78213,"postcode":"DT6 6AP","la":"Dorset","era":"trad","nn":1869,"risk":54,"cat":"amber"},{"name":"NEW INN","lat":50.80403,"lon":-2.7763,"postcode":"DT8 3JW","la":"Dorset","era":"trad","nn":2313,"risk":57,"cat":"amber"},{"name":"New Star Inn","lat":50.56093,"lon":-2.4449,"postcode":"DT5 1LU","la":"Dorset","era":"trad","nn":242,"risk":20,"cat":"green"},{"name":"ODDFELLOWS ARMS","lat":50.73999,"lon":-2.76563,"postcode":"DT6 5EB","la":"Dorset","era":"trad","nn":645,"risk":22,"cat":"green"},{"name":"Old Castle Hotel","lat":50.59866,"lon":-2.46116,"postcode":"DT4 9LB","la":"Dorset","era":"other","nn":731,"risk":26,"cat":"green"},{"name":"Old Ox Inn (Marcias Market Kitchen)","lat":50.8984,"lon":-2.24774,"postcode":"DT11 0SF","la":"Dorset","era":"other","nn":1897,"risk":54,"cat":"amber"},{"name":"Parachute Brewing","lat":50.94188,"lon":-2.52089,"postcode":"DT9 3RQ","la":"Dorset","era":"other","nn":339,"risk":20,"cat":"green"},{"name":"PLUME OF FEATHERS","lat":50.94637,"lon":-2.51584,"postcode":"DT9 3LN","la":"Dorset","era":"other","nn":0,"risk":18,"cat":"green"},{"name":"Portland Social Club","lat":50.55913,"lon":-2.44263,"postcode":"DT5 1JQ","la":"Dorset","era":"mod","nn":45,"risk":18,"cat":"green"},{"name":"PUDDLETOWN RFC","lat":50.76553,"lon":-2.39144,"postcode":"DT2 7UA","la":"Dorset","era":"other","nn":1629,"risk":52,"cat":"amber"},{"name":"RAFA Wings Club","lat":50.60751,"lon":-2.4541,"postcode":"DT4 8AY","la":"Dorset","era":"other","nn":27,"risk":18,"cat":"green"},{"name":"Railway Tavern","lat":50.61551,"lon":-2.45368,"postcode":"DT4 7HZ","la":"Dorset","era":"trad","nn":106,"risk":19,"cat":"green"},{"name":"Rendezvous & Royal Oak also trading as 88th Street, Value Mighty, Sin City Burger, K-Town, Chik Box, Locked & Loaded, Dough Mast","lat":50.60761,"lon":-2.4556,"postcode":"DT4 8AW","la":"Dorset","era":"trad","nn":57,"risk":18,"cat":"green"},{"name":"Rose and Crown Pub","lat":50.92629,"lon":-2.58627,"postcode":"DT9 6RF","la":"Dorset","era":"trad","nn":684,"risk":43,"cat":"amber"},{"name":"Royal British Legion","lat":50.85636,"lon":-2.16448,"postcode":"DT11 7AD","la":"Dorset","era":"trad","nn":78,"risk":19,"cat":"green"},{"name":"Royal British Legion","lat":50.95867,"lon":-2.37952,"postcode":"DT10 2QX","la":"Dorset","era":"trad","nn":179,"risk":39,"cat":"amber"},{"name":"Royal British Legion","lat":50.92816,"lon":-2.3047,"postcode":"DT10 1DU","la":"Dorset","era":"trad","nn":218,"risk":22,"cat":"green"},{"name":"ROYAL OAK","lat":50.80928,"lon":-2.47435,"postcode":"DT2 7JG","la":"Dorset","era":"trad","nn":168,"risk":24,"cat":"green"},{"name":"Royal Oak Inn","lat":50.89854,"lon":-2.27806,"postcode":"DT11 0RN","la":"Dorset","era":"trad","nn":2126,"risk":55,"cat":"amber"},{"name":"Royal Oak Inn","lat":50.73868,"lon":-2.90387,"postcode":"DT6 6PE","la":"Dorset","era":"trad","nn":295,"risk":40,"cat":"amber"},{"name":"Royal Oak Public House","lat":50.60733,"lon":-2.45386,"postcode":"DT4 8BE","la":"Dorset","era":"trad","nn":0,"risk":18,"cat":"green"},{"name":"Royal Portland Arms","lat":50.55945,"lon":-2.44223,"postcode":"DT5 1LZ","la":"Dorset","era":"trad","nn":45,"risk":18,"cat":"green"},{"name":"ROYAL STANDARD","lat":50.72135,"lon":-2.93911,"postcode":"DT7 3JF","la":"Dorset","era":"trad","nn":0,"risk":18,"cat":"green"},{"name":"Sailors Return Weymouth Limited","lat":50.60769,"lon":-2.4564,"postcode":"DT4 8AD","la":"Dorset","era":"other","nn":57,"risk":18,"cat":"green"},{"name":"SAXON ARMS","lat":50.74197,"lon":-2.49708,"postcode":"DT2 9WG","la":"Dorset","era":"trad","nn":2841,"risk":60,"cat":"amber"},{"name":"SHERBORNE BOWLING CLUB","lat":50.94755,"lon":-2.51215,"postcode":"DT9 3BY","la":"Dorset","era":"other","nn":0,"risk":18,"cat":"green"},{"name":"SHERBORNE TOWN FOOTBALL CLUB","lat":50.93996,"lon":-2.5111,"postcode":"DT9 5NS","la":"Dorset","era":"other","nn":0,"risk":18,"cat":"green"},{"name":"SLESSOR CLUB","lat":50.94755,"lon":-2.51215,"postcode":"DT9 3BY","la":"Dorset","era":"other","nn":0,"risk":18,"cat":"green"},{"name":"Slug and Lettuce","lat":50.60835,"lon":-2.45535,"postcode":"DT4 8EQ","la":"Dorset","era":"other","nn":31,"risk":18,"cat":"green"},{"name":"Snookes Sports Bar","lat":50.61153,"lon":-2.4554,"postcode":"DT4 8NW","la":"Dorset","era":"other","nn":42,"risk":18,"cat":"green"},{"name":"SPITFIRE CLUB","lat":50.69435,"lon":-2.33015,"postcode":"DT2 8TP","la":"Dorset","era":"other","nn":1413,"risk":50,"cat":"amber"},{"name":"Springhead Pub","lat":50.65316,"lon":-2.41711,"postcode":"DT3 6LW","la":"Dorset","era":"trad","nn":689,"risk":40,"cat":"amber"},{"name":"Sturminster Newton United Football Club","lat":50.933,"lon":-2.30122,"postcode":"DT10 1EW","la":"Dorset","era":"other","nn":591,"risk":27,"cat":"green"},{"name":"SUN INN","lat":50.7246,"lon":-2.44502,"postcode":"DT2 7RZ","la":"Dorset","era":"trad","nn":813,"risk":44,"cat":"amber"},{"name":"Swan Inn","lat":50.96012,"lon":-2.37838,"postcode":"DT10 2LL","la":"Dorset","era":"trad","nn":179,"risk":39,"cat":"amber"},{"name":"Swan Inn","lat":50.6082,"lon":-2.45496,"postcode":"DT4 8EH","la":"Dorset","era":"trad","nn":28,"risk":18,"cat":"green"},{"name":"TERRACE CLUB","lat":50.93996,"lon":-2.5111,"postcode":"DT9 5NS","la":"Dorset","era":"other","nn":0,"risk":18,"cat":"green"},{"name":"The Anchor Inn","lat":50.72304,"lon":-2.82326,"postcode":"DT6 6JU","la":"Dorset","era":"trad","nn":1206,"risk":49,"cat":"amber"},{"name":"The Antelope Inn","lat":50.87852,"lon":-2.36066,"postcode":"DT10 2EB","la":"Dorset","era":"trad","nn":2856,"risk":60,"cat":"amber"},{"name":"The Baker Arms","lat":50.9138,"lon":-2.23606,"postcode":"DT11 8ED","la":"Dorset","era":"trad","nn":755,"risk":43,"cat":"amber"},{"name":"The Belvedere Inn","lat":50.60638,"lon":-2.45942,"postcode":"DT4 8JH","la":"Dorset","era":"trad","nn":0,"risk":18,"cat":"green"},{"name":"The Black Dog","lat":50.61068,"lon":-2.45374,"postcode":"DT4 8PB","la":"Dorset","era":"other","nn":38,"risk":18,"cat":"green"},{"name":"THE BLUE RADDLE","lat":50.71533,"lon":-2.4349,"postcode":"DT1 1JN","la":"Dorset","era":"other","nn":69,"risk":18,"cat":"green"},{"name":"The Blue Vinny","lat":50.75141,"lon":-2.3463,"postcode":"DT2 8TE","la":"Dorset","era":"trad","nn":3542,"risk":65,"cat":"red"},{"name":"The Botany Bay Inne","lat":50.77427,"lon":-2.14879,"postcode":"DT11 9ET","la":"Dorset","era":"trad","nn":2947,"risk":61,"cat":"red"},{"name":"The Brewers Arms","lat":50.69938,"lon":-2.50432,"postcode":"DT2 9LB","la":"Dorset","era":"trad","nn":3222,"risk":63,"cat":"red"},{"name":"The Bridge Inn","lat":50.64749,"lon":-2.42106,"postcode":"DT3 6DB","la":"Dorset","era":"trad","nn":169,"risk":37,"cat":"amber"},{"name":"The Bull Tavern","lat":50.92091,"lon":-2.30653,"postcode":"DT10 2BS","la":"Dorset","era":"trad","nn":515,"risk":27,"cat":"green"},{"name":"The Bulls Head Inn","lat":50.71303,"lon":-2.42746,"postcode":"DT1 1LD","la":"Dorset","era":"trad","nn":491,"risk":21,"cat":"green"},{"name":"The Carpenters Arms","lat":50.95506,"lon":-2.51879,"postcode":"DT9 4JD","la":"Dorset","era":"trad","nn":400,"risk":21,"cat":"green"},{"name":"The Chalk and Cheese","lat":50.77708,"lon":-2.57197,"postcode":"DT2 0BD","la":"Dorset","era":"other","nn":2028,"risk":55,"cat":"amber"},{"name":"The Charlton Inn","lat":50.83444,"lon":-2.1404,"postcode":"DT11 9NH","la":"Dorset","era":"trad","nn":153,"risk":39,"cat":"amber"},{"name":"The Closet Bar and Nightclub","lat":50.60793,"lon":-2.45407,"postcode":"DT4 8BA","la":"Dorset","era":"mod","nn":17,"risk":18,"cat":"green"},{"name":"The Coffee Stop","lat":50.94331,"lon":-2.53084,"postcode":"DT9 6AU","la":"Dorset","era":"other","nn":715,"risk":40,"cat":"amber"},{"name":"The Compound Club","lat":50.60782,"lon":-2.4745,"postcode":"DT4 0QU","la":"Dorset","era":"other","nn":735,"risk":41,"cat":"amber"},{"name":"The Countryman","lat":50.67053,"lon":-2.26836,"postcode":"DT2 8LL","la":"Dorset","era":"other","nn":567,"risk":39,"cat":"amber"},{"name":"The Cross Keys","lat":50.94755,"lon":-2.51583,"postcode":"DT9 3BJ","la":"Dorset","era":"trad","nn":132,"risk":19,"cat":"green"},{"name":"The Crown","lat":50.84446,"lon":-2.2373,"postcode":"DT11 0NJ","la":"Dorset","era":"trad","nn":671,"risk":43,"cat":"amber"},{"name":"The Crown Inn","lat":50.69582,"lon":-2.65942,"postcode":"DT2 9BN","la":"Dorset","era":"trad","nn":1924,"risk":54,"cat":"amber"},{"name":"THE DIGBY TAP","lat":50.94527,"lon":-2.51619,"postcode":"DT9 3NS","la":"Dorset","era":"mod","nn":124,"risk":19,"cat":"green"},{"name":"The Doghouse Micropub","lat":50.61117,"lon":-2.45521,"postcode":"DT4 8NN","la":"Dorset","era":"mod","nn":42,"risk":18,"cat":"green"},{"name":"The Dolphin","lat":50.85638,"lon":-2.1626,"postcode":"DT11 7DR","la":"Dorset","era":"other","nn":81,"risk":19,"cat":"green"},{"name":"The Dolphin Hotel","lat":50.61412,"lon":-2.45457,"postcode":"DT4 7DE","la":"Dorset","era":"other","nn":0,"risk":18,"cat":"green"},{"name":"The Duke of Cornwall Public House","lat":50.60783,"lon":-2.45426,"postcode":"DT4 8AS","la":"Dorset","era":"trad","nn":0,"risk":18,"cat":"green"},{"name":"The Fiddleford Inn","lat":50.91767,"lon":-2.27895,"postcode":"DT10 2BX","la":"Dorset","era":"trad","nn":1966,"risk":54,"cat":"amber"},{"name":"The Fox Inn","lat":50.8453,"lon":-2.67473,"postcode":"DT2 0NS","la":"Dorset","era":"trad","nn":3598,"risk":66,"cat":"red"},{"name":"The Fox Inn","lat":50.82773,"lon":-2.33524,"postcode":"DT2 7PN","la":"Dorset","era":"trad","nn":4349,"risk":71,"cat":"red"},{"name":"The Frampton Arms","lat":50.70136,"lon":-2.31342,"postcode":"DT2 8BB","la":"Dorset","era":"trad","nn":1413,"risk":50,"cat":"amber"},{"name":"The Gallery - Junior Ranks Mess","lat":50.8683,"lon":-2.12511,"postcode":"DT11 8RH","la":"Dorset","era":"other","nn":1178,"risk":49,"cat":"amber"},{"name":"The George Bar and Grill","lat":50.60733,"lon":-2.45386,"postcode":"DT4 8BE","la":"Dorset","era":"other","nn":0,"risk":18,"cat":"green"},{"name":"The George Hotel","lat":50.71185,"lon":-2.76078,"postcode":"DT6 4EY","la":"Dorset","era":"trad","nn":162,"risk":37,"cat":"amber"},{"name":"The George Hotel","lat":50.95048,"lon":-2.51723,"postcode":"DT9 3JD","la":"Dorset","era":"trad","nn":0,"risk":18,"cat":"green"},{"name":"THE GEORGE HOTEL","lat":50.73928,"lon":-2.89979,"postcode":"DT6 6QE","la":"Dorset","era":"trad","nn":295,"risk":40,"cat":"amber"},{"name":"The George Inn","lat":50.5467,"lon":-2.44136,"postcode":"DT5 2AP","la":"Dorset","era":"trad","nn":366,"risk":26,"cat":"green"},{"name":"The Giant Inn","lat":50.80881,"lon":-2.47663,"postcode":"DT2 7JF","la":"Dorset","era":"trad","nn":0,"risk":23,"cat":"green"},{"name":"The Globe Inn","lat":50.60781,"lon":-2.45302,"postcode":"DT4 8BN","la":"Dorset","era":"trad","nn":38,"risk":18,"cat":"green"},{"name":"The Gloucester","lat":50.61392,"lon":-2.45337,"postcode":"DT4 7AT","la":"Dorset","era":"other","nn":80,"risk":19,"cat":"green"},{"name":"The Golden Lion Hotel","lat":50.60798,"lon":-2.45464,"postcode":"DT4 8AR","la":"Dorset","era":"trad","nn":32,"risk":18,"cat":"green"},{"name":"The Green Man","lat":50.89348,"lon":-2.39376,"postcode":"DT10 2AY","la":"Dorset","era":"other","nn":2582,"risk":59,"cat":"amber"},{"name":"The Green Shutters","lat":50.5681,"lon":-2.44282,"postcode":"DT5 1BD","la":"Dorset","era":"other","nn":299,"risk":20,"cat":"green"},{"name":"THE GREYHOUND","lat":50.73322,"lon":-2.75712,"postcode":"DT6 3LF","la":"Dorset","era":"trad","nn":104,"risk":19,"cat":"green"},{"name":"The Greyhound Inn","lat":50.79543,"lon":-2.5236,"postcode":"DT2 9PD","la":"Dorset","era":"trad","nn":3262,"risk":63,"cat":"red"},{"name":"The Greyhound Inn Freehouse Ltd","lat":50.77984,"lon":-2.19735,"postcode":"DT11 9AZ","la":"Dorset","era":"other","nn":3230,"risk":63,"cat":"red"},{"name":"THE GRIFFINS HEAD INN","lat":50.9553,"lon":-2.57367,"postcode":"DT9 4QE","la":"Dorset","era":"trad","nn":1367,"risk":50,"cat":"amber"},{"name":"The Hambro Arms","lat":50.81517,"lon":-2.27661,"postcode":"DT11 0BP","la":"Dorset","era":"trad","nn":3321,"risk":64,"cat":"red"},{"name":"The Ibberton","lat":50.86892,"lon":-2.30234,"postcode":"DT11 0EN","la":"Dorset","era":"other","nn":3708,"risk":66,"cat":"red"},{"name":"The Ilchester Arms","lat":50.73859,"lon":-2.788,"postcode":"DT6 6HD","la":"Dorset","era":"trad","nn":1582,"risk":52,"cat":"amber"},{"name":"The Ilchester Arms Hotel","lat":50.66617,"lon":-2.60022,"postcode":"DT3 4JR","la":"Dorset","era":"trad","nn":2645,"risk":59,"cat":"amber"},{"name":"The Islanders Club","lat":50.56553,"lon":-2.44158,"postcode":"DT5 1ES","la":"Dorset","era":"other","nn":299,"risk":20,"cat":"green"},{"name":"The John Gregory","lat":50.62484,"lon":-2.47738,"postcode":"DT4 9SS","la":"Dorset","era":"other","nn":1576,"risk":52,"cat":"amber"},{"name":"The Kings Arms Weymouth","lat":50.60672,"lon":-2.4547,"postcode":"DT4 8TJ","la":"Dorset","era":"trad","nn":0,"risk":18,"cat":"green"},{"name":"The Little Ship","lat":50.56311,"lon":-2.45003,"postcode":"DT5 1AL","la":"Dorset","era":"trad","nn":246,"risk":20,"cat":"green"},{"name":"The Lodmoor","lat":50.62599,"lon":-2.44578,"postcode":"DT4 7SX","la":"Dorset","era":"other","nn":708,"risk":25,"cat":"green"},{"name":"The Lord Nelson Bridport","lat":50.73297,"lon":-2.75497,"postcode":"DT6 3LL","la":"Dorset","era":"trad","nn":102,"risk":19,"cat":"green"},{"name":"The Lugger Inn","lat":50.62453,"lon":-2.507,"postcode":"DT3 4DY","la":"Dorset","era":"trad","nn":235,"risk":40,"cat":"amber"},{"name":"The Market House","lat":50.73378,"lon":-2.75909,"postcode":"DT6 3QN","la":"Dorset","era":"other","nn":53,"risk":18,"cat":"green"},{"name":"The Market House Tavern","lat":50.6082,"lon":-2.45373,"postcode":"DT4 8AZ","la":"Dorset","era":"mod","nn":35,"risk":18,"cat":"green"},{"name":"The Marquis of Granby","lat":50.6108,"lon":-2.48679,"postcode":"DT4 9TW","la":"Dorset","era":"other","nn":929,"risk":44,"cat":"amber"},{"name":"The Martyrs Inn","lat":50.74931,"lon":-2.29312,"postcode":"DT2 7ES","la":"Dorset","era":"trad","nn":3240,"risk":63,"cat":"red"},{"name":"The Mermaid Pub & Restaurant","lat":50.95157,"lon":-2.51742,"postcode":"DT9 4JD","la":"Dorset","era":"other","nn":122,"risk":19,"cat":"green"},{"name":"The Nags Head","lat":50.72642,"lon":-2.9392,"postcode":"DT7 3HS","la":"Dorset","era":"trad","nn":328,"risk":20,"cat":"green"},{"name":"The New Inn","lat":50.5468,"lon":-2.43619,"postcode":"DT5 1BS","la":"Dorset","era":"trad","nn":31,"risk":23,"cat":"green"},{"name":"The New Inn","lat":50.68925,"lon":-2.37886,"postcode":"DT2 8PE","la":"Dorset","era":"trad","nn":1379,"risk":50,"cat":"amber"},{"name":"The New Inn","lat":50.72165,"lon":-2.71569,"postcode":"DT6 4LT","la":"Dorset","era":"trad","nn":2139,"risk":55,"cat":"amber"},{"name":"The Nothe Tavern","lat":50.60615,"lon":-2.45026,"postcode":"DT4 8TZ","la":"Dorset","era":"other","nn":0,"risk":18,"cat":"green"},{"name":"THE OAK AT DEWLISH","lat":50.78225,"lon":-2.32155,"postcode":"DT2 7ND","la":"Dorset","era":"trad","nn":354,"risk":25,"cat":"green"},{"name":"The Old Ship Inn","lat":50.66333,"lon":-2.46852,"postcode":"DT3 5QQ","la":"Dorset","era":"trad","nn":391,"risk":41,"cat":"amber"},{"name":"The Paddocks","lat":50.85671,"lon":-2.16543,"postcode":"DT11 7AU","la":"Dorset","era":"other","nn":78,"risk":19,"cat":"green"},{"name":"The Park Hotel","lat":50.6193,"lon":-2.452,"postcode":"DT4 7PQ","la":"Dorset","era":"other","nn":0,"risk":18,"cat":"green"},{"name":"The Parrett Hotel","lat":50.85865,"lon":-2.75081,"postcode":"DT8 3HS","la":"Dorset","era":"other","nn":1771,"risk":53,"cat":"amber"},{"name":"The Pilot Boat","lat":50.72505,"lon":-2.93265,"postcode":"DT7 3QA","la":"Dorset","era":"other","nn":106,"risk":19,"cat":"green"},{"name":"The Plough","lat":50.94422,"lon":-2.26687,"postcode":"DT10 1HB","la":"Dorset","era":"trad","nn":2711,"risk":59,"cat":"amber"},{"name":"The Punchbowl","lat":50.54674,"lon":-2.43576,"postcode":"DT5 1BT","la":"Dorset","era":"other","nn":31,"risk":23,"cat":"green"},{"name":"The Pursuit of Poppiness","lat":50.70976,"lon":-2.43791,"postcode":"DT1 1GW","la":"Dorset","era":"other","nn":106,"risk":19,"cat":"green"},{"name":"The Pymore Inn","lat":50.75011,"lon":-2.74866,"postcode":"DT6 5PN","la":"Dorset","era":"trad","nn":892,"risk":44,"cat":"amber"},{"name":"The Red Lion","lat":50.80912,"lon":-2.7385,"postcode":"DT8 3AX","la":"Dorset","era":"trad","nn":27,"risk":36,"cat":"amber"},{"name":"The Red Lion","lat":50.60591,"lon":-2.45218,"postcode":"DT4 8TU","la":"Dorset","era":"trad","nn":138,"risk":19,"cat":"green"},{"name":"The Red Lion Hotel","lat":50.66835,"lon":-2.27563,"postcode":"DT2 8LE","la":"Dorset","era":"trad","nn":567,"risk":39,"cat":"amber"},{"name":"The Rock Hotel","lat":50.61148,"lon":-2.46581,"postcode":"DT4 0AQ","la":"Dorset","era":"other","nn":725,"risk":23,"cat":"green"},{"name":"The Rodwell","lat":50.60517,"lon":-2.45983,"postcode":"DT4 8QP","la":"Dorset","era":"other","nn":137,"risk":19,"cat":"green"},{"name":"THE ROPEMAKERS","lat":50.73369,"lon":-2.75983,"postcode":"DT6 3QP","la":"Dorset","era":"other","nn":53,"risk":18,"cat":"green"},{"name":"The Rose and Crown","lat":50.91431,"lon":-2.50165,"postcode":"DT9 5PD","la":"Dorset","era":"trad","nn":2928,"risk":61,"cat":"red"},{"name":"The Rose and Crown In Trent","lat":50.96538,"lon":-2.58486,"postcode":"DT9 4SL","la":"Dorset","era":"trad","nn":1367,"risk":50,"cat":"amber"},{"name":"The Royal Oak","lat":50.84141,"lon":-2.82389,"postcode":"DT8 3RD","la":"Dorset","era":"trad","nn":2891,"risk":61,"cat":"red"},{"name":"THE ROYAL OAK","lat":50.71513,"lon":-2.43888,"postcode":"DT1 1UW","la":"Dorset","era":"trad","nn":85,"risk":19,"cat":"green"},{"name":"The Royal Oak","lat":50.62365,"lon":-2.45512,"postcode":"DT4 7JZ","la":"Dorset","era":"trad","nn":256,"risk":20,"cat":"green"},{"name":"The Royal Oak","lat":50.77779,"lon":-2.2834,"postcode":"DT11 0JG","la":"Dorset","era":"trad","nn":2603,"risk":59,"cat":"amber"},{"name":"The Royal Standard","lat":50.65983,"lon":-2.46806,"postcode":"DT3 5LA","la":"Dorset","era":"trad","nn":391,"risk":41,"cat":"amber"},{"name":"The Sailors Return","lat":50.64905,"lon":-2.29723,"postcode":"DT2 8DN","la":"Dorset","era":"other","nn":2192,"risk":56,"cat":"amber"},{"name":"The Saxon Inn","lat":50.91874,"lon":-2.24344,"postcode":"DT11 8HD","la":"Dorset","era":"trad","nn":755,"risk":43,"cat":"amber"},{"name":"The Seven Stars","lat":50.68624,"lon":-2.26075,"postcode":"DT2 8RL","la":"Dorset","era":"other","nn":1827,"risk":53,"cat":"amber"},{"name":"The Shave Cross Inn","lat":50.77915,"lon":-2.32035,"postcode":"DT6 6HW","la":"Dorset","era":"trad","nn":0,"risk":23,"cat":"green"},{"name":"The Ship Inn","lat":50.72584,"lon":-2.93349,"postcode":"DT7 3PY","la":"Dorset","era":"trad","nn":106,"risk":19,"cat":"green"},{"name":"The Ship Inn","lat":50.60733,"lon":-2.45386,"postcode":"DT4 8BE","la":"Dorset","era":"trad","nn":0,"risk":18,"cat":"green"},{"name":"The Smuggler's Inn","lat":50.6348,"lon":-2.37507,"postcode":"DT3 6HF","la":"Dorset","era":"trad","nn":3380,"risk":64,"cat":"red"},{"name":"The Spice Ship","lat":50.64642,"lon":-2.41936,"postcode":"DT3 6BJ","la":"Dorset","era":"trad","nn":169,"risk":37,"cat":"amber"},{"name":"The Spyway Inn","lat":50.74043,"lon":-2.66208,"postcode":"DT2 9EP","la":"Dorset","era":"trad","nn":2566,"risk":58,"cat":"amber"},{"name":"The Squeaky Joints Club","lat":50.79765,"lon":-2.23834,"postcode":"DT11 0HS","la":"Dorset","era":"other","nn":3321,"risk":64,"cat":"red"},{"name":"The Star","lat":50.61317,"lon":-2.45548,"postcode":"DT4 7AW","la":"Dorset","era":"other","nn":124,"risk":19,"cat":"green"},{"name":"The Swan Hotel","lat":50.9262,"lon":-2.30478,"postcode":"DT10 1AR","la":"Dorset","era":"trad","nn":86,"risk":21,"cat":"green"},{"name":"The Sydney Arms","lat":50.71414,"lon":-2.44676,"postcode":"DT1 2NG","la":"Dorset","era":"trad","nn":465,"risk":21,"cat":"green"},{"name":"The Talbot","lat":50.92815,"lon":-2.19249,"postcode":"DT11 8QN","la":"Dorset","era":"trad","nn":2571,"risk":58,"cat":"amber"},{"name":"The Thimble","lat":50.77664,"lon":-2.40654,"postcode":"DT2 7TD","la":"Dorset","era":"other","nn":1629,"risk":52,"cat":"amber"},{"name":"The Three Horseshoes Inn","lat":50.76254,"lon":-2.68578,"postcode":"DT6 3TF","la":"Dorset","era":"trad","nn":489,"risk":41,"cat":"amber"},{"name":"The Tides Inn","lat":50.61457,"lon":-2.45386,"postcode":"DT4 7BH","la":"Dorset","era":"trad","nn":71,"risk":18,"cat":"green"},{"name":"THE TIGER INN","lat":50.73378,"lon":-2.75429,"postcode":"DT6 3LY","la":"Dorset","era":"trad","nn":102,"risk":19,"cat":"green"},{"name":"The Trooper Inn","lat":50.93301,"lon":-2.40689,"postcode":"DT10 2JW","la":"Dorset","era":"trad","nn":2644,"risk":59,"cat":"amber"},{"name":"The Turks Head Inn","lat":50.6243,"lon":-2.50369,"postcode":"DT3 4DS","la":"Dorset","era":"trad","nn":235,"risk":40,"cat":"amber"},{"name":"The Victoria Hotel","lat":50.70978,"lon":-2.44652,"postcode":"DT1 2LP","la":"Dorset","era":"trad","nn":484,"risk":21,"cat":"green"},{"name":"The White Hart","lat":50.91689,"lon":-2.43462,"postcode":"DT9 5ND","la":"Dorset","era":"trad","nn":2644,"risk":59,"cat":"amber"},{"name":"The White Horse, Hinton St Mary","lat":50.94427,"lon":-2.30611,"postcode":"DT10 1NA","la":"Dorset","era":"trad","nn":1300,"risk":50,"cat":"amber"},{"name":"The White Lion","lat":50.73429,"lon":-2.76392,"postcode":"DT6 5BJ","la":"Dorset","era":"trad","nn":296,"risk":20,"cat":"green"},{"name":"The White Lion","lat":50.82011,"lon":-2.80028,"postcode":"DT8 3QD","la":"Dorset","era":"trad","nn":0,"risk":38,"cat":"amber"},{"name":"The Woodman","lat":50.73078,"lon":-2.75767,"postcode":"DT6 3NZ","la":"Dorset","era":"other","nn":128,"risk":19,"cat":"green"},{"name":"THREE COMPASSES","lat":50.73248,"lon":-2.45918,"postcode":"DT2 9QT","la":"Dorset","era":"other","nn":511,"risk":42,"cat":"amber"},{"name":"THREE HORSESHOES","lat":50.70264,"lon":-2.72714,"postcode":"DT6 4QZ","la":"Dorset","era":"trad","nn":143,"risk":39,"cat":"amber"},{"name":"TOM BROWNS","lat":50.71588,"lon":-2.43363,"postcode":"DT1 1HU","la":"Dorset","era":"other","nn":72,"risk":18,"cat":"green"},{"name":"True Lovers Knot","lat":50.84294,"lon":-2.10182,"postcode":"DT11 9JG","la":"Dorset","era":"other","nn":2801,"risk":60,"cat":"amber"},{"name":"TRUMPET MAJOR","lat":50.70931,"lon":-2.4234,"postcode":"DT1 2AB","la":"Dorset","era":"other","nn":503,"risk":39,"cat":"amber"},{"name":"Tuatara Bar","lat":50.60783,"lon":-2.45426,"postcode":"DT4 8AS","la":"Dorset","era":"other","nn":0,"risk":18,"cat":"green"},{"name":"VICTORIA INN","lat":50.63057,"lon":-2.52006,"postcode":"DT3 4EA","la":"Dorset","era":"trad","nn":1140,"risk":48,"cat":"amber"},{"name":"VOLUNTEER INN","lat":50.7247,"lon":-2.93542,"postcode":"DT7 3QE","la":"Dorset","era":"trad","nn":0,"risk":18,"cat":"green"},{"name":"Waterloo","lat":50.6193,"lon":-2.452,"postcode":"DT4 7PQ","la":"Dorset","era":"other","nn":0,"risk":18,"cat":"green"},{"name":"Weatherbury","lat":50.62135,"lon":-2.45546,"postcode":"DT4 7PX","la":"Dorset","era":"other","nn":256,"risk":20,"cat":"green"},{"name":"WEAVERS SPORTS AND SOCIAL CLUB","lat":50.94395,"lon":-2.51735,"postcode":"DT9 3EL","la":"Dorset","era":"mod","nn":168,"risk":19,"cat":"green"},{"name":"Wellington Arms","lat":50.60897,"lon":-2.45448,"postcode":"DT4 8PY","la":"Dorset","era":"trad","nn":65,"risk":18,"cat":"green"},{"name":"Weymouth and Melcombe Regis Working Mens Club","lat":50.60791,"lon":-2.45353,"postcode":"DT4 8BT","la":"Dorset","era":"trad","nn":35,"risk":18,"cat":"green"},{"name":"Weymouth Sailing Club","lat":50.60708,"lon":-2.45085,"postcode":"DT4 8TX","la":"Dorset","era":"other","nn":112,"risk":19,"cat":"green"},{"name":"Weymouth Sea Cadet Training Centre","lat":50.60615,"lon":-2.45026,"postcode":"DT4 8TZ","la":"Dorset","era":"other","nn":0,"risk":18,"cat":"green"},{"name":"White Hart","lat":50.94936,"lon":-2.51684,"postcode":"DT9 3PX","la":"Dorset","era":"trad","nn":127,"risk":19,"cat":"green"},{"name":"White Hart","lat":50.89553,"lon":-2.57897,"postcode":"DT9 6LF","la":"Dorset","era":"trad","nn":2467,"risk":58,"cat":"amber"},{"name":"White Hart","lat":50.60991,"lon":-2.45551,"postcode":"DT4 8LY","la":"Dorset","era":"trad","nn":117,"risk":19,"cat":"green"},{"name":"White Hart Alehouse","lat":50.92546,"lon":-2.30517,"postcode":"DT10 1AN","la":"Dorset","era":"trad","nn":86,"risk":21,"cat":"green"},{"name":"White Horse","lat":50.88252,"lon":-2.19678,"postcode":"DT11 8TA","la":"Dorset","era":"trad","nn":2480,"risk":58,"cat":"amber"},{"name":"White Horse Inn","lat":50.70822,"lon":-2.64039,"postcode":"DT2 9AT","la":"Dorset","era":"trad","nn":1924,"risk":54,"cat":"amber"},{"name":"White Lion","lat":50.82011,"lon":-2.80028,"postcode":"DT8 3QD","la":"Dorset","era":"trad","nn":0,"risk":38,"cat":"amber"},{"name":"William Henry","lat":50.6116,"lon":-2.45448,"postcode":"DT4 8HQ","la":"Dorset","era":"other","nn":41,"risk":18,"cat":"green"},{"name":"Winterborne Sports Club","lat":50.84763,"lon":-2.24544,"postcode":"DT11 0NA","la":"Dorset","era":"other","nn":671,"risk":43,"cat":"amber"},{"name":"WINYARDS GAP INN","lat":50.84842,"lon":-2.72574,"postcode":"DT8 3HY","la":"Dorset","era":"other","nn":2095,"risk":55,"cat":"amber"},{"name":"WISE MAN","lat":50.70528,"lon":-2.38851,"postcode":"DT2 8AG","la":"Dorset","era":"other","nn":1908,"risk":54,"cat":"amber"},{"name":"Wyke Smugglers","lat":50.59396,"lon":-2.47557,"postcode":"DT4 9AB","la":"Dorset","era":"other","nn":1143,"risk":48,"cat":"amber"},{"name":"Peek Hall","lat":50.71741,"lon":-2.99838,"postcode":"DT7 3XW","la":"East Devon","era":"other","nn":3505,"risk":73,"cat":"red"},{"name":"Talbot Arms Hotel","lat":50.73548,"lon":-2.95757,"postcode":"DT7 3TF","la":"East Devon","era":"trad","nn":1638,"risk":60,"cat":"amber"},{"name":"Milborne Port Sports & Social Club","lat":50.96736,"lon":-2.46148,"postcode":"DT9 5EW","la":"Somerset","era":"mod","nn":123,"risk":34,"cat":"amber"},{"name":"Queens Arms Inn","lat":51.00117,"lon":-2.52167,"postcode":"DT9 4LR","la":"Somerset","era":"trad","nn":3750,"risk":64,"cat":"red"},{"name":"The Gainsborough Arms","lat":50.9681,"lon":-2.47037,"postcode":"DT9 5BB","la":"Somerset","era":"trad","nn":607,"risk":37,"cat":"amber"},{"name":"Tippling Philosopher","lat":50.96634,"lon":-2.46216,"postcode":"DT9 5AQ","la":"Somerset","era":"other","nn":123,"risk":34,"cat":"amber"}]