[{"name":"1 In 12 Club","lat":53.79485,"lon":-1.75803,"postcode":"BD1 2LY","la":"Bradford","era":"other","nn":12,"risk":15,"cat":"green"},{"name":"99 & Main (Bar only)","lat":53.84859,"lon":-1.83825,"postcode":"BD16 2HT","la":"Bradford","era":"mod","nn":52,"risk":15,"cat":"green"},{"name":"Acorn Inn (Bar Only)","lat":53.86248,"lon":-1.81185,"postcode":"BD16 3AW","la":"Bradford","era":"other","nn":259,"risk":37,"cat":"amber"},{"name":"Airedale Cricket Club","lat":53.87389,"lon":-1.87484,"postcode":"BD20 5JN","la":"Bradford","era":"other","nn":475,"risk":23,"cat":"green"},{"name":"Airedale Heifer","lat":53.86818,"lon":-1.86241,"postcode":"BD20 5LY","la":"Bradford","era":"other","nn":564,"risk":21,"cat":"green"},{"name":"Albert Hotel","lat":53.86527,"lon":-1.91152,"postcode":"BD21 1AA","la":"Bradford","era":"other","nn":84,"risk":15,"cat":"green"},{"name":"Albion Inn","lat":53.83249,"lon":-1.71519,"postcode":"BD10 9AS","la":"Bradford","era":"trad","nn":85,"risk":15,"cat":"green"},{"name":"Allerton Catholic Club (Bar Only)","lat":53.80407,"lon":-1.81958,"postcode":"BD15 7QB","la":"Bradford","era":"mod","nn":0,"risk":15,"cat":"green"},{"name":"Allerton Conservative Club (Bar Only)","lat":53.8036,"lon":-1.81911,"postcode":"BD15 7QU","la":"Bradford","era":"mod","nn":60,"risk":20,"cat":"green"},{"name":"Alma Hotel (Bar Only)","lat":53.83649,"lon":-1.76043,"postcode":"BD18 1DF","la":"Bradford","era":"mod","nn":428,"risk":18,"cat":"green"},{"name":"Al's Mars Bar (Bar Only)","lat":53.83536,"lon":-1.79366,"postcode":"BD18 4SB","la":"Bradford","era":"mod","nn":132,"risk":16,"cat":"green"},{"name":"Ancient Foresters","lat":53.76693,"lon":-1.77441,"postcode":"BD6 1QP","la":"Bradford","era":"other","nn":50,"risk":15,"cat":"green"},{"name":"Antoinette Kenehan Catering at West Bradford Golf Club","lat":53.81252,"lon":-1.81609,"postcode":"BD9 6NP","la":"Bradford","era":"other","nn":0,"risk":20,"cat":"green"},{"name":"Applegarth (Bar Only)","lat":53.87971,"lon":-1.88443,"postcode":"BD20 5BN","la":"Bradford","era":"mod","nn":188,"risk":21,"cat":"green"},{"name":"Baildon Golf Club  (bar only)","lat":53.85617,"lon":-1.76995,"postcode":"BD17 5PP","la":"Bradford","era":"mod","nn":129,"risk":16,"cat":"green"},{"name":"Baildon Hall","lat":53.85,"lon":-1.76547,"postcode":"BD17 6NH","la":"Bradford","era":"other","nn":326,"risk":17,"cat":"green"},{"name":"Baildon Masonic Hall","lat":53.85063,"lon":-1.75253,"postcode":"BD17 6JS","la":"Bradford","era":"trad","nn":487,"risk":18,"cat":"green"},{"name":"Baildon Rugby And Cricket Club","lat":53.85455,"lon":-1.76196,"postcode":"BD17 6SH","la":"Bradford","era":"other","nn":267,"risk":17,"cat":"green"},{"name":"Baildon Woodbottom Working Men","lat":53.83742,"lon":-1.77345,"postcode":"BD17 7EP","la":"Bradford","era":"trad","nn":205,"risk":16,"cat":"green"},{"name":"Bankfoot Cricket Club","lat":53.76313,"lon":-1.76026,"postcode":"BD6 1BG","la":"Bradford","era":"other","nn":89,"risk":15,"cat":"green"},{"name":"Bar 61","lat":53.86483,"lon":-1.91037,"postcode":"BD21 5HT","la":"Bradford","era":"mod","nn":0,"risk":15,"cat":"green"},{"name":"Bees Knee'z (Bar Only)","lat":53.79399,"lon":-1.75494,"postcode":"BD1 1SQ","la":"Bradford","era":"mod","nn":15,"risk":15,"cat":"green"},{"name":"Bingley Masonic Hall","lat":53.85111,"lon":-1.83481,"postcode":"BD16 4LG","la":"Bradford","era":"trad","nn":324,"risk":17,"cat":"green"},{"name":"Black Bull Inn (Bar Only)","lat":53.784,"lon":-1.81922,"postcode":"BD14 6BA","la":"Bradford","era":"other","nn":28,"risk":15,"cat":"green"},{"name":"Black Horse Inn (Bar Only)","lat":53.75109,"lon":-1.75275,"postcode":"BD12 0LS","la":"Bradford","era":"other","nn":0,"risk":15,"cat":"green"},{"name":"Bloom  (Wet sales)","lat":53.912,"lon":-1.93784,"postcode":"BD20 0AJ","la":"Bradford","era":"other","nn":46,"risk":15,"cat":"green"},{"name":"Boar & Fable","lat":53.79736,"lon":-1.75651,"postcode":"BD1 3HZ","la":"Bradford","era":"other","nn":0,"risk":15,"cat":"green"},{"name":"Bocking Working Mens Club (Bar Only)","lat":53.83829,"lon":-1.92936,"postcode":"BD22 9AP","la":"Bradford","era":"other","nn":429,"risk":38,"cat":"amber"},{"name":"Boltmakers Arms (wet sales only)","lat":53.86707,"lon":-1.9043,"postcode":"BD21 5HX","la":"Bradford","era":"trad","nn":171,"risk":16,"cat":"green"},{"name":"Bolton Villas Cricket Club (Bar Only)","lat":53.82731,"lon":-1.74153,"postcode":"BD10 8TZ","la":"Bradford","era":"mod","nn":287,"risk":19,"cat":"green"},{"name":"Bolton Woods Social Club - (Bar Only)","lat":53.82031,"lon":-1.76124,"postcode":"BD2 1BE","la":"Bradford","era":"mod","nn":365,"risk":35,"cat":"amber"},{"name":"Boogies","lat":53.79386,"lon":-1.75459,"postcode":"BD1 1SQ","la":"Bradford","era":"other","nn":23,"risk":15,"cat":"green"},{"name":"Bowling Hotel Bar","lat":53.78549,"lon":-1.74432,"postcode":"BD4 7DF","la":"Bradford","era":"other","nn":348,"risk":17,"cat":"green"},{"name":"Bracken Arms (Bar Only)","lat":53.84869,"lon":-1.92548,"postcode":"BD22 7BE","la":"Bradford","era":"other","nn":684,"risk":25,"cat":"green"},{"name":"Bradford And Bingley Rugby Club (Bar Only)","lat":53.83846,"lon":-1.82407,"postcode":"BD16 1LT","la":"Bradford","era":"mod","nn":324,"risk":22,"cat":"green"},{"name":"Bradford Bridge Club (Bar Only)","lat":53.80481,"lon":-1.76496,"postcode":"BD8 7HB","la":"Bradford","era":"mod","nn":291,"risk":17,"cat":"green"},{"name":"Bradford Bulls","lat":53.76468,"lon":-1.75922,"postcode":"BD6 1BS","la":"Bradford","era":"trad","nn":96,"risk":16,"cat":"green"},{"name":"Bradford Dudley Hill Rugby Club","lat":53.78348,"lon":-1.72372,"postcode":"BD4 8QJ","la":"Bradford","era":"other","nn":457,"risk":18,"cat":"green"},{"name":"Bradford Hotel (Bar Only)","lat":53.82663,"lon":-1.77339,"postcode":"BD18 2DA","la":"Bradford","era":"mod","nn":635,"risk":19,"cat":"green"},{"name":"Bradford Moor Golf Club","lat":53.80527,"lon":-1.72889,"postcode":"BD2 4RW","la":"Bradford","era":"other","nn":323,"risk":17,"cat":"green"},{"name":"Bradford Oddfellows","lat":53.78947,"lon":-1.75843,"postcode":"BD5 0BA","la":"Bradford","era":"other","nn":0,"risk":15,"cat":"green"},{"name":"Branshaw Golf Club","lat":53.8482,"lon":-1.94342,"postcode":"BD22 7ES","la":"Bradford","era":"other","nn":318,"risk":22,"cat":"green"},{"name":"Branwell House Social & Sport Club","lat":53.79126,"lon":-1.85312,"postcode":"BD13 3JH","la":"Bradford","era":"mod","nn":118,"risk":16,"cat":"green"},{"name":"Brewdog + Reds Bradford","lat":53.79132,"lon":-1.75819,"postcode":"BD7 1AA","la":"Bradford","era":"other","nn":125,"risk":16,"cat":"green"},{"name":"Bridge Tavern (Bar Only)","lat":53.78316,"lon":-1.75439,"postcode":"BD5 7JL","la":"Bradford","era":"mod","nn":151,"risk":16,"cat":"green"},{"name":"Brown Cow Inn","lat":53.7377,"lon":-1.76817,"postcode":"BD12 9JQ","la":"Bradford","era":"trad","nn":147,"risk":16,"cat":"green"},{"name":"Brown Cow Inn (Bar Only)","lat":53.86533,"lon":-1.91393,"postcode":"BD21 2LQ","la":"Bradford","era":"other","nn":142,"risk":16,"cat":"green"},{"name":"Bulls Head Hotel (Bar only)","lat":53.78062,"lon":-1.78491,"postcode":"BD7 3DL","la":"Bradford","era":"other","nn":450,"risk":18,"cat":"green"},{"name":"Bulls Head Inn (Bar Only)","lat":53.85277,"lon":-1.76712,"postcode":"BD17 5EJ","la":"Bradford","era":"other","nn":26,"risk":15,"cat":"green"},{"name":"Busfeild Arms","lat":53.87321,"lon":-1.85163,"postcode":"BD20 5SP","la":"Bradford","era":"trad","nn":383,"risk":23,"cat":"green"},{"name":"Buttershaw Lane WMC (Bar Only)","lat":53.76278,"lon":-1.78059,"postcode":"BD6 2DA","la":"Bradford","era":"mod","nn":95,"risk":16,"cat":"green"},{"name":"Buttershaw St Pauls Cricket Club","lat":53.76309,"lon":-1.77889,"postcode":"BD6 1ST","la":"Bradford","era":"other","nn":117,"risk":16,"cat":"green"},{"name":"Cafe Bar Twelve also trading as Street Eats","lat":53.85428,"lon":-1.76694,"postcode":"BD17 6JX","la":"Bradford","era":"mod","nn":72,"risk":15,"cat":"green"},{"name":"Candy/Lemon Shed","lat":53.79466,"lon":-1.75697,"postcode":"BD1 2AJ","la":"Bradford","era":"other","nn":13,"risk":15,"cat":"green"},{"name":"Cap and Collar","lat":53.83419,"lon":-1.79404,"postcode":"BD18 4SJ","la":"Bradford","era":"other","nn":132,"risk":16,"cat":"green"},{"name":"Carlton House Club at Bradford Oddfellows","lat":53.78947,"lon":-1.75843,"postcode":"BD5 0BA","la":"Bradford","era":"mod","nn":0,"risk":15,"cat":"green"},{"name":"Caroline Street Social Club","lat":53.83744,"lon":-1.78906,"postcode":"BD18 3JZ","la":"Bradford","era":"mod","nn":103,"risk":16,"cat":"green"},{"name":"Cavendish (Bar only)","lat":53.86822,"lon":-1.90604,"postcode":"BD21 3RL","la":"Bradford","era":"mod","nn":89,"risk":15,"cat":"green"},{"name":"Central Division Sports & Social Club","lat":53.78358,"lon":-1.75677,"postcode":"BD5 0RA","la":"Bradford","era":"mod","nn":56,"risk":15,"cat":"green"},{"name":"Chapel House","lat":53.75708,"lon":-1.75934,"postcode":"BD12 0HP","la":"Bradford","era":"other","nn":377,"risk":17,"cat":"green"},{"name":"Chapter 2 Cocktail and Wine Bar","lat":53.84782,"lon":-1.8373,"postcode":"BD16 2NG","la":"Bradford","era":"other","nn":28,"risk":15,"cat":"green"},{"name":"Checkpoint","lat":53.79531,"lon":-1.75797,"postcode":"BD1 2QU","la":"Bradford","era":"other","nn":41,"risk":15,"cat":"green"},{"name":"Chip N Ern (Bar Only)","lat":53.8492,"lon":-1.83857,"postcode":"BD16 2JA","la":"Bradford","era":"mod","nn":60,"risk":15,"cat":"green"},{"name":"City Gent","lat":53.79736,"lon":-1.75651,"postcode":"BD1 3HZ","la":"Bradford","era":"other","nn":0,"risk":15,"cat":"green"},{"name":"Clayton Conservative Club (Bar Only)","lat":53.78252,"lon":-1.81905,"postcode":"BD14 6AN","la":"Bradford","era":"mod","nn":6,"risk":15,"cat":"green"},{"name":"Clayton Golf Club (Bar Only)","lat":53.77711,"lon":-1.8115,"postcode":"BD14 6JX","la":"Bradford","era":"mod","nn":539,"risk":19,"cat":"green"},{"name":"Clayton Heights WMC - (Bar Only)","lat":53.77228,"lon":-1.81225,"postcode":"BD13 2SQ","la":"Bradford","era":"mod","nn":316,"risk":17,"cat":"green"},{"name":"Clayton Liberal Club (Bar Only)","lat":53.78254,"lon":-1.81897,"postcode":"BD14 6AJ","la":"Bradford","era":"mod","nn":6,"risk":15,"cat":"green"},{"name":"Clayton Rugby Club","lat":53.78746,"lon":-1.79169,"postcode":"BD7 2PD","la":"Bradford","era":"other","nn":111,"risk":18,"cat":"green"},{"name":"Copper Beech Club","lat":53.85404,"lon":-1.76593,"postcode":"BD17 6JZ","la":"Bradford","era":"other","nn":0,"risk":15,"cat":"green"},{"name":"Cottingley Conservative Club","lat":53.82865,"lon":-1.82323,"postcode":"BD16 1SW","la":"Bradford","era":"other","nn":563,"risk":39,"cat":"amber"},{"name":"Crafted Bar and Kitchen (Bar only)","lat":53.79716,"lon":-1.75629,"postcode":"BD1 3HT","la":"Bradford","era":"mod","nn":27,"risk":15,"cat":"green"},{"name":"Cricketers Arms","lat":53.83412,"lon":-1.77703,"postcode":"BD18 3QW","la":"Bradford","era":"trad","nn":53,"risk":15,"cat":"green"},{"name":"Cricketers Arms","lat":53.86528,"lon":-1.90564,"postcode":"BD21 5JE","la":"Bradford","era":"trad","nn":218,"risk":16,"cat":"green"},{"name":"Crossflatts Cricket Club","lat":53.86399,"lon":-1.85131,"postcode":"BD16 2DX","la":"Bradford","era":"trad","nn":301,"risk":19,"cat":"green"},{"name":"Crown Hotel","lat":53.74444,"lon":-1.7674,"postcode":"BD12 8AS","la":"Bradford","era":"trad","nn":122,"risk":16,"cat":"green"},{"name":"Crown Sports Bar (Bar Only)","lat":53.79381,"lon":-1.75426,"postcode":"BD1 1SQ","la":"Bradford","era":"other","nn":22,"risk":15,"cat":"green"},{"name":"Cullingworth And District Conservative Club","lat":53.82778,"lon":-1.90083,"postcode":"BD13 5HN","la":"Bradford","era":"other","nn":0,"risk":32,"cat":"amber"},{"name":"Cullingworth Cricket Club","lat":53.82767,"lon":-1.89717,"postcode":"BD13 5HL","la":"Bradford","era":"other","nn":240,"risk":34,"cat":"amber"},{"name":"Denholme Conservative Club","lat":53.80394,"lon":-1.89462,"postcode":"BD13 4AT","la":"Bradford","era":"other","nn":282,"risk":34,"cat":"amber"},{"name":"Dick Hudsons","lat":53.87604,"lon":-1.81705,"postcode":"BD16 3BA","la":"Bradford","era":"other","nn":1546,"risk":48,"cat":"amber"},{"name":"Dog And Gun","lat":53.76959,"lon":-1.78039,"postcode":"BD6 3BU","la":"Bradford","era":"other","nn":410,"risk":18,"cat":"green"},{"name":"Dog and Gun","lat":53.83478,"lon":-1.70775,"postcode":"BD10 0LT","la":"Bradford","era":"other","nn":301,"risk":17,"cat":"green"},{"name":"Dog And Gun Inn","lat":53.80499,"lon":-1.93213,"postcode":"BD22 9SN","la":"Bradford","era":"trad","nn":973,"risk":42,"cat":"amber"},{"name":"Don't Tell Titus","lat":53.83822,"lon":-1.78989,"postcode":"BD18 3LA","la":"Bradford","era":"other","nn":0,"risk":15,"cat":"green"},{"name":"East Ward Labour Club (Bar Only)","lat":53.80131,"lon":-1.74222,"postcode":"BD3 0DG","la":"Bradford","era":"mod","nn":218,"risk":16,"cat":"green"},{"name":"Eccles and Victoria Club","lat":53.82004,"lon":-1.72131,"postcode":"BD2 2DQ","la":"Bradford","era":"trad","nn":0,"risk":15,"cat":"green"},{"name":"Eccleshill United Sports & Social Club","lat":53.82872,"lon":-1.74709,"postcode":"BD2 1PN","la":"Bradford","era":"mod","nn":398,"risk":20,"cat":"green"},{"name":"Eccleshill WMC","lat":53.82077,"lon":-1.72521,"postcode":"BD2 2HN","la":"Bradford","era":"other","nn":31,"risk":15,"cat":"green"},{"name":"Eesti Kodu Club","lat":53.80681,"lon":-1.76211,"postcode":"BD8 7BY","la":"Bradford","era":"other","nn":0,"risk":15,"cat":"green"},{"name":"Ego Wyke","lat":53.73071,"lon":-1.77712,"postcode":"BD12 8LL","la":"Bradford","era":"other","nn":975,"risk":42,"cat":"amber"},{"name":"Engine Room on Aire","lat":53.8489,"lon":-1.83946,"postcode":"BD16 2HP","la":"Bradford","era":"other","nn":53,"risk":15,"cat":"green"},{"name":"Esholt Sports & Leisure","lat":53.85639,"lon":-1.73178,"postcode":"BD17 7RQ","la":"Bradford","era":"other","nn":551,"risk":39,"cat":"amber"},{"name":"Fairweather Green Working Mens Club","lat":53.7953,"lon":-1.80351,"postcode":"BD8 0HT","la":"Bradford","era":"trad","nn":109,"risk":21,"cat":"green"},{"name":"Fannys Ale House (Bar Only)","lat":53.83632,"lon":-1.78826,"postcode":"BD18 3JN","la":"Bradford","era":"mod","nn":42,"risk":15,"cat":"green"},{"name":"Fardew Golf Club","lat":53.87307,"lon":-1.85747,"postcode":"BD20 5RY","la":"Bradford","era":"other","nn":383,"risk":23,"cat":"green"},{"name":"Fishermans Inn","lat":53.8411,"lon":-1.822,"postcode":"BD16 1TS","la":"Bradford","era":"trad","nn":324,"risk":22,"cat":"green"},{"name":"Fleece Inn (Bar Only)","lat":53.80559,"lon":-1.82947,"postcode":"BD15 7DY","la":"Bradford","era":"other","nn":671,"risk":25,"cat":"green"},{"name":"Friendly Inn (Bar Only)","lat":53.82972,"lon":-1.98744,"postcode":"BD22 0HB","la":"Bradford","era":"other","nn":0,"risk":35,"cat":"amber"},{"name":"George Hotel","lat":53.75109,"lon":-1.75275,"postcode":"BD12 0LS","la":"Bradford","era":"trad","nn":0,"risk":15,"cat":"green"},{"name":"George The Third Inn (Bar Only)","lat":53.76947,"lon":-1.84693,"postcode":"BD13 2PR","la":"Bradford","era":"other","nn":94,"risk":16,"cat":"green"},{"name":"Girlington Conservative Social Club","lat":53.79471,"lon":-1.80969,"postcode":"BD8 0PA","la":"Bradford","era":"mod","nn":411,"risk":35,"cat":"amber"},{"name":"Glennys","lat":53.79465,"lon":-1.75744,"postcode":"BD1 2AW","la":"Bradford","era":"other","nn":7,"risk":15,"cat":"green"},{"name":"Golden Fleece","lat":53.84531,"lon":-1.95864,"postcode":"BD22 7PR","la":"Bradford","era":"trad","nn":359,"risk":22,"cat":"green"},{"name":"Grafton Club (Bar Only)","lat":53.86272,"lon":-1.91789,"postcode":"BD21 1QX","la":"Bradford","era":"mod","nn":340,"risk":17,"cat":"green"},{"name":"Great Horton park chapel Cricket Club","lat":53.77669,"lon":-1.78325,"postcode":"BD7 3NR","la":"Bradford","era":"other","nn":450,"risk":18,"cat":"green"},{"name":"Great Northern","lat":53.85238,"lon":-1.91715,"postcode":"BD21 5EH","la":"Bradford","era":"other","nn":477,"risk":23,"cat":"green"},{"name":"Great Northern Hotel (Bar Only)","lat":53.7908,"lon":-1.85493,"postcode":"BD13 3NH","la":"Bradford","era":"mod","nn":130,"risk":16,"cat":"green"},{"name":"Greedy Pig","lat":53.82106,"lon":-1.72522,"postcode":"BD2 2HL","la":"Bradford","era":"other","nn":1,"risk":15,"cat":"green"},{"name":"Greengates Liberal Club (Bar Only)","lat":53.83011,"lon":-1.70836,"postcode":"BD10 0BN","la":"Bradford","era":"mod","nn":245,"risk":17,"cat":"green"},{"name":"Harden Cricket Club","lat":53.84135,"lon":-1.86598,"postcode":"BD16 1HU","la":"Bradford","era":"other","nn":430,"risk":23,"cat":"green"},{"name":"Harp Of Erin (Bar only)","lat":53.79602,"lon":-1.76132,"postcode":"BD1 2PU","la":"Bradford","era":"mod","nn":223,"risk":16,"cat":"green"},{"name":"Haworth Conservative Club (Bar Only)","lat":53.83176,"lon":-1.94789,"postcode":"BD22 8NQ","la":"Bradford","era":"mod","nn":0,"risk":15,"cat":"green"},{"name":"Haworth Old Hall","lat":53.82728,"lon":-1.95284,"postcode":"BD22 8BP","la":"Bradford","era":"other","nn":202,"risk":16,"cat":"green"},{"name":"Haworth Parkside Social Club","lat":53.8305,"lon":-1.95057,"postcode":"BD22 8QJ","la":"Bradford","era":"mod","nn":194,"risk":16,"cat":"green"},{"name":"Heaton Tennis and Squash Club (Bar Only)","lat":53.81544,"lon":-1.78867,"postcode":"BD9 5PH","la":"Bradford","era":"mod","nn":1107,"risk":45,"cat":"amber"},{"name":"Hogs Head (Wet sales)","lat":53.83147,"lon":-1.71511,"postcode":"BD10 9BA","la":"Bradford","era":"trad","nn":80,"risk":15,"cat":"green"},{"name":"Holme Lane Tavern (Bar only)","lat":53.76856,"lon":-1.71425,"postcode":"BD4 9RR","la":"Bradford","era":"mod","nn":487,"risk":38,"cat":"amber"},{"name":"Hope And Anchor (wet sales only)","lat":53.85905,"lon":-1.91084,"postcode":"BD21 1AG","la":"Bradford","era":"trad","nn":339,"risk":17,"cat":"green"},{"name":"Hope And Anchor Inn (Bar Only)","lat":53.80407,"lon":-1.81958,"postcode":"BD15 7QB","la":"Bradford","era":"other","nn":0,"risk":15,"cat":"green"},{"name":"Horse & Groom (Bar Only)","lat":53.76868,"lon":-1.78691,"postcode":"BD6 3EU","la":"Bradford","era":"other","nn":0,"risk":15,"cat":"green"},{"name":"Hullabaloo","lat":53.83468,"lon":-1.77891,"postcode":"BD18 3QX","la":"Bradford","era":"other","nn":31,"risk":15,"cat":"green"},{"name":"Idle And Thackley Conservative (Bar Only)","lat":53.83749,"lon":-1.73452,"postcode":"BD10 8PY","la":"Bradford","era":"mod","nn":78,"risk":15,"cat":"green"},{"name":"Idle Working Mens Club (Bar Only)","lat":53.83644,"lon":-1.73203,"postcode":"BD10 8NB","la":"Bradford","era":"other","nn":38,"risk":15,"cat":"green"},{"name":"Industry Barista (Bar only)","lat":53.83162,"lon":-1.94817,"postcode":"BD22 8NQ","la":"Bradford","era":"mod","nn":24,"risk":15,"cat":"green"},{"name":"Ingrow Cricket Club","lat":53.84965,"lon":-1.91154,"postcode":"BD21 5QJ","la":"Bradford","era":"other","nn":477,"risk":36,"cat":"amber"},{"name":"Jacobs Well","lat":53.79089,"lon":-1.75321,"postcode":"BD1 5RL","la":"Bradford","era":"other","nn":217,"risk":16,"cat":"green"},{"name":"Jok's Ale House (Bar only)","lat":53.81902,"lon":-1.72186,"postcode":"BD2 2DD","la":"Bradford","era":"mod","nn":119,"risk":16,"cat":"green"},{"name":"Keighley Cricket Club","lat":53.87514,"lon":-1.90387,"postcode":"BD21 3NB","la":"Bradford","era":"other","nn":761,"risk":20,"cat":"green"},{"name":"Keighley Liberal Club (Bar Only)","lat":53.86732,"lon":-1.91047,"postcode":"BD21 2JJ","la":"Bradford","era":"mod","nn":14,"risk":15,"cat":"green"},{"name":"Keighley Playhouse","lat":53.86738,"lon":-1.91145,"postcode":"BD21 2BH","la":"Bradford","era":"other","nn":47,"risk":15,"cat":"green"},{"name":"Keighley Rugby Union Football Club","lat":53.88299,"lon":-1.92303,"postcode":"BD20 6DT","la":"Bradford","era":"other","nn":373,"risk":37,"cat":"amber"},{"name":"Keighley West Yorkshire Sports & Social Club - (Bar Only)","lat":53.86889,"lon":-1.90861,"postcode":"BD21 3DB","la":"Bradford","era":"mod","nn":84,"risk":15,"cat":"green"},{"name":"Kings Head Hotel","lat":53.86303,"lon":-1.91183,"postcode":"BD21 1PF","la":"Bradford","era":"trad","nn":113,"risk":16,"cat":"green"},{"name":"L&G Bar & Lounge","lat":53.79677,"lon":-1.75582,"postcode":"BD1 3HT","la":"Bradford","era":"mod","nn":46,"risk":15,"cat":"green"},{"name":"Laisterdyke Cricket and Athletic Club (Bar Only)","lat":53.78426,"lon":-1.71688,"postcode":"BD4 8PA","la":"Bradford","era":"mod","nn":317,"risk":22,"cat":"green"},{"name":"Laisterdyke WMC - (Bar Only)","lat":53.78686,"lon":-1.71884,"postcode":"BD4 8QA","la":"Bradford","era":"mod","nn":190,"risk":21,"cat":"green"},{"name":"Latvian Welfare Fund Club (Bar Only)","lat":53.80681,"lon":-1.76211,"postcode":"BD8 7BY","la":"Bradford","era":"mod","nn":0,"risk":15,"cat":"green"},{"name":"Leicester Street Community Club","lat":53.78242,"lon":-1.7365,"postcode":"BD4 7JS","la":"Bradford","era":"other","nn":213,"risk":19,"cat":"green"},{"name":"Ling Bob","lat":53.81669,"lon":-1.85804,"postcode":"BD15 0JU","la":"Bradford","era":"other","nn":336,"risk":22,"cat":"green"},{"name":"Little Horton Social Club","lat":53.77739,"lon":-1.76639,"postcode":"BD5 9BT","la":"Bradford","era":"mod","nn":900,"risk":24,"cat":"green"},{"name":"Little Horton Social Cycling Club (Bar only)","lat":53.77558,"lon":-1.75303,"postcode":"BD5 8BS","la":"Bradford","era":"mod","nn":120,"risk":16,"cat":"green"},{"name":"Long Lee Cricket Club","lat":53.86057,"lon":-1.88573,"postcode":"BD21 4SQ","la":"Bradford","era":"other","nn":0,"risk":32,"cat":"amber"},{"name":"Low Moor Club","lat":53.75688,"lon":-1.76506,"postcode":"BD12 0TQ","la":"Bradford","era":"other","nn":377,"risk":17,"cat":"green"},{"name":"Lusso Bar and Proseccoria","lat":53.83188,"lon":-1.71155,"postcode":"BD10 0RB","la":"Bradford","era":"mod","nn":57,"risk":15,"cat":"green"},{"name":"Malt Kiln Inn (Bar Only)","lat":53.81026,"lon":-1.73352,"postcode":"BD2 4NG","la":"Bradford","era":"other","nn":313,"risk":17,"cat":"green"},{"name":"Malt Shovel Inn","lat":53.85404,"lon":-1.76593,"postcode":"BD17 6JZ","la":"Bradford","era":"trad","nn":0,"risk":15,"cat":"green"},{"name":"Manna","lat":53.79468,"lon":-1.75677,"postcode":"BD1 2QT","la":"Bradford","era":"other","nn":13,"risk":15,"cat":"green"},{"name":"Manor House","lat":53.8137,"lon":-1.72897,"postcode":"BD2 3AY","la":"Bradford","era":"other","nn":215,"risk":16,"cat":"green"},{"name":"Market Square Tavern","lat":53.84831,"lon":-1.83892,"postcode":"BD16 2JS","la":"Bradford","era":"other","nn":54,"risk":15,"cat":"green"},{"name":"Market Tavern (Bar only)","lat":53.76738,"lon":-1.77131,"postcode":"BD6 1LS","la":"Bradford","era":"mod","nn":48,"risk":15,"cat":"green"},{"name":"Marquis Of Granby","lat":53.8774,"lon":-1.87896,"postcode":"BD20 5EP","la":"Bradford","era":"other","nn":441,"risk":23,"cat":"green"},{"name":"Martinez Wines","lat":53.85011,"lon":-1.84022,"postcode":"BD16 2JH","la":"Bradford","era":"other","nn":0,"risk":15,"cat":"green"},{"name":"Masonic Hall","lat":53.83237,"lon":-1.94674,"postcode":"BD22 8NA","la":"Bradford","era":"trad","nn":102,"risk":16,"cat":"green"},{"name":"Masonic Rooms","lat":53.86794,"lon":-1.90843,"postcode":"BD21 3NN","la":"Bradford","era":"other","nn":102,"risk":16,"cat":"green"},{"name":"Maverick's","lat":53.84938,"lon":-1.83943,"postcode":"BD16 2HL","la":"Bradford","era":"other","nn":43,"risk":15,"cat":"green"},{"name":"Mill Hey Brew House","lat":53.83176,"lon":-1.94789,"postcode":"BD22 8NQ","la":"Bradford","era":"trad","nn":0,"risk":15,"cat":"green"},{"name":"Milners Arms (Bar Only)","lat":53.81436,"lon":-1.73205,"postcode":"BD2 3BU","la":"Bradford","era":"other","nn":95,"risk":16,"cat":"green"},{"name":"Myrtle Grove","lat":53.84717,"lon":-1.83706,"postcode":"BD16 1AJ","la":"Bradford","era":"other","nn":46,"risk":15,"cat":"green"},{"name":"Nerdz Arcade Bar","lat":53.8672,"lon":-1.9104,"postcode":"BD21 2JJ","la":"Bradford","era":"other","nn":14,"risk":15,"cat":"green"},{"name":"New Dolphin Inn (Bar Only)","lat":53.76411,"lon":-1.85854,"postcode":"BD13 2BH","la":"Bradford","era":"other","nn":258,"risk":17,"cat":"green"},{"name":"New Inn","lat":53.83677,"lon":-1.73186,"postcode":"BD10 8NN","la":"Bradford","era":"trad","nn":38,"risk":15,"cat":"green"},{"name":"New Inn (Bar Only)","lat":53.80714,"lon":-1.89558,"postcode":"BD13 4JT","la":"Bradford","era":"other","nn":362,"risk":35,"cat":"amber"},{"name":"New Variety Club","lat":53.86705,"lon":-1.91192,"postcode":"BD21 2LA","la":"Bradford","era":"other","nn":47,"risk":15,"cat":"green"},{"name":"Nightrain","lat":53.79452,"lon":-1.75384,"postcode":"BD1 1RB","la":"Bradford","era":"other","nn":61,"risk":15,"cat":"green"},{"name":"Northcliffe Golf Club","lat":53.82867,"lon":-1.79804,"postcode":"BD18 4LJ","la":"Bradford","era":"other","nn":667,"risk":20,"cat":"green"},{"name":"Northcote Conservative Club (Bar only)","lat":53.80795,"lon":-1.7308,"postcode":"BD2 4QR","la":"Bradford","era":"mod","nn":313,"risk":17,"cat":"green"},{"name":"Nosey Cow","lat":53.86574,"lon":-1.90897,"postcode":"BD21 3PN","la":"Bradford","era":"other","nn":90,"risk":15,"cat":"green"},{"name":"Not Guilty","lat":53.79408,"lon":-1.75512,"postcode":"BD1 1SQ","la":"Bradford","era":"other","nn":1,"risk":15,"cat":"green"},{"name":"Oakworth Cricket Club","lat":53.84891,"lon":-1.96164,"postcode":"BD22 0RJ","la":"Bradford","era":"trad","nn":447,"risk":23,"cat":"green"},{"name":"Oakworth Juniors Football Club","lat":53.84755,"lon":-1.9387,"postcode":"BD22 7NQ","la":"Bradford","era":"trad","nn":318,"risk":20,"cat":"green"},{"name":"Oakworth Social Club (Bar Only)","lat":53.84556,"lon":-1.95013,"postcode":"BD22 7HY","la":"Bradford","era":"other","nn":213,"risk":16,"cat":"green"},{"name":"Oddfellows Arms","lat":53.82801,"lon":-1.71424,"postcode":"BD10 0QE","la":"Bradford","era":"trad","nn":389,"risk":18,"cat":"green"},{"name":"Oddfellows Hall Inn (Bar Only)","lat":53.73888,"lon":-1.76919,"postcode":"BD12 9JB","la":"Bradford","era":"other","nn":147,"risk":18,"cat":"green"},{"name":"Old Dolphin Inn","lat":53.77116,"lon":-1.82548,"postcode":"BD13 1DR","la":"Bradford","era":"trad","nn":575,"risk":24,"cat":"green"},{"name":"Old House At Home (Bar Only)","lat":53.83227,"lon":-1.77491,"postcode":"BD18 2BJ","la":"Bradford","era":"mod","nn":95,"risk":16,"cat":"green"},{"name":"Omnibus Tavern","lat":53.76184,"lon":-1.85938,"postcode":"BD13 2DP","la":"Bradford","era":"other","nn":258,"risk":37,"cat":"amber"},{"name":"Owlet Hall Social Club","lat":53.823,"lon":-1.76442,"postcode":"BD18 2HR","la":"Bradford","era":"mod","nn":365,"risk":20,"cat":"green"},{"name":"Oxenhope Cricket Club","lat":53.809,"lon":-1.9552,"postcode":"BD22 9LY","la":"Bradford","era":"other","nn":108,"risk":21,"cat":"green"},{"name":"Paradise Farm Inn","lat":53.78265,"lon":-1.80091,"postcode":"BD7 2SB","la":"Bradford","era":"trad","nn":228,"risk":16,"cat":"green"},{"name":"Percy Vear's Real Ale House","lat":53.86409,"lon":-1.91162,"postcode":"BD21 1NS","la":"Bradford","era":"other","nn":66,"risk":15,"cat":"green"},{"name":"Pictureville Cinema","lat":53.79057,"lon":-1.75648,"postcode":"BD1 1NQ","la":"Bradford","era":"other","nn":18,"risk":15,"cat":"green"},{"name":"Pilkys Sports Club & Bar (Bar Only)","lat":53.86364,"lon":-1.91046,"postcode":"BD21 5JU","la":"Bradford","era":"mod","nn":91,"risk":15,"cat":"green"},{"name":"Platform Bar","lat":53.79602,"lon":-1.75402,"postcode":"BD1 3QR","la":"Bradford","era":"other","nn":143,"risk":16,"cat":"green"},{"name":"Pride of Shipley","lat":53.83352,"lon":-1.77657,"postcode":"BD18 3QB","la":"Bradford","era":"trad","nn":33,"risk":15,"cat":"green"},{"name":"Q Gardens","lat":53.76387,"lon":-1.75975,"postcode":"BD6 1UP","la":"Bradford","era":"other","nn":0,"risk":15,"cat":"green"},{"name":"Queens Hotel (Bar Only)","lat":53.79616,"lon":-1.80272,"postcode":"BD8 0HH","la":"Bradford","era":"other","nn":109,"risk":21,"cat":"green"},{"name":"Queensbury ARLFC","lat":53.77098,"lon":-1.85166,"postcode":"BD13 1QB","la":"Bradford","era":"trad","nn":353,"risk":17,"cat":"green"},{"name":"Queensbury Conservative Club","lat":53.76862,"lon":-1.84702,"postcode":"BD13 2PY","la":"Bradford","era":"trad","nn":94,"risk":16,"cat":"green"},{"name":"Queensbury Cricket Club","lat":53.77273,"lon":-1.86343,"postcode":"BD13 1JB","la":"Bradford","era":"trad","nn":667,"risk":22,"cat":"green"},{"name":"Queensbury Golf Club","lat":53.76443,"lon":-1.83894,"postcode":"BD13 1QF","la":"Bradford","era":"trad","nn":529,"risk":21,"cat":"green"},{"name":"Rabbit Hole (Bar only)","lat":53.79436,"lon":-1.756,"postcode":"BD1 2QL","la":"Bradford","era":"mod","nn":62,"risk":15,"cat":"green"},{"name":"Raggalds","lat":53.77794,"lon":-1.86846,"postcode":"BD13 1NA","la":"Bradford","era":"other","nn":667,"risk":25,"cat":"green"},{"name":"Railway Social Club & Events Venue","lat":53.78782,"lon":-1.74078,"postcode":"BD4 7PE","la":"Bradford","era":"other","nn":348,"risk":17,"cat":"green"},{"name":"Rattlers Club (Bar only)","lat":53.76868,"lon":-1.78691,"postcode":"BD6 3EU","la":"Bradford","era":"mod","nn":0,"risk":15,"cat":"green"},{"name":"Red Lion","lat":53.76873,"lon":-1.76215,"postcode":"BD5 8LT","la":"Bradford","era":"trad","nn":80,"risk":15,"cat":"green"},{"name":"Red Lion Hotel","lat":53.9132,"lon":-1.93791,"postcode":"BD20 0AQ","la":"Bradford","era":"trad","nn":86,"risk":15,"cat":"green"},{"name":"Reubens Beer and Gin House","lat":53.84973,"lon":-1.83916,"postcode":"BD16 2HZ","la":"Bradford","era":"other","nn":43,"risk":15,"cat":"green"},{"name":"Ring O Bells","lat":53.83368,"lon":-1.7871,"postcode":"BD18 3PR","la":"Bradford","era":"other","nn":256,"risk":17,"cat":"green"},{"name":"Ring O Bells","lat":53.76768,"lon":-1.84768,"postcode":"BD13 2AD","la":"Bradford","era":"other","nn":113,"risk":16,"cat":"green"},{"name":"Robin Hood Inn","lat":53.91242,"lon":-1.93788,"postcode":"BD20 0AJ","la":"Bradford","era":"trad","nn":4,"risk":15,"cat":"green"},{"name":"Rose And Crown","lat":53.79801,"lon":-1.76367,"postcode":"BD1 3AD","la":"Bradford","era":"trad","nn":269,"risk":17,"cat":"green"},{"name":"Royal Hotel (Bar Only)","lat":53.86186,"lon":-1.84582,"postcode":"BD16 2EZ","la":"Bradford","era":"other","nn":121,"risk":21,"cat":"green"},{"name":"Royal Hotel (Bar Only)","lat":53.80146,"lon":-1.89553,"postcode":"BD13 4DD","la":"Bradford","era":"other","nn":282,"risk":34,"cat":"amber"},{"name":"Ryshworth Club (Bar Only)","lat":53.86077,"lon":-1.84587,"postcode":"BD16 2HB","la":"Bradford","era":"mod","nn":121,"risk":21,"cat":"green"},{"name":"Salt Beer Factory","lat":53.83578,"lon":-1.79647,"postcode":"BD18 4DH","la":"Bradford","era":"other","nn":190,"risk":16,"cat":"green"},{"name":"Salthorn W M Club & Institute (Bar Only)","lat":53.7481,"lon":-1.74591,"postcode":"BD12 7AR","la":"Bradford","era":"mod","nn":113,"risk":18,"cat":"green"},{"name":"Sandy Lane Cricket Club","lat":53.81466,"lon":-1.83276,"postcode":"BD15 9JP","la":"Bradford","era":"other","nn":0,"risk":35,"cat":"amber"},{"name":"Second West Hotel- Wet sales","lat":53.78755,"lon":-1.79001,"postcode":"BD7 2PA","la":"Bradford","era":"other","nn":111,"risk":18,"cat":"green"},{"name":"Shades","lat":53.79459,"lon":-1.75746,"postcode":"BD1 2AL","la":"Bradford","era":"other","nn":7,"risk":15,"cat":"green"},{"name":"Shipley & District Social Club","lat":53.83525,"lon":-1.78208,"postcode":"BD18 3HN","la":"Bradford","era":"other","nn":56,"risk":15,"cat":"green"},{"name":"Shipley Catholic Mens Society","lat":53.83202,"lon":-1.78441,"postcode":"BD18 3PJ","la":"Bradford","era":"other","nn":100,"risk":16,"cat":"green"},{"name":"Shipley Conservative Club (Bar Only)","lat":53.83312,"lon":-1.77498,"postcode":"BD18 3SA","la":"Bradford","era":"other","nn":83,"risk":15,"cat":"green"},{"name":"Shipley Golf Club","lat":53.83933,"lon":-1.83537,"postcode":"BD16 1LX","la":"Bradford","era":"trad","nn":748,"risk":20,"cat":"green"},{"name":"Shoulder Of Mutton","lat":53.86841,"lon":-1.88708,"postcode":"BD21 4NG","la":"Bradford","era":"other","nn":876,"risk":38,"cat":"amber"},{"name":"Shoulder Of Mutton","lat":53.79513,"lon":-1.75244,"postcode":"BD1 1QL","la":"Bradford","era":"other","nn":55,"risk":15,"cat":"green"},{"name":"Silsden Golf Club","lat":53.91165,"lon":-1.91857,"postcode":"BD20 0NH","la":"Bradford","era":"other","nn":1263,"risk":46,"cat":"amber"},{"name":"Silsden Sports Club","lat":53.90937,"lon":-1.93946,"postcode":"BD20 0EH","la":"Bradford","era":"other","nn":311,"risk":17,"cat":"green"},{"name":"Smiling Mule","lat":53.81359,"lon":-1.7234,"postcode":"BD2 3HD","la":"Bradford","era":"other","nn":0,"risk":15,"cat":"green"},{"name":"Smiling Mule","lat":53.81359,"lon":-1.7234,"postcode":"BD2 3HD","la":"Bradford","era":"other","nn":0,"risk":15,"cat":"green"},{"name":"Soldiers Sailors Club (Bar Only)","lat":53.89429,"lon":-1.94902,"postcode":"BD20 6NT","la":"Bradford","era":"mod","nn":154,"risk":21,"cat":"green"},{"name":"South Bradford Golf Club - (Bar Only)","lat":53.76387,"lon":-1.75975,"postcode":"BD6 1BJ","la":"Bradford","era":"mod","nn":0,"risk":15,"cat":"green"},{"name":"South Bradford Golf Club (Catering)","lat":53.76387,"lon":-1.75975,"postcode":"BD6 1BJ","la":"Bradford","era":"other","nn":0,"risk":15,"cat":"green"},{"name":"Sparrow Bier Cafe","lat":53.79736,"lon":-1.75651,"postcode":"BD1 3HZ","la":"Bradford","era":"other","nn":0,"risk":15,"cat":"green"},{"name":"Spirits & Sports","lat":53.79072,"lon":-1.75657,"postcode":"BD5 0AB","la":"Bradford","era":"other","nn":18,"risk":15,"cat":"green"},{"name":"Springfield Youth Centre","lat":53.83112,"lon":-1.72576,"postcode":"BD10 9JB","la":"Bradford","era":"other","nn":394,"risk":18,"cat":"green"},{"name":"St Georges Hall (Bar Only)","lat":53.79262,"lon":-1.75117,"postcode":"BD1 1JT","la":"Bradford","era":"other","nn":117,"risk":16,"cat":"green"},{"name":"St Ives Golf Club - (Bar Only)","lat":53.84724,"lon":-1.86067,"postcode":"BD16 1AT","la":"Bradford","era":"mod","nn":742,"risk":40,"cat":"amber"},{"name":"Stansfield Arms","lat":53.83908,"lon":-1.7046,"postcode":"BD10 0NP","la":"Bradford","era":"trad","nn":238,"risk":17,"cat":"green"},{"name":"Station Hotel - (Bar Only)","lat":53.81757,"lon":-1.87614,"postcode":"BD15 0BP","la":"Bradford","era":"mod","nn":1091,"risk":45,"cat":"amber"},{"name":"Station Hotel (Bar Only)","lat":53.78398,"lon":-1.75624,"postcode":"BD5 7RA","la":"Bradford","era":"mod","nn":56,"risk":15,"cat":"green"},{"name":"Steeton Cricket Club","lat":53.89781,"lon":-1.94378,"postcode":"BD20 6RX","la":"Bradford","era":"other","nn":331,"risk":22,"cat":"green"},{"name":"Steeton Working Mens Club","lat":53.89622,"lon":-1.94806,"postcode":"BD20 6RL","la":"Bradford","era":"trad","nn":79,"risk":20,"cat":"green"},{"name":"Sun Hotel","lat":53.83439,"lon":-1.77637,"postcode":"BD18 3QP","la":"Bradford","era":"other","nn":53,"risk":15,"cat":"green"},{"name":"Sun Hotel","lat":53.79452,"lon":-1.75906,"postcode":"BD1 2ND","la":"Bradford","era":"other","nn":77,"risk":15,"cat":"green"},{"name":"Sunnybank Social Club (Bar Only)","lat":53.91557,"lon":-1.93736,"postcode":"BD20 9NX","la":"Bradford","era":"mod","nn":104,"risk":16,"cat":"green"},{"name":"Swaine Green Travern (Bar Only)","lat":53.78856,"lon":-1.71848,"postcode":"BD4 8DL","la":"Bradford","era":"mod","nn":190,"risk":21,"cat":"green"},{"name":"Swing Gate Inn (Bar Only)","lat":53.81739,"lon":-1.73489,"postcode":"BD2 2AH","la":"Bradford","era":"other","nn":379,"risk":18,"cat":"green"},{"name":"Symposium Bar + Kitchen","lat":53.83461,"lon":-1.72939,"postcode":"BD10 9PY","la":"Bradford","era":"mod","nn":78,"risk":15,"cat":"green"},{"name":"Tap & Tonic","lat":53.82897,"lon":-1.95393,"postcode":"BD22 8DA","la":"Bradford","era":"other","nn":74,"risk":15,"cat":"green"},{"name":"Tapping Foot","lat":53.91598,"lon":-1.94028,"postcode":"BD20 9LS","la":"Bradford","era":"other","nn":108,"risk":16,"cat":"green"},{"name":"Taylor\u2019s on the Green","lat":53.86483,"lon":-1.91037,"postcode":"BD21 5HT","la":"Bradford","era":"other","nn":0,"risk":15,"cat":"green"},{"name":"Thackley A F C","lat":53.845,"lon":-1.73459,"postcode":"BD10 0TL","la":"Bradford","era":"other","nn":0,"risk":15,"cat":"green"},{"name":"Thackley Cricket Club","lat":53.845,"lon":-1.73459,"postcode":"BD10 0TL","la":"Bradford","era":"other","nn":0,"risk":15,"cat":"green"},{"name":"The Ainsbury","lat":53.84433,"lon":-1.73409,"postcode":"BD10 0RS","la":"Bradford","era":"other","nn":81,"risk":15,"cat":"green"},{"name":"The Airedale (Bar Only)","lat":53.79944,"lon":-1.74321,"postcode":"BD3 0EY","la":"Bradford","era":"mod","nn":218,"risk":16,"cat":"green"},{"name":"The Albion (Bar only)","lat":53.784,"lon":-1.81965,"postcode":"BD14 6BB","la":"Bradford","era":"mod","nn":28,"risk":15,"cat":"green"},{"name":"The Alexandra","lat":53.83457,"lon":-1.72709,"postcode":"BD10 9QE","la":"Bradford","era":"other","nn":151,"risk":16,"cat":"green"},{"name":"The Ambassador","lat":53.79417,"lon":-1.75729,"postcode":"BD1 2AQ","la":"Bradford","era":"other","nn":33,"risk":15,"cat":"green"},{"name":"The Angel","lat":53.85336,"lon":-1.76567,"postcode":"BD17 6LX","la":"Bradford","era":"trad","nn":77,"risk":15,"cat":"green"},{"name":"The Barley Mow","lat":53.75946,"lon":-1.78796,"postcode":"BD6 2LP","la":"Bradford","era":"other","nn":587,"risk":19,"cat":"green"},{"name":"The Bay Horse Inn","lat":53.80978,"lon":-1.95339,"postcode":"BD22 9LN","la":"Bradford","era":"trad","nn":40,"risk":20,"cat":"green"},{"name":"The Beehive (Bar only)","lat":53.8357,"lon":-1.7817,"postcode":"BD18 3HH","la":"Bradford","era":"mod","nn":56,"risk":15,"cat":"green"},{"name":"The Birches Eldwick","lat":53.86025,"lon":-1.81301,"postcode":"BD16 3EQ","la":"Bradford","era":"other","nn":259,"risk":37,"cat":"amber"},{"name":"The Black Bull","lat":53.83114,"lon":-1.95526,"postcode":"BD22 8DP","la":"Bradford","era":"trad","nn":77,"risk":15,"cat":"green"},{"name":"The Black Horse (Bar Only)","lat":53.7919,"lon":-1.85167,"postcode":"BD13 3HX","la":"Bradford","era":"other","nn":116,"risk":16,"cat":"green"},{"name":"The Black Rat","lat":53.84278,"lon":-1.73544,"postcode":"BD10 8JH","la":"Bradford","era":"other","nn":0,"risk":15,"cat":"green"},{"name":"The Black Swan","lat":53.81662,"lon":-1.77048,"postcode":"BD9 4LD","la":"Bradford","era":"trad","nn":732,"risk":37,"cat":"amber"},{"name":"The Blue Boar","lat":53.79047,"lon":-1.84609,"postcode":"BD13 3LP","la":"Bradford","era":"other","nn":261,"risk":17,"cat":"green"},{"name":"The Boars Head (Bar Only)","lat":53.77254,"lon":-1.81704,"postcode":"BD13 2RR","la":"Bradford","era":"other","nn":316,"risk":17,"cat":"green"},{"name":"The Boathouse Inn","lat":53.83822,"lon":-1.78989,"postcode":"BD18 3LA","la":"Bradford","era":"other","nn":0,"risk":15,"cat":"green"},{"name":"The Bold Privateer (Bar Only)","lat":53.82873,"lon":-1.75547,"postcode":"BD18 1HX","la":"Bradford","era":"mod","nn":549,"risk":19,"cat":"green"},{"name":"The Bradford Arms (bar only)","lat":53.8001,"lon":-1.75923,"postcode":"BD1 3BA","la":"Bradford","era":"other","nn":353,"risk":17,"cat":"green"},{"name":"The Bradford Club","lat":53.79465,"lon":-1.75261,"postcode":"BD1 1PJ","la":"Bradford","era":"other","nn":17,"risk":15,"cat":"green"},{"name":"The Bradford Playhouse","lat":53.79374,"lon":-1.74562,"postcode":"BD1 5DL","la":"Bradford","era":"other","nn":385,"risk":18,"cat":"green"},{"name":"The Brass Owl (Bar only)","lat":53.79676,"lon":-1.75652,"postcode":"BD1 3JL","la":"Bradford","era":"mod","nn":17,"risk":15,"cat":"green"},{"name":"The Bronte Nook","lat":53.7909,"lon":-1.85119,"postcode":"BD13 3HX","la":"Bradford","era":"other","nn":116,"risk":16,"cat":"green"},{"name":"The Brown Cow","lat":53.85023,"lon":-1.8421,"postcode":"BD16 2QX","la":"Bradford","era":"other","nn":124,"risk":16,"cat":"green"},{"name":"The Burnt Bear - Bar only","lat":53.83515,"lon":-1.93314,"postcode":"BD22 9DL","la":"Bradford","era":"mod","nn":429,"risk":35,"cat":"amber"},{"name":"The Carlisle Pub (Bar Only)","lat":53.80571,"lon":-1.77175,"postcode":"BD8 8BB","la":"Bradford","era":"mod","nn":457,"risk":21,"cat":"green"},{"name":"The Castle Hotel (Bar only)","lat":53.79494,"lon":-1.75792,"postcode":"BD1 2LU","la":"Bradford","era":"mod","nn":12,"risk":15,"cat":"green"},{"name":"The City Vaults","lat":53.7945,"lon":-1.75251,"postcode":"BD1 1NS","la":"Bradford","era":"other","nn":17,"risk":15,"cat":"green"},{"name":"The Commercial Inn","lat":53.86527,"lon":-1.91008,"postcode":"BD21 5HS","la":"Bradford","era":"trad","nn":0,"risk":15,"cat":"green"},{"name":"The Corn Dolly","lat":53.7984,"lon":-1.74737,"postcode":"BD1 4DE","la":"Bradford","era":"other","nn":296,"risk":17,"cat":"green"},{"name":"The Counting House","lat":53.91244,"lon":-1.93783,"postcode":"BD20 0AJ","la":"Bradford","era":"other","nn":4,"risk":15,"cat":"green"},{"name":"The Cracker Barrel (Bar only)","lat":53.83183,"lon":-1.71069,"postcode":"BD10 0RA","la":"Bradford","era":"mod","nn":57,"risk":15,"cat":"green"},{"name":"The Crafty Kernel","lat":53.83382,"lon":-1.77812,"postcode":"BD18 3QN","la":"Bradford","era":"mod","nn":79,"risk":15,"cat":"green"},{"name":"The Crown","lat":53.77484,"lon":-1.80347,"postcode":"BD7 4AH","la":"Bradford","era":"trad","nn":224,"risk":16,"cat":"green"},{"name":"The Dalesway Brewers Fayre","lat":53.86537,"lon":-1.85526,"postcode":"BD20 5NG","la":"Bradford","era":"other","nn":301,"risk":17,"cat":"green"},{"name":"The Dickie Bird (Bar Only)","lat":53.86057,"lon":-1.88573,"postcode":"BD21 4SQ","la":"Bradford","era":"mod","nn":0,"risk":32,"cat":"amber"},{"name":"The Dubliner","lat":53.79406,"lon":-1.75444,"postcode":"BD1 1SW","la":"Bradford","era":"other","nn":19,"risk":15,"cat":"green"},{"name":"The Exchange Craft Beer House","lat":53.79424,"lon":-1.7523,"postcode":"BD1 1LH","la":"Bradford","era":"mod","nn":32,"risk":15,"cat":"green"},{"name":"The Fighting Cock","lat":53.79538,"lon":-1.77031,"postcode":"BD7 1JE","la":"Bradford","era":"other","nn":186,"risk":16,"cat":"green"},{"name":"The Flappit","lat":53.82661,"lon":-1.92384,"postcode":"BD21 5PU","la":"Bradford","era":"other","nn":1129,"risk":45,"cat":"amber"},{"name":"The Fleece Inn","lat":53.78172,"lon":-1.82282,"postcode":"BD14 6RE","la":"Bradford","era":"trad","nn":34,"risk":15,"cat":"green"},{"name":"The Fleece Inn","lat":53.82956,"lon":-1.95444,"postcode":"BD22 8DA","la":"Bradford","era":"trad","nn":74,"risk":15,"cat":"green"},{"name":"The Flying Squirrel","lat":53.78279,"lon":-1.79745,"postcode":"BD7 2SG","la":"Bradford","era":"other","nn":228,"risk":16,"cat":"green"},{"name":"The Fountain (Bar Only)","lat":53.82004,"lon":-1.72131,"postcode":"BD2 2DQ","la":"Bradford","era":"mod","nn":0,"risk":15,"cat":"green"},{"name":"The Fox","lat":53.83472,"lon":-1.77453,"postcode":"BD17 7BP","la":"Bradford","era":"trad","nn":126,"risk":16,"cat":"green"},{"name":"The Gaping Goose Inn (Bar only)","lat":53.76326,"lon":-1.78177,"postcode":"BD6 3RH","la":"Bradford","era":"other","nn":95,"risk":16,"cat":"green"},{"name":"The Garden Bar","lat":53.853,"lon":-1.76718,"postcode":"BD17 5EH","la":"Bradford","era":"other","nn":26,"risk":15,"cat":"green"},{"name":"The George","lat":53.83596,"lon":-1.72097,"postcode":"BD10 9SU","la":"Bradford","era":"trad","nn":251,"risk":17,"cat":"green"},{"name":"The George And Dragon","lat":53.83745,"lon":-1.70695,"postcode":"BD10 0PU","la":"Bradford","era":"trad","nn":238,"risk":17,"cat":"green"},{"name":"The George Hotel","lat":53.82778,"lon":-1.90083,"postcode":"BD13 5HN","la":"Bradford","era":"trad","nn":0,"risk":32,"cat":"amber"},{"name":"The Ginger Goose","lat":53.79317,"lon":-1.75268,"postcode":"BD1 1NE","la":"Bradford","era":"other","nn":117,"risk":16,"cat":"green"},{"name":"The Glen","lat":53.85119,"lon":-1.81541,"postcode":"BD16 3LH","la":"Bradford","era":"other","nn":1020,"risk":44,"cat":"amber"},{"name":"The Goats Head (Bar Only)","lat":53.89567,"lon":-1.94884,"postcode":"BD20 6NR","la":"Bradford","era":"other","nn":79,"risk":20,"cat":"green"},{"name":"The Golden Fleece","lat":53.84101,"lon":-1.87252,"postcode":"BD16 1HP","la":"Bradford","era":"trad","nn":430,"risk":35,"cat":"amber"},{"name":"The Great Northern Brewhouse","lat":53.84278,"lon":-1.73544,"postcode":"BD10 8JH","la":"Bradford","era":"other","nn":0,"risk":15,"cat":"green"},{"name":"The Greenwood Inn","lat":53.76275,"lon":-1.73211,"postcode":"BD4 6DR","la":"Bradford","era":"trad","nn":831,"risk":41,"cat":"amber"},{"name":"The Greyhound Inn","lat":53.77097,"lon":-1.66817,"postcode":"BD4 0RR","la":"Bradford","era":"trad","nn":1478,"risk":48,"cat":"amber"},{"name":"The Grouse Inn","lat":53.8411,"lon":-1.98451,"postcode":"BD22 0RX","la":"Bradford","era":"trad","nn":1280,"risk":46,"cat":"amber"},{"name":"The Halfway House","lat":53.84626,"lon":-1.75203,"postcode":"BD17 7PY","la":"Bradford","era":"other","nn":168,"risk":21,"cat":"green"},{"name":"The Harold Club (Bar Only)","lat":53.75232,"lon":-1.76837,"postcode":"BD12 0UD","la":"Bradford","era":"mod","nn":238,"risk":17,"cat":"green"},{"name":"The Hideout","lat":53.79407,"lon":-1.75514,"postcode":"BD1 1SQ","la":"Bradford","era":"other","nn":1,"risk":15,"cat":"green"},{"name":"The Highfield Hotel","lat":53.82714,"lon":-1.73717,"postcode":"BD10 8QH","la":"Bradford","era":"other","nn":287,"risk":17,"cat":"green"},{"name":"The Hitching Post","lat":53.83484,"lon":-1.71765,"postcode":"BD10 9SX","la":"Bradford","era":"other","nn":251,"risk":17,"cat":"green"},{"name":"The Hockney (Bar Only)","lat":53.83333,"lon":-1.77619,"postcode":"BD18 3PU","la":"Bradford","era":"mod","nn":33,"risk":15,"cat":"green"},{"name":"The Idle Draper (Bar only)","lat":53.83495,"lon":-1.73043,"postcode":"BD10 9PX","la":"Bradford","era":"mod","nn":0,"risk":15,"cat":"green"},{"name":"The Inn at Eastburn","lat":53.89684,"lon":-1.97326,"postcode":"BD20 7SN","la":"Bradford","era":"trad","nn":1062,"risk":45,"cat":"amber"},{"name":"The Junction","lat":53.84038,"lon":-1.7693,"postcode":"BD17 6AB","la":"Bradford","era":"other","nn":427,"risk":18,"cat":"green"},{"name":"The Junction Hotel","lat":53.74552,"lon":-1.76773,"postcode":"BD12 8NJ","la":"Bradford","era":"other","nn":122,"risk":16,"cat":"green"},{"name":"The Junction Inn & Kitchen","lat":53.77721,"lon":-1.85355,"postcode":"BD13 1NE","la":"Bradford","era":"other","nn":704,"risk":22,"cat":"green"},{"name":"The Kings Arms","lat":53.83142,"lon":-1.95634,"postcode":"BD22 8DR","la":"Bradford","era":"trad","nn":73,"risk":15,"cat":"green"},{"name":"The Lamb Inn","lat":53.80764,"lon":-1.94625,"postcode":"BD22 9NU","la":"Bradford","era":"trad","nn":525,"risk":21,"cat":"green"},{"name":"The Library Tap (Bar Only)","lat":53.84815,"lon":-1.83796,"postcode":"BD16 2HT","la":"Bradford","era":"mod","nn":52,"risk":15,"cat":"green"},{"name":"The Livery Rooms","lat":53.86901,"lon":-1.90988,"postcode":"BD21 3AA","la":"Bradford","era":"mod","nn":84,"risk":15,"cat":"green"},{"name":"The Lord Clyde (Bar Only)","lat":53.79333,"lon":-1.75924,"postcode":"BD1 2DG","la":"Bradford","era":"mod","nn":132,"risk":16,"cat":"green"},{"name":"The Malt","lat":53.83491,"lon":-1.86635,"postcode":"BD16 1BG","la":"Bradford","era":"other","nn":717,"risk":37,"cat":"amber"},{"name":"The Monkey","lat":53.77513,"lon":-1.8001,"postcode":"BD7 4AQ","la":"Bradford","era":"trad","nn":224,"risk":16,"cat":"green"},{"name":"The New Furnace (Bar only)","lat":53.7582,"lon":-1.79766,"postcode":"BD6 2HD","la":"Bradford","era":"mod","nn":653,"risk":24,"cat":"green"},{"name":"The New Inn","lat":53.8232,"lon":-1.86071,"postcode":"BD15 0AB","la":"Bradford","era":"trad","nn":394,"risk":23,"cat":"green"},{"name":"The New Inn","lat":53.84559,"lon":-1.75433,"postcode":"BD17 7JN","la":"Bradford","era":"trad","nn":168,"risk":21,"cat":"green"},{"name":"The New Inn / Land at Lee Lane","lat":53.79007,"lon":-1.85001,"postcode":"BD13 3JX","la":"Bradford","era":"trad","nn":0,"risk":15,"cat":"green"},{"name":"The New Line (Bar Only)","lat":53.83198,"lon":-1.71424,"postcode":"BD10 9AP","la":"Bradford","era":"mod","nn":80,"risk":15,"cat":"green"},{"name":"The New Tyke","lat":53.79158,"lon":-1.83073,"postcode":"BD13 3DG","la":"Bradford","era":"other","nn":1017,"risk":44,"cat":"amber"},{"name":"The New Virginia (Bar Only)","lat":53.79841,"lon":-1.71198,"postcode":"BD3 8JJ","la":"Bradford","era":"mod","nn":628,"risk":39,"cat":"amber"},{"name":"The Noble Comb","lat":53.83643,"lon":-1.7761,"postcode":"BD18 3ST","la":"Bradford","era":"other","nn":205,"risk":16,"cat":"green"},{"name":"The Old Glen House (Bar Only)","lat":53.8457,"lon":-1.79709,"postcode":"BD17 5BN","la":"Bradford","era":"mod","nn":957,"risk":39,"cat":"amber"},{"name":"The Old Sun","lat":53.83207,"lon":-1.95923,"postcode":"BD22 8EL","la":"Bradford","era":"other","nn":145,"risk":16,"cat":"green"},{"name":"The Old White Lion Hotel","lat":53.83194,"lon":-1.95703,"postcode":"BD22 8DU","la":"Bradford","era":"trad","nn":73,"risk":15,"cat":"green"},{"name":"The Park (Bar only)","lat":53.76555,"lon":-1.77954,"postcode":"BD6 1TQ","la":"Bradford","era":"mod","nn":171,"risk":16,"cat":"green"},{"name":"The Peacock Bar","lat":53.7969,"lon":-1.75659,"postcode":"BD1 3JL","la":"Bradford","era":"other","nn":17,"risk":15,"cat":"green"},{"name":"The Potting Shed","lat":53.85011,"lon":-1.84022,"postcode":"BD16 2JH","la":"Bradford","era":"other","nn":0,"risk":15,"cat":"green"},{"name":"The Queensbury Tavern","lat":53.76872,"lon":-1.84243,"postcode":"BD13 1AB","la":"Bradford","era":"trad","nn":302,"risk":17,"cat":"green"},{"name":"The Red Lion (Bar Only)","lat":53.79882,"lon":-1.79206,"postcode":"BD8 9RA","la":"Bradford","era":"other","nn":759,"risk":25,"cat":"green"},{"name":"The Red Pig (Bar Only)","lat":53.86527,"lon":-1.91008,"postcode":"BD21 5HS","la":"Bradford","era":"mod","nn":0,"risk":15,"cat":"green"},{"name":"The Ring O' Bells","lat":53.79467,"lon":-1.86464,"postcode":"BD13 3QL","la":"Bradford","era":"other","nn":236,"risk":17,"cat":"green"},{"name":"The Rock And Heifer Inn","lat":53.8001,"lon":-1.86279,"postcode":"BD13 3RH","la":"Bradford","era":"trad","nn":616,"risk":37,"cat":"amber"},{"name":"The Roebuck Keighley","lat":53.88143,"lon":-1.91799,"postcode":"BD20 6EJ","la":"Bradford","era":"other","nn":373,"risk":37,"cat":"amber"},{"name":"The Rose and Crown","lat":53.79371,"lon":-1.75539,"postcode":"BD1 1SX","la":"Bradford","era":"trad","nn":0,"risk":15,"cat":"green"},{"name":"The Royal","lat":53.7511,"lon":-1.76539,"postcode":"BD12 0RR","la":"Bradford","era":"trad","nn":238,"risk":17,"cat":"green"},{"name":"The Royal Hotel (Bar Only)","lat":53.78203,"lon":-1.82281,"postcode":"BD14 6RF","la":"Bradford","era":"other","nn":34,"risk":15,"cat":"green"},{"name":"The Royal Oak","lat":53.82105,"lon":-1.7252,"postcode":"BD2 2HL","la":"Bradford","era":"trad","nn":1,"risk":15,"cat":"green"},{"name":"The Royal Oak (Wet sales only)","lat":53.86461,"lon":-1.91213,"postcode":"BD21 1QD","la":"Bradford","era":"trad","nn":66,"risk":15,"cat":"green"},{"name":"The Salt Cellar","lat":53.83602,"lon":-1.78788,"postcode":"BD18 3JF","la":"Bradford","era":"other","nn":42,"risk":15,"cat":"green"},{"name":"The Shroggs","lat":53.85592,"lon":-1.76802,"postcode":"BD17 6LW","la":"Bradford","era":"other","nn":129,"risk":16,"cat":"green"},{"name":"The Snooty Fox (Bar Only)","lat":53.846,"lon":-1.95329,"postcode":"BD22 7PB","la":"Bradford","era":"other","nn":213,"risk":16,"cat":"green"},{"name":"The Star (Bar Only)","lat":53.84668,"lon":-1.83313,"postcode":"BD16 2NL","la":"Bradford","era":"mod","nn":263,"risk":17,"cat":"green"},{"name":"The Three Horses","lat":53.8617,"lon":-1.93227,"postcode":"BD22 6BZ","la":"Bradford","era":"trad","nn":950,"risk":42,"cat":"amber"},{"name":"The Top House","lat":53.76526,"lon":-1.76082,"postcode":"BD5 8NF","la":"Bradford","era":"other","nn":124,"risk":16,"cat":"green"},{"name":"The Travellers Rest","lat":53.83454,"lon":-1.76607,"postcode":"BD18 1BX","la":"Bradford","era":"other","nn":188,"risk":16,"cat":"green"},{"name":"The Tree House Bar & Kitchen","lat":53.83055,"lon":-1.94762,"postcode":"BD22 8NW","la":"Bradford","era":"mod","nn":124,"risk":16,"cat":"green"},{"name":"The Triangle (Bar Only)","lat":53.83136,"lon":-1.78336,"postcode":"BD18 3DS","la":"Bradford","era":"mod","nn":100,"risk":16,"cat":"green"},{"name":"The Turls Green/Lloyds No.1","lat":53.79304,"lon":-1.75447,"postcode":"BD1 1SD","la":"Bradford","era":"other","nn":87,"risk":15,"cat":"green"},{"name":"The Upper George (Bar only)","lat":53.767,"lon":-1.7758,"postcode":"BD6 1RB","la":"Bradford","era":"other","nn":40,"risk":15,"cat":"green"},{"name":"The Victoria Hotel","lat":53.81466,"lon":-1.83276,"postcode":"BD15 9JP","la":"Bradford","era":"trad","nn":0,"risk":35,"cat":"amber"},{"name":"The Victoria Hotel (Bar Only)","lat":53.82294,"lon":-1.7246,"postcode":"BD10 8AE","la":"Bradford","era":"other","nn":213,"risk":16,"cat":"green"},{"name":"The Villager","lat":53.8197,"lon":-1.85972,"postcode":"BD15 0JE","la":"Bradford","era":"other","nn":23,"risk":20,"cat":"green"},{"name":"The Volunteers","lat":53.86855,"lon":-1.90728,"postcode":"BD21 3DX","la":"Bradford","era":"other","nn":89,"risk":15,"cat":"green"},{"name":"The White Horse Inn","lat":53.7762,"lon":-1.79237,"postcode":"BD7 4DU","la":"Bradford","era":"trad","nn":521,"risk":19,"cat":"green"},{"name":"The White Horse Inn","lat":53.79296,"lon":-1.87685,"postcode":"BD13 3SJ","la":"Bradford","era":"trad","nn":824,"risk":41,"cat":"amber"},{"name":"The White Swan","lat":53.83495,"lon":-1.73043,"postcode":"BD10 9PX","la":"Bradford","era":"trad","nn":0,"risk":15,"cat":"green"},{"name":"The Winston Churchill (Bar Only)","lat":53.78349,"lon":-1.73381,"postcode":"BD4 7LX","la":"Bradford","era":"mod","nn":213,"risk":19,"cat":"green"},{"name":"The Woodlands Hotel","lat":53.74945,"lon":-1.73369,"postcode":"BD12 7EZ","la":"Bradford","era":"other","nn":817,"risk":38,"cat":"amber"},{"name":"The Woodman (Bar only)","lat":53.76826,"lon":-1.76308,"postcode":"BD5 8NH","la":"Bradford","era":"mod","nn":80,"risk":15,"cat":"green"},{"name":"The Woolpack","lat":53.85834,"lon":-1.72406,"postcode":"BD17 7QZ","la":"Bradford","era":"trad","nn":551,"risk":39,"cat":"amber"},{"name":"The Wren","lat":53.85267,"lon":-1.76784,"postcode":"BD17 5EH","la":"Bradford","era":"other","nn":48,"risk":15,"cat":"green"},{"name":"Theatre In The Mill","lat":53.79171,"lon":-1.76215,"postcode":"BD7 1DP","la":"Bradford","era":"trad","nn":263,"risk":17,"cat":"green"},{"name":"Thornton Conservative Club (Bar Only)","lat":53.79007,"lon":-1.85001,"postcode":"BD13 3JX","la":"Bradford","era":"mod","nn":0,"risk":15,"cat":"green"},{"name":"Thornton Cricket Club","lat":53.79448,"lon":-1.86106,"postcode":"BD13 3QX","la":"Bradford","era":"other","nn":236,"risk":17,"cat":"green"},{"name":"Thornton Golf Club","lat":53.78628,"lon":-1.84753,"postcode":"BD13 3LX","la":"Bradford","era":"other","nn":452,"risk":18,"cat":"green"},{"name":"Three Locks, Bingley","lat":53.84758,"lon":-1.83718,"postcode":"BD16 2NG","la":"Bradford","era":"other","nn":28,"risk":15,"cat":"green"},{"name":"Throstles Nest (Bar Only)","lat":53.83118,"lon":-1.83066,"postcode":"BD16 1QH","la":"Bradford","era":"mod","nn":563,"risk":24,"cat":"green"},{"name":"Toby Carvery","lat":53.76898,"lon":-1.73909,"postcode":"BD5 8JX","la":"Bradford","era":"other","nn":831,"risk":41,"cat":"amber"},{"name":"Tong Conservative Club (Bar Only)","lat":53.76693,"lon":-1.70737,"postcode":"BD4 6NA","la":"Bradford","era":"mod","nn":487,"risk":21,"cat":"green"},{"name":"Top Odd","lat":53.74019,"lon":-1.76852,"postcode":"BD12 9NT","la":"Bradford","era":"other","nn":152,"risk":18,"cat":"green"},{"name":"Top Pocket","lat":53.79703,"lon":-1.76978,"postcode":"BD1 2JS","la":"Bradford","era":"other","nn":186,"risk":16,"cat":"green"},{"name":"Turkey Inn","lat":53.86156,"lon":-1.95786,"postcode":"BD22 0PD","la":"Bradford","era":"trad","nn":1428,"risk":47,"cat":"amber"},{"name":"Twisters","lat":53.91611,"lon":-1.93866,"postcode":"BD20 9NE","la":"Bradford","era":"other","nn":104,"risk":16,"cat":"green"},{"name":"Undercliffe Cricket Club","lat":53.80776,"lon":-1.72581,"postcode":"BD2 3JR","la":"Bradford","era":"other","nn":329,"risk":17,"cat":"green"},{"name":"Upper Bolton Conservative Club (Bar Only)","lat":53.81409,"lon":-1.73342,"postcode":"BD2 4JP","la":"Bradford","era":"mod","nn":95,"risk":16,"cat":"green"},{"name":"Upwood Holiday Park (Bar Only)","lat":53.81522,"lon":-1.93488,"postcode":"BD22 9SS","la":"Bradford","era":"mod","nn":1125,"risk":45,"cat":"amber"},{"name":"Waggon And Horses Inn","lat":53.80951,"lon":-1.9538,"postcode":"BD22 9QE","la":"Bradford","era":"trad","nn":40,"risk":20,"cat":"green"},{"name":"Wallers Bar (Bar only)","lat":53.79371,"lon":-1.75539,"postcode":"BD1 1SX","la":"Bradford","era":"mod","nn":0,"risk":15,"cat":"green"},{"name":"Walton View Hotel","lat":53.76189,"lon":-1.68459,"postcode":"BD4 0SF","la":"Bradford","era":"other","nn":1192,"risk":46,"cat":"amber"},{"name":"West Bowling Social Club Wet sales only","lat":53.77663,"lon":-1.75258,"postcode":"BD5 8BL","la":"Bradford","era":"mod","nn":120,"risk":16,"cat":"green"},{"name":"West Bradford Bowling Club (Bar Only)","lat":53.80574,"lon":-1.79247,"postcode":"BD9 5EY","la":"Bradford","era":"mod","nn":770,"risk":40,"cat":"amber"},{"name":"West Bradford Golf Club - (Bar Only)","lat":53.81252,"lon":-1.81609,"postcode":"BD9 6NP","la":"Bradford","era":"mod","nn":0,"risk":20,"cat":"green"},{"name":"Westwood Park Sports Club","lat":53.76707,"lon":-1.81308,"postcode":"BD6 3YH","la":"Bradford","era":"other","nn":583,"risk":24,"cat":"green"},{"name":"White and Red","lat":53.79444,"lon":-1.75749,"postcode":"BD1 2AL","la":"Bradford","era":"other","nn":17,"risk":15,"cat":"green"},{"name":"White Bear Inn (Bar Only)","lat":53.83726,"lon":-1.7334,"postcode":"BD10 8QA","la":"Bradford","era":"other","nn":78,"risk":15,"cat":"green"},{"name":"White Swan Inn - (Bar Only)","lat":53.76693,"lon":-1.77365,"postcode":"BD6 1JU","la":"Bradford","era":"other","nn":50,"risk":15,"cat":"green"},{"name":"Wibsey Conservative Club (Bar only)","lat":53.76618,"lon":-1.77716,"postcode":"BD6 1TR","la":"Bradford","era":"mod","nn":89,"risk":15,"cat":"green"},{"name":"Wibsey Liberal Club (Bar only)","lat":53.7668,"lon":-1.7763,"postcode":"BD6 1QN","la":"Bradford","era":"mod","nn":40,"risk":15,"cat":"green"},{"name":"Wibsey Rugby Club (Bar Only)","lat":53.76758,"lon":-1.77196,"postcode":"BD6 1JZ","la":"Bradford","era":"mod","nn":48,"risk":15,"cat":"green"},{"name":"Willow Tree Pub (Wet sales only)","lat":53.88099,"lon":-1.88254,"postcode":"BD20 5PN","la":"Bradford","era":"trad","nn":188,"risk":21,"cat":"green"},{"name":"Wilsden Conservative Club","lat":53.81951,"lon":-1.85986,"postcode":"BD15 0JQ","la":"Bradford","era":"other","nn":23,"risk":20,"cat":"green"},{"name":"Windhill Conservative Club","lat":53.83286,"lon":-1.76583,"postcode":"BD18 2NQ","la":"Bradford","era":"other","nn":188,"risk":16,"cat":"green"},{"name":"Wine Lodge (Bar Only)","lat":53.794,"lon":-1.75416,"postcode":"BD1 1SW","la":"Bradford","era":"mod","nn":19,"risk":15,"cat":"green"},{"name":"Wonky Donkey (Bar Only)","lat":53.83478,"lon":-1.77846,"postcode":"BD18 3SP","la":"Bradford","era":"mod","nn":31,"risk":15,"cat":"green"},{"name":"Woodlands Cricket Club","lat":53.74908,"lon":-1.74641,"postcode":"BD12 7AX","la":"Bradford","era":"other","nn":113,"risk":18,"cat":"green"},{"name":"Woolpack Inn","lat":53.86184,"lon":-1.91292,"postcode":"BD21 1DJ","la":"Bradford","era":"trad","nn":150,"risk":16,"cat":"green"},{"name":"Wrose Bull","lat":53.82397,"lon":-1.7391,"postcode":"BD18 1JF","la":"Bradford","era":"trad","nn":375,"risk":17,"cat":"green"},{"name":"Wuthering Heights Inn","lat":53.82972,"lon":-1.98744,"postcode":"BD22 0HB","la":"Bradford","era":"trad","nn":0,"risk":35,"cat":"amber"},{"name":"1924 Cocktail Bar","lat":53.72459,"lon":-1.7131,"postcode":"BD19 3JD","la":"Kirklees","era":"other","nn":15,"risk":15,"cat":"green"},{"name":"Bankfield Inn","lat":53.7278,"lon":-1.68136,"postcode":"BD19 4RD","la":"Kirklees","era":"trad","nn":99,"risk":15,"cat":"green"},{"name":"Birkenshaw Liberal Club","lat":53.75228,"lon":-1.69326,"postcode":"BD11 2HT","la":"Kirklees","era":"other","nn":43,"risk":15,"cat":"green"},{"name":"Brewers Fayre","lat":53.73713,"lon":-1.72208,"postcode":"BD19 6HG","la":"Kirklees","era":"other","nn":151,"risk":16,"cat":"green"},{"name":"California Inn","lat":53.72192,"lon":-1.68328,"postcode":"BD19 4HQ","la":"Kirklees","era":"trad","nn":120,"risk":18,"cat":"green"},{"name":"Cleckheaton Moorend Working Mens Club","lat":53.72955,"lon":-1.71895,"postcode":"BD19 3TF","la":"Kirklees","era":"trad","nn":127,"risk":15,"cat":"green"},{"name":"Cleckheaton Sports Club","lat":53.73198,"lon":-1.72036,"postcode":"BD19 3UD","la":"Kirklees","era":"other","nn":115,"risk":15,"cat":"green"},{"name":"Commercial Hotel","lat":53.72556,"lon":-1.71199,"postcode":"BD19 3JN","la":"Kirklees","era":"other","nn":113,"risk":15,"cat":"green"},{"name":"Drub Lane Working Mens Club","lat":53.73823,"lon":-1.70367,"postcode":"BD19 4BU","la":"Kirklees","era":"trad","nn":785,"risk":37,"cat":"amber"},{"name":"East Bierley Community Sports Association","lat":53.75788,"lon":-1.70217,"postcode":"BD4 6PU","la":"Kirklees","era":"other","nn":111,"risk":15,"cat":"green"},{"name":"East Bierley Cricket Club","lat":53.75826,"lon":-1.70373,"postcode":"BD4 6PJ","la":"Kirklees","era":"other","nn":111,"risk":15,"cat":"green"},{"name":"East Bierley Golf Club","lat":53.75874,"lon":-1.7065,"postcode":"BD4 6PP","la":"Kirklees","era":"other","nn":0,"risk":17,"cat":"green"},{"name":"Golden Fleece","lat":53.74766,"lon":-1.69061,"postcode":"BD11 2EQ","la":"Kirklees","era":"trad","nn":0,"risk":14,"cat":"green"},{"name":"Gomersal Cricket Club","lat":53.7279,"lon":-1.68286,"postcode":"BD19 4RQ","la":"Kirklees","era":"other","nn":99,"risk":15,"cat":"green"},{"name":"Halfway House","lat":53.74766,"lon":-1.69061,"postcode":"BD11 2EQ","la":"Kirklees","era":"other","nn":0,"risk":14,"cat":"green"},{"name":"Hartshead Moor Club","lat":53.72103,"lon":-1.75007,"postcode":"BD19 6PE","la":"Kirklees","era":"trad","nn":181,"risk":16,"cat":"green"},{"name":"Hartshead Moor Cricket Club","lat":53.7165,"lon":-1.74248,"postcode":"BD19 6LW","la":"Kirklees","era":"trad","nn":308,"risk":22,"cat":"green"},{"name":"Heathfield Farm","lat":53.74458,"lon":-1.6979,"postcode":"BD11 2DP","la":"Kirklees","era":"other","nn":589,"risk":19,"cat":"green"},{"name":"Loaded by KJS","lat":53.7527,"lon":-1.69392,"postcode":"BD11 2AH","la":"Kirklees","era":"other","nn":0,"risk":14,"cat":"green"},{"name":"Lodge of Friendship 750","lat":53.72636,"lon":-1.71947,"postcode":"BD19 3BX","la":"Kirklees","era":"trad","nn":357,"risk":17,"cat":"green"},{"name":"MVB Kitchen and The Mill Bar unit G3/unit G5","lat":53.72473,"lon":-1.72426,"postcode":"BD19 3AF","la":"Kirklees","era":"other","nn":363,"risk":17,"cat":"green"},{"name":"New Inn","lat":53.75874,"lon":-1.7065,"postcode":"BD4 6PP","la":"Kirklees","era":"trad","nn":0,"risk":17,"cat":"green"},{"name":"Old House At Home","lat":53.72472,"lon":-1.71306,"postcode":"BD19 3JD","la":"Kirklees","era":"mod","nn":15,"risk":15,"cat":"green"},{"name":"Rose And Crown","lat":53.72303,"lon":-1.71457,"postcode":"BD19 5ET","la":"Kirklees","era":"trad","nn":77,"risk":15,"cat":"green"},{"name":"Savile Arms","lat":53.7398,"lon":-1.7153,"postcode":"BD19 4DX","la":"Kirklees","era":"trad","nn":536,"risk":21,"cat":"green"},{"name":"Scholes Cricket And Athletic Club","lat":53.72618,"lon":-1.75074,"postcode":"BD19 6NN","la":"Kirklees","era":"other","nn":291,"risk":21,"cat":"green"},{"name":"Spen Victoria Cricket Bowling And Athletic Club","lat":53.72845,"lon":-1.69819,"postcode":"BD19 4PJ","la":"Kirklees","era":"trad","nn":673,"risk":24,"cat":"green"},{"name":"The Bobbin Carrier","lat":53.73578,"lon":-1.7223,"postcode":"BD19 3QB","la":"Kirklees","era":"other","nn":151,"risk":16,"cat":"green"},{"name":"The Bulls Head","lat":53.72274,"lon":-1.68444,"postcode":"BD19 4HX","la":"Kirklees","era":"trad","nn":120,"risk":18,"cat":"green"},{"name":"The George","lat":53.7527,"lon":-1.69392,"postcode":"BD11 2AH","la":"Kirklees","era":"trad","nn":0,"risk":14,"cat":"green"},{"name":"The Horncastle","lat":53.73101,"lon":-1.71976,"postcode":"BD19 3TT","la":"Kirklees","era":"other","nn":115,"risk":15,"cat":"green"},{"name":"THE LOFT CLECKHEATON","lat":53.72399,"lon":-1.71365,"postcode":"BD19 5AA","la":"Kirklees","era":"other","nn":57,"risk":15,"cat":"green"},{"name":"The Malt Shovel","lat":53.72283,"lon":-1.71569,"postcode":"BD19 5EY","la":"Kirklees","era":"other","nn":77,"risk":15,"cat":"green"},{"name":"The Marsh,","lat":53.72131,"lon":-1.70917,"postcode":"BD19 5BJ","la":"Kirklees","era":"other","nn":403,"risk":17,"cat":"green"},{"name":"The Moorland","lat":53.73029,"lon":-1.71748,"postcode":"BD19 3SU","la":"Kirklees","era":"other","nn":127,"risk":15,"cat":"green"},{"name":"The New Pack Horse","lat":53.71845,"lon":-1.73916,"postcode":"BD19 6LN","la":"Kirklees","era":"trad","nn":308,"risk":22,"cat":"green"},{"name":"The Obediah Brooke","lat":53.7246,"lon":-1.71257,"postcode":"BD19 3JH","la":"Kirklees","era":"other","nn":35,"risk":15,"cat":"green"},{"name":"The Stafford Arms","lat":53.72051,"lon":-1.74747,"postcode":"BD19 6LS","la":"Kirklees","era":"trad","nn":181,"risk":16,"cat":"green"},{"name":"The Station Tavern","lat":53.72438,"lon":-1.71423,"postcode":"BD19 3HR","la":"Kirklees","era":"other","nn":57,"risk":15,"cat":"green"},{"name":"The Wheatsheaf","lat":53.72343,"lon":-1.69247,"postcode":"BD19 4JQ","la":"Kirklees","era":"trad","nn":534,"risk":18,"cat":"green"},{"name":"Vault 768 Ltd- lower ground flr","lat":53.75246,"lon":-1.69384,"postcode":"BD11 2AE","la":"Kirklees","era":"other","nn":27,"risk":15,"cat":"green"},{"name":"Walkers Arms","lat":53.72869,"lon":-1.74947,"postcode":"BD19 6NR","la":"Kirklees","era":"trad","nn":291,"risk":21,"cat":"green"},{"name":"West End Public House","lat":53.73273,"lon":-1.68876,"postcode":"BD19 4JU","la":"Kirklees","era":"other","nn":662,"risk":22,"cat":"green"},{"name":"Drighlington Cricket Club","lat":53.75544,"lon":-1.66348,"postcode":"BD11 1JU","la":"Leeds","era":"other","nn":240,"risk":15,"cat":"green"},{"name":"Power League","lat":53.80002,"lon":-1.70281,"postcode":"BD3 7AT","la":"Leeds","era":"other","nn":628,"risk":38,"cat":"amber"},{"name":"Tempest Constitutional Club","lat":53.75791,"lon":-1.66398,"postcode":"BD11 1AB","la":"Leeds","era":"other","nn":0,"risk":16,"cat":"green"},{"name":"The Malt Shovel","lat":53.75519,"lon":-1.66711,"postcode":"BD11 1BB","la":"Leeds","era":"other","nn":240,"risk":15,"cat":"green"},{"name":"The Manor Golf Club","lat":53.75791,"lon":-1.66398,"postcode":"BD11 1AB","la":"Leeds","era":"other","nn":0,"risk":16,"cat":"green"},{"name":"The Railway Inn","lat":53.7485,"lon":-1.66436,"postcode":"BD11 1JJ","la":"Leeds","era":"trad","nn":766,"risk":36,"cat":"amber"},{"name":"The Spotted Cow","lat":53.75766,"lon":-1.6605,"postcode":"BD11 1LJ","la":"Leeds","era":"other","nn":230,"risk":18,"cat":"green"},{"name":"Tyersal Residents  Association","lat":53.79111,"lon":-1.6999,"postcode":"BD4 8EZ","la":"Leeds","era":"other","nn":1009,"risk":43,"cat":"amber"},{"name":"Valley Inn","lat":53.76521,"lon":-1.64588,"postcode":"BD11 1NE","la":"Leeds","era":"trad","nn":914,"risk":37,"cat":"amber"},{"name":"Alexanders","lat":53.96299,"lon":-2.01666,"postcode":"BD23 1JZ","la":"North Yorkshire","era":"other","nn":48,"risk":15,"cat":"green"},{"name":"Anchor Inn Cookhouse & Pub","lat":53.984,"lon":-2.11632,"postcode":"BD23 3NB","la":"North Yorkshire","era":"other","nn":689,"risk":39,"cat":"amber"},{"name":"Bar 13","lat":54.06781,"lon":-2.27721,"postcode":"BD24 9DU","la":"North Yorkshire","era":"mod","nn":35,"risk":15,"cat":"green"},{"name":"Black Horse Hotel","lat":54.0727,"lon":-1.9965,"postcode":"BD23 5AT","la":"North Yorkshire","era":"trad","nn":40,"risk":32,"cat":"amber"},{"name":"Bluebell Inn","lat":54.14682,"lon":-2.04781,"postcode":"BD23 5QX","la":"North Yorkshire","era":"trad","nn":149,"risk":35,"cat":"amber"},{"name":"Cavendish Arms","lat":53.97627,"lon":-1.99186,"postcode":"BD23 6QT","la":"North Yorkshire","era":"trad","nn":521,"risk":38,"cat":"amber"},{"name":"Craven Arms","lat":54.03712,"lon":-1.92089,"postcode":"BD23 6DA","la":"North Yorkshire","era":"trad","nn":6155,"risk":72,"cat":"red"},{"name":"Dog And Gun","lat":53.89624,"lon":-2.0119,"postcode":"BD20 8DS","la":"North Yorkshire","era":"other","nn":1286,"risk":46,"cat":"amber"},{"name":"Elm Tree Inn","lat":53.98034,"lon":-1.98791,"postcode":"BD23 6RB","la":"North Yorkshire","era":"trad","nn":521,"risk":38,"cat":"amber"},{"name":"Hare & Hounds Lothersdale Ltd","lat":53.90982,"lon":-2.06425,"postcode":"BD20 8EL","la":"North Yorkshire","era":"trad","nn":3164,"risk":59,"cat":"amber"},{"name":"Hop \\\\& Vine","lat":53.88449,"lon":-2.04224,"postcode":"BD22 0BE","la":"North Yorkshire","era":"other","nn":2379,"risk":53,"cat":"amber"},{"name":"Kings Arms","lat":53.89248,"lon":-1.99333,"postcode":"BD20 7LP","la":"North Yorkshire","era":"trad","nn":81,"risk":35,"cat":"amber"},{"name":"Moorview Community Social Club","lat":53.9589,"lon":-2.00362,"postcode":"BD23 2JW","la":"North Yorkshire","era":"mod","nn":698,"risk":19,"cat":"green"},{"name":"North Ribblesdale RUFC","lat":54.06562,"lon":-2.27849,"postcode":"BD24 9QH","la":"North Yorkshire","era":"other","nn":257,"risk":16,"cat":"green"},{"name":"Old Hall Inn And Cottages Ltd","lat":54.06726,"lon":-2.01815,"postcode":"BD23 5HB","la":"North Yorkshire","era":"trad","nn":1078,"risk":44,"cat":"amber"},{"name":"Old White Bear","lat":53.90154,"lon":-1.98737,"postcode":"BD20 7RN","la":"North Yorkshire","era":"other","nn":808,"risk":40,"cat":"amber"},{"name":"Palomino Pizza Co Ltd","lat":53.97743,"lon":-2.03626,"postcode":"BD23 3FF","la":"North Yorkshire","era":"other","nn":1510,"risk":47,"cat":"amber"},{"name":"Royal Oak","lat":54.06908,"lon":-2.27761,"postcode":"BD24 9ED","la":"North Yorkshire","era":"trad","nn":112,"risk":15,"cat":"green"},{"name":"Skipton Golf Club","lat":53.97184,"lon":-2.01521,"postcode":"BD23 3LF","la":"North Yorkshire","era":"other","nn":936,"risk":38,"cat":"amber"},{"name":"Skipton Rugby Union Football Club","lat":53.9568,"lon":-2.02932,"postcode":"BD23 2AZ","la":"North Yorkshire","era":"other","nn":580,"risk":18,"cat":"green"},{"name":"Slaters Arms","lat":53.92964,"lon":-1.99549,"postcode":"BD20 9DE","la":"North Yorkshire","era":"trad","nn":1626,"risk":48,"cat":"amber"},{"name":"Styles Bar","lat":53.96086,"lon":-2.01512,"postcode":"BD23 1DD","la":"North Yorkshire","era":"other","nn":75,"risk":15,"cat":"green"},{"name":"Swadford Tap Limited","lat":53.96035,"lon":-2.01842,"postcode":"BD23 1RD","la":"North Yorkshire","era":"mod","nn":1,"risk":14,"cat":"green"},{"name":"Tempest Arms","lat":53.94435,"lon":-2.11339,"postcode":"BD23 3AY","la":"North Yorkshire","era":"trad","nn":1836,"risk":50,"cat":"amber"},{"name":"The Albion Inn","lat":53.96164,"lon":-2.01471,"postcode":"BD23 1EL","la":"North Yorkshire","era":"trad","nn":91,"risk":15,"cat":"green"},{"name":"The Angel At Hetton","lat":54.02504,"lon":-2.06108,"postcode":"BD23 6LT","la":"North Yorkshire","era":"trad","nn":5316,"risk":72,"cat":"red"},{"name":"The Bay Horse","lat":53.94068,"lon":-2.01179,"postcode":"BD20 9HB","la":"North Yorkshire","era":"trad","nn":1626,"risk":48,"cat":"amber"},{"name":"The Black Bull","lat":53.89308,"lon":-1.99263,"postcode":"BD20 7LP","la":"North Yorkshire","era":"trad","nn":81,"risk":35,"cat":"amber"},{"name":"The Black Horse Hotel","lat":53.96265,"lon":-2.0171,"postcode":"BD23 1JZ","la":"North Yorkshire","era":"trad","nn":48,"risk":15,"cat":"green"},{"name":"The Black Horse Inn","lat":54.07241,"lon":-2.28896,"postcode":"BD24 0BE","la":"North Yorkshire","era":"trad","nn":78,"risk":15,"cat":"green"},{"name":"The Bull At Broughton","lat":53.95303,"lon":-2.08952,"postcode":"BD23 3AE","la":"North Yorkshire","era":"trad","nn":1836,"risk":50,"cat":"amber"},{"name":"The Castle Inn","lat":53.96346,"lon":-2.01652,"postcode":"BD23 1NJ","la":"North Yorkshire","era":"trad","nn":54,"risk":15,"cat":"green"},{"name":"The Cock And Bottle","lat":53.96034,"lon":-2.01844,"postcode":"BD23 1RD","la":"North Yorkshire","era":"other","nn":1,"risk":14,"cat":"green"},{"name":"The Craven Arms","lat":54.06536,"lon":-2.29225,"postcode":"BD24 0AE","la":"North Yorkshire","era":"trad","nn":814,"risk":25,"cat":"green"},{"name":"The Crown Hotel","lat":54.14934,"lon":-2.29592,"postcode":"BD24 0HF","la":"North Yorkshire","era":"trad","nn":551,"risk":38,"cat":"amber"},{"name":"The Devonshire","lat":54.07224,"lon":-1.99783,"postcode":"BD23 5AD","la":"North Yorkshire","era":"other","nn":69,"risk":32,"cat":"amber"},{"name":"The Devonshire","lat":53.96034,"lon":-2.01585,"postcode":"BD23 2HR","la":"North Yorkshire","era":"other","nn":75,"risk":15,"cat":"green"},{"name":"The Falcon Inn","lat":54.14217,"lon":-2.10725,"postcode":"BD23 5QE","la":"North Yorkshire","era":"trad","nn":3429,"risk":61,"cat":"red"},{"name":"The Fleece Inn","lat":53.95909,"lon":-2.01813,"postcode":"BD23 2NS","la":"North Yorkshire","era":"trad","nn":141,"risk":15,"cat":"green"},{"name":"The Foresters Arms","lat":54.0727,"lon":-1.99711,"postcode":"BD23 5AA","la":"North Yorkshire","era":"trad","nn":40,"risk":32,"cat":"amber"},{"name":"The Fountaine Inn","lat":54.06045,"lon":-2.00638,"postcode":"BD23 5HJ","la":"North Yorkshire","era":"trad","nn":1078,"risk":44,"cat":"amber"},{"name":"The Fox And Hounds","lat":54.16896,"lon":-2.07292,"postcode":"BD23 5HY","la":"North Yorkshire","era":"trad","nn":2929,"risk":57,"cat":"amber"},{"name":"The Gamekeeper Inn","lat":54.07825,"lon":-2.0326,"postcode":"BD23 5RX","la":"North Yorkshire","era":"trad","nn":1544,"risk":48,"cat":"amber"},{"name":"The George Inn","lat":54.19943,"lon":-2.11458,"postcode":"BD23 5JE","la":"North Yorkshire","era":"trad","nn":4339,"risk":67,"cat":"red"},{"name":"The Golden Lion At Settle","lat":54.06812,"lon":-2.27709,"postcode":"BD24 9DU","la":"North Yorkshire","era":"trad","nn":35,"risk":15,"cat":"green"},{"name":"The Golden Lion Hotel","lat":54.14469,"lon":-2.29301,"postcode":"BD24 0HB","la":"North Yorkshire","era":"trad","nn":551,"risk":38,"cat":"amber"},{"name":"The Harts Head","lat":54.07246,"lon":-2.28777,"postcode":"BD24 0BA","la":"North Yorkshire","era":"trad","nn":78,"risk":15,"cat":"green"},{"name":"The Listers Arms & Lister Barn","lat":54.06213,"lon":-2.15013,"postcode":"BD23 4DB","la":"North Yorkshire","era":"trad","nn":2126,"risk":52,"cat":"amber"},{"name":"The Masons Arms","lat":53.98174,"lon":-2.10651,"postcode":"BD23 3NL","la":"North Yorkshire","era":"trad","nn":689,"risk":39,"cat":"amber"},{"name":"The Plough Inn","lat":54.00823,"lon":-2.29195,"postcode":"BD23 4RJ","la":"North Yorkshire","era":"trad","nn":3438,"risk":61,"cat":"red"},{"name":"The Queens Arms","lat":54.163,"lon":-2.14609,"postcode":"BD23 5QJ","la":"North Yorkshire","era":"trad","nn":3429,"risk":61,"cat":"red"},{"name":"The Racehorses Hotel","lat":54.14632,"lon":-2.04992,"postcode":"BD23 5QZ","la":"North Yorkshire","era":"trad","nn":149,"risk":35,"cat":"amber"},{"name":"The Railway","lat":53.95835,"lon":-2.02085,"postcode":"BD23 2AJ","la":"North Yorkshire","era":"trad","nn":124,"risk":15,"cat":"green"},{"name":"The Red Lion Hotel","lat":53.96208,"lon":-2.01617,"postcode":"BD23 1DT","la":"North Yorkshire","era":"trad","nn":88,"risk":15,"cat":"green"},{"name":"The Royal Shepherd","lat":53.96124,"lon":-2.01888,"postcode":"BD23 1LB","la":"North Yorkshire","era":"trad","nn":104,"risk":15,"cat":"green"},{"name":"The Stag","lat":54.00735,"lon":-2.23936,"postcode":"BD23 4QF","la":"North Yorkshire","era":"trad","nn":3438,"risk":61,"cat":"red"},{"name":"The Swan Inn","lat":53.9435,"lon":-2.04287,"postcode":"BD23 3DR","la":"North Yorkshire","era":"trad","nn":1725,"risk":49,"cat":"amber"},{"name":"The Talbot Arms","lat":54.06803,"lon":-2.27588,"postcode":"BD24 9EX","la":"North Yorkshire","era":"trad","nn":79,"risk":15,"cat":"green"},{"name":"The Victoria Inn","lat":54.0448,"lon":-2.16392,"postcode":"BD23 4BS","la":"North Yorkshire","era":"trad","nn":2126,"risk":52,"cat":"amber"},{"name":"The White Lion","lat":53.90858,"lon":-1.98427,"postcode":"BD20 9BH","la":"North Yorkshire","era":"trad","nn":808,"risk":40,"cat":"amber"},{"name":"The Woolly Sheep Inn","lat":53.96052,"lon":-2.01777,"postcode":"BD23 1HY","la":"North Yorkshire","era":"trad","nn":47,"risk":15,"cat":"green"},{"name":"Three Links Club","lat":53.96204,"lon":-2.01286,"postcode":"BD23 1ER","la":"North Yorkshire","era":"other","nn":128,"risk":15,"cat":"green"},{"name":"Venue Sports & Music Bar","lat":53.95946,"lon":-2.02077,"postcode":"BD23 2AB","la":"North Yorkshire","era":"other","nn":124,"risk":15,"cat":"green"}]