[{"name":"381 Restaurant","lat":50.78198,"lon":-0.67731,"postcode":"PO21 1TE","la":"Arun","era":"other","nn":78,"risk":27,"cat":"green"},{"name":"Admiral casino","lat":50.78484,"lon":-0.67433,"postcode":"PO21 1PY","la":"Arun","era":"other","nn":146,"risk":27,"cat":"green"},{"name":"Aldwick British Legion","lat":50.78687,"lon":-0.71431,"postcode":"PO21 3DS","la":"Arun","era":"other","nn":1207,"risk":57,"cat":"amber"},{"name":"Bar Rosso","lat":50.78475,"lon":-0.66279,"postcode":"PO21 1JJ","la":"Arun","era":"mod","nn":0,"risk":26,"cat":"green"},{"name":"Beachcomber Inn","lat":50.78475,"lon":-0.66279,"postcode":"PO21 1JJ","la":"Arun","era":"trad","nn":0,"risk":26,"cat":"green"},{"name":"Br Railway Sports Social Club","lat":50.78543,"lon":-0.67723,"postcode":"PO21 1DN","la":"Arun","era":"other","nn":117,"risk":27,"cat":"green"},{"name":"Centre Stage Bars","lat":50.78475,"lon":-0.66279,"postcode":"PO21 1JJ","la":"Arun","era":"trad","nn":0,"risk":26,"cat":"green"},{"name":"Conference Centre Bar","lat":50.78475,"lon":-0.66279,"postcode":"PO21 1JJ","la":"Arun","era":"other","nn":0,"risk":26,"cat":"green"},{"name":"Hotshots","lat":50.78475,"lon":-0.66279,"postcode":"PO21 1JJ","la":"Arun","era":"other","nn":0,"risk":26,"cat":"green"},{"name":"Mash & Barrel, Show Bar, Cooks and Mini Market","lat":50.77024,"lon":-0.74495,"postcode":"PO21 4NR","la":"Arun","era":"other","nn":1023,"risk":56,"cat":"amber"},{"name":"Newtown Social Club","lat":50.79563,"lon":-0.69438,"postcode":"PO21 5EU","la":"Arun","era":"mod","nn":557,"risk":48,"cat":"amber"},{"name":"Prince of Wales","lat":50.83048,"lon":-0.66976,"postcode":"PO20 3ST","la":"Arun","era":"trad","nn":1121,"risk":57,"cat":"amber"},{"name":"Punch and Judy","lat":50.78362,"lon":-0.67188,"postcode":"PO21 1RJ","la":"Arun","era":"other","nn":68,"risk":27,"cat":"green"},{"name":"Reds Bar","lat":50.78475,"lon":-0.66279,"postcode":"PO21 1JJ","la":"Arun","era":"other","nn":0,"risk":26,"cat":"green"},{"name":"Robin Hood","lat":50.81364,"lon":-0.67016,"postcode":"PO22 9PA","la":"Arun","era":"other","nn":1625,"risk":60,"cat":"amber"},{"name":"Seasons","lat":50.78637,"lon":-0.68751,"postcode":"PO21 2TY","la":"Arun","era":"other","nn":492,"risk":30,"cat":"green"},{"name":"Star and Garter","lat":50.78168,"lon":-0.67832,"postcode":"PO21 1TX","la":"Arun","era":"other","nn":78,"risk":27,"cat":"green"},{"name":"Student Union Bar","lat":50.78954,"lon":-0.66606,"postcode":"PO21 1HR","la":"Arun","era":"other","nn":521,"risk":30,"cat":"green"},{"name":"Studio 36","lat":50.78475,"lon":-0.66279,"postcode":"PO21 1JJ","la":"Arun","era":"mod","nn":0,"risk":26,"cat":"green"},{"name":"The Bear Inn","lat":50.77984,"lon":-0.73662,"postcode":"PO21 3QB","la":"Arun","era":"trad","nn":114,"risk":44,"cat":"amber"},{"name":"The Beresford","lat":50.7951,"lon":-0.61635,"postcode":"PO22 6EH","la":"Arun","era":"other","nn":473,"risk":47,"cat":"amber"},{"name":"The Cabin Public House","lat":50.79186,"lon":-0.60337,"postcode":"PO22 6JA","la":"Arun","era":"other","nn":510,"risk":47,"cat":"amber"},{"name":"The Charlie Purley","lat":50.79961,"lon":-0.66369,"postcode":"PO22 9FL","la":"Arun","era":"other","nn":632,"risk":51,"cat":"amber"},{"name":"The Claremont Inn","lat":50.78242,"lon":-0.68011,"postcode":"PO21 1UH","la":"Arun","era":"trad","nn":150,"risk":27,"cat":"green"},{"name":"The Dog and Duck","lat":50.78276,"lon":-0.67502,"postcode":"PO21 1RY","la":"Arun","era":"other","nn":35,"risk":26,"cat":"green"},{"name":"The Elmer Hotel & Pub","lat":50.79324,"lon":-0.61029,"postcode":"PO22 6HD","la":"Arun","era":"trad","nn":473,"risk":47,"cat":"amber"},{"name":"The Fox Inn Felpham","lat":50.78916,"lon":-0.6529,"postcode":"PO22 7EH","la":"Arun","era":"trad","nn":106,"risk":27,"cat":"green"},{"name":"The Friary Arms","lat":50.79515,"lon":-0.66928,"postcode":"PO22 9LN","la":"Arun","era":"trad","nn":550,"risk":35,"cat":"amber"},{"name":"The George Inn","lat":50.79109,"lon":-0.65235,"postcode":"PO22 7PL","la":"Arun","era":"trad","nn":115,"risk":32,"cat":"amber"},{"name":"The Hatters Inn","lat":50.78332,"lon":-0.67574,"postcode":"PO21 1QT","la":"Arun","era":"trad","nn":65,"risk":27,"cat":"green"},{"name":"The Hothampton Arms","lat":50.78615,"lon":-0.67424,"postcode":"PO21 1PR","la":"Arun","era":"trad","nn":127,"risk":27,"cat":"green"},{"name":"The Lamb Inn","lat":50.78394,"lon":-0.67788,"postcode":"PO21 1TJ","la":"Arun","era":"trad","nn":165,"risk":27,"cat":"green"},{"name":"The Lamb Inn","lat":50.77794,"lon":-0.73699,"postcode":"PO21 4NJ","la":"Arun","era":"trad","nn":213,"risk":45,"cat":"amber"},{"name":"The Lion Hotel","lat":50.77975,"lon":-0.73501,"postcode":"PO21 3JX","la":"Arun","era":"trad","nn":114,"risk":44,"cat":"amber"},{"name":"The Martlets","lat":50.78566,"lon":-0.69725,"postcode":"PO21 3AD","la":"Arun","era":"other","nn":689,"risk":36,"cat":"amber"},{"name":"The Murrell Arms","lat":50.82956,"lon":-0.63618,"postcode":"PO22 0AS","la":"Arun","era":"trad","nn":1643,"risk":60,"cat":"amber"},{"name":"The Richmond Arms","lat":50.79086,"lon":-0.67317,"postcode":"PO21 1AU","la":"Arun","era":"trad","nn":521,"risk":30,"cat":"green"},{"name":"The Royal Oak","lat":50.80061,"lon":-0.69349,"postcode":"PO21 5JF","la":"Arun","era":"trad","nn":557,"risk":50,"cat":"amber"},{"name":"The Royal Oak Inn","lat":50.80121,"lon":-0.73082,"postcode":"PO20 1LN","la":"Arun","era":"trad","nn":1972,"risk":62,"cat":"red"},{"name":"The Southdowns","lat":50.79422,"lon":-0.6385,"postcode":"PO22 8QJ","la":"Arun","era":"other","nn":1034,"risk":56,"cat":"amber"},{"name":"The Station","lat":50.78616,"lon":-0.67604,"postcode":"PO21 1QF","la":"Arun","era":"other","nn":117,"risk":27,"cat":"green"},{"name":"The Thatched House","lat":50.79011,"lon":-0.65287,"postcode":"PO22 7EJ","la":"Arun","era":"other","nn":106,"risk":27,"cat":"green"},{"name":"The Waverley","lat":50.77999,"lon":-0.68785,"postcode":"PO21 2QA","la":"Arun","era":"other","nn":247,"risk":28,"cat":"green"},{"name":"The Wheatsheaf","lat":50.79041,"lon":-0.68466,"postcode":"PO21 2BE","la":"Arun","era":"trad","nn":492,"risk":30,"cat":"green"},{"name":"The Wilkes Head","lat":50.83907,"lon":-0.66142,"postcode":"PO20 3UT","la":"Arun","era":"trad","nn":1121,"risk":57,"cat":"amber"},{"name":"The William Hardwicke","lat":50.78411,"lon":-0.67247,"postcode":"PO21 1SR","la":"Arun","era":"other","nn":68,"risk":27,"cat":"green"},{"name":"Unicorn Club","lat":50.78275,"lon":-0.67551,"postcode":"PO21 1RZ","la":"Arun","era":"other","nn":28,"risk":26,"cat":"green"},{"name":"Victoria Inn","lat":50.78162,"lon":-0.68546,"postcode":"PO21 2PQ","la":"Arun","era":"trad","nn":247,"risk":28,"cat":"green"},{"name":"Waterloo Inn","lat":50.7825,"lon":-0.67558,"postcode":"PO21 1SU","la":"Arun","era":"trad","nn":28,"risk":26,"cat":"green"},{"name":"Anglesey Arms","lat":50.86559,"lon":-0.71044,"postcode":"PO18 0NQ","la":"Chichester","era":"trad","nn":1596,"risk":62,"cat":"red"},{"name":"Barley Mow","lat":50.88974,"lon":-0.87814,"postcode":"PO18 9ED","la":"Chichester","era":"other","nn":1585,"risk":62,"cat":"red"},{"name":"Behind The Stove","lat":50.76439,"lon":-0.86165,"postcode":"PO20 8PA","la":"Chichester","era":"other","nn":775,"risk":54,"cat":"amber"},{"name":"Bell Inn","lat":50.84209,"lon":-0.77907,"postcode":"PO19 6AT","la":"Chichester","era":"trad","nn":274,"risk":30,"cat":"green"},{"name":"Bosham Football Club","lat":50.83345,"lon":-0.84908,"postcode":"PO18 8QF","la":"Chichester","era":"other","nn":809,"risk":39,"cat":"amber"},{"name":"Bosham Inn","lat":50.84231,"lon":-0.8742,"postcode":"PO18 8PW","la":"Chichester","era":"trad","nn":693,"risk":53,"cat":"amber"},{"name":"Bosham Sailing Club","lat":50.82824,"lon":-0.85997,"postcode":"PO18 8LU","la":"Chichester","era":"other","nn":158,"risk":47,"cat":"amber"},{"name":"Cabana Club","lat":50.74564,"lon":-0.79622,"postcode":"PO20 9DR","la":"Chichester","era":"other","nn":0,"risk":33,"cat":"amber"},{"name":"Chichester Baptist Church Lunch Club","lat":50.84389,"lon":-0.78793,"postcode":"PO19 3AW","la":"Chichester","era":"other","nn":653,"risk":33,"cat":"amber"},{"name":"Chichester Boys Club","lat":50.83686,"lon":-0.77578,"postcode":"PO19 1PL","la":"Chichester","era":"other","nn":17,"risk":28,"cat":"green"},{"name":"Chichester City Club","lat":50.83566,"lon":-0.778,"postcode":"PO19 1TQ","la":"Chichester","era":"other","nn":129,"risk":29,"cat":"green"},{"name":"Chichester Snooker Club","lat":50.83139,"lon":-0.78499,"postcode":"PO19 8TL","la":"Chichester","era":"other","nn":200,"risk":30,"cat":"green"},{"name":"Chichester Watersports Centre","lat":50.84805,"lon":-0.74654,"postcode":"PO18 0NX","la":"Chichester","era":"other","nn":1748,"risk":63,"cat":"red"},{"name":"Chichester Yacht Club","lat":50.80274,"lon":-0.82348,"postcode":"PO20 7EJ","la":"Chichester","era":"other","nn":1944,"risk":64,"cat":"red"},{"name":"Club 60","lat":50.83613,"lon":-0.77626,"postcode":"PO19 1HL","la":"Chichester","era":"other","nn":86,"risk":29,"cat":"green"},{"name":"Crafty Bishop","lat":50.83403,"lon":-0.78053,"postcode":"PO19 1EQ","la":"Chichester","era":"other","nn":41,"risk":29,"cat":"green"},{"name":"Crown And Anchor","lat":50.81935,"lon":-0.81484,"postcode":"PO20 7EE","la":"Chichester","era":"trad","nn":1774,"risk":63,"cat":"red"},{"name":"CYE Sailing Centre","lat":50.81978,"lon":-0.87827,"postcode":"PO18 8TE","la":"Chichester","era":"other","nn":385,"risk":51,"cat":"amber"},{"name":"Duke And Rye","lat":50.83695,"lon":-0.78162,"postcode":"PO19 1QU","la":"Chichester","era":"trad","nn":100,"risk":29,"cat":"green"},{"name":"Fishbourne Centre","lat":50.83873,"lon":-0.81892,"postcode":"PO18 8BE","la":"Chichester","era":"other","nn":599,"risk":50,"cat":"amber"},{"name":"Fox and Hounds","lat":50.86907,"lon":-0.86429,"postcode":"PO18 9LL","la":"Chichester","era":"trad","nn":1157,"risk":59,"cat":"amber"},{"name":"Hare And Hounds","lat":50.89756,"lon":-0.85926,"postcode":"PO18 9JQ","la":"Chichester","era":"trad","nn":1585,"risk":62,"cat":"red"},{"name":"Havana","lat":50.83689,"lon":-0.77602,"postcode":"PO19 1PH","la":"Chichester","era":"other","nn":17,"risk":28,"cat":"green"},{"name":"Horse And Groom","lat":50.86315,"lon":-0.83569,"postcode":"PO18 9AX","la":"Chichester","era":"trad","nn":1530,"risk":61,"cat":"red"},{"name":"Itchenor Sailing Club","lat":50.80584,"lon":-0.86511,"postcode":"PO20 7AG","la":"Chichester","era":"other","nn":87,"risk":49,"cat":"amber"},{"name":"J D Wetherspoon","lat":50.83674,"lon":-0.77939,"postcode":"PO19 1QD","la":"Chichester","era":"other","nn":98,"risk":29,"cat":"green"},{"name":"Little Monster Tap","lat":50.83635,"lon":-0.77229,"postcode":"PO19 7JL","la":"Chichester","era":"mod","nn":25,"risk":28,"cat":"green"},{"name":"New Park Sports And Social Club","lat":50.83796,"lon":-0.7734,"postcode":"PO19 7XY","la":"Chichester","era":"mod","nn":131,"risk":29,"cat":"green"},{"name":"Old House At Home","lat":50.83037,"lon":-0.8843,"postcode":"PO18 8SU","la":"Chichester","era":"mod","nn":1251,"risk":59,"cat":"amber"},{"name":"Richmond Arms","lat":50.85979,"lon":-0.85683,"postcode":"PO18 8EA","la":"Chichester","era":"trad","nn":1157,"risk":59,"cat":"amber"},{"name":"Rocking Horse","lat":50.83323,"lon":-0.78001,"postcode":"PO19 1DP","la":"Chichester","era":"trad","nn":34,"risk":28,"cat":"green"},{"name":"Royal Oak","lat":50.94049,"lon":-0.83975,"postcode":"PO18 9JZ","la":"Chichester","era":"trad","nn":3337,"risk":74,"cat":"red"},{"name":"Selsey Football And Social Club","lat":50.73329,"lon":-0.79182,"postcode":"PO20 0QG","la":"Chichester","era":"mod","nn":47,"risk":29,"cat":"green"},{"name":"Sidlesham Memorial Hall","lat":50.77453,"lon":-0.7867,"postcode":"PO20 7RD","la":"Chichester","era":"other","nn":809,"risk":54,"cat":"amber"},{"name":"Silver Horseshoe Club","lat":50.76812,"lon":-0.85234,"postcode":"PO20 8JG","la":"Chichester","era":"trad","nn":775,"risk":54,"cat":"amber"},{"name":"Site Shop","lat":50.74564,"lon":-0.79622,"postcode":"PO20 9DR","la":"Chichester","era":"other","nn":0,"risk":33,"cat":"amber"},{"name":"Southbourne Club","lat":50.84663,"lon":-0.90704,"postcode":"PO10 8JX","la":"Chichester","era":"other","nn":1577,"risk":62,"cat":"red"},{"name":"Southwood Catering Services","lat":50.81691,"lon":-0.87521,"postcode":"PO18 8TH","la":"Chichester","era":"other","nn":385,"risk":51,"cat":"amber"},{"name":"Sports Bar","lat":50.76923,"lon":-0.87449,"postcode":"PO20 8EA","la":"Chichester","era":"other","nn":106,"risk":49,"cat":"amber"},{"name":"Stags Head","lat":50.86144,"lon":-0.92604,"postcode":"PO10 8UE","la":"Chichester","era":"trad","nn":0,"risk":46,"cat":"amber"},{"name":"The Anchor Bleu","lat":50.82873,"lon":-0.85785,"postcode":"PO18 8LS","la":"Chichester","era":"trad","nn":158,"risk":47,"cat":"amber"},{"name":"The Anchor Inn","lat":50.78487,"lon":-0.79041,"postcode":"PO20 7QU","la":"Chichester","era":"trad","nn":1179,"risk":59,"cat":"amber"},{"name":"The Barleycorn","lat":50.84302,"lon":-0.88399,"postcode":"PO18 8RS","la":"Chichester","era":"other","nn":693,"risk":53,"cat":"amber"},{"name":"The Bulls Head","lat":50.83524,"lon":-0.81242,"postcode":"PO19 3JP","la":"Chichester","era":"trad","nn":169,"risk":47,"cat":"amber"},{"name":"The Chantry/KTown/ChikBox/LockedLoaded/LocoLoco/ElRodeo/BurritoBandits/Pizza Amore/Dough Masters","lat":50.83391,"lon":-0.77998,"postcode":"PO19 1ES","la":"Chichester","era":"other","nn":41,"risk":29,"cat":"green"},{"name":"The Chichester Inn","lat":50.83675,"lon":-0.783,"postcode":"PO19 1RP","la":"Chichester","era":"trad","nn":100,"risk":29,"cat":"green"},{"name":"The Crab And Lobster","lat":50.76939,"lon":-0.77855,"postcode":"PO20 7NB","la":"Chichester","era":"other","nn":809,"risk":54,"cat":"amber"},{"name":"The Cricketers Inn","lat":50.86791,"lon":-0.92514,"postcode":"PO10 8TA","la":"Chichester","era":"trad","nn":723,"risk":51,"cat":"amber"},{"name":"The Crown Inn","lat":50.73314,"lon":-0.7912,"postcode":"PO20 0QL","la":"Chichester","era":"trad","nn":47,"risk":29,"cat":"green"},{"name":"The Eastgate PH","lat":50.83615,"lon":-0.77212,"postcode":"PO19 7JG","la":"Chichester","era":"other","nn":25,"risk":28,"cat":"green"},{"name":"The Embassy","lat":50.73465,"lon":-0.80624,"postcode":"PO20 9BH","la":"Chichester","era":"other","nn":968,"risk":40,"cat":"amber"},{"name":"The Escapist","lat":50.83803,"lon":-0.7794,"postcode":"PO19 1LJ","la":"Chichester","era":"other","nn":67,"risk":29,"cat":"green"},{"name":"The Fishermans Joy","lat":50.73056,"lon":-0.78408,"postcode":"PO20 0BU","la":"Chichester","era":"other","nn":577,"risk":32,"cat":"amber"},{"name":"The Foundry","lat":50.83244,"lon":-0.78142,"postcode":"PO19 8DH","la":"Chichester","era":"mod","nn":132,"risk":29,"cat":"green"},{"name":"The Fountain","lat":50.83349,"lon":-0.78029,"postcode":"PO19 1ES","la":"Chichester","era":"other","nn":0,"risk":28,"cat":"green"},{"name":"The Four Chesnuts","lat":50.83671,"lon":-0.76379,"postcode":"PO19 7EJ","la":"Chichester","era":"other","nn":589,"risk":32,"cat":"amber"},{"name":"The Fox Goes Free","lat":50.90926,"lon":-0.73865,"postcode":"PO18 0HU","la":"Chichester","era":"trad","nn":1677,"risk":62,"cat":"red"},{"name":"The George And Dragon","lat":50.83968,"lon":-0.77827,"postcode":"PO19 1NQ","la":"Chichester","era":"trad","nn":162,"risk":29,"cat":"green"},{"name":"The George Inn","lat":50.87785,"lon":-0.66638,"postcode":"PO18 0LT","la":"Chichester","era":"trad","nn":2718,"risk":70,"cat":"red"},{"name":"The Goodwood Hotel","lat":50.8663,"lon":-0.73316,"postcode":"PO18 0QB","la":"Chichester","era":"other","nn":1596,"risk":62,"cat":"red"},{"name":"The Gribble Inn","lat":50.83815,"lon":-0.72397,"postcode":"PO20 2BP","la":"Chichester","era":"trad","nn":1929,"risk":64,"cat":"red"},{"name":"The Hole In The Wall","lat":50.83682,"lon":-0.778,"postcode":"PO19 1NP","la":"Chichester","era":"other","nn":98,"risk":29,"cat":"green"},{"name":"The Hopp Inn","lat":50.73195,"lon":-0.79234,"postcode":"PO20 0QB","la":"Chichester","era":"trad","nn":36,"risk":28,"cat":"green"},{"name":"The Lamb Inn","lat":50.78647,"lon":-0.85833,"postcode":"PO20 8QA","la":"Chichester","era":"trad","nn":2084,"risk":65,"cat":"red"},{"name":"The Nags Head","lat":50.83683,"lon":-0.77286,"postcode":"PO19 7SJ","la":"Chichester","era":"trad","nn":67,"risk":29,"cat":"green"},{"name":"The Neptune Inn","lat":50.73214,"lon":-0.79275,"postcode":"PO20 0QE","la":"Chichester","era":"trad","nn":36,"risk":28,"cat":"green"},{"name":"The Old Cross","lat":50.83807,"lon":-0.77845,"postcode":"PO19 1LP","la":"Chichester","era":"trad","nn":67,"risk":29,"cat":"green"},{"name":"The Park Tavern","lat":50.83845,"lon":-0.77702,"postcode":"PO19 1NS","la":"Chichester","era":"other","nn":109,"risk":29,"cat":"green"},{"name":"The Richmond","lat":50.83056,"lon":-0.78247,"postcode":"PO19 8DT","la":"Chichester","era":"other","nn":200,"risk":30,"cat":"green"},{"name":"The Royal Oak","lat":50.86939,"lon":-0.77452,"postcode":"PO18 0AX","la":"Chichester","era":"trad","nn":2792,"risk":70,"cat":"red"},{"name":"The Selsey Arms","lat":50.90539,"lon":-0.78178,"postcode":"PO18 0QX","la":"Chichester","era":"trad","nn":3054,"risk":72,"cat":"red"},{"name":"The Selsey Private Club","lat":50.72965,"lon":-0.79497,"postcode":"PO20 9AN","la":"Chichester","era":"other","nn":316,"risk":30,"cat":"green"},{"name":"The Ship Inn","lat":50.80595,"lon":-0.86634,"postcode":"PO20 7AH","la":"Chichester","era":"trad","nn":87,"risk":49,"cat":"amber"},{"name":"The Shore Inn","lat":50.76829,"lon":-0.87471,"postcode":"PO20 8DZ","la":"Chichester","era":"trad","nn":106,"risk":49,"cat":"amber"},{"name":"The Spotted Cow","lat":50.81101,"lon":-0.77711,"postcode":"PO20 1PD","la":"Chichester","era":"other","nn":1935,"risk":64,"cat":"red"},{"name":"The Star And Garter","lat":50.90968,"lon":-0.71475,"postcode":"PO18 0JG","la":"Chichester","era":"other","nn":1677,"risk":62,"cat":"red"},{"name":"The Sussex Brewery","lat":50.84625,"lon":-0.92949,"postcode":"PO10 8AU","la":"Chichester","era":"other","nn":247,"risk":35,"cat":"amber"},{"name":"The Vestry","lat":50.83349,"lon":-0.78029,"postcode":"PO19 1ES","la":"Chichester","era":"other","nn":0,"risk":28,"cat":"green"},{"name":"The Wittering","lat":50.77959,"lon":-0.89583,"postcode":"PO20 8AD","la":"Chichester","era":"other","nn":1891,"risk":64,"cat":"red"},{"name":"The Woolpack","lat":50.83544,"lon":-0.81003,"postcode":"PO19 3JJ","la":"Chichester","era":"trad","nn":169,"risk":47,"cat":"amber"},{"name":"Victoria Inn","lat":50.91664,"lon":-0.90268,"postcode":"PO18 9EN","la":"Chichester","era":"trad","nn":3451,"risk":75,"cat":"red"},{"name":"Viking Club Bar","lat":50.7383,"lon":-0.79227,"postcode":"PO20 0ND","la":"Chichester","era":"trad","nn":150,"risk":29,"cat":"green"},{"name":"Walnut Tree Inn","lat":50.81657,"lon":-0.75102,"postcode":"PO20 1QB","la":"Chichester","era":"trad","nn":1935,"risk":64,"cat":"red"},{"name":"White Horse","lat":50.86144,"lon":-0.92604,"postcode":"PO10 8UE","la":"Chichester","era":"trad","nn":0,"risk":46,"cat":"amber"},{"name":"White Horse Theatre","lat":50.73899,"lon":-0.79411,"postcode":"PO20 9EJ","la":"Chichester","era":"trad","nn":150,"risk":29,"cat":"green"},{"name":"White Swan","lat":50.84199,"lon":-0.84774,"postcode":"PO18 8NG","la":"Chichester","era":"trad","nn":954,"risk":55,"cat":"amber"},{"name":"Zee Bar","lat":50.84428,"lon":-0.77444,"postcode":"PO19 6PE","la":"Chichester","era":"other","nn":406,"risk":31,"cat":"amber"},{"name":"Bird in Hand","lat":50.91317,"lon":-1.02875,"postcode":"PO8 9RX","la":"East Hampshire","era":"other","nn":1309,"risk":57,"cat":"amber"},{"name":"Centre Point Bar","lat":50.91405,"lon":-1.00093,"postcode":"PO8 9NW","la":"East Hampshire","era":"other","nn":0,"risk":25,"cat":"green"},{"name":"Clanfield Masonic Club","lat":50.91405,"lon":-1.00093,"postcode":"PO8 9NW","la":"East Hampshire","era":"trad","nn":0,"risk":25,"cat":"green"},{"name":"CM Sports","lat":50.91342,"lon":-1.01008,"postcode":"PO8 9PQ","la":"East Hampshire","era":"other","nn":627,"risk":30,"cat":"green"},{"name":"Fountain Inn","lat":50.89121,"lon":-0.96075,"postcode":"PO9 6AB","la":"East Hampshire","era":"trad","nn":10,"risk":30,"cat":"green"},{"name":"Hampshire Hog","lat":50.95242,"lon":-0.9839,"postcode":"PO8 0QD","la":"East Hampshire","era":"other","nn":1716,"risk":60,"cat":"amber"},{"name":"Harvester","lat":50.88199,"lon":-0.96581,"postcode":"PO9 6BB","la":"East Hampshire","era":"trad","nn":1084,"risk":55,"cat":"amber"},{"name":"Horndean FC","lat":50.9183,"lon":-1.0056,"postcode":"PO8 9NZ","la":"East Hampshire","era":"other","nn":574,"risk":29,"cat":"green"},{"name":"Red Lion","lat":50.91256,"lon":-0.99612,"postcode":"PO8 0DT","la":"East Hampshire","era":"trad","nn":141,"risk":26,"cat":"green"},{"name":"Red Lion","lat":50.93781,"lon":-0.96173,"postcode":"PO8 0BG","la":"East Hampshire","era":"trad","nn":2248,"risk":63,"cat":"red"},{"name":"Rowlands Castle Golf Club","lat":50.89233,"lon":-0.96581,"postcode":"PO9 6AE","la":"East Hampshire","era":"other","nn":366,"risk":33,"cat":"amber"},{"name":"The Castle Inn","lat":50.89314,"lon":-0.95517,"postcode":"PO9 6DA","la":"East Hampshire","era":"trad","nn":446,"risk":33,"cat":"amber"},{"name":"The Farmer Inn","lat":50.92419,"lon":-1.01298,"postcode":"PO8 0TD","la":"East Hampshire","era":"trad","nn":835,"risk":51,"cat":"amber"},{"name":"The George Inn","lat":50.90913,"lon":-0.95195,"postcode":"PO8 0AU","la":"East Hampshire","era":"trad","nn":1793,"risk":60,"cat":"amber"},{"name":"The Rising Sun T/A Kedy","lat":50.94822,"lon":-1.00746,"postcode":"PO8 0RN","la":"East Hampshire","era":"other","nn":1716,"risk":60,"cat":"amber"},{"name":"The Robin Hood Inn","lat":50.89124,"lon":-0.96089,"postcode":"PO9 6AB","la":"East Hampshire","era":"trad","nn":10,"risk":30,"cat":"green"},{"name":"The Ship and Bell","lat":50.91383,"lon":-0.99593,"postcode":"PO8 0BZ","la":"East Hampshire","era":"trad","nn":141,"risk":26,"cat":"green"},{"name":"Castle In The Air","lat":50.84831,"lon":-1.17983,"postcode":"PO16 0XH","la":"Fareham","era":"other","nn":263,"risk":30,"cat":"green"},{"name":"Delme Arms","lat":50.85273,"lon":-1.16522,"postcode":"PO16 8QY","la":"Fareham","era":"trad","nn":634,"risk":32,"cat":"amber"},{"name":"Duke Of Connaughts Own Club Fareham Ltd","lat":50.85134,"lon":-1.18127,"postcode":"PO16 0NS","la":"Fareham","era":"trad","nn":53,"risk":28,"cat":"green"},{"name":"Fareham Masonic Club","lat":50.85181,"lon":-1.18118,"postcode":"PO16 0NN","la":"Fareham","era":"trad","nn":53,"risk":28,"cat":"green"},{"name":"Fareham Snooker Club","lat":50.8592,"lon":-1.17223,"postcode":"PO16 8ST","la":"Fareham","era":"other","nn":171,"risk":29,"cat":"green"},{"name":"Fareham Town Football Club","lat":50.84509,"lon":-1.19098,"postcode":"PO14 1BJ","la":"Fareham","era":"other","nn":565,"risk":32,"cat":"amber"},{"name":"Fareham Working Mens Club","lat":50.84739,"lon":-1.1838,"postcode":"PO16 0TN","la":"Fareham","era":"trad","nn":116,"risk":29,"cat":"green"},{"name":"Funtley Social Club","lat":50.87073,"lon":-1.20009,"postcode":"PO17 5EE","la":"Fareham","era":"mod","nn":101,"risk":49,"cat":"amber"},{"name":"Hill Park Memorial Working Mens Club","lat":50.86133,"lon":-1.20775,"postcode":"PO15 6JD","la":"Fareham","era":"trad","nn":654,"risk":50,"cat":"amber"},{"name":"Ironmaster","lat":50.85218,"lon":-1.17635,"postcode":"PO16 0JW","la":"Fareham","era":"other","nn":0,"risk":28,"cat":"green"},{"name":"Jolly Miller","lat":50.86102,"lon":-1.19438,"postcode":"PO16 7LN","la":"Fareham","era":"trad","nn":939,"risk":54,"cat":"amber"},{"name":"Locks Heath Sports/Social Club","lat":50.85053,"lon":-1.2584,"postcode":"PO14 4JX","la":"Fareham","era":"mod","nn":587,"risk":52,"cat":"amber"},{"name":"Oast And Squire","lat":50.851,"lon":-1.21146,"postcode":"PO14 1RJ","la":"Fareham","era":"other","nn":526,"risk":51,"cat":"amber"},{"name":"Portchester Sailing Club","lat":50.83877,"lon":-1.11333,"postcode":"PO16 9QN","la":"Fareham","era":"other","nn":430,"risk":51,"cat":"amber"},{"name":"Portchester Social Club","lat":50.84619,"lon":-1.12262,"postcode":"PO16 9PP","la":"Fareham","era":"mod","nn":161,"risk":34,"cat":"amber"},{"name":"Red Lion","lat":50.84661,"lon":-1.12482,"postcode":"PO16 9XB","la":"Fareham","era":"trad","nn":52,"risk":28,"cat":"green"},{"name":"Sir Joseph Paxton","lat":50.85569,"lon":-1.25663,"postcode":"PO14 4PF","la":"Fareham","era":"other","nn":587,"risk":49,"cat":"amber"},{"name":"The Bird In Hand","lat":50.84669,"lon":-1.18257,"postcode":"PO16 0PZ","la":"Fareham","era":"other","nn":116,"risk":29,"cat":"green"},{"name":"The Cob And Pen","lat":50.85697,"lon":-1.17131,"postcode":"PO16 8SL","la":"Fareham","era":"other","nn":256,"risk":30,"cat":"green"},{"name":"The Cormorant","lat":50.84018,"lon":-1.11904,"postcode":"PO16 9QX","la":"Fareham","era":"other","nn":430,"risk":33,"cat":"amber"},{"name":"The Crofton","lat":50.82009,"lon":-1.22337,"postcode":"PO14 3QF","la":"Fareham","era":"other","nn":862,"risk":36,"cat":"amber"},{"name":"The Crofton Club","lat":50.82733,"lon":-1.21531,"postcode":"PO14 2JH","la":"Fareham","era":"other","nn":293,"risk":35,"cat":"amber"},{"name":"The Crown Public House","lat":50.85218,"lon":-1.17635,"postcode":"PO16 0JW","la":"Fareham","era":"trad","nn":0,"risk":28,"cat":"green"},{"name":"The Cuckoo Pint","lat":50.82879,"lon":-1.22138,"postcode":"PO14 3QP","la":"Fareham","era":"other","nn":456,"risk":36,"cat":"amber"},{"name":"The Fareham","lat":50.8541,"lon":-1.18319,"postcode":"PO16 7SA","la":"Fareham","era":"other","nn":115,"risk":29,"cat":"green"},{"name":"The Fishermans Rest","lat":50.85566,"lon":-1.23028,"postcode":"PO15 5RA","la":"Fareham","era":"other","nn":593,"risk":37,"cat":"amber"},{"name":"The Golden Bowler","lat":50.81489,"lon":-1.21427,"postcode":"PO14 2NQ","la":"Fareham","era":"other","nn":862,"risk":54,"cat":"amber"},{"name":"The Golden Lion","lat":50.85436,"lon":-1.17387,"postcode":"PO16 7AE","la":"Fareham","era":"trad","nn":298,"risk":30,"cat":"green"},{"name":"The Heathfield Arms","lat":50.85553,"lon":-1.20932,"postcode":"PO15 5BZ","la":"Fareham","era":"trad","nn":526,"risk":49,"cat":"amber"},{"name":"The Lord Arthur Lee","lat":50.85238,"lon":-1.18136,"postcode":"PO16 0EP","la":"Fareham","era":"other","nn":65,"risk":28,"cat":"green"},{"name":"The Miners Arms","lat":50.87103,"lon":-1.20144,"postcode":"PO17 5EF","la":"Fareham","era":"trad","nn":101,"risk":49,"cat":"amber"},{"name":"The Portcullis Taphouse","lat":50.84624,"lon":-1.12525,"postcode":"PO16 9UY","la":"Fareham","era":"mod","nn":52,"risk":28,"cat":"green"},{"name":"The Queens Head","lat":50.84993,"lon":-1.23494,"postcode":"PO14 4AQ","la":"Fareham","era":"trad","nn":135,"risk":34,"cat":"amber"},{"name":"The Red Lion","lat":50.82507,"lon":-1.21317,"postcode":"PO14 2LD","la":"Fareham","era":"trad","nn":293,"risk":35,"cat":"amber"},{"name":"The Seagull","lat":50.84614,"lon":-1.13865,"postcode":"PO16 9DB","la":"Fareham","era":"other","nn":273,"risk":35,"cat":"amber"},{"name":"The Slug and Lettuce also Loco Loco, El Rodeo Mexicano, Burrito Bandits K-Town, Chik Box, Locked and Loaded","lat":50.85224,"lon":-1.178,"postcode":"PO16 0JN","la":"Fareham","era":"other","nn":116,"risk":29,"cat":"green"},{"name":"The Trinity Tavern","lat":50.8531,"lon":-1.18364,"postcode":"PO16 7SD","la":"Fareham","era":"other","nn":105,"risk":29,"cat":"green"},{"name":"The West Street Alehouse","lat":50.85236,"lon":-1.18456,"postcode":"PO16 0EH","la":"Fareham","era":"other","nn":105,"risk":29,"cat":"green"},{"name":"The Wheatsheaf","lat":50.85072,"lon":-1.23348,"postcode":"PO14 4AD","la":"Fareham","era":"trad","nn":135,"risk":34,"cat":"amber"},{"name":"The White Horse","lat":50.85947,"lon":-1.16984,"postcode":"PO16 8TE","la":"Fareham","era":"trad","nn":171,"risk":29,"cat":"green"},{"name":"The Wicor Mill","lat":50.84372,"lon":-1.13798,"postcode":"PO16 9AR","la":"Fareham","era":"trad","nn":273,"risk":35,"cat":"amber"},{"name":"Titchfield Festival Theatre","lat":50.85321,"lon":-1.24358,"postcode":"PO14 4BG","la":"Fareham","era":"other","nn":707,"risk":35,"cat":"amber"},{"name":"Castle Tavern","lat":50.7955,"lon":-1.11817,"postcode":"PO12 1AD","la":"Gosport","era":"other","nn":207,"risk":29,"cat":"green"},{"name":"Emmas","lat":50.79548,"lon":-1.1211,"postcode":"PO12 1DF","la":"Gosport","era":"other","nn":85,"risk":28,"cat":"green"},{"name":"Foresters Arms","lat":50.79913,"lon":-1.14857,"postcode":"PO12 3JX","la":"Gosport","era":"trad","nn":319,"risk":30,"cat":"green"},{"name":"Gca Social Club","lat":50.79247,"lon":-1.14613,"postcode":"PO12 3PX","la":"Gosport","era":"mod","nn":407,"risk":31,"cat":"amber"},{"name":"Gosport And District Angling Club","lat":50.7784,"lon":-1.14912,"postcode":"PO12 2TR","la":"Gosport","era":"other","nn":544,"risk":36,"cat":"amber"},{"name":"Gosport And Fareham Rugby Club","lat":50.78882,"lon":-1.13431,"postcode":"PO12 2HE","la":"Gosport","era":"other","nn":427,"risk":31,"cat":"amber"},{"name":"Gosport Cruising Club","lat":50.80405,"lon":-1.1247,"postcode":"PO12 1AZ","la":"Gosport","era":"other","nn":367,"risk":30,"cat":"green"},{"name":"Gosport Masonic Hall","lat":50.79781,"lon":-1.12466,"postcode":"PO12 1BB","la":"Gosport","era":"trad","nn":216,"risk":29,"cat":"green"},{"name":"Gosport Pool Arena","lat":50.79512,"lon":-1.12265,"postcode":"PO12 1DU","la":"Gosport","era":"other","nn":62,"risk":28,"cat":"green"},{"name":"Green Dragon","lat":50.81253,"lon":-1.17207,"postcode":"PO13 9UE","la":"Gosport","era":"trad","nn":220,"risk":49,"cat":"amber"},{"name":"Gypsy Queen","lat":50.79585,"lon":-1.14387,"postcode":"PO12 3NW","la":"Gosport","era":"trad","nn":216,"risk":29,"cat":"green"},{"name":"Inn By The Sea","lat":50.79451,"lon":-1.19361,"postcode":"PO13 9AD","la":"Gosport","era":"trad","nn":647,"risk":50,"cat":"amber"},{"name":"Junction Tavern","lat":50.79895,"lon":-1.14404,"postcode":"PO12 3ND","la":"Gosport","era":"other","nn":154,"risk":29,"cat":"green"},{"name":"Lee On Solent Community Centre","lat":50.80463,"lon":-1.19328,"postcode":"PO13 8JU","la":"Gosport","era":"other","nn":591,"risk":34,"cat":"amber"},{"name":"Market House Tavern","lat":50.80294,"lon":-1.14766,"postcode":"PO12 3HF","la":"Gosport","era":"mod","nn":418,"risk":31,"cat":"amber"},{"name":"Premier Whitworth Road","lat":50.79772,"lon":-1.14304,"postcode":"PO12 3NJ","la":"Gosport","era":"other","nn":154,"risk":29,"cat":"green"},{"name":"Queens Head","lat":50.80515,"lon":-1.15263,"postcode":"PO12 3AR","la":"Gosport","era":"trad","nn":323,"risk":30,"cat":"green"},{"name":"Queens Hotel","lat":50.79644,"lon":-1.13428,"postcode":"PO12 1LG","la":"Gosport","era":"trad","nn":146,"risk":29,"cat":"green"},{"name":"Queens Social Club","lat":50.79514,"lon":-1.13405,"postcode":"PO12 1LF","la":"Gosport","era":"other","nn":126,"risk":29,"cat":"green"},{"name":"Rafa Club","lat":50.79197,"lon":-1.13917,"postcode":"PO12 2JE","la":"Gosport","era":"other","nn":128,"risk":29,"cat":"green"},{"name":"Rna Club","lat":50.82395,"lon":-1.16444,"postcode":"PO13 0AG","la":"Gosport","era":"other","nn":720,"risk":53,"cat":"amber"},{"name":"Rowner Bowling Club","lat":50.81062,"lon":-1.17125,"postcode":"PO13 9UR","la":"Gosport","era":"other","nn":220,"risk":49,"cat":"amber"},{"name":"Royal British Legion","lat":50.80801,"lon":-1.1534,"postcode":"PO12 3AX","la":"Gosport","era":"trad","nn":323,"risk":32,"cat":"amber"},{"name":"Seafire Tap Room Limited","lat":50.80175,"lon":-1.20156,"postcode":"PO13 9DA","la":"Gosport","era":"mod","nn":62,"risk":31,"cat":"amber"},{"name":"Stoke Snooker Club","lat":50.79435,"lon":-1.12981,"postcode":"PO12 1LT","la":"Gosport","era":"other","nn":174,"risk":29,"cat":"green"},{"name":"Stokes Bay Sailing Club","lat":50.78193,"lon":-1.15448,"postcode":"PO12 2BL","la":"Gosport","era":"other","nn":472,"risk":36,"cat":"amber"},{"name":"The Battle Of Trafalgar","lat":50.80034,"lon":-1.14167,"postcode":"PO12 3UU","la":"Gosport","era":"other","nn":92,"risk":28,"cat":"green"},{"name":"The Carisbrooke Arms","lat":50.82122,"lon":-1.17814,"postcode":"PO13 0QY","la":"Gosport","era":"trad","nn":541,"risk":51,"cat":"amber"},{"name":"The Cocked Hat Brewing Ltd","lat":50.79491,"lon":-1.16277,"postcode":"PO12 3TR","la":"Gosport","era":"other","nn":661,"risk":52,"cat":"amber"},{"name":"The Eagle","lat":50.79514,"lon":-1.13584,"postcode":"PO12 1PQ","la":"Gosport","era":"trad","nn":126,"risk":29,"cat":"green"},{"name":"The Fighting Cocks","lat":50.78288,"lon":-1.13195,"postcode":"PO12 2AJ","la":"Gosport","era":"other","nn":681,"risk":52,"cat":"amber"},{"name":"The Four-Ale Tap Room","lat":50.7939,"lon":-1.13217,"postcode":"PO12 1LS","la":"Gosport","era":"mod","nn":174,"risk":29,"cat":"green"},{"name":"The Fox","lat":50.79609,"lon":-1.12323,"postcode":"PO12 1BD","la":"Gosport","era":"trad","nn":83,"risk":28,"cat":"green"},{"name":"The Lost Room","lat":50.80183,"lon":-1.20243,"postcode":"PO13 9LD","la":"Gosport","era":"other","nn":62,"risk":33,"cat":"amber"},{"name":"The Lounge","lat":50.79953,"lon":-1.14143,"postcode":"PO12 3UW","la":"Gosport","era":"mod","nn":92,"risk":28,"cat":"green"},{"name":"The New Inn","lat":50.80673,"lon":-1.14286,"postcode":"PO12 4QU","la":"Gosport","era":"trad","nn":539,"risk":31,"cat":"amber"},{"name":"The Old Ship","lat":50.79878,"lon":-1.19987,"postcode":"PO13 9BW","la":"Gosport","era":"trad","nn":351,"risk":33,"cat":"amber"},{"name":"The Powder Monkey","lat":50.80714,"lon":-1.12655,"postcode":"PO12 4FL","la":"Gosport","era":"trad","nn":367,"risk":48,"cat":"amber"},{"name":"The Pray Inn","lat":50.79913,"lon":-1.13989,"postcode":"PO12 4TQ","la":"Gosport","era":"trad","nn":117,"risk":28,"cat":"green"},{"name":"The Seahorse","lat":50.78912,"lon":-1.16485,"postcode":"PO12 2TJ","la":"Gosport","era":"trad","nn":661,"risk":52,"cat":"amber"},{"name":"The Star","lat":50.79563,"lon":-1.12229,"postcode":"PO12 1DG","la":"Gosport","era":"other","nn":62,"risk":28,"cat":"green"},{"name":"The Three Tuns","lat":50.81383,"lon":-1.14483,"postcode":"PO12 4AB","la":"Gosport","era":"other","nn":556,"risk":37,"cat":"amber"},{"name":"The Urban Slice Ltd","lat":50.78488,"lon":-1.14966,"postcode":"PO12 2LD","la":"Gosport","era":"other","nn":0,"risk":30,"cat":"green"},{"name":"The Wyvern","lat":50.8099,"lon":-1.19443,"postcode":"PO13 9DS","la":"Gosport","era":"other","nn":591,"risk":52,"cat":"amber"},{"name":"Village Home","lat":50.78488,"lon":-1.14966,"postcode":"PO12 2LD","la":"Gosport","era":"other","nn":0,"risk":30,"cat":"green"},{"name":"White Hart","lat":50.79214,"lon":-1.13737,"postcode":"PO12 1SE","la":"Gosport","era":"trad","nn":128,"risk":29,"cat":"green"},{"name":"White Horse","lat":50.82547,"lon":-1.17441,"postcode":"PO13 0HU","la":"Gosport","era":"trad","nn":541,"risk":49,"cat":"amber"},{"name":"Windsor Castle","lat":50.8123,"lon":-1.1373,"postcode":"PO12 4JU","la":"Gosport","era":"other","nn":556,"risk":37,"cat":"amber"},{"name":"Wpm Sports And Social Club","lat":50.80061,"lon":-1.143,"postcode":"PO12 3JP","la":"Gosport","era":"mod","nn":98,"risk":28,"cat":"green"},{"name":"Avenue Lawn Tennis, Squash and Fitness Club","lat":50.85178,"lon":-0.96818,"postcode":"PO9 2RS","la":"Havant","era":"other","nn":513,"risk":31,"cat":"amber"},{"name":"Bar 18","lat":50.78157,"lon":-0.96497,"postcode":"PO11 9LL","la":"Havant","era":"mod","nn":960,"risk":54,"cat":"amber"},{"name":"Bedhampton Community Centre","lat":50.85428,"lon":-0.99799,"postcode":"PO9 3ES","la":"Havant","era":"other","nn":74,"risk":27,"cat":"green"},{"name":"Cowplain Social Club","lat":50.89668,"lon":-1.01611,"postcode":"PO8 8EN","la":"Havant","era":"mod","nn":114,"risk":45,"cat":"amber"},{"name":"Creating Chaos","lat":50.85404,"lon":-0.98163,"postcode":"PO9 1PY","la":"Havant","era":"other","nn":130,"risk":28,"cat":"green"},{"name":"Crown Bingo","lat":50.86822,"lon":-0.98273,"postcode":"PO9 5AN","la":"Havant","era":"trad","nn":158,"risk":28,"cat":"green"},{"name":"Denmead Queen","lat":50.88058,"lon":-1.0309,"postcode":"PO7 7EB","la":"Havant","era":"trad","nn":18,"risk":27,"cat":"green"},{"name":"Fox & Hounds","lat":50.87089,"lon":-1.02476,"postcode":"PO7 7BS","la":"Havant","era":"trad","nn":1043,"risk":57,"cat":"amber"},{"name":"Havant Ex-Servicemen Club","lat":50.85064,"lon":-0.98932,"postcode":"PO9 1LZ","la":"Havant","era":"other","nn":338,"risk":29,"cat":"green"},{"name":"Havant Rugby Club","lat":50.85685,"lon":-0.9933,"postcode":"PO9 3EJ","la":"Havant","era":"other","nn":363,"risk":30,"cat":"green"},{"name":"Havant Sports Club","lat":50.8533,"lon":-0.98481,"postcode":"PO9 1HE","la":"Havant","era":"other","nn":111,"risk":28,"cat":"green"},{"name":"Heroes Pub","lat":50.88045,"lon":-1.03103,"postcode":"PO7 7DZ","la":"Havant","era":"other","nn":18,"risk":27,"cat":"green"},{"name":"Infinity Bar","lat":50.79343,"lon":-0.97701,"postcode":"PO11 9ED","la":"Havant","era":"other","nn":1567,"risk":60,"cat":"amber"},{"name":"Jeff Borg Catering @ Purbrook Centre Members Club","lat":50.86705,"lon":-1.04252,"postcode":"PO7 5LX","la":"Havant","era":"other","nn":667,"risk":52,"cat":"amber"},{"name":"JJ's","lat":50.84543,"lon":-0.93757,"postcode":"PO10 7EG","la":"Havant","era":"other","nn":15,"risk":32,"cat":"amber"},{"name":"Langstone Sailing Club","lat":50.83827,"lon":-0.98141,"postcode":"PO9 1RD","la":"Havant","era":"other","nn":0,"risk":44,"cat":"amber"},{"name":"Leigh Park Bowling Club","lat":50.86801,"lon":-0.98051,"postcode":"PO9 5AN","la":"Havant","era":"other","nn":158,"risk":28,"cat":"green"},{"name":"Leigh Park Working Mens Club","lat":50.87002,"lon":-0.98995,"postcode":"PO9 5BD","la":"Havant","era":"trad","nn":251,"risk":29,"cat":"green"},{"name":"Lily's Bar","lat":50.77892,"lon":-0.95198,"postcode":"PO11 9RD","la":"Havant","era":"other","nn":960,"risk":54,"cat":"amber"},{"name":"Lord Raglan","lat":50.8464,"lon":-0.933,"postcode":"PO10 7BJ","la":"Havant","era":"other","nn":247,"risk":34,"cat":"amber"},{"name":"Motiv8","lat":50.86628,"lon":-0.98561,"postcode":"PO9 5AA","la":"Havant","era":"other","nn":295,"risk":29,"cat":"green"},{"name":"Nineteen @ Portsmouth Golf Course","lat":50.85833,"lon":-1.03088,"postcode":"PO7 5QL","la":"Havant","era":"other","nn":122,"risk":48,"cat":"amber"},{"name":"Number 73","lat":50.8785,"lon":-1.03345,"postcode":"PO7 7EX","la":"Havant","era":"other","nn":89,"risk":28,"cat":"green"},{"name":"Old House At Home","lat":50.85077,"lon":-0.98162,"postcode":"PO9 1DA","la":"Havant","era":"mod","nn":81,"risk":28,"cat":"green"},{"name":"Purbrook Cricket Club","lat":50.86644,"lon":-1.05198,"postcode":"PO7 5RU","la":"Winchester","era":"other","nn":667,"risk":54,"cat":"amber"},{"name":"Regal Catering","lat":50.85386,"lon":-0.97878,"postcode":"PO9 1BH","la":"Havant","era":"other","nn":186,"risk":28,"cat":"green"},{"name":"Royal Naval Association","lat":50.88461,"lon":-1.03455,"postcode":"PO7 7XD","la":"Havant","era":"trad","nn":57,"risk":27,"cat":"green"},{"name":"Six Bells Public House","lat":50.85294,"lon":-0.981,"postcode":"PO9 1PT","la":"Havant","era":"other","nn":130,"risk":28,"cat":"green"},{"name":"The Bellair Club","lat":50.85092,"lon":-0.97609,"postcode":"PO9 2RG","la":"Havant","era":"other","nn":59,"risk":27,"cat":"green"},{"name":"The Blue Bell Inn","lat":50.8453,"lon":-0.93758,"postcode":"PO10 7EG","la":"Havant","era":"trad","nn":15,"risk":32,"cat":"amber"},{"name":"The Centurion","lat":50.85936,"lon":-1.03028,"postcode":"PO7 5RE","la":"Havant","era":"other","nn":122,"risk":48,"cat":"amber"},{"name":"The Falcon","lat":50.89124,"lon":-1.04598,"postcode":"PO7 6XF","la":"Havant","era":"other","nn":1016,"risk":57,"cat":"amber"},{"name":"The Golden Lion","lat":50.85491,"lon":-0.99834,"postcode":"PO9 3EY","la":"Havant","era":"trad","nn":74,"risk":27,"cat":"green"},{"name":"The Havant Club","lat":50.85141,"lon":-0.98104,"postcode":"PO9 1AA","la":"Havant","era":"other","nn":81,"risk":28,"cat":"green"},{"name":"The Heron","lat":50.86586,"lon":-0.97842,"postcode":"PO9 2EN","la":"Havant","era":"other","nn":203,"risk":28,"cat":"green"},{"name":"The Langbrook Farm","lat":50.84761,"lon":-0.9898,"postcode":"PO9 1SA","la":"Havant","era":"other","nn":338,"risk":29,"cat":"green"},{"name":"The Parchment Makers","lat":50.85233,"lon":-0.98448,"postcode":"PO9 1HE","la":"Havant","era":"other","nn":111,"risk":28,"cat":"green"},{"name":"The Phoenix Club","lat":50.87912,"lon":-1.03264,"postcode":"PO7 7HE","la":"Havant","era":"other","nn":89,"risk":28,"cat":"green"},{"name":"The Prince of Wales","lat":50.85359,"lon":-0.99291,"postcode":"PO9 1LR","la":"Havant","era":"trad","nn":363,"risk":30,"cat":"green"},{"name":"The Rainbow Public House","lat":50.89319,"lon":-1.03184,"postcode":"PO8 8SE","la":"Havant","era":"other","nn":885,"risk":38,"cat":"amber"},{"name":"The Robin Hood","lat":50.85117,"lon":-0.98267,"postcode":"PO9 1EE","la":"Havant","era":"other","nn":86,"risk":28,"cat":"green"},{"name":"The Royal Oak","lat":50.83926,"lon":-0.98065,"postcode":"PO9 1RY","la":"Havant","era":"trad","nn":122,"risk":45,"cat":"amber"},{"name":"The Ship Inn","lat":50.83827,"lon":-0.98141,"postcode":"PO9 1RD","la":"Havant","era":"trad","nn":0,"risk":44,"cat":"amber"},{"name":"The Spotted Cow","lat":50.89758,"lon":-1.01689,"postcode":"PO8 8XJ","la":"Havant","era":"other","nn":114,"risk":45,"cat":"amber"},{"name":"The Swallow","lat":50.87227,"lon":-0.99023,"postcode":"PO9 5BL","la":"Havant","era":"other","nn":251,"risk":31,"cat":"amber"},{"name":"The Swan","lat":50.86073,"lon":-1.00179,"postcode":"PO9 3TH","la":"Havant","era":"trad","nn":691,"risk":37,"cat":"amber"},{"name":"The Westleigh","lat":50.86645,"lon":-0.97568,"postcode":"PO9 5TH","la":"Havant","era":"other","nn":203,"risk":31,"cat":"amber"},{"name":"The Wheelwrights Arms","lat":50.85073,"lon":-0.9753,"postcode":"PO9 2SN","la":"Havant","era":"trad","nn":59,"risk":27,"cat":"green"},{"name":"The Woodpecker","lat":50.88577,"lon":-1.02727,"postcode":"PO7 7RL","la":"Havant","era":"other","nn":494,"risk":30,"cat":"green"},{"name":"Waterlooville Golf Club","lat":50.89264,"lon":-1.00832,"postcode":"PO8 8AP","la":"Havant","era":"other","nn":708,"risk":49,"cat":"amber"},{"name":"Waterlooville Sports Bar","lat":50.88508,"lon":-1.03423,"postcode":"PO7 7XG","la":"Havant","era":"other","nn":57,"risk":27,"cat":"green"},{"name":"Ambassador Free House Ltd","lat":50.69602,"lon":-1.32134,"postcode":"PO30 5LE","la":"Isle of Wight","era":"mod","nn":669,"risk":46,"cat":"amber"},{"name":"Artisan Cocktail Bar & Grill","lat":50.73096,"lon":-1.16184,"postcode":"PO33 2DT","la":"Isle of Wight","era":"mod","nn":58,"risk":24,"cat":"green"},{"name":"Bar Fever","lat":50.69897,"lon":-1.28924,"postcode":"PO30 2TA","la":"Isle of Wight","era":"mod","nn":216,"risk":25,"cat":"green"},{"name":"Bembridge Bowling Club","lat":50.68742,"lon":-1.08752,"postcode":"PO35 5UP","la":"Isle of Wight","era":"other","nn":266,"risk":30,"cat":"green"},{"name":"Bembridge Sailing Club","lat":50.69245,"lon":-1.09358,"postcode":"PO35 5NR","la":"Isle of Wight","era":"other","nn":485,"risk":32,"cat":"amber"},{"name":"Bonchurch Inn","lat":50.6011,"lon":-1.1867,"postcode":"PO38 1NU","la":"Isle of Wight","era":"trad","nn":1074,"risk":54,"cat":"amber"},{"name":"Brading Town Football Club","lat":50.68385,"lon":-1.14319,"postcode":"PO36 0AR","la":"Isle of Wight","era":"other","nn":264,"risk":43,"cat":"amber"},{"name":"Buddle Inn","lat":50.57687,"lon":-1.29843,"postcode":"PO38 2NE","la":"Isle of Wight","era":"trad","nn":1575,"risk":57,"cat":"amber"},{"name":"Camphill Community Sports Club CIC","lat":50.71004,"lon":-1.31304,"postcode":"PO30 5ZA","la":"Isle of Wight","era":"other","nn":1590,"risk":57,"cat":"amber"},{"name":"Caulkheads","lat":50.65828,"lon":-1.15012,"postcode":"PO36 8AY","la":"Isle of Wight","era":"trad","nn":191,"risk":25,"cat":"green"},{"name":"Cheverton Copse Holiday Park","lat":50.65099,"lon":-1.18815,"postcode":"PO36 0JP","la":"Isle of Wight","era":"other","nn":1485,"risk":56,"cat":"amber"},{"name":"Chine Inn","lat":50.6266,"lon":-1.17478,"postcode":"PO37 6BW","la":"Isle of Wight","era":"trad","nn":175,"risk":25,"cat":"green"},{"name":"Chine Masonic Club","lat":50.62696,"lon":-1.17806,"postcode":"PO37 6AA","la":"Isle of Wight","era":"trad","nn":142,"risk":24,"cat":"green"},{"name":"Coburgs","lat":50.73224,"lon":-1.16195,"postcode":"PO33 2LN","la":"Isle of Wight","era":"other","nn":115,"risk":24,"cat":"green"},{"name":"Cowes Ale House","lat":50.76089,"lon":-1.29738,"postcode":"PO31 7BE","la":"Isle of Wight","era":"other","nn":59,"risk":24,"cat":"green"},{"name":"Cowes Combined Services And Social Club","lat":50.76401,"lon":-1.29808,"postcode":"PO31 7AJ","la":"Isle of Wight","era":"mod","nn":55,"risk":24,"cat":"green"},{"name":"Cowes Conservative Club","lat":50.76044,"lon":-1.29782,"postcode":"PO31 7SE","la":"Isle of Wight","era":"other","nn":59,"risk":24,"cat":"green"},{"name":"Cowes Corinthian Yacht Club","lat":50.76001,"lon":-1.29568,"postcode":"PO31 7NU","la":"Isle of Wight","era":"other","nn":155,"risk":25,"cat":"green"},{"name":"Cowes Golf Club","lat":50.76046,"lon":-1.31029,"postcode":"PO31 8HN","la":"Isle of Wight","era":"other","nn":344,"risk":26,"cat":"green"},{"name":"Cowes Grazing @ The Compass Bar","lat":50.76167,"lon":-1.29803,"postcode":"PO31 7RZ","la":"Isle of Wight","era":"other","nn":0,"risk":24,"cat":"green"},{"name":"Cowes Sports Football Club","lat":50.75774,"lon":-1.30799,"postcode":"PO31 7NT","la":"Isle of Wight","era":"other","nn":344,"risk":26,"cat":"green"},{"name":"Crab And Lobster","lat":50.68189,"lon":-1.0739,"postcode":"PO35 5TR","la":"Isle of Wight","era":"other","nn":814,"risk":49,"cat":"amber"},{"name":"Crab And Lobster Tap","lat":50.59609,"lon":-1.20557,"postcode":"PO38 1TP","la":"Isle of Wight","era":"mod","nn":44,"risk":24,"cat":"green"},{"name":"Crab Inn","lat":50.62575,"lon":-1.17867,"postcode":"PO37 6NS","la":"Isle of Wight","era":"trad","nn":109,"risk":24,"cat":"green"},{"name":"Craft Catering","lat":50.70016,"lon":-1.29667,"postcode":"PO30 5ET","la":"Isle of Wight","era":"mod","nn":0,"risk":24,"cat":"green"},{"name":"East Cowes Conservative Club","lat":50.75727,"lon":-1.2881,"postcode":"PO32 6EP","la":"Isle of Wight","era":"other","nn":60,"risk":24,"cat":"green"},{"name":"East Cowes Liberal Club Ltd","lat":50.75765,"lon":-1.28749,"postcode":"PO32 6RU","la":"Isle of Wight","era":"other","nn":60,"risk":24,"cat":"green"},{"name":"East Cowes Victoria Football Club","lat":50.74609,"lon":-1.27753,"postcode":"PO32 6PA","la":"Isle of Wight","era":"trad","nn":758,"risk":49,"cat":"amber"},{"name":"Fairway Sports Complex","lat":50.66347,"lon":-1.31145,"postcode":"PO36 9JH","la":"Isle of Wight","era":"other","nn":0,"risk":44,"cat":"amber"},{"name":"Falcon Hotel","lat":50.63167,"lon":-1.1783,"postcode":"PO37 7AE","la":"Isle of Wight","era":"other","nn":121,"risk":24,"cat":"green"},{"name":"Fishermans Cottage","lat":50.62788,"lon":-1.17335,"postcode":"PO37 6BN","la":"Isle of Wight","era":"other","nn":97,"risk":24,"cat":"green"},{"name":"Flanagans","lat":50.65338,"lon":-1.15546,"postcode":"PO36 8JR","la":"Isle of Wight","era":"other","nn":108,"risk":24,"cat":"green"},{"name":"Folly Inn","lat":50.73378,"lon":-1.28079,"postcode":"PO32 6NB","la":"Isle of Wight","era":"trad","nn":1387,"risk":56,"cat":"amber"},{"name":"Fountain Inn","lat":50.76298,"lon":-1.29753,"postcode":"PO31 7AW","la":"Isle of Wight","era":"trad","nn":83,"risk":24,"cat":"green"},{"name":"Freshwater Bay Golf Club - Bar","lat":50.66347,"lon":-1.31145,"postcode":"PO40 9TZ","la":"Isle of Wight","era":"other","nn":0,"risk":44,"cat":"amber"},{"name":"Freshwater Conservative Club","lat":50.68067,"lon":-1.52554,"postcode":"PO40 9ES","la":"Isle of Wight","era":"other","nn":241,"risk":30,"cat":"green"},{"name":"Fumo33","lat":50.73045,"lon":-1.16206,"postcode":"PO33 2LE","la":"Isle of Wight","era":"other","nn":57,"risk":24,"cat":"green"},{"name":"Galleybagger Inn","lat":50.65369,"lon":-1.30875,"postcode":"PO30 3ER","la":"Isle of Wight","era":"trad","nn":1103,"risk":54,"cat":"amber"},{"name":"Gurnard Sailing Club","lat":50.76024,"lon":-1.32434,"postcode":"PO31 8LD","la":"Isle of Wight","era":"other","nn":602,"risk":30,"cat":"green"},{"name":"Hare And Hounds","lat":50.6859,"lon":-1.24662,"postcode":"PO30 2NU","la":"Isle of Wight","era":"trad","nn":872,"risk":47,"cat":"amber"},{"name":"High Park Tavern","lat":50.71975,"lon":-1.14584,"postcode":"PO33 1AF","la":"Isle of Wight","era":"other","nn":679,"risk":31,"cat":"amber"},{"name":"High Street Bar Company","lat":50.59542,"lon":-1.204,"postcode":"PO38 1LT","la":"Isle of Wight","era":"mod","nn":103,"risk":24,"cat":"green"},{"name":"Highdown Inn","lat":50.67111,"lon":-1.5429,"postcode":"PO39 0HY","la":"Isle of Wight","era":"trad","nn":1421,"risk":56,"cat":"amber"},{"name":"Hogshead","lat":50.70028,"lon":-1.29151,"postcode":"PO30 1SS","la":"Isle of Wight","era":"trad","nn":7,"risk":24,"cat":"green"},{"name":"Horse And Groom","lat":50.70112,"lon":-1.43824,"postcode":"PO30 4NW","la":"Isle of Wight","era":"trad","nn":1654,"risk":58,"cat":"amber"},{"name":"IOW Indoor Bowls Club","lat":50.71131,"lon":-1.14549,"postcode":"PO33 1QG","la":"Isle of Wight","era":"other","nn":356,"risk":31,"cat":"amber"},{"name":"IOW Rugby Football Club","lat":50.72863,"lon":-1.23776,"postcode":"PO33 4NQ","la":"Isle of Wight","era":"other","nn":585,"risk":45,"cat":"amber"},{"name":"Island Sailing Club","lat":50.76446,"lon":-1.2984,"postcode":"PO31 7RE","la":"Isle of Wight","era":"other","nn":22,"risk":24,"cat":"green"},{"name":"Isle Of Wight Community Club - Bar","lat":50.75615,"lon":-1.31265,"postcode":"PO31 7NP","la":"Isle of Wight","era":"other","nn":111,"risk":24,"cat":"green"},{"name":"JD Wetherspoon","lat":50.73053,"lon":-1.16286,"postcode":"PO33 2LF","la":"Isle of Wight","era":"other","nn":0,"risk":24,"cat":"green"},{"name":"John's Club","lat":50.72059,"lon":-1.15538,"postcode":"PO33 1EG","la":"Isle of Wight","era":"other","nn":485,"risk":27,"cat":"green"},{"name":"Laura Sadler Catering","lat":50.72799,"lon":-1.16398,"postcode":"PO33 2PY","la":"Isle of Wight","era":"other","nn":53,"risk":24,"cat":"green"},{"name":"Man In The Moon","lat":50.70017,"lon":-1.29625,"postcode":"PO30 5HB","la":"Isle of Wight","era":"other","nn":0,"risk":24,"cat":"green"},{"name":"McCarthy's Bar And Restaurant","lat":50.66106,"lon":-1.16335,"postcode":"PO36 9PS","la":"Isle of Wight","era":"mod","nn":456,"risk":27,"cat":"green"},{"name":"Medina 35 Masonic Lodge","lat":50.76456,"lon":-1.30088,"postcode":"PO31 7QZ","la":"Isle of Wight","era":"trad","nn":134,"risk":24,"cat":"green"},{"name":"Mill Bay Inn","lat":50.59333,"lon":-1.20623,"postcode":"PO38 1JR","la":"Isle of Wight","era":"trad","nn":143,"risk":25,"cat":"green"},{"name":"Newport (IW) Social Club","lat":50.70017,"lon":-1.29625,"postcode":"PO30 5HB","la":"Isle of Wight","era":"mod","nn":0,"risk":24,"cat":"green"},{"name":"Newport Ale House","lat":50.70068,"lon":-1.29397,"postcode":"PO30 5AZ","la":"Isle of Wight","era":"other","nn":122,"risk":24,"cat":"green"},{"name":"Newport Conservative Club","lat":50.69932,"lon":-1.29366,"postcode":"PO30 1XB","la":"Isle of Wight","era":"other","nn":39,"risk":24,"cat":"green"},{"name":"Newport Golf Club","lat":50.68888,"lon":-1.28704,"postcode":"PO30 3BA","la":"Isle of Wight","era":"other","nn":1124,"risk":54,"cat":"amber"},{"name":"Newport Masonic Club (Bar)","lat":50.70016,"lon":-1.29667,"postcode":"PO30 5ET","la":"Isle of Wight","era":"trad","nn":0,"risk":24,"cat":"green"},{"name":"Newport Parish Council","lat":50.69594,"lon":-1.30472,"postcode":"PO30 5AH","la":"Isle of Wight","era":"other","nn":511,"risk":27,"cat":"green"},{"name":"Northwood Cricket Club","lat":50.75518,"lon":-1.31304,"postcode":"PO31 7NN","la":"Isle of Wight","era":"other","nn":111,"risk":24,"cat":"green"},{"name":"Old Village Inn","lat":50.68842,"lon":-1.09094,"postcode":"PO35 5SF","la":"Isle of Wight","era":"trad","nn":266,"risk":30,"cat":"green"},{"name":"Osborne Golf Club","lat":50.75111,"lon":-1.27025,"postcode":"PO32 6JX","la":"Isle of Wight","era":"other","nn":758,"risk":49,"cat":"amber"},{"name":"Osborne Masonic Club","lat":50.75603,"lon":-1.28782,"postcode":"PO32 6RY","la":"Isle of Wight","era":"trad","nn":140,"risk":24,"cat":"green"},{"name":"Painters Arms","lat":50.76124,"lon":-1.29846,"postcode":"PO31 7TA","la":"Isle of Wight","era":"trad","nn":48,"risk":24,"cat":"green"},{"name":"Pier View","lat":50.76228,"lon":-1.29821,"postcode":"PO31 7RY","la":"Isle of Wight","era":"other","nn":28,"risk":24,"cat":"green"},{"name":"Plough And Barleycorn","lat":50.63058,"lon":-1.17709,"postcode":"PO37 6DB","la":"Isle of Wight","era":"trad","nn":59,"risk":24,"cat":"green"},{"name":"Poppies","lat":50.63119,"lon":-1.18039,"postcode":"PO37 7LN","la":"Isle of Wight","era":"other","nn":0,"risk":24,"cat":"green"},{"name":"Porchfield Cricket Club","lat":50.71297,"lon":-1.36088,"postcode":"PO30 4LU","la":"Isle of Wight","era":"other","nn":893,"risk":50,"cat":"amber"},{"name":"Pot Black","lat":50.63061,"lon":-1.17793,"postcode":"PO37 7AF","la":"Isle of Wight","era":"other","nn":59,"risk":24,"cat":"green"},{"name":"Railway Inn","lat":50.72477,"lon":-1.15736,"postcode":"PO33 2RT","la":"Isle of Wight","era":"trad","nn":385,"risk":26,"cat":"green"},{"name":"Red Lion","lat":50.68428,"lon":-1.51141,"postcode":"PO40 9BP","la":"Isle of Wight","era":"trad","nn":945,"risk":50,"cat":"amber"},{"name":"Royal British Legion Club Shanklin","lat":50.63119,"lon":-1.18039,"postcode":"PO37 7LN","la":"Isle of Wight","era":"trad","nn":0,"risk":24,"cat":"green"},{"name":"Royal British Legion Social Club (Ventnor) Ltd","lat":50.59681,"lon":-1.20034,"postcode":"PO38 1LZ","la":"Isle of Wight","era":"other","nn":301,"risk":26,"cat":"green"},{"name":"Royal Ocean Racing Club Ltd Cowes","lat":50.76603,"lon":-1.30192,"postcode":"PO31 7QU","la":"Isle of Wight","era":"trad","nn":78,"risk":24,"cat":"green"},{"name":"Royal Solent Yacht Club","lat":50.70611,"lon":-1.49965,"postcode":"PO41 0NS","la":"Isle of Wight","era":"trad","nn":21,"risk":29,"cat":"green"},{"name":"Royal Victoria Yacht Club","lat":50.73322,"lon":-1.21213,"postcode":"PO33 4EU","la":"Isle of Wight","era":"trad","nn":0,"risk":44,"cat":"amber"},{"name":"Royal Yacht Squadron","lat":50.76657,"lon":-1.30123,"postcode":"PO31 7QT","la":"Isle of Wight","era":"trad","nn":78,"risk":24,"cat":"green"},{"name":"Ryde Cricket Club","lat":50.6983,"lon":-1.15148,"postcode":"PO33 4AP","la":"Isle of Wight","era":"other","nn":1506,"risk":57,"cat":"amber"},{"name":"Ryde Golf Club","lat":50.72964,"lon":-1.17511,"postcode":"PO33 3NF","la":"Isle of Wight","era":"other","nn":493,"risk":27,"cat":"green"},{"name":"Ryde Lawn Tennis & Croquet Club","lat":50.72127,"lon":-1.17278,"postcode":"PO33 3LJ","la":"Isle of Wight","era":"other","nn":325,"risk":26,"cat":"green"},{"name":"Ryde Marina Bowls Club","lat":50.7317,"lon":-1.15336,"postcode":"PO33 1JA","la":"Isle of Wight","era":"other","nn":251,"risk":25,"cat":"green"},{"name":"Ryde Rowing Club","lat":50.72814,"lon":-1.14352,"postcode":"PO33 1ND","la":"Isle of Wight","era":"other","nn":620,"risk":30,"cat":"green"},{"name":"Ryde Social Club","lat":50.7236,"lon":-1.16998,"postcode":"PO33 3DQ","la":"Isle of Wight","era":"mod","nn":284,"risk":25,"cat":"green"},{"name":"Sandown & Shanklin Rugby FC","lat":50.65615,"lon":-1.16524,"postcode":"PO36 9ES","la":"Isle of Wight","era":"other","nn":489,"risk":27,"cat":"green"},{"name":"Sandown Bowls & Sports Club (1926) Ltd","lat":50.65709,"lon":-1.14754,"postcode":"PO36 8AT","la":"Isle of Wight","era":"other","nn":191,"risk":25,"cat":"green"},{"name":"Sandown Conservative \\\\& Unionist Club","lat":50.65559,"lon":-1.15417,"postcode":"PO36 8HD","la":"Isle of Wight","era":"other","nn":95,"risk":24,"cat":"green"},{"name":"Sandown Masonic Centre","lat":50.65427,"lon":-1.15896,"postcode":"PO36 8LF","la":"Isle of Wight","era":"trad","nn":173,"risk":25,"cat":"green"},{"name":"Scruffy Jacks","lat":50.65187,"lon":-1.15758,"postcode":"PO36 8JS","la":"Isle of Wight","era":"other","nn":225,"risk":25,"cat":"green"},{"name":"Sea View Yacht Club Limited","lat":50.7215,"lon":-1.11036,"postcode":"PO34 5HB","la":"Isle of Wight","era":"other","nn":1115,"risk":54,"cat":"amber"},{"name":"Shanklin & Sandown Golf Club - Bar","lat":50.66149,"lon":-1.16979,"postcode":"PO36 9PR","la":"Isle of Wight","era":"other","nn":456,"risk":44,"cat":"amber"},{"name":"Shanklin Bowling Club","lat":50.6325,"lon":-1.18123,"postcode":"PO37 7LD","la":"Isle of Wight","era":"other","nn":158,"risk":25,"cat":"green"},{"name":"Shanklin Conservative Club","lat":50.62946,"lon":-1.17785,"postcode":"PO37 6AU","la":"Isle of Wight","era":"other","nn":128,"risk":24,"cat":"green"},{"name":"Shanklin Cricket Club","lat":50.62628,"lon":-1.18425,"postcode":"PO37 6QB","la":"Isle of Wight","era":"other","nn":389,"risk":26,"cat":"green"},{"name":"Shorwell Social Club","lat":50.64119,"lon":-1.35613,"postcode":"PO30 3JT","la":"Isle of Wight","era":"mod","nn":369,"risk":46,"cat":"amber"},{"name":"Simeon Arms","lat":50.72957,"lon":-1.15203,"postcode":"PO33 1JG","la":"Isle of Wight","era":"trad","nn":158,"risk":25,"cat":"green"},{"name":"Slug \\\\& Lettuce","lat":50.70031,"lon":-1.2916,"postcode":"PO30 1SS","la":"Isle of Wight","era":"other","nn":7,"risk":24,"cat":"green"},{"name":"Southern Vectis Social Club","lat":50.69897,"lon":-1.29366,"postcode":"PO30 1JE","la":"Isle of Wight","era":"mod","nn":0,"risk":24,"cat":"green"},{"name":"Sportsmans Rest IOW Ltd","lat":50.71911,"lon":-1.36906,"postcode":"PO30 4LP","la":"Isle of Wight","era":"other","nn":893,"risk":50,"cat":"amber"},{"name":"Star Inn","lat":50.61384,"lon":-1.22233,"postcode":"PO38 3BY","la":"Isle of Wight","era":"trad","nn":1861,"risk":59,"cat":"amber"},{"name":"Steve's Bar","lat":50.69574,"lon":-1.09925,"postcode":"PO33 1YB","la":"Isle of Wight","era":"other","nn":542,"risk":47,"cat":"amber"},{"name":"Strings Bar \\\\& Venue","lat":50.69782,"lon":-1.29451,"postcode":"PO30 1RR","la":"Isle of Wight","era":"mod","nn":141,"risk":24,"cat":"green"},{"name":"Sun Inn","lat":50.65126,"lon":-1.42468,"postcode":"PO30 4EH","la":"Isle of Wight","era":"trad","nn":4936,"risk":81,"cat":"red"},{"name":"The Anchor Inn","lat":50.76138,"lon":-1.29782,"postcode":"PO31 7SA","la":"Isle of Wight","era":"trad","nn":35,"risk":24,"cat":"green"},{"name":"The Bargemans Rest","lat":50.70355,"lon":-1.29158,"postcode":"PO30 5BS","la":"Isle of Wight","era":"other","nn":222,"risk":25,"cat":"green"},{"name":"The Bayside Lounge","lat":50.68748,"lon":-1.53829,"postcode":"PO39 0DA","la":"Isle of Wight","era":"mod","nn":432,"risk":44,"cat":"amber"},{"name":"The Binstead Arms Limited","lat":50.72782,"lon":-1.1815,"postcode":"PO33 3RD","la":"Isle of Wight","era":"trad","nn":493,"risk":32,"cat":"amber"},{"name":"The Birdham At Bembridge","lat":50.68566,"lon":-1.08382,"postcode":"PO35 5UH","la":"Isle of Wight","era":"other","nn":326,"risk":31,"cat":"amber"},{"name":"The Blacksheep Bar","lat":50.73053,"lon":-1.16286,"postcode":"PO33 2LF","la":"Isle of Wight","era":"other","nn":0,"risk":24,"cat":"green"},{"name":"The Blacksmiths","lat":50.68925,"lon":-1.34317,"postcode":"PO30 5SS","la":"Isle of Wight","era":"other","nn":1712,"risk":58,"cat":"amber"},{"name":"The Boathouse","lat":50.72447,"lon":-1.12549,"postcode":"PO34 5AW","la":"Isle of Wight","era":"other","nn":1115,"risk":54,"cat":"amber"},{"name":"The Bugle Inn","lat":50.68148,"lon":-1.14327,"postcode":"PO36 0DQ","la":"Isle of Wight","era":"trad","nn":81,"risk":29,"cat":"green"},{"name":"The Castle","lat":50.72787,"lon":-1.16324,"postcode":"PO33 2HT","la":"Isle of Wight","era":"other","nn":0,"risk":24,"cat":"green"},{"name":"The Castle Inn","lat":50.69961,"lon":-1.2976,"postcode":"PO30 1BQ","la":"Isle of Wight","era":"trad","nn":89,"risk":24,"cat":"green"},{"name":"The Castle Inn","lat":50.65428,"lon":-1.1565,"postcode":"PO36 8HY","la":"Isle of Wight","era":"trad","nn":125,"risk":24,"cat":"green"},{"name":"The Cedars","lat":50.72338,"lon":-1.23717,"postcode":"PO33 4QU","la":"Isle of Wight","era":"other","nn":585,"risk":33,"cat":"amber"},{"name":"The Cellar Bar","lat":50.65402,"lon":-1.15431,"postcode":"PO36 8DE","la":"Isle of Wight","era":"other","nn":102,"risk":24,"cat":"green"},{"name":"The Chequers Inn","lat":50.64612,"lon":-1.27745,"postcode":"PO38 3NZ","la":"Isle of Wight","era":"trad","nn":823,"risk":49,"cat":"amber"},{"name":"The Compass Bar","lat":50.76167,"lon":-1.29803,"postcode":"PO31 7RZ","la":"Isle of Wight","era":"other","nn":0,"risk":24,"cat":"green"},{"name":"The Crispin","lat":50.69868,"lon":-1.2989,"postcode":"PO30 1BL","la":"Isle of Wight","era":"other","nn":138,"risk":24,"cat":"green"},{"name":"The Crown Inn","lat":50.64449,"lon":-1.35549,"postcode":"PO30 3JZ","la":"Isle of Wight","era":"trad","nn":369,"risk":46,"cat":"amber"},{"name":"The Culver Haven Inn","lat":50.66652,"lon":-1.10525,"postcode":"PO36 8QT","la":"Isle of Wight","era":"trad","nn":1067,"risk":53,"cat":"amber"},{"name":"The Dairyman's Daughter","lat":50.67806,"lon":-1.24636,"postcode":"PO30 3AA","la":"Isle of Wight","era":"other","nn":0,"risk":41,"cat":"amber"},{"name":"The Eight Bells","lat":50.69162,"lon":-1.31212,"postcode":"PO30 1NR","la":"Isle of Wight","era":"other","nn":366,"risk":31,"cat":"amber"},{"name":"The Falcon","lat":50.72341,"lon":-1.16595,"postcode":"PO33 2TG","la":"Isle of Wight","era":"other","nn":284,"risk":25,"cat":"green"},{"name":"The Fighting Cocks","lat":50.658,"lon":-1.22726,"postcode":"PO30 3AR","la":"Isle of Wight","era":"other","nn":1726,"risk":58,"cat":"amber"},{"name":"The Fishbourne","lat":50.73322,"lon":-1.21213,"postcode":"PO33 4EU","la":"Isle of Wight","era":"other","nn":0,"risk":44,"cat":"amber"},{"name":"The Globe","lat":50.7652,"lon":-1.29927,"postcode":"PO31 7QJ","la":"Isle of Wight","era":"other","nn":82,"risk":24,"cat":"green"},{"name":"The Horseshoe Inn","lat":50.73871,"lon":-1.30756,"postcode":"PO31 8PL","la":"Isle of Wight","era":"trad","nn":1166,"risk":54,"cat":"amber"},{"name":"The King Lud","lat":50.73244,"lon":-1.16034,"postcode":"PO33 2DY","la":"Isle of Wight","era":"trad","nn":115,"risk":24,"cat":"green"},{"name":"The Kings Head","lat":50.70614,"lon":-1.49994,"postcode":"PO41 0PB","la":"Isle of Wight","era":"trad","nn":21,"risk":29,"cat":"green"},{"name":"The Kingston Arms","lat":50.75319,"lon":-1.29802,"postcode":"PO31 7PS","la":"Isle of Wight","era":"trad","nn":581,"risk":28,"cat":"green"},{"name":"The Lakeside Bar & Eatery","lat":50.65351,"lon":-1.27676,"postcode":"PO38 3LU","la":"Isle of Wight","era":"mod","nn":823,"risk":49,"cat":"amber"},{"name":"The Lifeboat","lat":50.75088,"lon":-1.29061,"postcode":"PO32 6UB","la":"Isle of Wight","era":"other","nn":581,"risk":28,"cat":"green"},{"name":"The New Inn","lat":50.7018,"lon":-1.41478,"postcode":"PO30 4NS","la":"Isle of Wight","era":"trad","nn":1654,"risk":58,"cat":"amber"},{"name":"The Old Comical","lat":50.65487,"lon":-1.15487,"postcode":"PO36 8ES","la":"Isle of Wight","era":"other","nn":95,"risk":24,"cat":"green"},{"name":"The Pointer Inn","lat":50.66642,"lon":-1.20669,"postcode":"PO36 0NN","la":"Isle of Wight","era":"trad","nn":1726,"risk":58,"cat":"amber"},{"name":"The Porter Club Ltd","lat":50.64555,"lon":-1.16891,"postcode":"PO36 9LE","la":"Isle of Wight","era":"other","nn":1064,"risk":53,"cat":"amber"},{"name":"The Portland Inn","lat":50.75529,"lon":-1.32085,"postcode":"PO31 8JN","la":"Isle of Wight","era":"trad","nn":550,"risk":27,"cat":"green"},{"name":"The Prince Of Wales","lat":50.69897,"lon":-1.29366,"postcode":"PO30 1JE","la":"Isle of Wight","era":"trad","nn":0,"risk":24,"cat":"green"},{"name":"The Propeller Inn (Iow) Ltd","lat":50.67568,"lon":-1.10974,"postcode":"PO35 5PW","la":"Isle of Wight","era":"trad","nn":1067,"risk":53,"cat":"amber"},{"name":"The Railway Medina","lat":50.702,"lon":-1.29357,"postcode":"PO30 5BU","la":"Isle of Wight","era":"trad","nn":150,"risk":25,"cat":"green"},{"name":"The Ship And Castle","lat":50.75818,"lon":-1.28941,"postcode":"PO32 6RB","la":"Isle of Wight","era":"trad","nn":136,"risk":24,"cat":"green"},{"name":"The Sloop Inn","lat":50.72514,"lon":-1.22661,"postcode":"PO33 4HS","la":"Isle of Wight","era":"trad","nn":769,"risk":46,"cat":"amber"},{"name":"The Solent Inn","lat":50.72952,"lon":-1.15427,"postcode":"PO33 1JW","la":"Isle of Wight","era":"trad","nn":158,"risk":25,"cat":"green"},{"name":"The Spyglass Inn","lat":50.59333,"lon":-1.20999,"postcode":"PO38 1JX","la":"Isle of Wight","era":"trad","nn":265,"risk":25,"cat":"green"},{"name":"The Stag","lat":50.72423,"lon":-1.30463,"postcode":"PO30 5TW","la":"Isle of Wight","era":"trad","nn":1624,"risk":57,"cat":"amber"},{"name":"The Star Coffee \\\\& Ale House","lat":50.72787,"lon":-1.16324,"postcode":"PO33 2HT","la":"Isle of Wight","era":"other","nn":0,"risk":24,"cat":"green"},{"name":"The Steamer Inn","lat":50.62873,"lon":-1.17306,"postcode":"PO37 6BS","la":"Isle of Wight","era":"trad","nn":97,"risk":24,"cat":"green"},{"name":"The Tap","lat":50.65657,"lon":-1.15013,"postcode":"PO36 8BW","la":"Isle of Wight","era":"mod","nn":191,"risk":25,"cat":"green"},{"name":"The Taverners","lat":50.63282,"lon":-1.25307,"postcode":"PO38 3HZ","la":"Isle of Wight","era":"other","nn":2268,"risk":62,"cat":"red"},{"name":"The Town Club","lat":50.72735,"lon":-1.16101,"postcode":"PO33 2JH","la":"Isle of Wight","era":"other","nn":167,"risk":25,"cat":"green"},{"name":"The Townhouse","lat":50.62828,"lon":-1.17949,"postcode":"PO37 6JN","la":"Isle of Wight","era":"other","nn":175,"risk":25,"cat":"green"},{"name":"The Travellers Joy","lat":50.74038,"lon":-1.32392,"postcode":"PO31 8LS","la":"Isle of Wight","era":"other","nn":1166,"risk":54,"cat":"amber"},{"name":"The Union Inn","lat":50.76465,"lon":-1.2985,"postcode":"PO31 7QH","la":"Isle of Wight","era":"trad","nn":22,"risk":24,"cat":"green"},{"name":"The Vine Inn","lat":50.68276,"lon":-1.52461,"postcode":"PO40 9AJ","la":"Isle of Wight","era":"trad","nn":210,"risk":27,"cat":"green"},{"name":"The Waverley","lat":50.69064,"lon":-1.31707,"postcode":"PO30 1PA","la":"Isle of Wight","era":"other","nn":366,"risk":44,"cat":"amber"},{"name":"The White Hart Inn","lat":50.70976,"lon":-1.20843,"postcode":"PO33 4DP","la":"Isle of Wight","era":"trad","nn":2136,"risk":61,"cat":"red"},{"name":"The White Horse Inn","lat":50.59862,"lon":-1.26419,"postcode":"PO38 2PY","la":"Isle of Wight","era":"trad","nn":1871,"risk":59,"cat":"amber"},{"name":"The White Lion Arreton","lat":50.67806,"lon":-1.24636,"postcode":"PO30 3AA","la":"Isle of Wight","era":"trad","nn":0,"risk":41,"cat":"amber"},{"name":"The Yarbridge Inn","lat":50.67348,"lon":-1.14465,"postcode":"PO36 0AA","la":"Isle of Wight","era":"trad","nn":815,"risk":47,"cat":"amber"},{"name":"Tinto's Bar","lat":50.59441,"lon":-1.20512,"postcode":"PO38 1ST","la":"Isle of Wight","era":"other","nn":138,"risk":24,"cat":"green"},{"name":"Totland Bay Bowling Club","lat":50.68361,"lon":-1.53867,"postcode":"PO39 0AS","la":"Isle of Wight","era":"other","nn":432,"risk":29,"cat":"green"},{"name":"Vectis Tavern","lat":50.76225,"lon":-1.29781,"postcode":"PO31 7AT","la":"Isle of Wight","era":"other","nn":28,"risk":24,"cat":"green"},{"name":"Ventnor Bowling Club","lat":50.5975,"lon":-1.2058,"postcode":"PO38 1DP","la":"Isle of Wight","era":"other","nn":158,"risk":25,"cat":"green"},{"name":"Ventnor Golf Club","lat":50.59643,"lon":-1.22511,"postcode":"PO38 1BP","la":"Isle of Wight","era":"other","nn":663,"risk":46,"cat":"amber"},{"name":"Ventnor Rugby Football Club","lat":50.59234,"lon":-1.23195,"postcode":"PO38 1LP","la":"Isle of Wight","era":"other","nn":663,"risk":48,"cat":"amber"},{"name":"Ventnor Social Club","lat":50.5979,"lon":-1.21425,"postcode":"PO38 1AH","la":"Isle of Wight","era":"mod","nn":591,"risk":28,"cat":"green"},{"name":"Village Inn","lat":50.62484,"lon":-1.17922,"postcode":"PO37 6NU","la":"Isle of Wight","era":"trad","nn":109,"risk":24,"cat":"green"},{"name":"West Wight Social Club","lat":50.68355,"lon":-1.52732,"postcode":"PO40 9UT","la":"Isle of Wight","era":"mod","nn":210,"risk":27,"cat":"green"},{"name":"Westridge Golf Centre","lat":50.71044,"lon":-1.14062,"postcode":"PO33 1QS","la":"Isle of Wight","era":"other","nn":0,"risk":41,"cat":"amber"},{"name":"Westridge Squash & Tone Zone Gym","lat":50.71044,"lon":-1.14062,"postcode":"PO33 1QS","la":"Isle of Wight","era":"other","nn":0,"risk":41,"cat":"amber"},{"name":"Wheatsheaf Hotel","lat":50.69962,"lon":-1.29444,"postcode":"PO30 1SG","la":"Isle of Wight","era":"trad","nn":65,"risk":24,"cat":"green"},{"name":"Wheatsheaf Inn","lat":50.70573,"lon":-1.49977,"postcode":"PO41 0PH","la":"Isle of Wight","era":"trad","nn":43,"risk":29,"cat":"green"},{"name":"Wheatsheaf Inn","lat":50.68075,"lon":-1.14323,"postcode":"PO36 0DQ","la":"Isle of Wight","era":"trad","nn":81,"risk":29,"cat":"green"},{"name":"White Lion","lat":50.58815,"lon":-1.28493,"postcode":"PO38 2AT","la":"Isle of Wight","era":"trad","nn":1575,"risk":57,"cat":"amber"},{"name":"Woodmans Arms","lat":50.71713,"lon":-1.24575,"postcode":"PO33 4RQ","la":"Isle of Wight","era":"trad","nn":921,"risk":50,"cat":"amber"},{"name":"Yarborough Masonic Centre","lat":50.59613,"lon":-1.20494,"postcode":"PO38 1TH","la":"Isle of Wight","era":"trad","nn":44,"risk":24,"cat":"green"},{"name":"Yarmouth Sailing Club","lat":50.70473,"lon":-1.50227,"postcode":"PO41 0NL","la":"Isle of Wight","era":"other","nn":208,"risk":30,"cat":"green"},{"name":"Abarbistro","lat":50.78997,"lon":-1.10576,"postcode":"PO1 2JA","la":"Portsmouth","era":"other","nn":61,"risk":24,"cat":"green"},{"name":"Alexandra Bowls And Social Club","lat":50.82476,"lon":-1.08079,"postcode":"PO2 9PB","la":"Portsmouth","era":"mod","nn":0,"risk":23,"cat":"green"},{"name":"Artillery Arms","lat":50.79218,"lon":-1.05321,"postcode":"PO4 8HB","la":"Portsmouth","era":"trad","nn":189,"risk":24,"cat":"green"},{"name":"Astoria","lat":50.79587,"lon":-1.09332,"postcode":"PO1 2RY","la":"Portsmouth","era":"other","nn":51,"risk":24,"cat":"green"},{"name":"Auckland Arms","lat":50.78431,"lon":-1.09104,"postcode":"PO5 3NB","la":"Portsmouth","era":"trad","nn":83,"risk":24,"cat":"green"},{"name":"Baffins Inn","lat":50.80815,"lon":-1.05653,"postcode":"PO3 6PD","la":"Portsmouth","era":"trad","nn":503,"risk":27,"cat":"green"},{"name":"Beefeater Harbour Lights & Premier Inn","lat":50.84613,"lon":-1.0919,"postcode":"PO6 4SA","la":"Portsmouth","era":"trad","nn":342,"risk":28,"cat":"green"},{"name":"BOSCAS Club","lat":50.81277,"lon":-1.07316,"postcode":"PO2 7HX","la":"Portsmouth","era":"other","nn":111,"risk":24,"cat":"green"},{"name":"Brewhouse & Kitchen","lat":50.79633,"lon":-1.09334,"postcode":"PO1 2DD","la":"Portsmouth","era":"mod","nn":46,"risk":23,"cat":"green"},{"name":"Bridge Tavern","lat":50.79179,"lon":-1.10643,"postcode":"PO1 2JJ","la":"Portsmouth","era":"other","nn":190,"risk":24,"cat":"green"},{"name":"British Queen Public House","lat":50.81113,"lon":-1.07609,"postcode":"PO2 7NA","la":"Portsmouth","era":"trad","nn":74,"risk":24,"cat":"green"},{"name":"British Telecom Social Club","lat":50.84228,"lon":-1.06808,"postcode":"PO6 3AJ","la":"Portsmouth","era":"mod","nn":154,"risk":24,"cat":"green"},{"name":"Broad Oak Sports And Social Club","lat":50.82971,"lon":-1.05588,"postcode":"PO3 5PQ","la":"Portsmouth","era":"other","nn":917,"risk":50,"cat":"amber"},{"name":"Carter & Co.","lat":50.78991,"lon":-1.09296,"postcode":"PO5 3BY","la":"Portsmouth","era":"mod","nn":0,"risk":23,"cat":"green"},{"name":"Cockleshell Comunity Centre","lat":50.78681,"lon":-1.04421,"postcode":"PO4 9SJ","la":"Portsmouth","era":"other","nn":530,"risk":27,"cat":"green"},{"name":"Copnor Snooker Club","lat":50.8148,"lon":-1.06498,"postcode":"PO3 5BS","la":"Portsmouth","era":"other","nn":150,"risk":24,"cat":"green"},{"name":"Cosham Conservative Club","lat":50.84633,"lon":-1.06771,"postcode":"PO6 3DY","la":"Portsmouth","era":"other","nn":99,"risk":24,"cat":"green"},{"name":"Craneswater Club","lat":50.7865,"lon":-1.07056,"postcode":"PO4 9BZ","la":"Portsmouth","era":"other","nn":42,"risk":23,"cat":"green"},{"name":"Cross Keys Public House","lat":50.85054,"lon":-1.09802,"postcode":"PO6 4EE","la":"Portsmouth","era":"trad","nn":342,"risk":43,"cat":"amber"},{"name":"Crown Bingo And Social Club","lat":50.846,"lon":-1.06639,"postcode":"PO6 3BU","la":"Portsmouth","era":"other","nn":99,"risk":24,"cat":"green"},{"name":"Croxton's Kitchen & Tap House","lat":50.784,"lon":-1.08906,"postcode":"PO5 3PT","la":"Portsmouth","era":"mod","nn":27,"risk":23,"cat":"green"},{"name":"Dan Lewie Bar","lat":50.83648,"lon":-1.04843,"postcode":"PO6 1UJ","la":"Portsmouth","era":"other","nn":917,"risk":50,"cat":"amber"},{"name":"David Lloyd Club Room Port Solent","lat":50.84091,"lon":-1.0971,"postcode":"PO6 4TP","la":"Portsmouth","era":"other","nn":20,"risk":28,"cat":"green"},{"name":"Derby Tavern","lat":50.81561,"lon":-1.08415,"postcode":"PO2 8LG","la":"Portsmouth","era":"other","nn":280,"risk":25,"cat":"green"},{"name":"Dixie's Bar","lat":50.84363,"lon":-1.06763,"postcode":"PO6 3AG","la":"Portsmouth","era":"other","nn":72,"risk":24,"cat":"green"},{"name":"Duke Of Devonshire","lat":50.78685,"lon":-1.0778,"postcode":"PO5 2SQ","la":"Portsmouth","era":"trad","nn":23,"risk":23,"cat":"green"},{"name":"Eastney Tavern","lat":50.78567,"lon":-1.05764,"postcode":"PO4 9PN","la":"Portsmouth","era":"other","nn":61,"risk":24,"cat":"green"},{"name":"Edge Of The Wedge/Wedgewood Rooms","lat":50.78684,"lon":-1.07534,"postcode":"PO4 0JW","la":"Portsmouth","era":"mod","nn":0,"risk":23,"cat":"green"},{"name":"Emporium Bar","lat":50.78915,"lon":-1.08306,"postcode":"PO5 1LR","la":"Portsmouth","era":"other","nn":37,"risk":23,"cat":"green"},{"name":"Ferry House Lodge","lat":50.80911,"lon":-1.08623,"postcode":"PO2 7BX","la":"Portsmouth","era":"mod","nn":485,"risk":27,"cat":"green"},{"name":"Festing Hotel","lat":50.78508,"lon":-1.07022,"postcode":"PO4 0NG","la":"Portsmouth","era":"other","nn":142,"risk":24,"cat":"green"},{"name":"Fifth Hants Volunteer Arms","lat":50.78682,"lon":-1.0797,"postcode":"PO5 2SL","la":"Portsmouth","era":"trad","nn":94,"risk":24,"cat":"green"},{"name":"Fountain Inn","lat":50.8178,"lon":-1.07945,"postcode":"PO2 9AA","la":"Portsmouth","era":"trad","nn":38,"risk":23,"cat":"green"},{"name":"Froddington Arms","lat":50.79801,"lon":-1.07706,"postcode":"PO1 5AB","la":"Portsmouth","era":"trad","nn":0,"risk":23,"cat":"green"},{"name":"George And Dragon","lat":50.81041,"lon":-1.07917,"postcode":"PO2 7EB","la":"Portsmouth","era":"trad","nn":193,"risk":25,"cat":"green"},{"name":"George Inn Portsdown Ltd","lat":50.85358,"lon":-1.0501,"postcode":"PO6 1BE","la":"Portsmouth","era":"trad","nn":652,"risk":48,"cat":"amber"},{"name":"Gi Association","lat":50.81589,"lon":-1.09282,"postcode":"PO2 8EW","la":"Portsmouth","era":"other","nn":288,"risk":25,"cat":"green"},{"name":"Golden Hind","lat":50.82262,"lon":-1.06487,"postcode":"PO3 5EN","la":"Portsmouth","era":"other","nn":299,"risk":28,"cat":"green"},{"name":"Green Posts","lat":50.82502,"lon":-1.07377,"postcode":"PO2 9HJ","la":"Portsmouth","era":"other","nn":423,"risk":26,"cat":"green"},{"name":"Hampshire Boulevard","lat":50.79336,"lon":-1.09572,"postcode":"PO1 2QF","la":"Portsmouth","era":"other","nn":326,"risk":25,"cat":"green"},{"name":"Harvest Home","lat":50.81351,"lon":-1.06436,"postcode":"PO3 5AN","la":"Portsmouth","era":"trad","nn":150,"risk":24,"cat":"green"},{"name":"Hive Bar Southsea","lat":50.78497,"lon":-1.09164,"postcode":"PO5 3LT","la":"Portsmouth","era":"mod","nn":68,"risk":24,"cat":"green"},{"name":"Hole In The Wall","lat":50.78991,"lon":-1.09296,"postcode":"PO5 3BY","la":"Portsmouth","era":"other","nn":0,"risk":23,"cat":"green"},{"name":"Hong Kong Charlies","lat":50.78442,"lon":-1.08861,"postcode":"PO5 3PP","la":"Portsmouth","era":"other","nn":0,"risk":23,"cat":"green"},{"name":"King Street Tavern","lat":50.79192,"lon":-1.09054,"postcode":"PO5 4EH","la":"Portsmouth","era":"trad","nn":96,"risk":24,"cat":"green"},{"name":"Kings Theatre","lat":50.78692,"lon":-1.08119,"postcode":"PO5 2QJ","la":"Portsmouth","era":"trad","nn":57,"risk":24,"cat":"green"},{"name":"Langstone Harbour Fishermens Association","lat":50.7942,"lon":-1.04018,"postcode":"PO4 8LT","la":"Portsmouth","era":"other","nn":8,"risk":23,"cat":"green"},{"name":"Lawrence Arms","lat":50.78838,"lon":-1.07683,"postcode":"PO5 1NU","la":"Portsmouth","era":"trad","nn":177,"risk":24,"cat":"green"},{"name":"Leopold Tavern","lat":50.78654,"lon":-1.07353,"postcode":"PO4 0JT","la":"Portsmouth","era":"other","nn":131,"risk":24,"cat":"green"},{"name":"Locks Sailing Club","lat":50.79567,"lon":-1.03917,"postcode":"PO4 8LS","la":"Portsmouth","era":"other","nn":178,"risk":27,"cat":"green"},{"name":"Lord Chichester","lat":50.81383,"lon":-1.07021,"postcode":"PO2 0AX","la":"Portsmouth","era":"other","nn":238,"risk":25,"cat":"green"},{"name":"Lord Fitzclarence","lat":50.78484,"lon":-1.09022,"postcode":"PO5 3LU","la":"Portsmouth","era":"other","nn":83,"risk":24,"cat":"green"},{"name":"Lord John Russell","lat":50.78746,"lon":-1.08173,"postcode":"PO5 2SH","la":"Portsmouth","era":"other","nn":67,"risk":24,"cat":"green"},{"name":"Meon Valley Public House","lat":50.79615,"lon":-1.0548,"postcode":"PO4 8NX","la":"Portsmouth","era":"other","nn":322,"risk":25,"cat":"green"},{"name":"Mist Lounge Portsmouth","lat":50.79122,"lon":-1.07649,"postcode":"PO4 0DW","la":"Portsmouth","era":"mod","nn":74,"risk":24,"cat":"green"},{"name":"Mother Shipton","lat":50.81941,"lon":-1.08471,"postcode":"PO2 8NY","la":"Portsmouth","era":"trad","nn":133,"risk":24,"cat":"green"},{"name":"Mr Pickwick","lat":50.79601,"lon":-1.05951,"postcode":"PO4 8PN","la":"Portsmouth","era":"other","nn":77,"risk":24,"cat":"green"},{"name":"Newcome Arms","lat":50.80006,"lon":-1.0701,"postcode":"PO1 5DT","la":"Portsmouth","era":"trad","nn":496,"risk":27,"cat":"green"},{"name":"Northcote Hotel","lat":50.78765,"lon":-1.07236,"postcode":"PO4 0HL","la":"Portsmouth","era":"other","nn":148,"risk":24,"cat":"green"},{"name":"O.C.D (Southsea Golf Club)","lat":50.81433,"lon":-1.04502,"postcode":"PO3 5JJ","la":"Portsmouth","era":"other","nn":990,"risk":50,"cat":"amber"},{"name":"Old Oyster House","lat":50.79471,"lon":-1.04122,"postcode":"PO4 8LH","la":"Portsmouth","era":"other","nn":92,"risk":24,"cat":"green"},{"name":"O'Neill's Southsea","lat":50.78811,"lon":-1.08237,"postcode":"PO5 2SX","la":"Portsmouth","era":"other","nn":41,"risk":23,"cat":"green"},{"name":"Paulsgrove Social Club","lat":50.84896,"lon":-1.09385,"postcode":"PO6 4JB","la":"Portsmouth","era":"mod","nn":342,"risk":28,"cat":"green"},{"name":"Pembroke Gardens Bowling Club","lat":50.78803,"lon":-1.10109,"postcode":"PO1 2NS","la":"Portsmouth","era":"other","nn":142,"risk":24,"cat":"green"},{"name":"Portsmouth Harbour Cruising Club","lat":50.82683,"lon":-1.09325,"postcode":"PO2 8RD","la":"Portsmouth","era":"other","nn":402,"risk":28,"cat":"green"},{"name":"Portsmouth Irish Centre","lat":50.79044,"lon":-1.08776,"postcode":"PO5 1JF","la":"Portsmouth","era":"other","nn":96,"risk":24,"cat":"green"},{"name":"Portsmouth Post Office Social Club","lat":50.81762,"lon":-1.07898,"postcode":"PO2 9DE","la":"Portsmouth","era":"mod","nn":38,"risk":23,"cat":"green"},{"name":"Portsmouth Rail Social Club","lat":50.79661,"lon":-1.0747,"postcode":"PO1 5BL","la":"Portsmouth","era":"mod","nn":178,"risk":24,"cat":"green"},{"name":"Portsmouth Rifle Club","lat":50.79536,"lon":-1.07117,"postcode":"PO4 0AW","la":"Portsmouth","era":"other","nn":284,"risk":25,"cat":"green"},{"name":"Portsmouth Sailing Club","lat":50.79195,"lon":-1.10912,"postcode":"PO1 2JL","la":"Portsmouth","era":"other","nn":0,"risk":23,"cat":"green"},{"name":"R M A Tavern","lat":50.78514,"lon":-1.05788,"postcode":"PO4 9PN","la":"Portsmouth","era":"other","nn":61,"risk":24,"cat":"green"},{"name":"R N Sailing Centre","lat":50.81809,"lon":-1.09499,"postcode":"PO2 8ER","la":"Portsmouth","era":"other","nn":288,"risk":25,"cat":"green"},{"name":"RAOB","lat":50.80921,"lon":-1.06907,"postcode":"PO2 7RW","la":"Portsmouth","era":"other","nn":0,"risk":23,"cat":"green"},{"name":"RNOC Club","lat":50.80329,"lon":-1.0839,"postcode":"PO1 4HF","la":"Portsmouth","era":"other","nn":199,"risk":25,"cat":"green"},{"name":"Royal British Legion","lat":50.79689,"lon":-1.07719,"postcode":"PO1 1PS","la":"Portsmouth","era":"trad","nn":126,"risk":24,"cat":"green"},{"name":"Royal Marine Association Club","lat":50.78768,"lon":-1.05161,"postcode":"PO4 9SB","la":"Portsmouth","era":"trad","nn":315,"risk":25,"cat":"green"},{"name":"Royal Maritime Club","lat":50.79924,"lon":-1.10442,"postcode":"PO1 3HS","la":"Portsmouth","era":"trad","nn":173,"risk":24,"cat":"green"},{"name":"S2 Snooker Club","lat":50.81229,"lon":-1.08026,"postcode":"PO2 7EG","la":"Portsmouth","era":"other","nn":166,"risk":24,"cat":"green"},{"name":"Shearer Arms","lat":50.80536,"lon":-1.07231,"postcode":"PO1 5LP","la":"Portsmouth","era":"trad","nn":226,"risk":25,"cat":"green"},{"name":"Shepherds Crook","lat":50.79398,"lon":-1.06353,"postcode":"PO4 8QZ","la":"Portsmouth","era":"other","nn":340,"risk":26,"cat":"green"},{"name":"Ship And Castle","lat":50.81334,"lon":-1.08903,"postcode":"PO2 8DR","la":"Portsmouth","era":"trad","nn":388,"risk":26,"cat":"green"},{"name":"Ship Anson","lat":50.79802,"lon":-1.10594,"postcode":"PO1 3DT","la":"Portsmouth","era":"trad","nn":12,"risk":23,"cat":"green"},{"name":"Sir Alec Rose - J D Wetherspoon","lat":50.84109,"lon":-1.09705,"postcode":"PO6 4TP","la":"Portsmouth","era":"trad","nn":20,"risk":28,"cat":"green"},{"name":"Sir John Baker","lat":50.81466,"lon":-1.07949,"postcode":"PO2 0LN","la":"Portsmouth","era":"other","nn":114,"risk":24,"cat":"green"},{"name":"Sir Loin Of Beef","lat":50.78646,"lon":-1.05864,"postcode":"PO4 9NH","la":"Portsmouth","era":"other","nn":113,"risk":24,"cat":"green"},{"name":"Slug And Lettuce","lat":50.79567,"lon":-1.1074,"postcode":"PO1 3TR","la":"Portsmouth","era":"other","nn":86,"risk":24,"cat":"green"},{"name":"Southsea Waverley Bowling Club","lat":50.78559,"lon":-1.07741,"postcode":"PO5 2PL","la":"Portsmouth","era":"other","nn":138,"risk":24,"cat":"green"},{"name":"Sovereigns","lat":50.81312,"lon":-1.08351,"postcode":"PO2 8AB","la":"Portsmouth","era":"other","nn":234,"risk":25,"cat":"green"},{"name":"Spice Island Inn","lat":50.79195,"lon":-1.10912,"postcode":"PO1 2JL","la":"Portsmouth","era":"trad","nn":0,"risk":23,"cat":"green"},{"name":"Star And Garter","lat":50.818,"lon":-1.06449,"postcode":"PO3 5DB","la":"Portsmouth","era":"other","nn":357,"risk":26,"cat":"green"},{"name":"Still & West","lat":50.79195,"lon":-1.10912,"postcode":"PO1 2JL","la":"Portsmouth","era":"other","nn":0,"risk":23,"cat":"green"},{"name":"Sunlight And Twilight Club","lat":50.78373,"lon":-1.08112,"postcode":"PO5 2RG","la":"Portsmouth","era":"other","nn":202,"risk":25,"cat":"green"},{"name":"Thatchers","lat":50.81636,"lon":-1.07989,"postcode":"PO2 0BN","la":"Portsmouth","era":"other","nn":66,"risk":24,"cat":"green"},{"name":"The Barley Mow","lat":50.78939,"lon":-1.09272,"postcode":"PO5 3DE","la":"Portsmouth","era":"other","nn":61,"risk":24,"cat":"green"},{"name":"The Bold Forester","lat":50.78684,"lon":-1.07534,"postcode":"PO4 0JW","la":"Portsmouth","era":"other","nn":0,"risk":23,"cat":"green"},{"name":"The Brewer's Tap","lat":50.79107,"lon":-1.05546,"postcode":"PO4 8EA","la":"Portsmouth","era":"mod","nn":200,"risk":25,"cat":"green"},{"name":"The Carlton Club","lat":50.84907,"lon":-1.04416,"postcode":"PO6 1EJ","la":"Portsmouth","era":"other","nn":652,"risk":45,"cat":"amber"},{"name":"The Churchillian","lat":50.85367,"lon":-1.06818,"postcode":"PO6 3LS","la":"Portsmouth","era":"other","nn":818,"risk":34,"cat":"amber"},{"name":"The Clarence Pier (Brewers Fayre)","lat":50.78681,"lon":-1.10171,"postcode":"PO5 3XX","la":"Portsmouth","era":"other","nn":142,"risk":24,"cat":"green"},{"name":"The Clarence Pub","lat":50.81683,"lon":-1.0793,"postcode":"PO2 0LZ","la":"Portsmouth","era":"other","nn":66,"risk":24,"cat":"green"},{"name":"The Coach And Horses","lat":50.83179,"lon":-1.06998,"postcode":"PO2 9SE","la":"Portsmouth","era":"trad","nn":798,"risk":34,"cat":"amber"},{"name":"The Cosham Social Club","lat":50.8453,"lon":-1.06794,"postcode":"PO6 3BS","la":"Portsmouth","era":"mod","nn":115,"risk":24,"cat":"green"},{"name":"The Deco","lat":50.78913,"lon":-1.08367,"postcode":"PO5 1LR","la":"Portsmouth","era":"other","nn":43,"risk":23,"cat":"green"},{"name":"The Dockyard / K-Town / Chik Box / Locked \\\\& Loaded / Pizza A","lat":50.79626,"lon":-1.0927,"postcode":"PO1 2RY","la":"Portsmouth","era":"mod","nn":0,"risk":23,"cat":"green"},{"name":"The Dockyard Club","lat":50.78201,"lon":-1.08201,"postcode":"PO5 2NH","la":"Portsmouth","era":"mod","nn":202,"risk":25,"cat":"green"},{"name":"The Dolphin","lat":50.79003,"lon":-1.1036,"postcode":"PO1 2LU","la":"Portsmouth","era":"other","nn":50,"risk":24,"cat":"green"},{"name":"The Druids Arms","lat":50.80949,"lon":-1.07683,"postcode":"PO2 7PH","la":"Portsmouth","era":"trad","nn":184,"risk":24,"cat":"green"},{"name":"The Eldon Arms","lat":50.79269,"lon":-1.09112,"postcode":"PO5 4BS","la":"Portsmouth","era":"trad","nn":96,"risk":24,"cat":"green"},{"name":"The Electric Arms","lat":50.80078,"lon":-1.07707,"postcode":"PO1 5HD","la":"Portsmouth","era":"trad","nn":114,"risk":24,"cat":"green"},{"name":"The Fat Fox","lat":50.78874,"lon":-1.08219,"postcode":"PO5 2SP","la":"Portsmouth","era":"trad","nn":71,"risk":24,"cat":"green"},{"name":"The Fawcett Inn","lat":50.79055,"lon":-1.0748,"postcode":"PO4 0DP","la":"Portsmouth","era":"trad","nn":140,"risk":24,"cat":"green"},{"name":"The First Post - J D Wetherspoon","lat":50.84428,"lon":-1.06763,"postcode":"PO6 3AG","la":"Portsmouth","era":"other","nn":72,"risk":24,"cat":"green"},{"name":"The Fort Cumberland","lat":50.78896,"lon":-1.05561,"postcode":"PO4 9JB","la":"Portsmouth","era":"other","nn":235,"risk":25,"cat":"green"},{"name":"The Froddington Arms","lat":50.79801,"lon":-1.07706,"postcode":"PO1 5AB","la":"Portsmouth","era":"trad","nn":0,"risk":23,"cat":"green"},{"name":"The Golden Eagle","lat":50.78995,"lon":-1.07253,"postcode":"PO4 0JA","la":"Portsmouth","era":"trad","nn":173,"risk":24,"cat":"green"},{"name":"The Good Companion","lat":50.79964,"lon":-1.05479,"postcode":"PO3 6ES","la":"Portsmouth","era":"other","nn":388,"risk":26,"cat":"green"},{"name":"The Graham Arms","lat":50.80735,"lon":-1.07166,"postcode":"PO1 5QY","la":"Portsmouth","era":"trad","nn":226,"risk":25,"cat":"green"},{"name":"The Greenwich Pub","lat":50.78536,"lon":-1.0924,"postcode":"PO5 3LR","la":"Portsmouth","era":"other","nn":68,"risk":24,"cat":"green"},{"name":"The Guildhall Village","lat":50.79626,"lon":-1.0927,"postcode":"PO1 2RY","la":"Portsmouth","era":"other","nn":0,"risk":23,"cat":"green"},{"name":"The Honest Politician","lat":50.79042,"lon":-1.08913,"postcode":"PO5 1JF","la":"Portsmouth","era":"other","nn":96,"risk":24,"cat":"green"},{"name":"The Jameson Arms","lat":50.8029,"lon":-1.07981,"postcode":"PO1 1QE","la":"Portsmouth","era":"trad","nn":224,"risk":25,"cat":"green"},{"name":"The Jolly Sailor","lat":50.78202,"lon":-1.08594,"postcode":"PO5 2EU","la":"Portsmouth","era":"other","nn":258,"risk":25,"cat":"green"},{"name":"The Jolly Taxpayer","lat":50.81187,"lon":-1.06059,"postcode":"PO3 6LN","la":"Portsmouth","era":"other","nn":322,"risk":25,"cat":"green"},{"name":"The Keppel's Head","lat":50.79783,"lon":-1.10582,"postcode":"PO1 3DT","la":"Portsmouth","era":"trad","nn":22,"risk":23,"cat":"green"},{"name":"The Kings","lat":50.78806,"lon":-1.08179,"postcode":"PO5 2SE","la":"Portsmouth","era":"trad","nn":41,"risk":23,"cat":"green"},{"name":"The Lady Hamilton","lat":50.79794,"lon":-1.10608,"postcode":"PO1 3DT","la":"Portsmouth","era":"other","nn":12,"risk":23,"cat":"green"},{"name":"The Liquorist","lat":50.79531,"lon":-1.10631,"postcode":"PO1 3TW","la":"Portsmouth","era":"other","nn":18,"risk":23,"cat":"green"},{"name":"The Lord Palmerston (J D Wetherspoon)","lat":50.78422,"lon":-1.0892,"postcode":"PO5 3PT","la":"Portsmouth","era":"other","nn":27,"risk":23,"cat":"green"},{"name":"The Marmion","lat":50.78646,"lon":-1.08751,"postcode":"PO5 2BA","la":"Portsmouth","era":"other","nn":240,"risk":25,"cat":"green"},{"name":"The Mars Public House","lat":50.80225,"lon":-1.08686,"postcode":"PO1 4DG","la":"Portsmouth","era":"other","nn":42,"risk":23,"cat":"green"},{"name":"The Merchant House","lat":50.78635,"lon":-1.07001,"postcode":"PO4 9DA","la":"Portsmouth","era":"other","nn":42,"risk":23,"cat":"green"},{"name":"The Mermaid","lat":50.80921,"lon":-1.06907,"postcode":"PO2 7RW","la":"Portsmouth","era":"other","nn":0,"risk":23,"cat":"green"},{"name":"The Milton Arms","lat":50.79534,"lon":-1.0592,"postcode":"PO4 8PR","la":"Portsmouth","era":"trad","nn":77,"risk":24,"cat":"green"},{"name":"The Old Customs House","lat":50.79517,"lon":-1.10644,"postcode":"PO1 3TY","la":"Portsmouth","era":"other","nn":18,"risk":23,"cat":"green"},{"name":"The Old House At Home","lat":50.79367,"lon":-1.05191,"postcode":"PO4 8JR","la":"Portsmouth","era":"mod","nn":189,"risk":24,"cat":"green"},{"name":"The One Eyed Dog","lat":50.78945,"lon":-1.08283,"postcode":"PO5 1LU","la":"Portsmouth","era":"other","nn":37,"risk":23,"cat":"green"},{"name":"The Painter's Arms","lat":50.80253,"lon":-1.08646,"postcode":"PO1 4HA","la":"Portsmouth","era":"trad","nn":42,"risk":23,"cat":"green"},{"name":"The Park Tavern","lat":50.80032,"lon":-1.09147,"postcode":"PO1 1DE","la":"Portsmouth","era":"other","nn":0,"risk":23,"cat":"green"},{"name":"The Pelham Arms","lat":50.8137,"lon":-1.07371,"postcode":"PO2 0AH","la":"Portsmouth","era":"trad","nn":111,"risk":24,"cat":"green"},{"name":"The Pembroke","lat":50.78999,"lon":-1.10289,"postcode":"PO1 2NR","la":"Portsmouth","era":"other","nn":50,"risk":24,"cat":"green"},{"name":"The Phoenix","lat":50.78561,"lon":-1.0805,"postcode":"PO5 2QU","la":"Portsmouth","era":"other","nn":146,"risk":24,"cat":"green"},{"name":"The Phoenix","lat":50.82459,"lon":-1.06778,"postcode":"PO2 0TN","la":"Portsmouth","era":"other","nn":299,"risk":25,"cat":"green"},{"name":"The Portland Arms","lat":50.81868,"lon":-1.08322,"postcode":"PO2 8LX","la":"Portsmouth","era":"trad","nn":133,"risk":24,"cat":"green"},{"name":"The Portsbridge","lat":50.83954,"lon":-1.06847,"postcode":"PO6 2SJ","la":"Portsmouth","era":"other","nn":306,"risk":25,"cat":"green"},{"name":"The Raven","lat":50.79379,"lon":-1.09057,"postcode":"PO5 4BT","la":"Portsmouth","era":"other","nn":128,"risk":24,"cat":"green"},{"name":"The Red White & Blue","lat":50.79188,"lon":-1.07634,"postcode":"PO4 0DW","la":"Portsmouth","era":"other","nn":74,"risk":24,"cat":"green"},{"name":"The Rose In June","lat":50.80562,"lon":-1.06452,"postcode":"PO3 6AR","la":"Portsmouth","era":"trad","nn":512,"risk":27,"cat":"green"},{"name":"The Royal Albert","lat":50.78684,"lon":-1.07747,"postcode":"PO5 2SQ","la":"Portsmouth","era":"trad","nn":23,"risk":23,"cat":"green"},{"name":"The Royal Standard","lat":50.80032,"lon":-1.09147,"postcode":"PO1 1DE","la":"Portsmouth","era":"trad","nn":0,"risk":23,"cat":"green"},{"name":"The Sally Port Inn","lat":50.78965,"lon":-1.10504,"postcode":"PO1 2LU","la":"Portsmouth","era":"trad","nn":61,"risk":24,"cat":"green"},{"name":"The Ship And Castle","lat":50.7988,"lon":-1.10678,"postcode":"PO1 3PU","la":"Portsmouth","era":"trad","nn":105,"risk":24,"cat":"green"},{"name":"The Southsea Lounge","lat":50.78356,"lon":-1.08869,"postcode":"PO5 3PR","la":"Portsmouth","era":"mod","nn":56,"risk":24,"cat":"green"},{"name":"The Southsea Village","lat":50.78442,"lon":-1.08861,"postcode":"PO5 3PP","la":"Portsmouth","era":"other","nn":0,"risk":23,"cat":"green"},{"name":"The Sportman's Arms","lat":50.79695,"lon":-1.09954,"postcode":"PO1 3AS","la":"Portsmouth","era":"trad","nn":91,"risk":24,"cat":"green"},{"name":"The Stamshaw Lake Angling Club","lat":50.81707,"lon":-1.08777,"postcode":"PO2 8HA","la":"Portsmouth","era":"other","nn":301,"risk":25,"cat":"green"},{"name":"The Sunshine Inn","lat":50.84733,"lon":-1.03101,"postcode":"PO6 1AB","la":"Portsmouth","era":"trad","nn":943,"risk":50,"cat":"amber"},{"name":"The Tap","lat":50.81378,"lon":-1.08035,"postcode":"PO2 0BQ","la":"Portsmouth","era":"mod","nn":114,"risk":24,"cat":"green"},{"name":"The Thatched House","lat":50.79415,"lon":-1.04024,"postcode":"PO4 8LT","la":"Portsmouth","era":"other","nn":8,"risk":23,"cat":"green"},{"name":"The Three Marines","lat":50.78654,"lon":-1.0605,"postcode":"PO4 9NQ","la":"Portsmouth","era":"other","nn":131,"risk":24,"cat":"green"},{"name":"The Vaults","lat":50.78735,"lon":-1.08075,"postcode":"PO5 2SF","la":"Portsmouth","era":"other","nn":57,"risk":24,"cat":"green"},{"name":"The Wellington","lat":50.7894,"lon":-1.10609,"postcode":"PO1 2LY","la":"Portsmouth","era":"trad","nn":67,"risk":24,"cat":"green"},{"name":"The Winchester Arms","lat":50.81078,"lon":-1.07518,"postcode":"PO2 7PS","la":"Portsmouth","era":"trad","nn":74,"risk":24,"cat":"green"},{"name":"Tipner Boating And Angling Club","lat":50.82324,"lon":-1.09392,"postcode":"PO2 8RP","la":"Portsmouth","era":"other","nn":402,"risk":26,"cat":"green"},{"name":"Tokyo Joe's","lat":50.79626,"lon":-1.0927,"postcode":"PO1 2RY","la":"Portsmouth","era":"other","nn":0,"risk":23,"cat":"green"},{"name":"Trafalgar Arms","lat":50.8018,"lon":-1.07715,"postcode":"PO1 5HH","la":"Portsmouth","era":"trad","nn":114,"risk":24,"cat":"green"},{"name":"Tudor Sailing Club","lat":50.82305,"lon":-1.04213,"postcode":"PO3 5LY","la":"Portsmouth","era":"other","nn":990,"risk":50,"cat":"amber"},{"name":"United Services Cricket Club","lat":50.79654,"lon":-1.09842,"postcode":"PO1 2EJ","la":"Portsmouth","era":"other","nn":0,"risk":23,"cat":"green"},{"name":"United Services Rugby Club","lat":50.79654,"lon":-1.09842,"postcode":"PO1 2EJ","la":"Portsmouth","era":"other","nn":0,"risk":23,"cat":"green"},{"name":"Victory Indoor Bowls Club","lat":50.82476,"lon":-1.08079,"postcode":"PO2 9PB","la":"Portsmouth","era":"other","nn":0,"risk":23,"cat":"green"},{"name":"Wiggle","lat":50.79951,"lon":-1.09051,"postcode":"PO1 1JT","la":"Portsmouth","era":"other","nn":112,"risk":24,"cat":"green"},{"name":"Ye Spotted Dogge","lat":50.79126,"lon":-1.10125,"postcode":"PO1 2LP","la":"Portsmouth","era":"other","nn":182,"risk":24,"cat":"green"},{"name":"Bat And Ball","lat":50.94552,"lon":-1.03832,"postcode":"PO8 0UB","la":"Winchester","era":"other","nn":2183,"risk":67,"cat":"red"},{"name":"Forest Of Bere","lat":50.90248,"lon":-1.0613,"postcode":"PO7 6PP","la":"Winchester","era":"other","nn":661,"risk":51,"cat":"amber"},{"name":"Golden Lion","lat":50.87326,"lon":-1.11126,"postcode":"PO17 6EB","la":"Winchester","era":"trad","nn":172,"risk":48,"cat":"amber"},{"name":"Greens Restaurant","lat":50.89954,"lon":-1.18743,"postcode":"PO17 5JQ","la":"Winchester","era":"other","nn":61,"risk":47,"cat":"amber"},{"name":"Harvest Home","lat":50.90143,"lon":-1.07514,"postcode":"PO7 6LB","la":"Winchester","era":"trad","nn":471,"risk":50,"cat":"amber"},{"name":"Horse And Jockey","lat":50.90129,"lon":-1.11506,"postcode":"PO7 4QY","la":"Winchester","era":"trad","nn":731,"risk":54,"cat":"amber"},{"name":"Southwick Park Golf Club","lat":50.87177,"lon":-1.09986,"postcode":"PO17 6EL","la":"Winchester","era":"other","nn":817,"risk":52,"cat":"amber"},{"name":"The Chairmakers","lat":50.90104,"lon":-1.10464,"postcode":"PO7 4QX","la":"Winchester","era":"other","nn":731,"risk":54,"cat":"amber"},{"name":"The Kings Head","lat":50.89988,"lon":-1.18825,"postcode":"PO17 5JN","la":"Winchester","era":"trad","nn":69,"risk":47,"cat":"amber"},{"name":"The Old House Hotel","lat":50.89998,"lon":-1.18691,"postcode":"PO17 5JG","la":"Winchester","era":"mod","nn":61,"risk":47,"cat":"amber"},{"name":"The Parsons Collar","lat":50.87987,"lon":-1.25072,"postcode":"PO15 7AJ","la":"Winchester","era":"other","nn":1273,"risk":60,"cat":"amber"},{"name":"The Red Lion","lat":50.87463,"lon":-1.1124,"postcode":"PO17 6EF","la":"Winchester","era":"trad","nn":172,"risk":48,"cat":"amber"},{"name":"The Roebuck Inn - Indian Gastro Pub","lat":50.91532,"lon":-1.1682,"postcode":"PO17 5AY","la":"Winchester","era":"trad","nn":2148,"risk":66,"cat":"red"},{"name":"The Vine Inn","lat":50.92761,"lon":-1.0883,"postcode":"PO7 4RW","la":"Winchester","era":"trad","nn":2881,"risk":72,"cat":"red"},{"name":"White Hart","lat":50.90433,"lon":-1.07025,"postcode":"PO7 6NG","la":"Winchester","era":"trad","nn":471,"risk":50,"cat":"amber"}]