[{"name":"Fuelers Bar","lat":52.23628,"lon":-0.60889,"postcode":"NN29 7XA","la":"Bedford","era":"other","nn":1975,"risk":62,"cat":"red"},{"name":"Podington Cricket Club","lat":52.25149,"lon":-0.62387,"postcode":"NN29 7HU","la":"Bedford","era":"other","nn":291,"risk":48,"cat":"amber"},{"name":"Podington United Services Club","lat":52.25411,"lon":-0.62395,"postcode":"NN29 7HX","la":"Bedford","era":"other","nn":291,"risk":48,"cat":"amber"},{"name":"The Stratton Arms","lat":52.03464,"lon":-1.12282,"postcode":"NN13 5JX","la":"Buckinghamshire","era":"trad","nn":1422,"risk":50,"cat":"amber"},{"name":"Westbury Village Club","lat":52.01831,"lon":-1.09454,"postcode":"NN13 5JR","la":"Buckinghamshire","era":"other","nn":2653,"risk":59,"cat":"amber"},{"name":"The Wharf Inn","lat":52.42265,"lon":-1.05403,"postcode":"NN6 6JQ","la":"Harborough","era":"trad","nn":703,"risk":55,"cat":"amber"},{"name":"Afro Caribbean Centre","lat":52.30347,"lon":-0.69973,"postcode":"NN8 4LW","la":"North Northamptonshire","era":"other","nn":164,"risk":23,"cat":"green"},{"name":"Ale Hub","lat":52.31746,"lon":-0.70448,"postcode":"NN8 4UF","la":"North Northamptonshire","era":"mod","nn":73,"risk":25,"cat":"green"},{"name":"Alexandra Arms","lat":52.40006,"lon":-0.7226,"postcode":"NN16 0BU","la":"North Northamptonshire","era":"trad","nn":130,"risk":23,"cat":"green"},{"name":"Argyll Club","lat":52.39228,"lon":-0.72438,"postcode":"NN15 7HG","la":"North Northamptonshire","era":"other","nn":597,"risk":26,"cat":"green"},{"name":"Aura Bar","lat":52.39827,"lon":-0.72718,"postcode":"NN16 0AH","la":"North Northamptonshire","era":"other","nn":0,"risk":22,"cat":"green"},{"name":"Bar 76","lat":52.44375,"lon":-0.81827,"postcode":"NN14 2RS","la":"North Northamptonshire","era":"mod","nn":271,"risk":24,"cat":"green"},{"name":"Bar At Rushden Town Bowls Club","lat":52.30238,"lon":-0.60995,"postcode":"NN10 6AN","la":"North Northamptonshire","era":"mod","nn":457,"risk":42,"cat":"amber"},{"name":"Bell Inn","lat":52.33687,"lon":-0.65998,"postcode":"NN9 5ND","la":"North Northamptonshire","era":"trad","nn":274,"risk":24,"cat":"green"},{"name":"Britannia Working Mens Club","lat":52.36106,"lon":-0.68009,"postcode":"NN15 5SH","la":"North Northamptonshire","era":"trad","nn":135,"risk":23,"cat":"green"},{"name":"British Rail Staff Club","lat":52.30418,"lon":-0.68865,"postcode":"NN8 1DS","la":"North Northamptonshire","era":"other","nn":66,"risk":22,"cat":"green"},{"name":"Broughton & Cransley WMC","lat":52.37453,"lon":-0.77553,"postcode":"NN14 1NF","la":"North Northamptonshire","era":"other","nn":134,"risk":43,"cat":"amber"},{"name":"Burton Latimer Band Club and Institute","lat":52.36201,"lon":-0.67886,"postcode":"NN15 5RL","la":"North Northamptonshire","era":"other","nn":0,"risk":22,"cat":"green"},{"name":"Burton Latimer Conservative & Unionist Club Ltd","lat":52.36602,"lon":-0.67426,"postcode":"NN15 5LU","la":"North Northamptonshire","era":"other","nn":509,"risk":28,"cat":"green"},{"name":"Burton Latimer Town Bowls Club","lat":52.36401,"lon":-0.681,"postcode":"NN15 5RX","la":"North Northamptonshire","era":"other","nn":266,"risk":24,"cat":"green"},{"name":"Burton Park FC","lat":52.36676,"lon":-0.69022,"postcode":"NN15 5PS","la":"North Northamptonshire","era":"other","nn":0,"risk":22,"cat":"green"},{"name":"Cardigan Arms Public House","lat":52.49098,"lon":-0.68331,"postcode":"NN17 1AY","la":"North Northamptonshire","era":"trad","nn":352,"risk":27,"cat":"green"},{"name":"Carpenters Arms","lat":52.28483,"lon":-0.64357,"postcode":"NN29 7AB","la":"North Northamptonshire","era":"trad","nn":37,"risk":27,"cat":"green"},{"name":"Castle Bingo","lat":52.48945,"lon":-0.70454,"postcode":"NN17 1QE","la":"North Northamptonshire","era":"other","nn":302,"risk":41,"cat":"amber"},{"name":"Coach And Horses","lat":52.30063,"lon":-0.69735,"postcode":"NN8 4HY","la":"North Northamptonshire","era":"trad","nn":42,"risk":22,"cat":"green"},{"name":"Conservative Club","lat":52.49037,"lon":-0.68841,"postcode":"NN17 1SZ","la":"North Northamptonshire","era":"other","nn":352,"risk":24,"cat":"green"},{"name":"Corby Candle","lat":52.48829,"lon":-0.7005,"postcode":"NN17 1PB","la":"North Northamptonshire","era":"other","nn":136,"risk":28,"cat":"green"},{"name":"Corby Forest Bowling Club","lat":52.49936,"lon":-0.68939,"postcode":"NN17 1AG","la":"North Northamptonshire","era":"other","nn":138,"risk":28,"cat":"green"},{"name":"Corby Irish Centre","lat":52.48075,"lon":-0.70862,"postcode":"NN18 9NT","la":"North Northamptonshire","era":"other","nn":0,"risk":24,"cat":"green"},{"name":"Cuetopia","lat":52.40117,"lon":-0.7253,"postcode":"NN16 8JH","la":"North Northamptonshire","era":"other","nn":54,"risk":22,"cat":"green"},{"name":"Decades and Steps","lat":52.39939,"lon":-0.72416,"postcode":"NN16 0BY","la":"North Northamptonshire","era":"other","nn":98,"risk":22,"cat":"green"},{"name":"Desborough Conservative Club","lat":52.44133,"lon":-0.81957,"postcode":"NN14 2LX","la":"North Northamptonshire","era":"other","nn":18,"risk":22,"cat":"green"},{"name":"Desborough Indoor Bowls Club","lat":52.44133,"lon":-0.82064,"postcode":"NN14 2NB","la":"North Northamptonshire","era":"other","nn":0,"risk":22,"cat":"green"},{"name":"Desborough Services Club","lat":52.43995,"lon":-0.82102,"postcode":"NN14 2NP","la":"North Northamptonshire","era":"other","nn":157,"risk":23,"cat":"green"},{"name":"Desborough Town Bowls Club","lat":52.44094,"lon":-0.8145,"postcode":"NN14 2PN","la":"North Northamptonshire","era":"other","nn":331,"risk":24,"cat":"green"},{"name":"Desborough Town Cricket Club","lat":52.45637,"lon":-0.80802,"postcode":"NN14 2SH","la":"North Northamptonshire","era":"other","nn":1565,"risk":55,"cat":"amber"},{"name":"Desborough Town Football and Social Club","lat":52.44504,"lon":-0.83094,"postcode":"NN14 2LJ","la":"North Northamptonshire","era":"mod","nn":811,"risk":27,"cat":"green"},{"name":"Dovecote Kitchen","lat":52.27302,"lon":-0.70913,"postcode":"NN29 7TL","la":"North Northamptonshire","era":"mod","nn":72,"risk":40,"cat":"amber"},{"name":"Duke's Arms","lat":52.38333,"lon":-0.58218,"postcode":"NN14 4HE","la":"North Northamptonshire","era":"trad","nn":1954,"risk":58,"cat":"amber"},{"name":"Earl of Dalkeith","lat":52.39948,"lon":-0.7256,"postcode":"NN16 0BS","la":"North Northamptonshire","era":"other","nn":88,"risk":22,"cat":"green"},{"name":"Earls Barton Bowling Club","lat":52.26415,"lon":-0.75592,"postcode":"NN6 0EZ","la":"North Northamptonshire","era":"other","nn":197,"risk":23,"cat":"green"},{"name":"Earls Barton Sports Association","lat":52.27178,"lon":-0.75971,"postcode":"NN6 0HF","la":"North Northamptonshire","era":"other","nn":805,"risk":27,"cat":"green"},{"name":"Earls Barton Working Mens Club","lat":52.26872,"lon":-0.74852,"postcode":"NN6 0LN","la":"North Northamptonshire","era":"trad","nn":0,"risk":22,"cat":"green"},{"name":"Ephesus The Bell Inn","lat":52.35254,"lon":-0.59207,"postcode":"NN14 4BD","la":"North Northamptonshire","era":"trad","nn":272,"risk":44,"cat":"amber"},{"name":"Festive Delights","lat":52.2899,"lon":-0.60198,"postcode":"NN10 9YJ","la":"North Northamptonshire","era":"other","nn":283,"risk":24,"cat":"green"},{"name":"Finedon Dolben Cricket Club","lat":52.33942,"lon":-0.65938,"postcode":"NN9 5JJ","la":"North Northamptonshire","era":"other","nn":287,"risk":24,"cat":"green"},{"name":"Finedon Old Band Club","lat":52.33964,"lon":-0.65487,"postcode":"NN9 5JG","la":"North Northamptonshire","era":"other","nn":81,"risk":22,"cat":"green"},{"name":"Finedon Volta Football Club","lat":52.33742,"lon":-0.65159,"postcode":"NN9 5JT","la":"North Northamptonshire","era":"other","nn":268,"risk":24,"cat":"green"},{"name":"Garley Catering Services","lat":52.26844,"lon":-0.5805,"postcode":"NN10 0SA","la":"North Northamptonshire","era":"other","nn":711,"risk":47,"cat":"amber"},{"name":"Geddington Sports Associaiton","lat":52.43633,"lon":-0.68739,"postcode":"NN14 1AZ","la":"North Northamptonshire","era":"other","nn":210,"risk":43,"cat":"amber"},{"name":"Gladstone Working Mens Club","lat":52.33635,"lon":-0.65604,"postcode":"NN9 5LG","la":"North Northamptonshire","era":"trad","nn":274,"risk":24,"cat":"green"},{"name":"Gloucester Public House","lat":52.30328,"lon":-0.69299,"postcode":"NN8 4PF","la":"North Northamptonshire","era":"other","nn":0,"risk":22,"cat":"green"},{"name":"Grampian Association","lat":52.48075,"lon":-0.70862,"postcode":"NN18 9NT","la":"North Northamptonshire","era":"trad","nn":0,"risk":24,"cat":"green"},{"name":"Great Doddington Club","lat":52.27353,"lon":-0.70849,"postcode":"NN29 7TL","la":"North Northamptonshire","era":"other","nn":72,"risk":40,"cat":"amber"},{"name":"Great Oakley Cricket Club","lat":52.4687,"lon":-0.71889,"postcode":"NN18 8JS","la":"North Northamptonshire","era":"trad","nn":1039,"risk":51,"cat":"amber"},{"name":"Gretton Sports Club","lat":52.53982,"lon":-0.67153,"postcode":"NN17 3DB","la":"North Northamptonshire","era":"other","nn":457,"risk":42,"cat":"amber"},{"name":"Hatton Arms","lat":52.53746,"lon":-0.67913,"postcode":"NN17 3DN","la":"North Northamptonshire","era":"trad","nn":268,"risk":41,"cat":"amber"},{"name":"Hazel Tree Public House","lat":52.48223,"lon":-0.72292,"postcode":"NN18 0LR","la":"North Northamptonshire","era":"other","nn":457,"risk":25,"cat":"green"},{"name":"Higham Ferrers Town Bowls Club","lat":52.3084,"lon":-0.59874,"postcode":"NN10 8EF","la":"North Northamptonshire","era":"other","nn":461,"risk":25,"cat":"green"},{"name":"Higham Ferrers Working Mens Club","lat":52.30464,"lon":-0.59534,"postcode":"NN10 8BB","la":"North Northamptonshire","era":"trad","nn":131,"risk":23,"cat":"green"},{"name":"Higham Sports And Social Club","lat":52.30384,"lon":-0.59384,"postcode":"NN10 8DE","la":"North Northamptonshire","era":"mod","nn":135,"risk":23,"cat":"green"},{"name":"Hobsons Choice","lat":52.3732,"lon":-0.71563,"postcode":"NN15 6XS","la":"North Northamptonshire","era":"other","nn":491,"risk":45,"cat":"amber"},{"name":"Horseshoe Public House","lat":52.28696,"lon":-0.72867,"postcode":"NN8 2UE","la":"North Northamptonshire","era":"trad","nn":110,"risk":40,"cat":"amber"},{"name":"Irchester Bowling Club","lat":52.2845,"lon":-0.64357,"postcode":"NN29 7AB","la":"North Northamptonshire","era":"other","nn":37,"risk":27,"cat":"green"},{"name":"Irchester Sports Association","lat":52.28056,"lon":-0.65074,"postcode":"NN29 7DR","la":"North Northamptonshire","era":"other","nn":529,"risk":30,"cat":"green"},{"name":"Irchester Working Mens Club","lat":52.28308,"lon":-0.64415,"postcode":"NN29 7AA","la":"North Northamptonshire","era":"trad","nn":162,"risk":28,"cat":"green"},{"name":"Irthlingborough Conservative Club Ltd","lat":52.32699,"lon":-0.61086,"postcode":"NN9 5UQ","la":"North Northamptonshire","era":"other","nn":501,"risk":28,"cat":"green"},{"name":"Irthlingborough Town Band Club","lat":52.32359,"lon":-0.61916,"postcode":"NN9 5RG","la":"North Northamptonshire","era":"other","nn":154,"risk":25,"cat":"green"},{"name":"Irthlingborough Town Cricket Club","lat":52.32409,"lon":-0.62127,"postcode":"NN9 5RJ","la":"North Northamptonshire","era":"other","nn":154,"risk":25,"cat":"green"},{"name":"Isham Cricket Club","lat":52.35256,"lon":-0.7197,"postcode":"NN14 1HW","la":"North Northamptonshire","era":"other","nn":1542,"risk":55,"cat":"amber"},{"name":"Islip Working Mens Club","lat":52.39985,"lon":-0.54977,"postcode":"NN14 3JS","la":"North Northamptonshire","era":"trad","nn":396,"risk":24,"cat":"green"},{"name":"Joe's Bar","lat":52.3034,"lon":-0.5957,"postcode":"NN10 8BJ","la":"North Northamptonshire","era":"other","nn":136,"risk":23,"cat":"green"},{"name":"Kettering Athletic Club","lat":52.40764,"lon":-0.72754,"postcode":"NN16 9AE","la":"North Northamptonshire","era":"other","nn":357,"risk":24,"cat":"green"},{"name":"Kettering Bridge Club","lat":52.40409,"lon":-0.72992,"postcode":"NN16 8EN","la":"North Northamptonshire","era":"other","nn":398,"risk":24,"cat":"green"},{"name":"Kettering Lodge Bowling Club","lat":52.39598,"lon":-0.7308,"postcode":"NN15 7JU","la":"North Northamptonshire","era":"other","nn":219,"risk":23,"cat":"green"},{"name":"Kettering Rifle Band Club","lat":52.40632,"lon":-0.72276,"postcode":"NN16 9QA","la":"North Northamptonshire","era":"other","nn":357,"risk":24,"cat":"green"},{"name":"Kettering Rugby Football Club","lat":52.392,"lon":-0.7146,"postcode":"NN15 6NT","la":"North Northamptonshire","era":"other","nn":664,"risk":44,"cat":"amber"},{"name":"Kettering Town Football Club","lat":52.36676,"lon":-0.69022,"postcode":"NN15 5PS","la":"North Northamptonshire","era":"other","nn":0,"risk":22,"cat":"green"},{"name":"Kettering Town Harriers","lat":52.38749,"lon":-0.73559,"postcode":"NN15 6PB","la":"North Northamptonshire","era":"other","nn":887,"risk":30,"cat":"green"},{"name":"KGH Social Club","lat":52.40279,"lon":-0.74131,"postcode":"NN16 8UZ","la":"North Northamptonshire","era":"mod","nn":786,"risk":45,"cat":"amber"},{"name":"King Edward VII","lat":52.29265,"lon":-0.59439,"postcode":"NN10 0AZ","la":"North Northamptonshire","era":"trad","nn":334,"risk":24,"cat":"green"},{"name":"Kingfisher","lat":52.30205,"lon":-0.69568,"postcode":"NN8 4HL","la":"North Northamptonshire","era":"trad","nn":27,"risk":22,"cat":"green"},{"name":"La Luna And Blue Room","lat":52.30135,"lon":-0.69407,"postcode":"NN8 1AY","la":"North Northamptonshire","era":"other","nn":59,"risk":22,"cat":"green"},{"name":"Lincoln","lat":52.4796,"lon":-0.71774,"postcode":"NN18 9HN","la":"North Northamptonshire","era":"other","nn":457,"risk":30,"cat":"green"},{"name":"Little Harrowden Working Mens Club","lat":52.33545,"lon":-0.72276,"postcode":"NN9 5BB","la":"North Northamptonshire","era":"trad","nn":1333,"risk":53,"cat":"amber"},{"name":"Lord Nelson Public House","lat":52.47314,"lon":-0.65367,"postcode":"NN14 1BU","la":"North Northamptonshire","era":"trad","nn":2558,"risk":62,"cat":"red"},{"name":"Masonic Lodge","lat":52.49532,"lon":-0.68632,"postcode":"NN17 1AD","la":"North Northamptonshire","era":"trad","nn":496,"risk":25,"cat":"green"},{"name":"Mears Ashby Sports Club","lat":52.28599,"lon":-0.774,"postcode":"NN6 0DR","la":"North Northamptonshire","era":"other","nn":571,"risk":46,"cat":"amber"},{"name":"Middle Nene Cruising Club","lat":52.41738,"lon":-0.50918,"postcode":"NN14 3DP","la":"North Northamptonshire","era":"other","nn":1633,"risk":56,"cat":"amber"},{"name":"Middle Nene Sailing Club","lat":52.40261,"lon":-0.54197,"postcode":"NN14 4LU","la":"North Northamptonshire","era":"other","nn":580,"risk":26,"cat":"green"},{"name":"Midland Band Club","lat":52.4115,"lon":-0.72214,"postcode":"NN16 9RG","la":"North Northamptonshire","era":"other","nn":0,"risk":22,"cat":"green"},{"name":"Midland Band Club","lat":52.4115,"lon":-0.72214,"postcode":"NN16 9RG","la":"North Northamptonshire","era":"other","nn":0,"risk":22,"cat":"green"},{"name":"Montagu Club","lat":52.41779,"lon":-0.69777,"postcode":"NN16 9UN","la":"North Northamptonshire","era":"other","nn":237,"risk":43,"cat":"amber"},{"name":"Nags Head","lat":52.25247,"lon":-0.67428,"postcode":"NN29 7QS","la":"North Northamptonshire","era":"trad","nn":243,"risk":41,"cat":"amber"},{"name":"Number 13","lat":52.29661,"lon":-0.6753,"postcode":"NN8 1LD","la":"North Northamptonshire","era":"other","nn":225,"risk":28,"cat":"green"},{"name":"Ock And Dough Public House","lat":52.31791,"lon":-0.70526,"postcode":"NN8 4UF","la":"North Northamptonshire","era":"other","nn":73,"risk":27,"cat":"green"},{"name":"Old Grammarians Club","lat":52.30088,"lon":-0.69783,"postcode":"NN8 4JH","la":"North Northamptonshire","era":"trad","nn":42,"risk":22,"cat":"green"},{"name":"Old Swan Public House","lat":52.26524,"lon":-0.75364,"postcode":"NN6 0NA","la":"North Northamptonshire","era":"trad","nn":98,"risk":22,"cat":"green"},{"name":"Olde England","lat":52.30141,"lon":-0.69493,"postcode":"NN8 1BQ","la":"North Northamptonshire","era":"other","nn":59,"risk":22,"cat":"green"},{"name":"Overstone Manor","lat":52.28078,"lon":-0.80131,"postcode":"NN6 0BB","la":"North Northamptonshire","era":"other","nn":1285,"risk":53,"cat":"amber"},{"name":"Overstone Park Cricket Club","lat":52.29537,"lon":-0.80471,"postcode":"NN6 0AW","la":"North Northamptonshire","era":"other","nn":418,"risk":42,"cat":"amber"},{"name":"Palm Beach Bar & Club","lat":52.30052,"lon":-0.69157,"postcode":"NN8 1ET","la":"North Northamptonshire","era":"mod","nn":69,"risk":22,"cat":"green"},{"name":"Phoenix Public House","lat":52.48908,"lon":-0.72404,"postcode":"NN18 0AY","la":"North Northamptonshire","era":"other","nn":765,"risk":45,"cat":"amber"},{"name":"Priors Hall Golf Club","lat":52.50195,"lon":-0.62345,"postcode":"NN17 3JH","la":"North Northamptonshire","era":"other","nn":1014,"risk":51,"cat":"amber"},{"name":"Queens Arms","lat":52.3434,"lon":-0.73745,"postcode":"NN14 1JD","la":"North Northamptonshire","era":"trad","nn":1333,"risk":53,"cat":"amber"},{"name":"Railway Inn","lat":52.29321,"lon":-0.59921,"postcode":"NN10 0PA","la":"North Northamptonshire","era":"trad","nn":204,"risk":23,"cat":"green"},{"name":"Ranelagh Arms","lat":52.30395,"lon":-0.68451,"postcode":"NN8 1JS","la":"North Northamptonshire","era":"trad","nn":283,"risk":24,"cat":"green"},{"name":"Raunds Town Cricket Club","lat":52.34472,"lon":-0.53924,"postcode":"NN9 6ET","la":"North Northamptonshire","era":"other","nn":0,"risk":22,"cat":"green"},{"name":"Raunds Town Football And Social  Club","lat":52.35225,"lon":-0.54626,"postcode":"NN9 6EQ","la":"North Northamptonshire","era":"mod","nn":963,"risk":33,"cat":"amber"},{"name":"Red Lion","lat":52.38226,"lon":-0.64432,"postcode":"NN14 4AA","la":"North Northamptonshire","era":"trad","nn":2720,"risk":63,"cat":"red"},{"name":"Red Lion","lat":52.37534,"lon":-0.77407,"postcode":"NN14 1NF","la":"North Northamptonshire","era":"trad","nn":134,"risk":43,"cat":"amber"},{"name":"Redwell Leisure Centre","lat":52.31513,"lon":-0.70793,"postcode":"NN8 5LP","la":"North Northamptonshire","era":"other","nn":349,"risk":27,"cat":"green"},{"name":"Residential Girl Guide Training Centre","lat":52.39458,"lon":-0.60429,"postcode":"NN14 3AH","la":"North Northamptonshire","era":"other","nn":1954,"risk":58,"cat":"amber"},{"name":"Ringstead Village Social Club","lat":52.36641,"lon":-0.55326,"postcode":"NN14 4DA","la":"North Northamptonshire","era":"mod","nn":1559,"risk":55,"cat":"amber"},{"name":"Rothwell Conservative Club","lat":52.42305,"lon":-0.80022,"postcode":"NN14 6EP","la":"North Northamptonshire","era":"other","nn":198,"risk":41,"cat":"amber"},{"name":"Rothwell Manor Park Bowls Club NO Mail","lat":52.42246,"lon":-0.80297,"postcode":"NN14 6BQ","la":"North Northamptonshire","era":"trad","nn":83,"risk":40,"cat":"amber"},{"name":"Rowell Charter Inn","lat":52.42182,"lon":-0.8036,"postcode":"NN14 6AB","la":"North Northamptonshire","era":"trad","nn":83,"risk":40,"cat":"amber"},{"name":"Rushden And Higham Rugby Club","lat":52.27374,"lon":-0.58633,"postcode":"NN10 0SA","la":"North Northamptonshire","era":"other","nn":711,"risk":47,"cat":"amber"},{"name":"Rushden Athletic Club & Institute","lat":52.28934,"lon":-0.59134,"postcode":"NN10 0HQ","la":"North Northamptonshire","era":"other","nn":384,"risk":24,"cat":"green"},{"name":"Rushden Conservative Club Limited","lat":52.28649,"lon":-0.59732,"postcode":"NN10 0QX","la":"North Northamptonshire","era":"other","nn":176,"risk":23,"cat":"green"},{"name":"Rushden Golf Club","lat":52.31529,"lon":-0.54611,"postcode":"NN9 6AN","la":"North Northamptonshire","era":"other","nn":40,"risk":42,"cat":"amber"},{"name":"Rushden Town Band Club","lat":52.2929,"lon":-0.60216,"postcode":"NN10 9SG","la":"North Northamptonshire","era":"other","nn":204,"risk":23,"cat":"green"},{"name":"Rushden Town Cricket Club","lat":52.29242,"lon":-0.58608,"postcode":"NN10 0EB","la":"North Northamptonshire","era":"other","nn":116,"risk":22,"cat":"green"},{"name":"Rushden Windmill Club & Snooker Club","lat":52.2911,"lon":-0.60883,"postcode":"NN10 9TH","la":"North Northamptonshire","era":"trad","nn":485,"risk":25,"cat":"green"},{"name":"Rushden Working Mens Club","lat":52.288,"lon":-0.59654,"postcode":"NN10 0RL","la":"North Northamptonshire","era":"trad","nn":176,"risk":23,"cat":"green"},{"name":"Rushton Cricket Club","lat":52.43828,"lon":-0.76197,"postcode":"NN14 1RL","la":"North Northamptonshire","era":"other","nn":0,"risk":42,"cat":"amber"},{"name":"S & L Bowling Club","lat":52.49923,"lon":-0.69141,"postcode":"NN17 1EH","la":"North Northamptonshire","era":"other","nn":138,"risk":28,"cat":"green"},{"name":"Samuel Lloyd","lat":52.50766,"lon":-0.70622,"postcode":"NN17 4BH","la":"North Northamptonshire","era":"other","nn":1372,"risk":54,"cat":"amber"},{"name":"Scott Bader S & S Club","lat":52.25761,"lon":-0.67109,"postcode":"NN29 7RJ","la":"North Northamptonshire","era":"other","nn":407,"risk":42,"cat":"amber"},{"name":"Shire Horse","lat":52.40158,"lon":-0.72573,"postcode":"NN16 8JH","la":"North Northamptonshire","era":"trad","nn":54,"risk":22,"cat":"green"},{"name":"Shoulder Of Mutton","lat":52.49711,"lon":-0.63999,"postcode":"NN17 3HP","la":"North Northamptonshire","era":"other","nn":328,"risk":44,"cat":"amber"},{"name":"Silk","lat":52.30158,"lon":-0.68912,"postcode":"NN8 1HF","la":"North Northamptonshire","era":"other","nn":61,"risk":22,"cat":"green"},{"name":"Silver Band Club","lat":52.26872,"lon":-0.74852,"postcode":"NN6 0LN","la":"North Northamptonshire","era":"other","nn":0,"risk":22,"cat":"green"},{"name":"St James Leisure Club","lat":52.4877,"lon":-0.68292,"postcode":"NN18 8AL","la":"North Northamptonshire","era":"other","nn":366,"risk":29,"cat":"green"},{"name":"Stanwick Club","lat":52.33132,"lon":-0.56497,"postcode":"NN9 6QA","la":"North Northamptonshire","era":"other","nn":201,"risk":43,"cat":"amber"},{"name":"Star Inn","lat":52.43799,"lon":-0.68589,"postcode":"NN14 1AD","la":"North Northamptonshire","era":"trad","nn":210,"risk":43,"cat":"amber"},{"name":"Stewarts And Lloyds Football Club","lat":52.49701,"lon":-0.69325,"postcode":"NN17 1EB","la":"North Northamptonshire","era":"other","nn":276,"risk":24,"cat":"green"},{"name":"Stitching Pony","lat":52.39827,"lon":-0.72718,"postcode":"NN16 0AH","la":"North Northamptonshire","era":"other","nn":0,"risk":22,"cat":"green"},{"name":"Sywell Leisure Sports Ltd","lat":52.29234,"lon":-0.80108,"postcode":"NN6 0BA","la":"North Northamptonshire","era":"other","nn":418,"risk":42,"cat":"amber"},{"name":"Talisman Public House","lat":52.47075,"lon":-0.73385,"postcode":"NN18 9EJ","la":"North Northamptonshire","era":"other","nn":24,"risk":42,"cat":"amber"},{"name":"The Artlenock Inn","lat":52.32214,"lon":-0.62092,"postcode":"NN9 5SN","la":"North Northamptonshire","era":"trad","nn":201,"risk":26,"cat":"green"},{"name":"The Blue Bell Inn","lat":52.53649,"lon":-0.67551,"postcode":"NN17 3DF","la":"North Northamptonshire","era":"trad","nn":268,"risk":41,"cat":"amber"},{"name":"The Briars","lat":52.41675,"lon":-0.72021,"postcode":"NN16 9BP","la":"North Northamptonshire","era":"other","nn":599,"risk":31,"cat":"amber"},{"name":"The Cannon Public House","lat":52.30431,"lon":-0.6896,"postcode":"NN8 4DJ","la":"North Northamptonshire","era":"other","nn":66,"risk":22,"cat":"green"},{"name":"The Carriage House","lat":52.30562,"lon":-0.59298,"postcode":"NN10 8DJ","la":"North Northamptonshire","era":"other","nn":51,"risk":22,"cat":"green"},{"name":"The Clansman","lat":52.47096,"lon":-0.73398,"postcode":"NN18 9EJ","la":"North Northamptonshire","era":"other","nn":24,"risk":42,"cat":"amber"},{"name":"The Cock Inn","lat":52.37899,"lon":-0.5431,"postcode":"NN14 4EQ","la":"North Northamptonshire","era":"trad","nn":1559,"risk":55,"cat":"amber"},{"name":"The Compasses","lat":52.28547,"lon":-0.59325,"postcode":"NN10 0RB","la":"North Northamptonshire","era":"other","nn":299,"risk":24,"cat":"green"},{"name":"The Conservative Club","lat":52.33892,"lon":-0.65468,"postcode":"NN9 5JN","la":"North Northamptonshire","era":"other","nn":81,"risk":22,"cat":"green"},{"name":"The Crown","lat":52.29841,"lon":-0.67681,"postcode":"NN8 1NJ","la":"North Northamptonshire","era":"trad","nn":225,"risk":23,"cat":"green"},{"name":"The Duke Of Wellington","lat":52.33149,"lon":-0.56203,"postcode":"NN9 6PS","la":"North Northamptonshire","era":"trad","nn":201,"risk":43,"cat":"amber"},{"name":"The Dukes Arms","lat":52.36201,"lon":-0.67886,"postcode":"NN15 5RL","la":"North Northamptonshire","era":"trad","nn":0,"risk":22,"cat":"green"},{"name":"The Fiddlers Elbow","lat":52.30328,"lon":-0.69299,"postcode":"NN8 4PF","la":"North Northamptonshire","era":"other","nn":0,"risk":22,"cat":"green"},{"name":"The Flavour Trailer","lat":52.41459,"lon":-0.72974,"postcode":"NN16 9AL","la":"North Northamptonshire","era":"other","nn":620,"risk":29,"cat":"green"},{"name":"The Football Club Ltd.","lat":52.29173,"lon":-0.58479,"postcode":"NN10 0HX","la":"North Northamptonshire","era":"other","nn":116,"risk":22,"cat":"green"},{"name":"The Fox Inn","lat":52.39714,"lon":-0.53752,"postcode":"NN14 4JJ","la":"North Northamptonshire","era":"trad","nn":0,"risk":22,"cat":"green"},{"name":"The George","lat":52.44134,"lon":-0.82064,"postcode":"NN14 2NB","la":"North Northamptonshire","era":"trad","nn":0,"risk":22,"cat":"green"},{"name":"The George","lat":52.49638,"lon":-0.6353,"postcode":"NN17 3JL","la":"North Northamptonshire","era":"trad","nn":328,"risk":44,"cat":"amber"},{"name":"The George & Dragon","lat":52.34498,"lon":-0.53591,"postcode":"NN9 6HS","la":"North Northamptonshire","era":"trad","nn":171,"risk":23,"cat":"green"},{"name":"The George Inn","lat":52.28729,"lon":-0.72715,"postcode":"NN8 2UB","la":"North Northamptonshire","era":"trad","nn":110,"risk":40,"cat":"amber"},{"name":"The Globe","lat":52.34024,"lon":-0.54122,"postcode":"NN9 6DS","la":"North Northamptonshire","era":"other","nn":262,"risk":23,"cat":"green"},{"name":"The Green Dragon","lat":52.45779,"lon":-0.60852,"postcode":"NN14 3EZ","la":"North Northamptonshire","era":"trad","nn":3503,"risk":69,"cat":"red"},{"name":"The Griffin","lat":52.30522,"lon":-0.59366,"postcode":"NN10 8BW","la":"North Northamptonshire","era":"trad","nn":44,"risk":22,"cat":"green"},{"name":"The Griffins Head","lat":52.2903,"lon":-0.76944,"postcode":"NN6 0DX","la":"North Northamptonshire","era":"trad","nn":571,"risk":46,"cat":"amber"},{"name":"The Half Moon Grendon","lat":52.23728,"lon":-0.71288,"postcode":"NN7 1JW","la":"North Northamptonshire","era":"other","nn":2235,"risk":60,"cat":"amber"},{"name":"The Hare And Hounds","lat":52.36654,"lon":-0.59281,"postcode":"NN14 4BS","la":"North Northamptonshire","era":"trad","nn":1558,"risk":55,"cat":"amber"},{"name":"The Horseshoe","lat":52.29769,"lon":-0.79903,"postcode":"NN6 0AW","la":"North Northamptonshire","era":"trad","nn":464,"risk":42,"cat":"amber"},{"name":"The Horseshoe","lat":52.30074,"lon":-0.69303,"postcode":"NN8 1BS","la":"North Northamptonshire","era":"trad","nn":98,"risk":22,"cat":"green"},{"name":"The Kings Arms Public House","lat":52.39714,"lon":-0.53752,"postcode":"NN14 4JJ","la":"North Northamptonshire","era":"trad","nn":0,"risk":22,"cat":"green"},{"name":"The Knight's Lodge","lat":52.48327,"lon":-0.73138,"postcode":"NN18 0TH","la":"North Northamptonshire","era":"other","nn":585,"risk":43,"cat":"amber"},{"name":"The Lilacs","lat":52.35759,"lon":-0.69854,"postcode":"NN14 1HD","la":"North Northamptonshire","era":"other","nn":1166,"risk":52,"cat":"amber"},{"name":"The Little Ale House","lat":52.30295,"lon":-0.69747,"postcode":"NN8 4JU","la":"North Northamptonshire","era":"other","nn":158,"risk":23,"cat":"green"},{"name":"The Little R'Ale House","lat":52.30385,"lon":-0.6766,"postcode":"NN8 1NQ","la":"North Northamptonshire","era":"other","nn":538,"risk":25,"cat":"green"},{"name":"The Locomotive","lat":52.31268,"lon":-0.67708,"postcode":"NN8 4AL","la":"North Northamptonshire","era":"other","nn":982,"risk":49,"cat":"amber"},{"name":"The Mason Arms","lat":52.38715,"lon":-0.4834,"postcode":"NN14 4NJ","la":"North Northamptonshire","era":"trad","nn":2197,"risk":60,"cat":"amber"},{"name":"The Mikado Pheasant","lat":52.38284,"lon":-0.72415,"postcode":"NN15 6JS","la":"North Northamptonshire","era":"other","nn":730,"risk":44,"cat":"amber"},{"name":"The Needle And Awl","lat":52.30013,"lon":-0.61556,"postcode":"NN10 6EF","la":"North Northamptonshire","era":"other","nn":457,"risk":45,"cat":"amber"},{"name":"The Old Market Inn","lat":52.39713,"lon":-0.72818,"postcode":"NN16 0AJ","la":"North Northamptonshire","era":"trad","nn":144,"risk":23,"cat":"green"},{"name":"The Old Works","lat":52.44141,"lon":-0.81933,"postcode":"NN14 2LX","la":"North Northamptonshire","era":"mod","nn":18,"risk":22,"cat":"green"},{"name":"The Oliver Twist","lat":52.32439,"lon":-0.61687,"postcode":"NN9 5PX","la":"North Northamptonshire","era":"other","nn":178,"risk":25,"cat":"green"},{"name":"The Palace","lat":52.30316,"lon":-0.69242,"postcode":"NN8 4PD","la":"North Northamptonshire","era":"other","nn":39,"risk":22,"cat":"green"},{"name":"The Parkhouse","lat":52.37726,"lon":-0.71848,"postcode":"NN15 6XE","la":"North Northamptonshire","era":"other","nn":491,"risk":43,"cat":"amber"},{"name":"The Peacock Inn","lat":52.40049,"lon":-0.72864,"postcode":"NN16 8DH","la":"North Northamptonshire","era":"trad","nn":173,"risk":23,"cat":"green"},{"name":"The Priory","lat":52.28536,"lon":-0.70965,"postcode":"NN8 2LF","la":"North Northamptonshire","era":"other","nn":1104,"risk":52,"cat":"amber"},{"name":"The Queens Head","lat":52.30562,"lon":-0.59372,"postcode":"NN10 8BN","la":"North Northamptonshire","era":"trad","nn":44,"risk":22,"cat":"green"},{"name":"The Queens Head","lat":52.30494,"lon":-0.699,"postcode":"NN8 4LH","la":"North Northamptonshire","era":"trad","nn":171,"risk":23,"cat":"green"},{"name":"The Raunds Conservative Club","lat":52.3456,"lon":-0.5336,"postcode":"NN9 6JW","la":"North Northamptonshire","era":"other","nn":171,"risk":23,"cat":"green"},{"name":"The Red Lion","lat":52.22172,"lon":-0.67638,"postcode":"NN29 7JR","la":"North Northamptonshire","era":"trad","nn":3029,"risk":65,"cat":"red"},{"name":"The Red Lion","lat":52.33889,"lon":-0.54439,"postcode":"NN9 6DL","la":"North Northamptonshire","era":"trad","nn":262,"risk":23,"cat":"green"},{"name":"The Red Well","lat":52.30186,"lon":-0.69543,"postcode":"NN8 1BQ","la":"North Northamptonshire","era":"other","nn":27,"risk":22,"cat":"green"},{"name":"The Rising Sun","lat":52.40034,"lon":-0.72605,"postcode":"NN16 0BN","la":"North Northamptonshire","era":"other","nn":16,"risk":22,"cat":"green"},{"name":"The Rose And Crown","lat":52.28997,"lon":-0.59781,"postcode":"NN10 0QE","la":"North Northamptonshire","era":"trad","nn":235,"risk":23,"cat":"green"},{"name":"The Royal Oak","lat":52.2921,"lon":-0.69739,"postcode":"NN8 2LJ","la":"North Northamptonshire","era":"trad","nn":812,"risk":30,"cat":"green"},{"name":"The Saxon Crown","lat":52.48722,"lon":-0.69953,"postcode":"NN17 1FN","la":"North Northamptonshire","era":"trad","nn":136,"risk":23,"cat":"green"},{"name":"The Saxon Tavern","lat":52.26531,"lon":-0.7522,"postcode":"NN6 0NA","la":"North Northamptonshire","era":"other","nn":98,"risk":22,"cat":"green"},{"name":"The Sound Bar","lat":52.3989,"lon":-0.72649,"postcode":"NN16 0DG","la":"North Northamptonshire","era":"other","nn":84,"risk":22,"cat":"green"},{"name":"The Stags Head","lat":52.26698,"lon":-0.75084,"postcode":"NN6 0JG","la":"North Northamptonshire","era":"trad","nn":208,"risk":23,"cat":"green"},{"name":"The Stags Head Public House","lat":52.27456,"lon":-0.70757,"postcode":"NN29 7TQ","la":"North Northamptonshire","era":"trad","nn":131,"risk":40,"cat":"amber"},{"name":"The Star And Garter","lat":52.31516,"lon":-0.54665,"postcode":"NN9 6AJ","la":"North Northamptonshire","era":"other","nn":40,"risk":42,"cat":"amber"},{"name":"The Swan Inn","lat":52.28205,"lon":-0.53643,"postcode":"NN10 0SR","la":"North Northamptonshire","era":"trad","nn":3049,"risk":66,"cat":"red"},{"name":"The Thornhill Arms","lat":52.43828,"lon":-0.76197,"postcode":"NN14 1RL","la":"North Northamptonshire","era":"trad","nn":0,"risk":42,"cat":"amber"},{"name":"The Three Horseshoes","lat":52.26355,"lon":-0.78848,"postcode":"NN6 0QA","la":"North Northamptonshire","era":"trad","nn":300,"risk":44,"cat":"amber"},{"name":"The Trading Post","lat":52.39222,"lon":-0.74611,"postcode":"NN15 7RH","la":"North Northamptonshire","era":"other","nn":887,"risk":48,"cat":"amber"},{"name":"The Volunteer","lat":52.30159,"lon":-0.68823,"postcode":"NN8 1LU","la":"North Northamptonshire","era":"other","nn":61,"risk":22,"cat":"green"},{"name":"The Warren","lat":52.40329,"lon":-0.71332,"postcode":"NN16 8FD","la":"North Northamptonshire","era":"other","nn":125,"risk":23,"cat":"green"},{"name":"The Welcome Inn","lat":52.28983,"lon":-0.61925,"postcode":"NN10 9QU","la":"North Northamptonshire","era":"trad","nn":723,"risk":47,"cat":"amber"},{"name":"The Wheatsheaf","lat":52.40568,"lon":-0.49462,"postcode":"NN14 3DH","la":"North Northamptonshire","era":"trad","nn":1633,"risk":56,"cat":"amber"},{"name":"The Wine Room Kettering","lat":52.39826,"lon":-0.72716,"postcode":"NN16 0AH","la":"North Northamptonshire","era":"other","nn":1,"risk":22,"cat":"green"},{"name":"The Woolcomber","lat":52.39354,"lon":-0.70142,"postcode":"NN15 5AZ","la":"North Northamptonshire","era":"other","nn":911,"risk":48,"cat":"amber"},{"name":"The Woolpack Inn","lat":52.39664,"lon":-0.54724,"postcode":"NN14 3JU","la":"North Northamptonshire","era":"trad","nn":396,"risk":24,"cat":"green"},{"name":"The World Upside Down","lat":52.34472,"lon":-0.53924,"postcode":"NN9 6ET","la":"North Northamptonshire","era":"other","nn":0,"risk":22,"cat":"green"},{"name":"The Worlds End","lat":52.26595,"lon":-0.79047,"postcode":"NN6 0QQ","la":"North Northamptonshire","era":"other","nn":300,"risk":44,"cat":"amber"},{"name":"Thrapston Bowls Club","lat":52.3953,"lon":-0.53536,"postcode":"NN14 4JU","la":"North Northamptonshire","era":"other","nn":251,"risk":23,"cat":"green"},{"name":"Thrapston Sports Association","lat":52.39816,"lon":-0.53751,"postcode":"NN14 4JL","la":"North Northamptonshire","era":"other","nn":114,"risk":22,"cat":"green"},{"name":"Tollemache Arms","lat":52.41267,"lon":-0.86378,"postcode":"NN6 9NU","la":"North Northamptonshire","era":"trad","nn":4196,"risk":74,"cat":"red"},{"name":"Tower Fields Events","lat":52.33567,"lon":-0.64182,"postcode":"NN9 5EJ","la":"North Northamptonshire","era":"other","nn":692,"risk":29,"cat":"green"},{"name":"Tropicana","lat":52.4002,"lon":-0.72614,"postcode":"NN16 0DE","la":"North Northamptonshire","era":"other","nn":16,"risk":22,"cat":"green"},{"name":"Up In Smoke At The Green Dragon Pub","lat":52.30687,"lon":-0.59239,"postcode":"NN10 8DZ","la":"North Northamptonshire","era":"trad","nn":145,"risk":23,"cat":"green"},{"name":"Vicarage Farm Community Centre","lat":52.31423,"lon":-0.715,"postcode":"NN8 5WA","la":"North Northamptonshire","era":"other","nn":491,"risk":30,"cat":"green"},{"name":"Weekley & Warkton Cricket Club","lat":52.41864,"lon":-0.69455,"postcode":"NN16 9UN","la":"North Northamptonshire","era":"other","nn":237,"risk":43,"cat":"amber"},{"name":"Wellingborough Bowling Club","lat":52.30671,"lon":-0.70035,"postcode":"NN8 5AS","la":"North Northamptonshire","era":"other","nn":218,"risk":23,"cat":"green"},{"name":"Wellingborough Cricket Club","lat":52.30866,"lon":-0.70181,"postcode":"NN8 5AZ","la":"North Northamptonshire","era":"other","nn":238,"risk":23,"cat":"green"},{"name":"Wellingborough Cue Sports","lat":52.30311,"lon":-0.69185,"postcode":"NN8 4PG","la":"North Northamptonshire","era":"other","nn":39,"risk":22,"cat":"green"},{"name":"Wellingborough Rugby Club","lat":52.27464,"lon":-0.72643,"postcode":"NN29 7TZ","la":"North Northamptonshire","era":"other","nn":1190,"risk":52,"cat":"amber"},{"name":"Wellingborough Town Football Club","lat":52.29363,"lon":-0.68572,"postcode":"NN8 2DP","la":"North Northamptonshire","era":"other","nn":782,"risk":27,"cat":"green"},{"name":"Wilby Working Mens Club","lat":52.28809,"lon":-0.72525,"postcode":"NN8 2UB","la":"North Northamptonshire","era":"trad","nn":156,"risk":40,"cat":"amber"},{"name":"Windmill Club","lat":52.40224,"lon":-0.71398,"postcode":"NN16 0HU","la":"North Northamptonshire","era":"trad","nn":125,"risk":23,"cat":"green"},{"name":"Wollaston Working Mens Club","lat":52.25465,"lon":-0.67461,"postcode":"NN29 7QP","la":"North Northamptonshire","era":"trad","nn":243,"risk":41,"cat":"amber"},{"name":"Woodford Sports And Social Club","lat":52.35172,"lon":-0.59584,"postcode":"NN14 4RD","la":"North Northamptonshire","era":"mod","nn":272,"risk":44,"cat":"amber"},{"name":"Woodpecker Restaurant","lat":52.34472,"lon":-0.53924,"postcode":"NN9 6ET","la":"North Northamptonshire","era":"other","nn":0,"risk":22,"cat":"green"},{"name":"Ye Golden Lion","lat":52.29991,"lon":-0.69136,"postcode":"NN8 1BL","la":"North Northamptonshire","era":"trad","nn":69,"risk":22,"cat":"green"},{"name":"A Taste of Home limited @ The Royal Oak","lat":52.23734,"lon":-0.78375,"postcode":"NN7 1NJ","la":"West Northamptonshire","era":"trad","nn":329,"risk":28,"cat":"green"},{"name":"Abington Bowling Club","lat":52.2417,"lon":-0.86304,"postcode":"NN3 3AA","la":"West Northamptonshire","era":"other","nn":673,"risk":25,"cat":"green"},{"name":"Bakers Arms","lat":52.20983,"lon":-1.01055,"postcode":"NN7 3PG","la":"West Northamptonshire","era":"trad","nn":320,"risk":25,"cat":"green"},{"name":"Bar Serengeti","lat":52.24102,"lon":-0.88347,"postcode":"NN1 4DR","la":"West Northamptonshire","era":"mod","nn":0,"risk":20,"cat":"green"},{"name":"Bar So","lat":52.24099,"lon":-0.88776,"postcode":"NN1 4AQ","la":"West Northamptonshire","era":"mod","nn":105,"risk":21,"cat":"green"},{"name":"Bartholomew Arms","lat":52.14554,"lon":-1.08883,"postcode":"NN12 8RE","la":"West Northamptonshire","era":"trad","nn":4297,"risk":73,"cat":"red"},{"name":"Bat & Wickets PH","lat":52.245,"lon":-0.89342,"postcode":"NN1 3EA","la":"West Northamptonshire","era":"other","nn":230,"risk":22,"cat":"green"},{"name":"Beer Guerrilla","lat":52.24212,"lon":-0.87709,"postcode":"NN1 4EF","la":"West Northamptonshire","era":"other","nn":50,"risk":21,"cat":"green"},{"name":"Blackbird Inn","lat":51.99792,"lon":-1.21016,"postcode":"NN13 5LT","la":"West Northamptonshire","era":"trad","nn":2741,"risk":62,"cat":"red"},{"name":"Blisworth Football Supporters Club","lat":52.17482,"lon":-0.93176,"postcode":"NN7 3DD","la":"West Northamptonshire","era":"other","nn":511,"risk":44,"cat":"amber"},{"name":"Boat Inn","lat":52.14282,"lon":-0.9174,"postcode":"NN12 7SB","la":"West Northamptonshire","era":"trad","nn":279,"risk":40,"cat":"amber"},{"name":"Boston Clipper","lat":52.23771,"lon":-0.89808,"postcode":"NN1 2QP","la":"West Northamptonshire","era":"other","nn":72,"risk":21,"cat":"green"},{"name":"Boys Brigade Old Boys Rugby Club","lat":52.24424,"lon":-0.90394,"postcode":"NN1 2PD","la":"West Northamptonshire","era":"other","nn":257,"risk":22,"cat":"green"},{"name":"Brackley Band Supporters Club","lat":52.02676,"lon":-1.1502,"postcode":"NN13 6DF","la":"West Northamptonshire","era":"other","nn":114,"risk":21,"cat":"green"},{"name":"Brackley Tennis Club","lat":52.0266,"lon":-1.14279,"postcode":"NN13 7EB","la":"West Northamptonshire","era":"other","nn":323,"risk":23,"cat":"green"},{"name":"Brackley Town Football Club","lat":52.02524,"lon":-1.14696,"postcode":"NN13 7EJ","la":"West Northamptonshire","era":"other","nn":226,"risk":22,"cat":"green"},{"name":"Brafield on the Green Community, Sports & Social","lat":52.22074,"lon":-0.79909,"postcode":"NN7 1BD","la":"West Northamptonshire","era":"mod","nn":108,"risk":41,"cat":"amber"},{"name":"Bridge 26 Bar & Bites","lat":52.23595,"lon":-0.89757,"postcode":"NN1 1NW","la":"West Northamptonshire","era":"mod","nn":30,"risk":21,"cat":"green"},{"name":"Britannia Inn","lat":52.22861,"lon":-0.86416,"postcode":"NN4 7AA","la":"West Northamptonshire","era":"trad","nn":633,"risk":45,"cat":"amber"},{"name":"Bugbrooke Community Centre Committee","lat":52.20594,"lon":-1.00483,"postcode":"NN7 3RW","la":"West Northamptonshire","era":"other","nn":0,"risk":23,"cat":"green"},{"name":"Bugbrooke Cricket Club","lat":52.2071,"lon":-1.00909,"postcode":"NN7 3PG","la":"West Northamptonshire","era":"other","nn":318,"risk":25,"cat":"green"},{"name":"Bugbrooke RUFC","lat":52.20594,"lon":-1.00483,"postcode":"NN7 3RW","la":"West Northamptonshire","era":"other","nn":0,"risk":23,"cat":"green"},{"name":"Butchers Arms","lat":52.14271,"lon":-1.02584,"postcode":"NN12 8BA","la":"West Northamptonshire","era":"trad","nn":97,"risk":41,"cat":"amber"},{"name":"Chasers","lat":52.25773,"lon":-1.15994,"postcode":"NN11 4BT","la":"West Northamptonshire","era":"other","nn":104,"risk":21,"cat":"green"},{"name":"Chequered Flag","lat":52.03671,"lon":-1.1541,"postcode":"NN13 6JR","la":"West Northamptonshire","era":"other","nn":860,"risk":31,"cat":"amber"},{"name":"Coach And Horses","lat":52.33043,"lon":-0.90228,"postcode":"NN6 9BX","la":"West Northamptonshire","era":"trad","nn":90,"risk":41,"cat":"amber"},{"name":"Cogenhoe Sports & Social Club Limited","lat":52.23751,"lon":-0.78857,"postcode":"NN7 1LT","la":"West Northamptonshire","era":"mod","nn":266,"risk":27,"cat":"green"},{"name":"Cogenhoe United FC","lat":52.23392,"lon":-0.793,"postcode":"NN7 1ND","la":"West Northamptonshire","era":"other","nn":249,"risk":27,"cat":"green"},{"name":"Cogenhoe W M Bowling Club","lat":52.23599,"lon":-0.79157,"postcode":"NN7 1ND","la":"West Northamptonshire","era":"other","nn":249,"risk":27,"cat":"green"},{"name":"Compton Estates Club","lat":52.22468,"lon":-0.73846,"postcode":"NN7 1LQ","la":"West Northamptonshire","era":"other","nn":2235,"risk":59,"cat":"amber"},{"name":"Coopers Snooker Club Ltd","lat":52.24279,"lon":-0.88982,"postcode":"NN1 3JL","la":"West Northamptonshire","era":"trad","nn":120,"risk":21,"cat":"green"},{"name":"Corkers bar","lat":52.24485,"lon":-0.87147,"postcode":"NN1 4EU","la":"West Northamptonshire","era":"other","nn":208,"risk":22,"cat":"green"},{"name":"Crick Ex-Servicemen's Club","lat":52.34834,"lon":-1.13818,"postcode":"NN6 7TP","la":"West Northamptonshire","era":"other","nn":100,"risk":26,"cat":"green"},{"name":"Crown & Anchor Ph","lat":52.23953,"lon":-0.8849,"postcode":"NN1 5ED","la":"West Northamptonshire","era":"trad","nn":185,"risk":22,"cat":"green"},{"name":"Crown & Cushion PH","lat":52.24206,"lon":-0.8755,"postcode":"NN1 4EJ","la":"West Northamptonshire","era":"trad","nn":55,"risk":21,"cat":"green"},{"name":"Crown Inn","lat":52.11753,"lon":-1.14074,"postcode":"NN12 8PX","la":"West Northamptonshire","era":"trad","nn":3318,"risk":66,"cat":"red"},{"name":"Daventry And District Golf Club","lat":52.26398,"lon":-1.14514,"postcode":"NN11 2LS","la":"West Northamptonshire","era":"other","nn":959,"risk":47,"cat":"amber"},{"name":"Daventry Conservative Club","lat":52.25776,"lon":-1.16256,"postcode":"NN11 4BQ","la":"West Northamptonshire","era":"other","nn":125,"risk":21,"cat":"green"},{"name":"Daventry Workings Men's Club","lat":52.25979,"lon":-1.15745,"postcode":"NN11 4GL","la":"West Northamptonshire","era":"trad","nn":284,"risk":22,"cat":"green"},{"name":"Dept of Meat & Social Affairs","lat":52.23535,"lon":-0.89743,"postcode":"NN1 1PA","la":"West Northamptonshire","era":"mod","nn":29,"risk":21,"cat":"green"},{"name":"DG Taylors Ltd @N&D Indoor Bowls Ass","lat":52.26548,"lon":-0.90006,"postcode":"NN2 8DH","la":"West Northamptonshire","era":"other","nn":26,"risk":23,"cat":"green"},{"name":"Duston Conservative Assoc & Club","lat":52.24364,"lon":-0.94338,"postcode":"NN5 6JG","la":"West Northamptonshire","era":"other","nn":118,"risk":21,"cat":"green"},{"name":"Early Doors","lat":52.25737,"lon":-1.16442,"postcode":"NN11 4AB","la":"West Northamptonshire","era":"other","nn":48,"risk":21,"cat":"green"},{"name":"Eastcote Arms","lat":52.1803,"lon":-1.00717,"postcode":"NN12 8NG","la":"West Northamptonshire","era":"trad","nn":2422,"risk":60,"cat":"amber"},{"name":"Eastern District Social C","lat":52.26813,"lon":-0.83062,"postcode":"NN3 8JJ","la":"West Northamptonshire","era":"mod","nn":903,"risk":47,"cat":"amber"},{"name":"Edge of Town","lat":52.24214,"lon":-0.89791,"postcode":"NN1 2NQ","la":"West Northamptonshire","era":"other","nn":187,"risk":22,"cat":"green"},{"name":"Elwes Arms","lat":52.25703,"lon":-0.81244,"postcode":"NN3 9DT","la":"West Northamptonshire","era":"trad","nn":563,"risk":44,"cat":"amber"},{"name":"Elysium Nightclub (formerly Fever)","lat":52.23621,"lon":-0.90065,"postcode":"NN1 1TB","la":"West Northamptonshire","era":"other","nn":204,"risk":22,"cat":"green"},{"name":"Far Cotton Loco Club","lat":52.22806,"lon":-0.90016,"postcode":"NN4 8DN","la":"West Northamptonshire","era":"other","nn":193,"risk":22,"cat":"green"},{"name":"Far Cotton Wmc","lat":52.22773,"lon":-0.90383,"postcode":"NN4 8EN","la":"West Northamptonshire","era":"other","nn":196,"risk":22,"cat":"green"},{"name":"Fiddlers","lat":52.24102,"lon":-0.88347,"postcode":"NN1 4DR","la":"West Northamptonshire","era":"other","nn":0,"risk":20,"cat":"green"},{"name":"Fleur De Lys","lat":52.1686,"lon":-1.20514,"postcode":"NN11 3RF","la":"West Northamptonshire","era":"other","nn":0,"risk":25,"cat":"green"},{"name":"Forester Arms","lat":52.2212,"lon":-1.03553,"postcode":"NN7 3LE","la":"West Northamptonshire","era":"trad","nn":172,"risk":39,"cat":"amber"},{"name":"Foundryman","lat":52.23953,"lon":-0.91422,"postcode":"NN5 5LE","la":"West Northamptonshire","era":"mod","nn":121,"risk":21,"cat":"green"},{"name":"Fox And Hounds","lat":52.26901,"lon":-0.90075,"postcode":"NN2 8DJ","la":"West Northamptonshire","era":"trad","nn":370,"risk":23,"cat":"green"},{"name":"Gardeners Arms","lat":52.24162,"lon":-0.87852,"postcode":"NN1 4EB","la":"West Northamptonshire","era":"trad","nn":45,"risk":21,"cat":"green"},{"name":"George Inn","lat":52.16157,"lon":-0.98049,"postcode":"NN12 8AD","la":"West Northamptonshire","era":"trad","nn":2766,"risk":62,"cat":"red"},{"name":"Golden Horse","lat":52.22658,"lon":-0.90165,"postcode":"NN4 8DZ","la":"West Northamptonshire","era":"trad","nn":193,"risk":22,"cat":"green"},{"name":"Grangewood Residents Club","lat":52.21094,"lon":-0.91374,"postcode":"NN4 0UA","la":"West Northamptonshire","era":"other","nn":1226,"risk":52,"cat":"amber"},{"name":"Greens Norton British Legion Club","lat":52.14249,"lon":-1.02447,"postcode":"NN12 8BU","la":"West Northamptonshire","era":"other","nn":97,"risk":41,"cat":"amber"},{"name":"Harpole Bowls Club","lat":52.24092,"lon":-0.97911,"postcode":"NN7 4DF","la":"West Northamptonshire","era":"other","nn":655,"risk":45,"cat":"amber"},{"name":"Hartwell & District Conservative Club","lat":52.14806,"lon":-0.85095,"postcode":"NN7 2HE","la":"West Northamptonshire","era":"trad","nn":331,"risk":43,"cat":"amber"},{"name":"Harvester","lat":52.24159,"lon":-0.83983,"postcode":"NN3 9HU","la":"West Northamptonshire","era":"trad","nn":166,"risk":39,"cat":"amber"},{"name":"Horton House Sports Club","lat":52.18362,"lon":-0.80117,"postcode":"NN7 2BE","la":"West Northamptonshire","era":"mod","nn":359,"risk":43,"cat":"amber"},{"name":"Inspirado","lat":52.2282,"lon":-1.18184,"postcode":"NN11 3AF","la":"West Northamptonshire","era":"other","nn":0,"risk":40,"cat":"amber"},{"name":"JD Wetherspoon","lat":52.25774,"lon":-1.16479,"postcode":"NN11 4GG","la":"West Northamptonshire","era":"other","nn":34,"risk":21,"cat":"green"},{"name":"Jeckyll & Hyde","lat":52.24152,"lon":-0.8793,"postcode":"NN1 4DZ","la":"West Northamptonshire","era":"other","nn":54,"risk":21,"cat":"green"},{"name":"Jimmy's Sports Bar","lat":52.24022,"lon":-0.91558,"postcode":"NN5 7AE","la":"West Northamptonshire","era":"other","nn":107,"risk":21,"cat":"green"},{"name":"JK's Kitchen","lat":52.17681,"lon":-1.29505,"postcode":"NN11 6DH","la":"West Northamptonshire","era":"mod","nn":0,"risk":40,"cat":"amber"},{"name":"Jomidar lounge","lat":52.33935,"lon":-0.96498,"postcode":"NN6 8NH","la":"West Northamptonshire","era":"mod","nn":1964,"risk":57,"cat":"amber"},{"name":"King Billy","lat":52.23477,"lon":-0.89846,"postcode":"NN1 1PJ","la":"West Northamptonshire","era":"trad","nn":95,"risk":21,"cat":"green"},{"name":"Kingsley Park Wmc","lat":52.25375,"lon":-0.8765,"postcode":"NN2 7HJ","la":"West Northamptonshire","era":"trad","nn":139,"risk":21,"cat":"green"},{"name":"Kingsthorpe Bowls Club","lat":52.27595,"lon":-0.90624,"postcode":"NN2 8DZ","la":"West Northamptonshire","era":"trad","nn":131,"risk":26,"cat":"green"},{"name":"Kislingbury Temperance Cricket Club","lat":52.22948,"lon":-0.97094,"postcode":"NN7 4AL","la":"West Northamptonshire","era":"other","nn":730,"risk":46,"cat":"amber"},{"name":"Knightley Arms","lat":52.37339,"lon":-1.12125,"postcode":"NN6 6LF","la":"West Northamptonshire","era":"trad","nn":2918,"risk":63,"cat":"red"},{"name":"Lakeside Public House","lat":52.22843,"lon":-0.85487,"postcode":"NN4 7YD","la":"West Northamptonshire","era":"other","nn":633,"risk":45,"cat":"amber"},{"name":"Live and Let Live","lat":52.24207,"lon":-0.98854,"postcode":"NN7 4DP","la":"West Northamptonshire","era":"other","nn":655,"risk":45,"cat":"amber"},{"name":"Locomotive Inn & Cafe Loco","lat":52.02461,"lon":-1.1501,"postcode":"NN13 7ER","la":"West Northamptonshire","era":"trad","nn":186,"risk":22,"cat":"green"},{"name":"Long Buckby Football Social Club","lat":52.30262,"lon":-1.08101,"postcode":"NN6 7QA","la":"West Northamptonshire","era":"mod","nn":54,"risk":23,"cat":"green"},{"name":"Lumbertubs","lat":52.27072,"lon":-0.84755,"postcode":"NN3 6AH","la":"West Northamptonshire","era":"other","nn":1187,"risk":51,"cat":"amber"},{"name":"Maria's Kitchen","lat":52.23121,"lon":-1.15542,"postcode":"NN11 3HB","la":"West Northamptonshire","era":"mod","nn":1831,"risk":56,"cat":"amber"},{"name":"Melbourne Arms","lat":52.24234,"lon":-0.94473,"postcode":"NN5 6HS","la":"West Northamptonshire","era":"trad","nn":86,"risk":21,"cat":"green"},{"name":"Middlemore Farm Public House","lat":52.28096,"lon":-1.17384,"postcode":"NN11 8AE","la":"West Northamptonshire","era":"other","nn":1255,"risk":52,"cat":"amber"},{"name":"Milton Football Club","lat":52.19299,"lon":-0.92096,"postcode":"NN7 3AU","la":"West Northamptonshire","era":"other","nn":628,"risk":45,"cat":"amber"},{"name":"Monks Park W M C","lat":52.2425,"lon":-0.87511,"postcode":"NN1 4EN","la":"West Northamptonshire","era":"trad","nn":55,"risk":21,"cat":"green"},{"name":"Moulton Working Men's Club","lat":52.28899,"lon":-0.85054,"postcode":"NN3 7SR","la":"West Northamptonshire","era":"trad","nn":129,"risk":26,"cat":"green"},{"name":"Nancy's Cookhouse","lat":52.1686,"lon":-1.20514,"postcode":"NN11 3RF","la":"West Northamptonshire","era":"other","nn":0,"risk":25,"cat":"green"},{"name":"NB's","lat":52.2354,"lon":-0.89702,"postcode":"NN1 1NS","la":"West Northamptonshire","era":"other","nn":29,"risk":21,"cat":"green"},{"name":"Nether Heyford Playing Fields Assoc.","lat":52.22227,"lon":-1.02783,"postcode":"NN7 3LN","la":"West Northamptonshire","era":"other","nn":373,"risk":41,"cat":"amber"},{"name":"New Inn Abthorpe","lat":52.1133,"lon":-1.0539,"postcode":"NN12 8QR","la":"West Northamptonshire","era":"trad","nn":2933,"risk":63,"cat":"red"},{"name":"No4  Brook Street","lat":52.25791,"lon":-1.16437,"postcode":"NN11 4GG","la":"West Northamptonshire","era":"other","nn":34,"risk":21,"cat":"green"},{"name":"Northampton Boat Club","lat":52.24098,"lon":-0.84205,"postcode":"NN3 3HJ","la":"West Northamptonshire","era":"other","nn":166,"risk":39,"cat":"amber"},{"name":"Northampton Brewery Sports & Social Club","lat":52.23237,"lon":-0.89924,"postcode":"NN1 1PZ","la":"West Northamptonshire","era":"mod","nn":272,"risk":22,"cat":"green"},{"name":"Northampton Golf Club","lat":52.27361,"lon":-0.97503,"postcode":"NN7 4EF","la":"West Northamptonshire","era":"other","nn":647,"risk":45,"cat":"amber"},{"name":"Northampton Men's Own RFC Ltd","lat":52.14236,"lon":-0.8863,"postcode":"NN7 2JN","la":"West Northamptonshire","era":"other","nn":233,"risk":42,"cat":"amber"},{"name":"Northampton Working Mens Club","lat":52.24038,"lon":-0.89749,"postcode":"NN1 2LZ","la":"West Northamptonshire","era":"trad","nn":157,"risk":22,"cat":"green"},{"name":"Northamptonshire County Golf Club","lat":52.28195,"lon":-0.94251,"postcode":"NN6 8AZ","la":"West Northamptonshire","era":"other","nn":1164,"risk":51,"cat":"amber"},{"name":"Old Bank","lat":52.23714,"lon":-0.89348,"postcode":"NN1 1JA","la":"West Northamptonshire","era":"other","nn":0,"risk":20,"cat":"green"},{"name":"Old Bank","lat":52.25275,"lon":-0.87774,"postcode":"NN2 7HH","la":"West Northamptonshire","era":"other","nn":3,"risk":20,"cat":"green"},{"name":"Old Five Bells","lat":52.2657,"lon":-0.90016,"postcode":"NN2 8DH","la":"West Northamptonshire","era":"other","nn":26,"risk":23,"cat":"green"},{"name":"Old House Bar & Restaurant","lat":52.24171,"lon":-0.87787,"postcode":"NN1 4EE","la":"West Northamptonshire","era":"mod","nn":45,"risk":21,"cat":"green"},{"name":"Olde England Ltd","lat":52.24592,"lon":-0.88304,"postcode":"NN1 4BP","la":"West Northamptonshire","era":"other","nn":63,"risk":21,"cat":"green"},{"name":"O'Neills Bar","lat":52.23831,"lon":-0.89757,"postcode":"NN1 2EU","la":"West Northamptonshire","era":"other","nn":55,"risk":21,"cat":"green"},{"name":"Optimist","lat":52.23714,"lon":-0.89348,"postcode":"NN1 1JA","la":"West Northamptonshire","era":"other","nn":0,"risk":20,"cat":"green"},{"name":"Penny Loafer","lat":52.23799,"lon":-0.89694,"postcode":"NN1 2DL","la":"West Northamptonshire","era":"other","nn":17,"risk":21,"cat":"green"},{"name":"Playhouse","lat":52.2357,"lon":-0.89737,"postcode":"NN1 1PA","la":"West Northamptonshire","era":"other","nn":30,"risk":21,"cat":"green"},{"name":"Playhouse Theatre","lat":52.25126,"lon":-0.85049,"postcode":"NN3 3JA","la":"West Northamptonshire","era":"mod","nn":294,"risk":23,"cat":"green"},{"name":"Pop Up Place","lat":52.30287,"lon":-1.07969,"postcode":"NN6 7RD","la":"West Northamptonshire","era":"other","nn":28,"risk":23,"cat":"green"},{"name":"Poppy Field Farm","lat":52.24369,"lon":-0.93669,"postcode":"NN5 6GT","la":"West Northamptonshire","era":"other","nn":456,"risk":24,"cat":"green"},{"name":"Princess Alexandra PH","lat":52.23872,"lon":-0.88728,"postcode":"NN1 5QP","la":"West Northamptonshire","era":"trad","nn":185,"risk":22,"cat":"green"},{"name":"Queen Adelaide","lat":52.26327,"lon":-0.9035,"postcode":"NN2 6QJ","la":"West Northamptonshire","era":"trad","nn":339,"risk":25,"cat":"green"},{"name":"Queen Of Hearts","lat":52.27358,"lon":-1.15988,"postcode":"NN11 0XY","la":"West Northamptonshire","era":"trad","nn":1255,"risk":52,"cat":"amber"},{"name":"Queens Park Wmc","lat":52.25388,"lon":-0.89736,"postcode":"NN2 6JT","la":"West Northamptonshire","era":"trad","nn":775,"risk":28,"cat":"green"},{"name":"R A O B Club","lat":52.24019,"lon":-0.87702,"postcode":"NN1 5HS","la":"West Northamptonshire","era":"other","nn":180,"risk":22,"cat":"green"},{"name":"Red Lion","lat":52.21434,"lon":-0.77524,"postcode":"NN7 1DQ","la":"West Northamptonshire","era":"trad","nn":1774,"risk":55,"cat":"amber"},{"name":"Red Lion Inn","lat":52.34668,"lon":-1.13632,"postcode":"NN6 7TX","la":"West Northamptonshire","era":"trad","nn":57,"risk":26,"cat":"green"},{"name":"Red Lion Truckstop (Junction 16) Ltd","lat":52.23183,"lon":-1.00471,"postcode":"NN7 4DE","la":"West Northamptonshire","era":"trad","nn":1584,"risk":54,"cat":"amber"},{"name":"Red Lion, Yardley Hastings","lat":52.20165,"lon":-0.73486,"postcode":"NN7 1ER","la":"West Northamptonshire","era":"other","nn":222,"risk":40,"cat":"amber"},{"name":"Retro Bar","lat":52.23636,"lon":-0.89766,"postcode":"NN1 1NW","la":"West Northamptonshire","era":"other","nn":46,"risk":21,"cat":"green"},{"name":"Riverview Diner","lat":52.24067,"lon":-0.80816,"postcode":"NN7 1NH","la":"West Northamptonshire","era":"other","nn":621,"risk":42,"cat":"amber"},{"name":"Road To Morrocco","lat":52.24515,"lon":-0.84571,"postcode":"NN3 3BB","la":"West Northamptonshire","era":"other","nn":526,"risk":24,"cat":"green"},{"name":"Rose and Crown","lat":52.14567,"lon":-0.85385,"postcode":"NN7 2HP","la":"West Northamptonshire","era":"trad","nn":331,"risk":43,"cat":"amber"},{"name":"Royal Oak","lat":52.34924,"lon":-1.13806,"postcode":"NN6 7TP","la":"West Northamptonshire","era":"trad","nn":100,"risk":26,"cat":"green"},{"name":"Royal Oak","lat":52.17622,"lon":-0.9389,"postcode":"NN7 3BU","la":"West Northamptonshire","era":"trad","nn":511,"risk":44,"cat":"amber"},{"name":"Rumours","lat":52.02607,"lon":-1.15144,"postcode":"NN13 6AU","la":"West Northamptonshire","era":"other","nn":114,"risk":21,"cat":"green"},{"name":"Semilong Working Men Club","lat":52.24655,"lon":-0.90425,"postcode":"NN2 6BN","la":"West Northamptonshire","era":"trad","nn":257,"risk":22,"cat":"green"},{"name":"Sevens","lat":52.24108,"lon":-0.92187,"postcode":"NN5 5BS","la":"West Northamptonshire","era":"other","nn":332,"risk":23,"cat":"green"},{"name":"Shipmans","lat":52.23785,"lon":-0.89705,"postcode":"NN1 2HG","la":"West Northamptonshire","era":"trad","nn":17,"risk":21,"cat":"green"},{"name":"Silverstone Recreation Assoc.","lat":52.09211,"lon":-1.02831,"postcode":"NN12 8XA","la":"West Northamptonshire","era":"other","nn":2563,"risk":61,"cat":"red"},{"name":"Sir Pickering Phipps","lat":52.24223,"lon":-0.87638,"postcode":"NN1 4EH","la":"West Northamptonshire","era":"other","nn":50,"risk":21,"cat":"green"},{"name":"Sixfields Hungry Horse","lat":52.23783,"lon":-0.93205,"postcode":"NN5 5QL","la":"West Northamptonshire","era":"trad","nn":0,"risk":23,"cat":"green"},{"name":"Slim Jim's Snooker Club","lat":52.25635,"lon":-1.16355,"postcode":"NN11 4AB","la":"West Northamptonshire","era":"other","nn":42,"risk":21,"cat":"green"},{"name":"Spencer Arms","lat":52.28916,"lon":-0.93012,"postcode":"NN6 8AE","la":"West Northamptonshire","era":"trad","nn":1164,"risk":51,"cat":"amber"},{"name":"Spencer Club N'pton Ltd","lat":52.24961,"lon":-0.91892,"postcode":"NN5 7HL","la":"West Northamptonshire","era":"other","nn":70,"risk":38,"cat":"amber"},{"name":"Spinney Hill Public House","lat":52.26307,"lon":-0.86693,"postcode":"NN3 6LR","la":"West Northamptonshire","era":"trad","nn":1068,"risk":50,"cat":"amber"},{"name":"St Crispins Social Club","lat":52.24553,"lon":-0.95294,"postcode":"NN5 4XD","la":"West Northamptonshire","era":"mod","nn":612,"risk":27,"cat":"green"},{"name":"St Georges Conservative Club","lat":52.25188,"lon":-0.88503,"postcode":"NN2 6JF","la":"West Northamptonshire","era":"trad","nn":397,"risk":23,"cat":"green"},{"name":"St James Wmc","lat":52.24045,"lon":-0.91711,"postcode":"NN5 5BE","la":"West Northamptonshire","era":"other","nn":107,"risk":21,"cat":"green"},{"name":"Standens Inn","lat":52.25189,"lon":-0.83047,"postcode":"NN3 9TJ","la":"West Northamptonshire","era":"trad","nn":980,"risk":45,"cat":"amber"},{"name":"Stereo","lat":52.23627,"lon":-0.897,"postcode":"NN1 1NH","la":"West Northamptonshire","era":"other","nn":46,"risk":21,"cat":"green"},{"name":"Stoke Bruerne Cricket Club","lat":52.14346,"lon":-0.91203,"postcode":"NN12 7SJ","la":"West Northamptonshire","era":"other","nn":262,"risk":40,"cat":"amber"},{"name":"Sun Inn","lat":52.21397,"lon":-0.87935,"postcode":"NN4 7BT","la":"West Northamptonshire","era":"trad","nn":235,"risk":42,"cat":"amber"},{"name":"Sun Inn","lat":52.05051,"lon":-1.1161,"postcode":"NN13 5TG","la":"West Northamptonshire","era":"trad","nn":1824,"risk":56,"cat":"amber"},{"name":"Sunnyside","lat":52.27442,"lon":-0.88604,"postcode":"NN2 7AG","la":"West Northamptonshire","era":"other","nn":1167,"risk":51,"cat":"amber"},{"name":"Swan & Helmet","lat":52.24317,"lon":-0.8864,"postcode":"NN1 3LQ","la":"West Northamptonshire","era":"trad","nn":237,"risk":22,"cat":"green"},{"name":"Syresham Sports & Social Club","lat":52.0669,"lon":-1.0852,"postcode":"NN13 5HA","la":"West Northamptonshire","era":"mod","nn":341,"risk":43,"cat":"amber"},{"name":"The Abington Public House","lat":52.2465,"lon":-0.87003,"postcode":"NN1 4EY","la":"West Northamptonshire","era":"other","nn":208,"risk":22,"cat":"green"},{"name":"The Ale Pole","lat":52.25671,"lon":-1.16369,"postcode":"NN11 4AB","la":"West Northamptonshire","era":"other","nn":42,"risk":21,"cat":"green"},{"name":"The Artichoke","lat":52.29037,"lon":-0.85118,"postcode":"NN3 7SP","la":"West Northamptonshire","era":"other","nn":159,"risk":27,"cat":"green"},{"name":"The Badgers Arms","lat":52.30295,"lon":-1.08009,"postcode":"NN6 7RD","la":"West Northamptonshire","era":"trad","nn":28,"risk":23,"cat":"green"},{"name":"The Bear","lat":52.23905,"lon":-0.89827,"postcode":"NN1 2LT","la":"West Northamptonshire","era":"other","nn":95,"risk":21,"cat":"green"},{"name":"The Bell","lat":52.03268,"lon":-1.14337,"postcode":"NN13 7BN","la":"West Northamptonshire","era":"other","nn":38,"risk":21,"cat":"green"},{"name":"The Black Prince","lat":52.24024,"lon":-0.8887,"postcode":"NN1 4AE","la":"West Northamptonshire","era":"trad","nn":105,"risk":21,"cat":"green"},{"name":"The Boat House","lat":52.28985,"lon":-1.2193,"postcode":"NN11 7HB","la":"West Northamptonshire","era":"other","nn":623,"risk":45,"cat":"amber"},{"name":"The Bold Dragoon","lat":52.25147,"lon":-0.84486,"postcode":"NN3 3JW","la":"West Northamptonshire","era":"other","nn":138,"risk":21,"cat":"green"},{"name":"The Brave Old Oak","lat":52.13261,"lon":-0.98905,"postcode":"NN12 6BT","la":"West Northamptonshire","era":"trad","nn":42,"risk":21,"cat":"green"},{"name":"The Bull","lat":52.13154,"lon":-0.99426,"postcode":"NN12 6DH","la":"West Northamptonshire","era":"trad","nn":364,"risk":23,"cat":"green"},{"name":"The Cardigan Arms","lat":52.28854,"lon":-0.85229,"postcode":"NN3 7TB","la":"West Northamptonshire","era":"trad","nn":129,"risk":26,"cat":"green"},{"name":"The Carpenters Arms","lat":52.16657,"lon":-1.2969,"postcode":"NN11 6YB","la":"West Northamptonshire","era":"trad","nn":1146,"risk":51,"cat":"amber"},{"name":"The Charles Bradlaugh","lat":52.24158,"lon":-0.89245,"postcode":"NN1 3AU","la":"West Northamptonshire","era":"other","nn":147,"risk":21,"cat":"green"},{"name":"The Chequers Inn","lat":52.32658,"lon":-1.01913,"postcode":"NN6 8ER","la":"West Northamptonshire","era":"trad","nn":2741,"risk":62,"cat":"red"},{"name":"The Cock","lat":52.26053,"lon":-0.90078,"postcode":"NN2 7AZ","la":"West Northamptonshire","era":"other","nn":356,"risk":23,"cat":"green"},{"name":"The Cock Inn","lat":52.15866,"lon":-0.89142,"postcode":"NN7 2NW","la":"West Northamptonshire","era":"trad","nn":1846,"risk":56,"cat":"amber"},{"name":"The Cock Inn","lat":52.08221,"lon":-0.89629,"postcode":"NN12 7PQ","la":"West Northamptonshire","era":"trad","nn":517,"risk":44,"cat":"amber"},{"name":"The Coffee Pot","lat":52.09471,"lon":-0.8813,"postcode":"NN12 7TN","la":"West Northamptonshire","era":"other","nn":1727,"risk":55,"cat":"amber"},{"name":"The Collingtree","lat":52.20472,"lon":-0.89889,"postcode":"NN4 0UE","la":"West Northamptonshire","era":"other","nn":599,"risk":30,"cat":"green"},{"name":"The Cordwainer","lat":52.23798,"lon":-0.89243,"postcode":"NN1 2AQ","la":"West Northamptonshire","era":"other","nn":49,"risk":21,"cat":"green"},{"name":"The County","lat":52.24941,"lon":-0.87008,"postcode":"NN1 4PR","la":"West Northamptonshire","era":"other","nn":323,"risk":23,"cat":"green"},{"name":"The Crewe Arms","lat":52.02733,"lon":-1.18682,"postcode":"NN13 5NF","la":"West Northamptonshire","era":"trad","nn":2425,"risk":60,"cat":"amber"},{"name":"The Cross Tree Inn","lat":52.17401,"lon":-1.24629,"postcode":"NN11 6XL","la":"West Northamptonshire","era":"trad","nn":2192,"risk":58,"cat":"amber"},{"name":"The Crown Inn","lat":52.34081,"lon":-1.07587,"postcode":"NN6 7AP","la":"West Northamptonshire","era":"trad","nn":109,"risk":39,"cat":"amber"},{"name":"The Crown Inn","lat":52.21332,"lon":-0.88263,"postcode":"NN4 6BZ","la":"West Northamptonshire","era":"trad","nn":235,"risk":42,"cat":"amber"},{"name":"The Deers Leap","lat":52.25199,"lon":-0.81327,"postcode":"NN3 9AZ","la":"West Northamptonshire","era":"other","nn":563,"risk":29,"cat":"green"},{"name":"The Elizabethan Public House","lat":52.41678,"lon":-1.0579,"postcode":"NN6 6HT","la":"West Northamptonshire","era":"other","nn":703,"risk":45,"cat":"amber"},{"name":"The Eykyn Arms Pub","lat":52.18637,"lon":-0.97306,"postcode":"NN7 3HD","la":"West Northamptonshire","era":"trad","nn":2422,"risk":60,"cat":"amber"},{"name":"The Fat Landlord","lat":52.08772,"lon":-1.14266,"postcode":"NN13 5QJ","la":"West Northamptonshire","era":"other","nn":3318,"risk":66,"cat":"red"},{"name":"The Fish","lat":52.23785,"lon":-0.89313,"postcode":"NN1 2AA","la":"West Northamptonshire","era":"other","nn":49,"risk":21,"cat":"green"},{"name":"The Five Rivers Inn","lat":52.24568,"lon":-0.89715,"postcode":"NN1 3RL","la":"West Northamptonshire","era":"trad","nn":265,"risk":22,"cat":"green"},{"name":"THE FOUR PEARS","lat":52.2284,"lon":-0.82597,"postcode":"NN7 1AB","la":"West Northamptonshire","era":"other","nn":1050,"risk":50,"cat":"amber"},{"name":"The Fox & Hounds","lat":52.27408,"lon":-0.96555,"postcode":"NN7 4EW","la":"West Northamptonshire","era":"trad","nn":647,"risk":45,"cat":"amber"},{"name":"The Fox and Hounds","lat":52.08654,"lon":-0.99191,"postcode":"NN12 8XJ","la":"West Northamptonshire","era":"trad","nn":2563,"risk":61,"cat":"red"},{"name":"The Fox Inn Pub","lat":52.05275,"lon":-1.22151,"postcode":"NN13 5PH","la":"West Northamptonshire","era":"trad","nn":3220,"risk":66,"cat":"red"},{"name":"The French Partridge","lat":52.18162,"lon":-0.80532,"postcode":"NN7 2AP","la":"West Northamptonshire","era":"other","nn":359,"risk":43,"cat":"amber"},{"name":"The Gallery","lat":52.27612,"lon":-0.82818,"postcode":"NN3 5DS","la":"West Northamptonshire","era":"other","nn":903,"risk":47,"cat":"amber"},{"name":"The Garibaldi & Taco Kitchen","lat":52.24296,"lon":-0.89552,"postcode":"NN1 3DX","la":"West Northamptonshire","era":"mod","nn":187,"risk":22,"cat":"green"},{"name":"The George Inn","lat":52.25675,"lon":-1.16535,"postcode":"NN11 4AG","la":"West Northamptonshire","era":"trad","nn":93,"risk":21,"cat":"green"},{"name":"The George Inn","lat":52.32982,"lon":-0.90313,"postcode":"NN6 9BU","la":"West Northamptonshire","era":"trad","nn":90,"risk":41,"cat":"amber"},{"name":"The Greyhound","lat":52.19566,"lon":-0.92907,"postcode":"NN7 3AP","la":"West Northamptonshire","era":"trad","nn":628,"risk":45,"cat":"amber"},{"name":"The Greyhound Inn","lat":52.03235,"lon":-1.14348,"postcode":"NN13 7BW","la":"West Northamptonshire","era":"trad","nn":38,"risk":21,"cat":"green"},{"name":"The Griffin Inn","lat":52.3048,"lon":-0.89425,"postcode":"NN6 9AD","la":"West Northamptonshire","era":"trad","nn":2107,"risk":58,"cat":"amber"},{"name":"The Hart of Duston","lat":52.26035,"lon":-0.95349,"postcode":"NN5 6NU","la":"West Northamptonshire","era":"trad","nn":1103,"risk":51,"cat":"amber"},{"name":"The Headland PH","lat":52.256,"lon":-0.85631,"postcode":"NN3 2NZ","la":"West Northamptonshire","era":"trad","nn":660,"risk":28,"cat":"green"},{"name":"The Heart Of England","lat":52.23417,"lon":-1.07882,"postcode":"NN7 4QD","la":"West Northamptonshire","era":"other","nn":1654,"risk":55,"cat":"amber"},{"name":"The Kings Arms","lat":52.19066,"lon":-1.10229,"postcode":"NN12 8EZ","la":"West Northamptonshire","era":"trad","nn":1951,"risk":57,"cat":"amber"},{"name":"The Kings Head","lat":52.06832,"lon":-1.08079,"postcode":"NN13 5HW","la":"West Northamptonshire","era":"trad","nn":341,"risk":43,"cat":"amber"},{"name":"The Kings Head","lat":52.32477,"lon":-0.94869,"postcode":"NN6 8HH","la":"West Northamptonshire","era":"trad","nn":1964,"risk":57,"cat":"amber"},{"name":"The Lab Northampton","lat":52.24316,"lon":-0.89187,"postcode":"NN1 3BG","la":"West Northamptonshire","era":"other","nn":145,"risk":21,"cat":"green"},{"name":"The Lamplighter Ph","lat":52.24175,"lon":-0.89031,"postcode":"NN1 3JS","la":"West Northamptonshire","era":"other","nn":120,"risk":21,"cat":"green"},{"name":"The Lamport Swan","lat":52.36927,"lon":-0.89889,"postcode":"NN6 9EZ","la":"West Northamptonshire","era":"trad","nn":4165,"risk":72,"cat":"red"},{"name":"The Lion (A & M Bars Ltd)","lat":52.25841,"lon":-1.16098,"postcode":"NN11 4HT","la":"West Northamptonshire","era":"trad","nn":104,"risk":21,"cat":"green"},{"name":"The Longboat","lat":52.25166,"lon":-0.9457,"postcode":"NN5 6TG","la":"West Northamptonshire","era":"other","nn":841,"risk":31,"cat":"amber"},{"name":"The Lord Byron","lat":52.25272,"lon":-0.87776,"postcode":"NN2 7HH","la":"West Northamptonshire","era":"other","nn":3,"risk":20,"cat":"green"},{"name":"The Mail Coach","lat":52.23685,"lon":-0.89416,"postcode":"NN1 1UB","la":"West Northamptonshire","era":"trad","nn":56,"risk":21,"cat":"green"},{"name":"The Maltsters","lat":52.2282,"lon":-1.18184,"postcode":"NN11 3AF","la":"West Northamptonshire","era":"other","nn":0,"risk":40,"cat":"amber"},{"name":"The Narrow Boat Inn","lat":52.22272,"lon":-1.0613,"postcode":"NN7 4RZ","la":"West Northamptonshire","era":"trad","nn":1732,"risk":55,"cat":"amber"},{"name":"The Navigation","lat":52.14144,"lon":-0.91399,"postcode":"NN12 7SY","la":"West Northamptonshire","era":"other","nn":262,"risk":40,"cat":"amber"},{"name":"The New Inn","lat":52.28583,"lon":-1.11417,"postcode":"NN6 7PW","la":"West Northamptonshire","era":"trad","nn":2034,"risk":57,"cat":"amber"},{"name":"The Oak Eydon Limited","lat":52.14695,"lon":-1.21047,"postcode":"NN11 3PG","la":"West Northamptonshire","era":"trad","nn":2364,"risk":60,"cat":"amber"},{"name":"The Old Cherry Tree","lat":52.22387,"lon":-0.8395,"postcode":"NN4 7AT","la":"West Northamptonshire","era":"other","nn":147,"risk":41,"cat":"amber"},{"name":"The Old Crown","lat":52.14179,"lon":-0.88301,"postcode":"NN7 2JN","la":"West Northamptonshire","era":"trad","nn":233,"risk":42,"cat":"amber"},{"name":"The Old Kings Head","lat":52.30378,"lon":-1.08544,"postcode":"NN6 7QL","la":"West Northamptonshire","era":"trad","nn":328,"risk":25,"cat":"green"},{"name":"The Old Plough","lat":52.29089,"lon":-1.21029,"postcode":"NN11 7HS","la":"West Northamptonshire","era":"trad","nn":395,"risk":41,"cat":"amber"},{"name":"The Old Red Lion","lat":52.1834,"lon":-1.07624,"postcode":"NN12 8JF","la":"West Northamptonshire","era":"trad","nn":1951,"risk":57,"cat":"amber"},{"name":"The Old Talbot","lat":52.08438,"lon":-0.90298,"postcode":"NN12 7QD","la":"West Northamptonshire","era":"trad","nn":517,"risk":44,"cat":"amber"},{"name":"The Olde Sun","lat":52.22189,"lon":-1.03327,"postcode":"NN7 3LL","la":"West Northamptonshire","era":"other","nn":172,"risk":39,"cat":"amber"},{"name":"The Peacock","lat":52.12964,"lon":-0.98595,"postcode":"NN12 6AG","la":"West Northamptonshire","era":"other","nn":62,"risk":21,"cat":"green"},{"name":"The Picturedrome","lat":52.2463,"lon":-0.88236,"postcode":"NN1 4BN","la":"West Northamptonshire","era":"other","nn":63,"risk":21,"cat":"green"},{"name":"The Pigeon","lat":52.30308,"lon":-1.08074,"postcode":"NN6 7RR","la":"West Northamptonshire","era":"other","nn":46,"risk":23,"cat":"green"},{"name":"The Pike And Eel","lat":52.25402,"lon":-1.17939,"postcode":"NN11 4RB","la":"West Northamptonshire","era":"other","nn":1003,"risk":50,"cat":"amber"},{"name":"The Plough","lat":52.13246,"lon":-0.98848,"postcode":"NN12 6BT","la":"West Northamptonshire","era":"trad","nn":42,"risk":21,"cat":"green"},{"name":"The Plough","lat":52.21184,"lon":-1.13008,"postcode":"NN11 3DT","la":"West Northamptonshire","era":"trad","nn":2760,"risk":62,"cat":"red"},{"name":"The Plough @ Shutlanger","lat":52.14176,"lon":-0.93862,"postcode":"NN12 7RU","la":"West Northamptonshire","era":"trad","nn":1452,"risk":53,"cat":"amber"},{"name":"The Plough Inn","lat":52.0292,"lon":-1.14637,"postcode":"NN13 7DW","la":"West Northamptonshire","era":"trad","nn":378,"risk":23,"cat":"green"},{"name":"The Plough Inn - AJA Inns","lat":52.17681,"lon":-1.29505,"postcode":"NN11 6DH","la":"West Northamptonshire","era":"trad","nn":0,"risk":40,"cat":"amber"},{"name":"The Pomfret Arms","lat":52.22974,"lon":-0.89652,"postcode":"NN4 8BS","la":"West Northamptonshire","era":"trad","nn":311,"risk":23,"cat":"green"},{"name":"The Pytchley Inn","lat":52.34134,"lon":-1.07453,"postcode":"NN6 7AP","la":"West Northamptonshire","era":"trad","nn":109,"risk":39,"cat":"amber"},{"name":"The Quays","lat":52.24559,"lon":-0.81246,"postcode":"NN3 9DA","la":"West Northamptonshire","era":"other","nn":0,"risk":25,"cat":"green"},{"name":"The Red Lion","lat":52.00786,"lon":-1.14564,"postcode":"NN13 5SH","la":"West Northamptonshire","era":"trad","nn":1887,"risk":56,"cat":"amber"},{"name":"The Red Lion","lat":52.21899,"lon":-1.24459,"postcode":"NN11 6LG","la":"West Northamptonshire","era":"trad","nn":2795,"risk":63,"cat":"red"},{"name":"The Red Lion","lat":52.37518,"lon":-1.0176,"postcode":"NN6 8SJ","la":"West Northamptonshire","era":"trad","nn":2836,"risk":63,"cat":"red"},{"name":"The Red Lion at Brafield","lat":52.22134,"lon":-0.80033,"postcode":"NN7 1BP","la":"West Northamptonshire","era":"trad","nn":108,"risk":41,"cat":"amber"},{"name":"The Rifle Drum","lat":52.23747,"lon":-0.89675,"postcode":"NN1 2QW","la":"West Northamptonshire","era":"other","nn":47,"risk":21,"cat":"green"},{"name":"The Rose & Crown","lat":52.20417,"lon":-0.73658,"postcode":"NN7 1EX","la":"West Northamptonshire","era":"trad","nn":94,"risk":39,"cat":"amber"},{"name":"The Saracens Head","lat":52.26778,"lon":-1.034,"postcode":"NN7 4HS","la":"West Northamptonshire","era":"trad","nn":3629,"risk":68,"cat":"red"},{"name":"The Sheaf Inn","lat":52.34089,"lon":-1.07763,"postcode":"NN6 7AY","la":"West Northamptonshire","era":"trad","nn":120,"risk":39,"cat":"amber"},{"name":"The Spread Eagle","lat":52.24164,"lon":-0.88072,"postcode":"NN1 4DX","la":"West Northamptonshire","era":"trad","nn":98,"risk":21,"cat":"green"},{"name":"The Squirrels Inn","lat":52.2431,"lon":-0.94488,"postcode":"NN5 6JF","la":"West Northamptonshire","era":"trad","nn":86,"risk":21,"cat":"green"},{"name":"The Sun Inn","lat":52.22892,"lon":-0.98162,"postcode":"NN7 4BB","la":"West Northamptonshire","era":"trad","nn":730,"risk":46,"cat":"amber"},{"name":"The Telegraph Inn","lat":52.28968,"lon":-0.8583,"postcode":"NN3 7SB","la":"West Northamptonshire","era":"trad","nn":427,"risk":28,"cat":"green"},{"name":"The Trumpet","lat":52.25223,"lon":-0.84646,"postcode":"NN3 3JB","la":"West Northamptonshire","era":"other","nn":138,"risk":21,"cat":"green"},{"name":"The Walter Tull","lat":52.23783,"lon":-0.93205,"postcode":"NN5 5QL","la":"West Northamptonshire","era":"other","nn":0,"risk":23,"cat":"green"},{"name":"The Ward Arms","lat":52.35032,"lon":-1.00829,"postcode":"NN6 8PY","la":"West Northamptonshire","era":"trad","nn":2741,"risk":62,"cat":"red"},{"name":"The Watling Street Village","lat":52.13214,"lon":-0.98902,"postcode":"NN12 6BX","la":"West Northamptonshire","era":"other","nn":51,"risk":21,"cat":"green"},{"name":"The Wharf Inn","lat":52.20544,"lon":-1.01898,"postcode":"NN7 3QB","la":"West Northamptonshire","era":"trad","nn":699,"risk":28,"cat":"green"},{"name":"The Wheatsheaf","lat":52.24947,"lon":-0.91992,"postcode":"NN5 7HN","la":"West Northamptonshire","era":"trad","nn":70,"risk":38,"cat":"amber"},{"name":"The Wheatsheaf","lat":52.34671,"lon":-1.13716,"postcode":"NN6 7TU","la":"West Northamptonshire","era":"trad","nn":57,"risk":26,"cat":"green"},{"name":"The Wheatsheaf Inn","lat":52.29263,"lon":-1.20523,"postcode":"NN11 7HW","la":"West Northamptonshire","era":"trad","nn":395,"risk":43,"cat":"amber"},{"name":"The White Hart","lat":52.23785,"lon":-1.05528,"postcode":"NN7 4LW","la":"West Northamptonshire","era":"trad","nn":1654,"risk":55,"cat":"amber"},{"name":"The White Horse","lat":52.35025,"lon":-0.84606,"postcode":"NN6 9QX","la":"West Northamptonshire","era":"trad","nn":3294,"risk":66,"cat":"red"},{"name":"The White Swan","lat":52.32103,"lon":-0.8381,"postcode":"NN6 9SP","la":"West Northamptonshire","era":"trad","nn":3294,"risk":66,"cat":"red"},{"name":"The Whyte Melville","lat":52.28595,"lon":-0.89751,"postcode":"NN2 8SG","la":"West Northamptonshire","era":"other","nn":1134,"risk":51,"cat":"amber"},{"name":"Thomas A Beckett","lat":52.23691,"lon":-0.91214,"postcode":"NN5 5HY","la":"West Northamptonshire","era":"other","nn":323,"risk":23,"cat":"green"},{"name":"Toby Carvery","lat":52.20046,"lon":-0.89351,"postcode":"NN4 0TG","la":"West Northamptonshire","era":"other","nn":473,"risk":29,"cat":"green"},{"name":"Towcester Football Supporters Club","lat":52.12909,"lon":-0.98577,"postcode":"NN12 6AU","la":"West Northamptonshire","era":"other","nn":62,"risk":21,"cat":"green"},{"name":"Towcester Mill Brewery Ltd","lat":52.13303,"lon":-0.98692,"postcode":"NN12 6YY","la":"West Northamptonshire","era":"trad","nn":124,"risk":21,"cat":"green"},{"name":"Towcester Sports & Social Club","lat":52.12659,"lon":-0.99234,"postcode":"NN12 6HD","la":"West Northamptonshire","era":"mod","nn":528,"risk":24,"cat":"green"},{"name":"Towcestrians Sports Club","lat":52.14302,"lon":-1.00932,"postcode":"NN12 8AW","la":"West Northamptonshire","era":"other","nn":1036,"risk":50,"cat":"amber"},{"name":"V and B Northampton","lat":52.23718,"lon":-0.89518,"postcode":"NN1 1DA","la":"West Northamptonshire","era":"other","nn":78,"risk":21,"cat":"green"},{"name":"Velvet Room","lat":52.23774,"lon":-0.89162,"postcode":"NN1 1JF","la":"West Northamptonshire","era":"other","nn":61,"risk":21,"cat":"green"},{"name":"Vocal & Instrumental Club","lat":52.2573,"lon":-0.84213,"postcode":"NN3 3DX","la":"West Northamptonshire","era":"other","nn":637,"risk":25,"cat":"green"},{"name":"White Elephant","lat":52.25166,"lon":-0.8792,"postcode":"NN2 7HG","la":"West Northamptonshire","era":"other","nn":154,"risk":22,"cat":"green"},{"name":"White Hart","lat":52.22295,"lon":-0.84104,"postcode":"NN4 7AF","la":"West Northamptonshire","era":"trad","nn":147,"risk":41,"cat":"amber"},{"name":"White Hart","lat":52.18731,"lon":-0.82045,"postcode":"NN7 2AD","la":"West Northamptonshire","era":"trad","nn":1210,"risk":51,"cat":"amber"},{"name":"White Horse Inn","lat":52.26799,"lon":-1.12078,"postcode":"NN11 2ND","la":"West Northamptonshire","era":"trad","nn":1716,"risk":55,"cat":"amber"},{"name":"Whitehills Public House","lat":52.27708,"lon":-0.90574,"postcode":"NN2 8EW","la":"West Northamptonshire","era":"other","nn":131,"risk":26,"cat":"green"},{"name":"Wig & Pen","lat":52.23714,"lon":-0.89348,"postcode":"NN1 1JA","la":"West Northamptonshire","era":"other","nn":0,"risk":20,"cat":"green"},{"name":"Willow Tree Bar","lat":52.24559,"lon":-0.81246,"postcode":"NN3 9DA","la":"West Northamptonshire","era":"trad","nn":0,"risk":25,"cat":"green"},{"name":"Windmill Public House","lat":52.27076,"lon":-0.91446,"postcode":"NN2 8PN","la":"West Northamptonshire","era":"trad","nn":804,"risk":31,"cat":"amber"},{"name":"Woodford Halse Social Club","lat":52.16797,"lon":-1.2157,"postcode":"NN11 3TR","la":"West Northamptonshire","era":"mod","nn":723,"risk":31,"cat":"amber"},{"name":"Woodford United Football Club Limite","lat":52.17397,"lon":-1.20581,"postcode":"NN11 3PZ","la":"West Northamptonshire","era":"other","nn":599,"risk":30,"cat":"green"},{"name":"Wootton Working Mens Club","lat":52.20147,"lon":-0.88658,"postcode":"NN4 6LQ","la":"West Northamptonshire","era":"trad","nn":166,"risk":27,"cat":"green"},{"name":"Yardley Hastings Memorial Hall","lat":52.20332,"lon":-0.73663,"postcode":"NN7 1EX","la":"West Northamptonshire","era":"mod","nn":94,"risk":39,"cat":"amber"},{"name":"Yeoman Of England","lat":52.2028,"lon":-0.8877,"postcode":"NN4 6LP","la":"West Northamptonshire","era":"other","nn":166,"risk":27,"cat":"green"}]