[{"name":"Red Lion","lat":53.6268,"lon":-2.7687,"postcode":"L40 2QP","la":"Chorley","era":"trad","nn":1378,"risk":58,"cat":"amber"},{"name":"Childe Of Hale","lat":53.33463,"lon":-2.79824,"postcode":"L24 4AX","la":"Halton","era":"other","nn":181,"risk":48,"cat":"amber"},{"name":"Wellington Hotel (Marston)","lat":53.33624,"lon":-2.79866,"postcode":"L24 4AG","la":"Halton","era":"trad","nn":181,"risk":48,"cat":"amber"},{"name":"Barkers Brewery","lat":53.41277,"lon":-2.8415,"postcode":"L36 9XB","la":"Knowsley","era":"other","nn":2,"risk":28,"cat":"green"},{"name":"Bowring Park Hotel","lat":53.40377,"lon":-2.86936,"postcode":"L16 2LE","la":"Knowsley","era":"other","nn":391,"risk":50,"cat":"amber"},{"name":"Brambles","lat":53.48126,"lon":-2.8877,"postcode":"L32 8RX","la":"Knowsley","era":"trad","nn":66,"risk":31,"cat":"amber"},{"name":"Carrs Hotel","lat":53.41556,"lon":-2.79514,"postcode":"L35 3QU","la":"Knowsley","era":"other","nn":776,"risk":53,"cat":"amber"},{"name":"Carters Arms","lat":53.48783,"lon":-2.90184,"postcode":"L32 2AD","la":"Knowsley","era":"trad","nn":0,"risk":28,"cat":"green"},{"name":"Deanes House Hotel","lat":53.42884,"lon":-2.80619,"postcode":"L34 3LA","la":"Knowsley","era":"mod","nn":91,"risk":28,"cat":"green"},{"name":"Derby Arms Hotel","lat":53.45261,"lon":-2.85497,"postcode":"L34 9EA","la":"Knowsley","era":"trad","nn":1506,"risk":61,"cat":"red"},{"name":"Eden Bar And Garden","lat":53.4295,"lon":-2.80335,"postcode":"L34 5QH","la":"Knowsley","era":"mod","nn":22,"risk":28,"cat":"green"},{"name":"Halewood Bowling Club","lat":53.36864,"lon":-2.82498,"postcode":"L26 6LB","la":"Knowsley","era":"other","nn":1792,"risk":63,"cat":"red"},{"name":"Hare And Hounds","lat":53.3989,"lon":-2.82088,"postcode":"L35 1QJ","la":"Knowsley","era":"trad","nn":1135,"risk":58,"cat":"amber"},{"name":"Holt Hotel","lat":53.42092,"lon":-2.78106,"postcode":"L35 8LA","la":"Knowsley","era":"other","nn":595,"risk":52,"cat":"amber"},{"name":"Hope And Anchor","lat":53.43042,"lon":-2.80281,"postcode":"L34 6HF","la":"Knowsley","era":"trad","nn":109,"risk":28,"cat":"green"},{"name":"Huyton Conservative Club","lat":53.40719,"lon":-2.83919,"postcode":"L36 5SU","la":"Knowsley","era":"other","nn":401,"risk":30,"cat":"green"},{"name":"Huyton Park Hotel","lat":53.40447,"lon":-2.83523,"postcode":"L36 0UU","la":"Knowsley","era":"other","nn":401,"risk":33,"cat":"amber"},{"name":"Huyton With Roby Constitutional Club","lat":53.41277,"lon":-2.84356,"postcode":"L36 9XN","la":"Knowsley","era":"other","nn":137,"risk":29,"cat":"green"},{"name":"Huyton With Roby Royal British Legion Club","lat":53.41277,"lon":-2.84147,"postcode":"L36 9XB","la":"Knowsley","era":"trad","nn":2,"risk":28,"cat":"green"},{"name":"JB's Bar","lat":53.46944,"lon":-2.91835,"postcode":"L10 1LF","la":"Knowsley","era":"other","nn":680,"risk":52,"cat":"amber"},{"name":"Johnny Todd","lat":53.47717,"lon":-2.89876,"postcode":"L32 5TR","la":"Knowsley","era":"other","nn":423,"risk":33,"cat":"amber"},{"name":"Kingfisher Hotel","lat":53.47125,"lon":-2.88282,"postcode":"L32 6QJ","la":"Knowsley","era":"trad","nn":39,"risk":45,"cat":"amber"},{"name":"Kirkby Sports Bar And Function Suites","lat":53.47153,"lon":-2.8825,"postcode":"L32 6QW","la":"Knowsley","era":"mod","nn":39,"risk":45,"cat":"amber"},{"name":"Oak Tree Hotel","lat":53.41999,"lon":-2.85034,"postcode":"L36 3RN","la":"Knowsley","era":"trad","nn":532,"risk":31,"cat":"amber"},{"name":"Prescot Cables Football Club","lat":53.43111,"lon":-2.80398,"postcode":"L34 6HD","la":"Knowsley","era":"other","nn":109,"risk":28,"cat":"green"},{"name":"Prescot Guild Hall","lat":53.4319,"lon":-2.80104,"postcode":"L34 6HW","la":"Knowsley","era":"other","nn":200,"risk":29,"cat":"green"},{"name":"Prescot Manor Bowling Club","lat":53.42547,"lon":-2.8083,"postcode":"L34 1LT","la":"Knowsley","era":"other","nn":378,"risk":30,"cat":"green"},{"name":"Prescot Reform Club","lat":53.43015,"lon":-2.80041,"postcode":"L34 5QX","la":"Knowsley","era":"other","nn":51,"risk":28,"cat":"green"},{"name":"Queens Arms","lat":53.40877,"lon":-2.84476,"postcode":"L36 5XE","la":"Knowsley","era":"trad","nn":173,"risk":29,"cat":"green"},{"name":"RAFA Association","lat":53.41032,"lon":-2.84496,"postcode":"L36 9GA","la":"Knowsley","era":"other","nn":173,"risk":29,"cat":"green"},{"name":"RAFA Club","lat":53.47131,"lon":-2.87951,"postcode":"L32 6QG","la":"Knowsley","era":"other","nn":199,"risk":46,"cat":"amber"},{"name":"Railway Hotel","lat":53.48783,"lon":-2.90184,"postcode":"L32 2AD","la":"Knowsley","era":"trad","nn":0,"risk":28,"cat":"green"},{"name":"Royal Oak","lat":53.42924,"lon":-2.79911,"postcode":"L34 5RE","la":"Knowsley","era":"trad","nn":133,"risk":29,"cat":"green"},{"name":"Spanish Caravan","lat":53.42911,"lon":-2.80387,"postcode":"L34 5QJ","la":"Knowsley","era":"other","nn":50,"risk":28,"cat":"green"},{"name":"St Aidans RC Social Club","lat":53.41807,"lon":-2.83407,"postcode":"L36 7XR","la":"Knowsley","era":"mod","nn":767,"risk":38,"cat":"amber"},{"name":"St. Aloysius Parochial Club","lat":53.41539,"lon":-2.85248,"postcode":"L36 2QE","la":"Knowsley","era":"other","nn":319,"risk":30,"cat":"green"},{"name":"Stanley Arms","lat":53.40902,"lon":-2.85289,"postcode":"L36 4HF","la":"Knowsley","era":"trad","nn":392,"risk":30,"cat":"green"},{"name":"Sun Inn","lat":53.42938,"lon":-2.80732,"postcode":"L34 3LE","la":"Knowsley","era":"trad","nn":96,"risk":28,"cat":"green"},{"name":"Swan Hotel","lat":53.41387,"lon":-2.84838,"postcode":"L36 2PW","la":"Knowsley","era":"trad","nn":319,"risk":30,"cat":"green"},{"name":"The Clock Face","lat":53.42932,"lon":-2.81164,"postcode":"L34 3LL","la":"Knowsley","era":"other","nn":286,"risk":30,"cat":"green"},{"name":"The Copper Pot","lat":53.46609,"lon":-2.85274,"postcode":"L33 7UA","la":"Knowsley","era":"other","nn":1506,"risk":61,"cat":"red"},{"name":"The Crofters","lat":53.4055,"lon":-2.8528,"postcode":"L36 4QG","la":"Knowsley","era":"other","nn":392,"risk":30,"cat":"green"},{"name":"The Fantail","lat":53.47835,"lon":-2.90483,"postcode":"L32 4SX","la":"Knowsley","era":"other","nn":423,"risk":36,"cat":"amber"},{"name":"The Grenadier","lat":53.36717,"lon":-2.85189,"postcode":"L25 9PU","la":"Knowsley","era":"other","nn":1096,"risk":58,"cat":"amber"},{"name":"The Lord Strange","lat":53.42955,"lon":-2.80366,"postcode":"L34 5QP","la":"Knowsley","era":"other","nn":22,"risk":28,"cat":"green"},{"name":"The Main Brace Pub","lat":53.48349,"lon":-2.90456,"postcode":"L32 0RE","la":"Knowsley","era":"other","nn":515,"risk":31,"cat":"amber"},{"name":"The Market Tavern","lat":53.48145,"lon":-2.88675,"postcode":"L32 8RR","la":"Knowsley","era":"other","nn":66,"risk":31,"cat":"amber"},{"name":"The Mermaid Tavern","lat":53.42818,"lon":-2.80486,"postcode":"L34 5SB","la":"Knowsley","era":"other","nn":115,"risk":28,"cat":"green"},{"name":"The Old Bank","lat":53.42353,"lon":-2.86132,"postcode":"L14 9ND","la":"Knowsley","era":"other","nn":827,"risk":51,"cat":"amber"},{"name":"The Peacock Hotel","lat":53.48572,"lon":-2.87516,"postcode":"L33 6XJ","la":"Knowsley","era":"other","nn":792,"risk":38,"cat":"amber"},{"name":"The Ploughman","lat":53.4356,"lon":-2.87103,"postcode":"L28 0QL","la":"Knowsley","era":"trad","nn":725,"risk":50,"cat":"amber"},{"name":"The Premier","lat":53.48175,"lon":-2.8851,"postcode":"L32 8RG","la":"Knowsley","era":"other","nn":114,"risk":33,"cat":"amber"},{"name":"The Seel Arms","lat":53.41012,"lon":-2.82654,"postcode":"L36 6AZ","la":"Knowsley","era":"trad","nn":852,"risk":51,"cat":"amber"},{"name":"The Stage Door","lat":53.42938,"lon":-2.80515,"postcode":"L34 6HA","la":"Knowsley","era":"trad","nn":90,"risk":28,"cat":"green"},{"name":"The Village Inn","lat":53.4359,"lon":-2.8601,"postcode":"L28 5RY","la":"Knowsley","era":"trad","nn":725,"risk":53,"cat":"amber"},{"name":"The Watchmaker","lat":53.42952,"lon":-2.80207,"postcode":"L34 5QL","la":"Knowsley","era":"other","nn":79,"risk":28,"cat":"green"},{"name":"The Windmill","lat":53.49382,"lon":-2.89084,"postcode":"L33 1ZN","la":"Knowsley","era":"trad","nn":986,"risk":52,"cat":"amber"},{"name":"Tommy Halls","lat":53.42987,"lon":-2.80102,"postcode":"L34 5RB","la":"Knowsley","era":"other","nn":51,"risk":28,"cat":"green"},{"name":"Whiston Social Club","lat":53.41056,"lon":-2.8033,"postcode":"L35 3RZ","la":"Knowsley","era":"mod","nn":776,"risk":53,"cat":"amber"},{"name":"21st Amendment","lat":53.38963,"lon":-2.91486,"postcode":"L15 9EA","la":"Liverpool","era":"other","nn":242,"risk":16,"cat":"green"},{"name":"24 Kitchen Street","lat":53.39732,"lon":-2.98191,"postcode":"L1 0AN","la":"Liverpool","era":"mod","nn":320,"risk":16,"cat":"green"},{"name":"4% Fuel","lat":53.35209,"lon":-2.8492,"postcode":"L24 9JT","la":"Liverpool","era":"other","nn":793,"risk":40,"cat":"amber"},{"name":"88th Street/Value Mighty/Sin City Burger/Pizza Amore/Dough Masters at Hope and Anchor","lat":53.40219,"lon":-2.97008,"postcode":"L1 9DE","la":"Liverpool","era":"trad","nn":18,"risk":14,"cat":"green"},{"name":"A Tavola Italian Deli","lat":53.40053,"lon":-2.97877,"postcode":"L1 5BF","la":"Liverpool","era":"other","nn":31,"risk":14,"cat":"green"},{"name":"Abbey Road Bar & Kitchen","lat":53.40584,"lon":-2.98932,"postcode":"L2 9QA","la":"Liverpool","era":"other","nn":18,"risk":14,"cat":"green"},{"name":"Abbey Road Wine Bar","lat":53.45127,"lon":-2.90344,"postcode":"L11 9AZ","la":"Liverpool","era":"trad","nn":612,"risk":23,"cat":"green"},{"name":"Aigburth Arms","lat":53.37632,"lon":-2.93166,"postcode":"L17 0DL","la":"Liverpool","era":"trad","nn":369,"risk":22,"cat":"green"},{"name":"Aigburth Cricket & Bowling Club","lat":53.3753,"lon":-2.95413,"postcode":"L17 7BQ","la":"Liverpool","era":"other","nn":702,"risk":19,"cat":"green"},{"name":"Albert\u2019s Schloss","lat":53.40447,"lon":-2.98121,"postcode":"L1 4DS","la":"Liverpool","era":"other","nn":35,"risk":14,"cat":"green"},{"name":"Alberts Schenke","lat":53.40248,"lon":-2.98572,"postcode":"L1 4AA","la":"Liverpool","era":"other","nn":149,"risk":15,"cat":"green"},{"name":"All Bar One","lat":53.40494,"lon":-2.99094,"postcode":"L2 7NU","la":"Liverpool","era":"mod","nn":35,"risk":14,"cat":"green"},{"name":"All Saints Parish Centre","lat":53.42727,"lon":-2.95549,"postcode":"L4 2QG","la":"Liverpool","era":"trad","nn":128,"risk":15,"cat":"green"},{"name":"Alma De Cuba","lat":53.40179,"lon":-2.97895,"postcode":"L1 4BH","la":"Liverpool","era":"other","nn":23,"risk":14,"cat":"green"},{"name":"Art School Cellars","lat":53.40103,"lon":-2.96847,"postcode":"L7 7DP","la":"Liverpool","era":"other","nn":32,"risk":14,"cat":"green"},{"name":"Arts Bar Baltic","lat":53.39445,"lon":-2.9792,"postcode":"L8 5RN","la":"Liverpool","era":"mod","nn":72,"risk":15,"cat":"green"},{"name":"Aspire Lounge","lat":53.33728,"lon":-2.85545,"postcode":"L24 1YD","la":"Liverpool","era":"mod","nn":0,"risk":32,"cat":"amber"},{"name":"Augustus John","lat":53.40584,"lon":-2.9648,"postcode":"L3 5UB","la":"Liverpool","era":"other","nn":121,"risk":15,"cat":"green"},{"name":"Baa Bar","lat":53.40286,"lon":-2.97956,"postcode":"L1 4AR","la":"Liverpool","era":"other","nn":9,"risk":14,"cat":"green"},{"name":"Ball Park","lat":53.40302,"lon":-2.98144,"postcode":"L1 4AU","la":"Liverpool","era":"other","nn":0,"risk":14,"cat":"green"},{"name":"Baltic Market","lat":53.39316,"lon":-2.97798,"postcode":"L8 5RE","la":"Liverpool","era":"other","nn":59,"risk":15,"cat":"green"},{"name":"Bar 25","lat":53.3807,"lon":-2.94673,"postcode":"L17 8UW","la":"Liverpool","era":"mod","nn":30,"risk":14,"cat":"green"},{"name":"Bar Bodega","lat":53.40167,"lon":-2.9774,"postcode":"L1 4DE","la":"Liverpool","era":"mod","nn":16,"risk":14,"cat":"green"},{"name":"Barley Mow","lat":53.39816,"lon":-2.91657,"postcode":"L15 8JS","la":"Liverpool","era":"other","nn":14,"risk":14,"cat":"green"},{"name":"Be at One","lat":53.40312,"lon":-2.98174,"postcode":"L1 4AU","la":"Liverpool","era":"other","nn":23,"risk":14,"cat":"green"},{"name":"Bear & Staff","lat":53.38247,"lon":-2.86566,"postcode":"L25 3PB","la":"Liverpool","era":"other","nn":206,"risk":16,"cat":"green"},{"name":"Beehive","lat":53.40505,"lon":-2.98562,"postcode":"L1 3BL","la":"Liverpool","era":"other","nn":75,"risk":15,"cat":"green"},{"name":"Beer Engine","lat":53.40161,"lon":-2.97203,"postcode":"L1 9AX","la":"Liverpool","era":"other","nn":50,"risk":14,"cat":"green"},{"name":"Belmont Hotel","lat":53.42144,"lon":-2.94816,"postcode":"L6 5EG","la":"Liverpool","era":"trad","nn":454,"risk":17,"cat":"green"},{"name":"Berry & Rye","lat":53.40054,"lon":-2.97646,"postcode":"L1 4JQ","la":"Liverpool","era":"other","nn":36,"risk":14,"cat":"green"},{"name":"Black Barrel","lat":53.4067,"lon":-2.99154,"postcode":"L2 0NA","la":"Liverpool","era":"other","nn":12,"risk":14,"cat":"green"},{"name":"Black Bull","lat":53.46449,"lon":-2.95774,"postcode":"L9 0ER","la":"Liverpool","era":"trad","nn":42,"risk":14,"cat":"green"},{"name":"Black Bull Inn","lat":53.38347,"lon":-2.86304,"postcode":"L25 3PA","la":"Liverpool","era":"trad","nn":49,"risk":14,"cat":"green"},{"name":"Black Rabbit","lat":53.40291,"lon":-2.97967,"postcode":"L1 4AR","la":"Liverpool","era":"other","nn":9,"risk":14,"cat":"green"},{"name":"Blackstock Market (Bars Only)","lat":53.41549,"lon":-2.98882,"postcode":"L3 6EP","la":"Liverpool","era":"other","nn":50,"risk":14,"cat":"green"},{"name":"Blue Angel","lat":53.40093,"lon":-2.97638,"postcode":"L1 4BL","la":"Liverpool","era":"trad","nn":21,"risk":14,"cat":"green"},{"name":"BoBo","lat":53.40573,"lon":-2.99085,"postcode":"L2 7LA","la":"Liverpool","era":"other","nn":6,"risk":14,"cat":"green"},{"name":"Bookbinder","lat":53.38005,"lon":-2.94715,"postcode":"L17 8US","la":"Liverpool","era":"other","nn":23,"risk":14,"cat":"green"},{"name":"Brambles","lat":53.41109,"lon":-2.91577,"postcode":"L13 5SB","la":"Liverpool","era":"trad","nn":241,"risk":16,"cat":"green"},{"name":"Brass Monkey","lat":53.4045,"lon":-2.98279,"postcode":"L1 3DA","la":"Liverpool","era":"trad","nn":6,"risk":14,"cat":"green"},{"name":"Brewdog","lat":53.40188,"lon":-2.9771,"postcode":"L1 4DE","la":"Liverpool","era":"other","nn":30,"risk":14,"cat":"green"},{"name":"Brookhouse also t/a Chik Box, K-Town Chicken and Locked and Loaded","lat":53.38993,"lon":-2.92718,"postcode":"L15 5AE","la":"Liverpool","era":"mod","nn":37,"risk":14,"cat":"green"},{"name":"Brooklyn Mixer","lat":53.4017,"lon":-2.97864,"postcode":"L1 4BH","la":"Liverpool","era":"other","nn":12,"risk":14,"cat":"green"},{"name":"C A D W A Social Club","lat":53.40383,"lon":-2.8906,"postcode":"L16 1JP","la":"Liverpool","era":"mod","nn":178,"risk":18,"cat":"green"},{"name":"Cabbage Hall","lat":53.42714,"lon":-2.95151,"postcode":"L4 2RB","la":"Liverpool","era":"other","nn":175,"risk":15,"cat":"green"},{"name":"Carlisi","lat":53.40898,"lon":-2.98551,"postcode":"L2 5TF","la":"Liverpool","era":"other","nn":0,"risk":14,"cat":"green"},{"name":"Carnarvon Castle","lat":53.40556,"lon":-2.98424,"postcode":"L1 1DS","la":"Liverpool","era":"other","nn":75,"risk":15,"cat":"green"},{"name":"Cask Micropub","lat":53.42232,"lon":-2.91479,"postcode":"L13 0AR","la":"Liverpool","era":"other","nn":346,"risk":17,"cat":"green"},{"name":"Castle Street Townhouse","lat":53.40639,"lon":-2.99046,"postcode":"L2 4TA","la":"Liverpool","era":"other","nn":71,"risk":15,"cat":"green"},{"name":"Cavern Pub","lat":53.40638,"lon":-2.98819,"postcode":"L2 6RE","la":"Liverpool","era":"other","nn":14,"risk":14,"cat":"green"},{"name":"Chamber 36 Smithdown","lat":53.38986,"lon":-2.92663,"postcode":"L15 5AE","la":"Liverpool","era":"other","nn":9,"risk":14,"cat":"green"},{"name":"Chaplins Bar","lat":53.39256,"lon":-2.94909,"postcode":"L8 0QQ","la":"Liverpool","era":"other","nn":491,"risk":20,"cat":"green"},{"name":"Cheers Big Ears","lat":53.40376,"lon":-2.97965,"postcode":"L1 4DS","la":"Liverpool","era":"other","nn":33,"risk":14,"cat":"green"},{"name":"Cheshire Lines Club","lat":53.35923,"lon":-2.88755,"postcode":"L19 5NB","la":"Liverpool","era":"other","nn":750,"risk":19,"cat":"green"},{"name":"Childwall Abbey Hotel","lat":53.39507,"lon":-2.88289,"postcode":"L16 5EY","la":"Liverpool","era":"trad","nn":921,"risk":38,"cat":"amber"},{"name":"Childwall Sports College","lat":53.39876,"lon":-2.89892,"postcode":"L15 6XZ","la":"Liverpool","era":"other","nn":272,"risk":16,"cat":"green"},{"name":"Ci Edwardian Association","lat":53.42626,"lon":-2.90923,"postcode":"L12 1LD","la":"Liverpool","era":"other","nn":497,"risk":18,"cat":"green"},{"name":"City Vaults","lat":53.40623,"lon":-2.98922,"postcode":"L2 9QU","la":"Liverpool","era":"other","nn":25,"risk":14,"cat":"green"},{"name":"Clubmoor Allotments and Community Clubhouse","lat":53.4308,"lon":-2.93556,"postcode":"L13 8DQ","la":"Liverpool","era":"other","nn":492,"risk":18,"cat":"green"},{"name":"cock and bottle","lat":53.39863,"lon":-2.91726,"postcode":"L15 8HF","la":"Liverpool","era":"other","nn":28,"risk":14,"cat":"green"},{"name":"Coffee House","lat":53.37473,"lon":-2.86603,"postcode":"L25 5NH","la":"Liverpool","era":"other","nn":56,"risk":15,"cat":"green"},{"name":"Commune","lat":53.41049,"lon":-2.97046,"postcode":"L3 8HL","la":"Liverpool","era":"other","nn":0,"risk":14,"cat":"green"},{"name":"Coopers","lat":53.40534,"lon":-2.98037,"postcode":"L1 1HW","la":"Liverpool","era":"trad","nn":13,"risk":14,"cat":"green"},{"name":"Coyote Ugly Saloon","lat":53.40349,"lon":-2.97944,"postcode":"L1 4EA","la":"Liverpool","era":"other","nn":32,"risk":14,"cat":"green"},{"name":"Crazy Pedros Part time Pizza Parlour","lat":53.40177,"lon":-2.97952,"postcode":"L1 4JN","la":"Liverpool","era":"mod","nn":37,"risk":14,"cat":"green"},{"name":"Cressington Wine","lat":53.36336,"lon":-2.91674,"postcode":"L19 3QG","la":"Liverpool","era":"other","nn":89,"risk":35,"cat":"amber"},{"name":"Crofts Social Club","lat":53.44091,"lon":-2.9662,"postcode":"L4 5TE","la":"Liverpool","era":"mod","nn":262,"risk":16,"cat":"green"},{"name":"Cross Keys","lat":53.40983,"lon":-2.99373,"postcode":"L3 9NS","la":"Liverpool","era":"trad","nn":152,"risk":15,"cat":"green"},{"name":"Crown Hotel","lat":53.40668,"lon":-2.97899,"postcode":"L1 1JQ","la":"Liverpool","era":"trad","nn":29,"risk":14,"cat":"green"},{"name":"Danny Macs Tavern","lat":53.40277,"lon":-2.97571,"postcode":"L1 2SJ","la":"Liverpool","era":"other","nn":21,"risk":14,"cat":"green"},{"name":"Derby Hotel","lat":53.35599,"lon":-2.89746,"postcode":"L19 1RJ","la":"Liverpool","era":"other","nn":102,"risk":15,"cat":"green"},{"name":"Dicey Reilly\u2019s","lat":53.40228,"lon":-2.98164,"postcode":"L1 4JN","la":"Liverpool","era":"other","nn":48,"risk":14,"cat":"green"},{"name":"Dirty Nellies","lat":53.38992,"lon":-2.92655,"postcode":"L15 5AE","la":"Liverpool","era":"other","nn":9,"risk":14,"cat":"green"},{"name":"Dovecot Community & Social Club","lat":53.42724,"lon":-2.87292,"postcode":"L14 4AR","la":"Liverpool","era":"mod","nn":873,"risk":38,"cat":"amber"},{"name":"Dovedale Towers","lat":53.38712,"lon":-2.91862,"postcode":"L18 1DG","la":"Liverpool","era":"other","nn":241,"risk":16,"cat":"green"},{"name":"Down The Hatch","lat":53.4018,"lon":-2.98252,"postcode":"L1 5AA","la":"Liverpool","era":"other","nn":59,"risk":15,"cat":"green"},{"name":"Dreamers","lat":53.4075,"lon":-2.98543,"postcode":"L1 6BX","la":"Liverpool","era":"other","nn":8,"risk":14,"cat":"green"},{"name":"Duke Street Food & Drink Market","lat":53.40192,"lon":-2.98369,"postcode":"L1 5AS","la":"Liverpool","era":"trad","nn":42,"risk":14,"cat":"green"},{"name":"Dunny's","lat":53.45291,"lon":-2.96222,"postcode":"L9 1BZ","la":"Liverpool","era":"other","nn":178,"risk":15,"cat":"green"},{"name":"Eden Bar West Derby","lat":53.42166,"lon":-2.89698,"postcode":"L12 2AH","la":"Liverpool","era":"mod","nn":507,"risk":18,"cat":"green"},{"name":"Einstein Bier Haus","lat":53.40306,"lon":-2.98068,"postcode":"L1 4AN","la":"Liverpool","era":"other","nn":29,"risk":14,"cat":"green"},{"name":"El Bandito","lat":53.4017,"lon":-2.98037,"postcode":"L1 4BX","la":"Liverpool","era":"other","nn":35,"risk":14,"cat":"green"},{"name":"Elysium Liverpool","lat":53.40812,"lon":-2.98969,"postcode":"L2 2AG","la":"Liverpool","era":"other","nn":15,"risk":14,"cat":"green"},{"name":"Eric's Live","lat":53.40643,"lon":-2.98772,"postcode":"L2 6RE","la":"Liverpool","era":"other","nn":21,"risk":14,"cat":"green"},{"name":"Erotica","lat":53.40681,"lon":-2.98672,"postcode":"L1 6AL","la":"Liverpool","era":"other","nn":14,"risk":14,"cat":"green"},{"name":"Evergreen Sports & Social Club","lat":53.44372,"lon":-2.92852,"postcode":"L11 5AW","la":"Liverpool","era":"mod","nn":313,"risk":34,"cat":"amber"},{"name":"Executive Lounge","lat":53.33728,"lon":-2.85545,"postcode":"L24 1YD","la":"Liverpool","era":"mod","nn":0,"risk":32,"cat":"amber"},{"name":"Farmers Arms","lat":53.46629,"lon":-2.9495,"postcode":"L9 0EN","la":"Liverpool","era":"trad","nn":58,"risk":15,"cat":"green"},{"name":"Farmers Arms Hotel","lat":53.43511,"lon":-2.93385,"postcode":"L13 9BL","la":"Liverpool","era":"trad","nn":492,"risk":20,"cat":"green"},{"name":"Flanagans Apple","lat":53.40627,"lon":-2.98691,"postcode":"L2 6RE","la":"Liverpool","era":"other","nn":19,"risk":14,"cat":"green"},{"name":"Flat House","lat":53.42499,"lon":-2.93204,"postcode":"L13 8AE","la":"Liverpool","era":"other","nn":117,"risk":20,"cat":"green"},{"name":"Flat Iron","lat":53.42823,"lon":-2.95444,"postcode":"L4 0SY","la":"Liverpool","era":"other","nn":128,"risk":15,"cat":"green"},{"name":"Flight Club Darts","lat":53.40356,"lon":-2.98926,"postcode":"L1 3DF","la":"Liverpool","era":"other","nn":57,"risk":15,"cat":"green"},{"name":"Foghertys","lat":53.38927,"lon":-2.91897,"postcode":"L18 1EH","la":"Liverpool","era":"other","nn":35,"risk":14,"cat":"green"},{"name":"Foresters Inn","lat":53.46844,"lon":-2.93984,"postcode":"L9 9BY","la":"Liverpool","era":"trad","nn":677,"risk":24,"cat":"green"},{"name":"Franks","lat":53.39103,"lon":-2.93182,"postcode":"L15 3JT","la":"Liverpool","era":"other","nn":93,"risk":15,"cat":"green"},{"name":"Fulwood Arms","lat":53.37464,"lon":-2.93836,"postcode":"L17 9PW","la":"Liverpool","era":"trad","nn":113,"risk":15,"cat":"green"},{"name":"Fusion","lat":53.40363,"lon":-2.981,"postcode":"L1 4AR","la":"Liverpool","era":"other","nn":23,"risk":14,"cat":"green"},{"name":"Gateacre Institute","lat":53.38391,"lon":-2.86309,"postcode":"L25 5JX","la":"Liverpool","era":"other","nn":49,"risk":14,"cat":"green"},{"name":"GBar","lat":53.40806,"lon":-2.98988,"postcode":"L2 2AG","la":"Liverpool","era":"other","nn":1,"risk":14,"cat":"green"},{"name":"Genting Casino","lat":53.40359,"lon":-2.97659,"postcode":"L1 2SF","la":"Liverpool","era":"other","nn":73,"risk":15,"cat":"green"},{"name":"George Scott Snooker Club","lat":53.41584,"lon":-2.91534,"postcode":"L13 6QA","la":"Liverpool","era":"trad","nn":151,"risk":15,"cat":"green"},{"name":"Goals Soccer Centre","lat":53.34974,"lon":-2.86048,"postcode":"L24 9PQ","la":"Liverpool","era":"other","nn":793,"risk":40,"cat":"amber"},{"name":"Grapes Inn","lat":53.37399,"lon":-2.87029,"postcode":"L25 7RQ","la":"Liverpool","era":"trad","nn":110,"risk":15,"cat":"green"},{"name":"Habibiz Lounge","lat":53.40131,"lon":-2.96831,"postcode":"L7 7DN","la":"Liverpool","era":"mod","nn":32,"risk":14,"cat":"green"},{"name":"Halfway House","lat":53.39043,"lon":-2.8997,"postcode":"L16 8NE","la":"Liverpool","era":"other","nn":740,"risk":19,"cat":"green"},{"name":"Handymans Supermarket","lat":53.39006,"lon":-2.92828,"postcode":"L15 3JL","la":"Liverpool","era":"other","nn":74,"risk":15,"cat":"green"},{"name":"Hangar 34","lat":53.39509,"lon":-2.97886,"postcode":"L1 0BS","la":"Liverpool","era":"other","nn":41,"risk":14,"cat":"green"},{"name":"Hardys Bar","lat":53.40622,"lon":-2.98662,"postcode":"L2 6RE","la":"Liverpool","era":"other","nn":0,"risk":14,"cat":"green"},{"name":"Hare & Hounds","lat":53.43268,"lon":-2.9105,"postcode":"L12 5HJ","la":"Liverpool","era":"trad","nn":19,"risk":14,"cat":"green"},{"name":"Harrisons Bar & Kitchen","lat":53.40672,"lon":-2.98859,"postcode":"L2 5QU","la":"Liverpool","era":"mod","nn":14,"risk":14,"cat":"green"},{"name":"Hatchet Harrys","lat":53.41064,"lon":-2.99777,"postcode":"L3 7HJ","la":"Liverpool","era":"other","nn":282,"risk":16,"cat":"green"},{"name":"Haul Bottle Shop and Taproom","lat":53.37847,"lon":-2.91663,"postcode":"L18 8AG","la":"Liverpool","era":"mod","nn":224,"risk":16,"cat":"green"},{"name":"Heaven Nightclub","lat":53.40673,"lon":-2.98784,"postcode":"L2 6QE","la":"Liverpool","era":"other","nn":34,"risk":14,"cat":"green"},{"name":"Heebie Jeebies","lat":53.40168,"lon":-2.97845,"postcode":"L1 4BH","la":"Liverpool","era":"other","nn":12,"risk":14,"cat":"green"},{"name":"Highfield Tenants & Residents","lat":53.41533,"lon":-2.9044,"postcode":"L14 1PT","la":"Liverpool","era":"other","nn":104,"risk":15,"cat":"green"},{"name":"Hillfoot Hotel","lat":53.36049,"lon":-2.86402,"postcode":"L25 0NB","la":"Liverpool","era":"other","nn":1096,"risk":44,"cat":"amber"},{"name":"Hippie Chic","lat":53.3936,"lon":-2.97846,"postcode":"L8 5XJ","la":"Liverpool","era":"other","nn":0,"risk":14,"cat":"green"},{"name":"Hoggins","lat":53.41294,"lon":-2.9139,"postcode":"L13 5SA","la":"Liverpool","era":"other","nn":53,"risk":15,"cat":"green"},{"name":"Holy Name Parish Centre","lat":53.46749,"lon":-2.92808,"postcode":"L10 9LH","la":"Liverpool","era":"other","nn":680,"risk":36,"cat":"amber"},{"name":"HopScotch Whisky Bar","lat":53.41049,"lon":-2.97046,"postcode":"L3 8HL","la":"Liverpool","era":"other","nn":0,"risk":14,"cat":"green"},{"name":"Hot Water Comedy Club","lat":53.40177,"lon":-2.97091,"postcode":"L1 9AS","la":"Liverpool","era":"other","nn":23,"risk":14,"cat":"green"},{"name":"Hummingbird Cocktail Bar","lat":53.40723,"lon":-2.98958,"postcode":"L2 4SA","la":"Liverpool","era":"other","nn":48,"risk":14,"cat":"green"},{"name":"Hush Gentlemens Club","lat":53.40622,"lon":-2.98662,"postcode":"L2 6RE","la":"Liverpool","era":"other","nn":0,"risk":14,"cat":"green"},{"name":"Imagine","lat":53.40668,"lon":-2.98686,"postcode":"L2 6PY","la":"Liverpool","era":"other","nn":16,"risk":14,"cat":"green"},{"name":"In Bloom Coffee Co /GPO Bar","lat":53.40679,"lon":-2.98575,"postcode":"L1 6DA","la":"Liverpool","era":"other","nn":53,"risk":15,"cat":"green"},{"name":"Ink","lat":53.40259,"lon":-2.97831,"postcode":"L1 4DQ","la":"Liverpool","era":"other","nn":30,"risk":14,"cat":"green"},{"name":"Jaloux","lat":53.40675,"lon":-2.98838,"postcode":"L2 5QA","la":"Liverpool","era":"other","nn":14,"risk":14,"cat":"green"},{"name":"Jenny's Bar","lat":53.4055,"lon":-2.99148,"postcode":"L2 7NB","la":"Liverpool","era":"other","nn":24,"risk":14,"cat":"green"},{"name":"JT'S Bar","lat":53.4402,"lon":-2.97107,"postcode":"L4 3QA","la":"Liverpool","era":"other","nn":31,"risk":14,"cat":"green"},{"name":"Kabannas Liverpool","lat":53.40638,"lon":-2.98617,"postcode":"L2 6RE","la":"Liverpool","era":"other","nn":26,"risk":14,"cat":"green"},{"name":"Kaiserkeller","lat":53.40609,"lon":-2.98764,"postcode":"L2 6RE","la":"Liverpool","era":"other","nn":20,"risk":14,"cat":"green"},{"name":"Kazimier Garden","lat":53.40281,"lon":-2.98174,"postcode":"L1 4BE","la":"Liverpool","era":"other","nn":26,"risk":14,"cat":"green"},{"name":"Kop End Hotel and Bar","lat":53.42732,"lon":-2.95826,"postcode":"L4 0UE","la":"Liverpool","era":"other","nn":183,"risk":15,"cat":"green"},{"name":"Lady of Mann","lat":53.40794,"lon":-2.99011,"postcode":"L2 2SH","la":"Liverpool","era":"other","nn":12,"risk":14,"cat":"green"},{"name":"La'go","lat":53.40158,"lon":-2.97759,"postcode":"L1 4DE","la":"Liverpool","era":"other","nn":16,"risk":14,"cat":"green"},{"name":"Lanigans","lat":53.40368,"lon":-2.98067,"postcode":"L1 4AQ","la":"Liverpool","era":"other","nn":23,"risk":14,"cat":"green"},{"name":"Lanigans","lat":53.40524,"lon":-2.97978,"postcode":"L1 1JP","la":"Liverpool","era":"other","nn":3,"risk":14,"cat":"green"},{"name":"Launderette","lat":53.41114,"lon":-2.97297,"postcode":"L3 8LX","la":"Liverpool","era":"other","nn":181,"risk":15,"cat":"green"},{"name":"Legends Liverpool","lat":53.40628,"lon":-2.98653,"postcode":"L2 6RE","la":"Liverpool","era":"other","nn":9,"risk":14,"cat":"green"},{"name":"Leigh Arms","lat":53.43807,"lon":-2.97357,"postcode":"L4 3QP","la":"Liverpool","era":"trad","nn":174,"risk":15,"cat":"green"},{"name":"Level","lat":53.40325,"lon":-2.98098,"postcode":"L1 4AN","la":"Liverpool","era":"other","nn":29,"risk":14,"cat":"green"},{"name":"Liberte (second floor and roof top)","lat":53.40552,"lon":-2.99324,"postcode":"L2 0PL","la":"Liverpool","era":"other","nn":0,"risk":14,"cat":"green"},{"name":"Lime Street Central","lat":53.40643,"lon":-2.9789,"postcode":"L1 1JQ","la":"Liverpool","era":"other","nn":29,"risk":14,"cat":"green"},{"name":"Lion Tavern","lat":53.40904,"lon":-2.99043,"postcode":"L2 2BP","la":"Liverpool","era":"trad","nn":17,"risk":14,"cat":"green"},{"name":"Lister Hotel","lat":53.41246,"lon":-2.94256,"postcode":"L7 0LQ","la":"Liverpool","era":"other","nn":136,"risk":15,"cat":"green"},{"name":"Liver Vaults","lat":53.41034,"lon":-2.95016,"postcode":"L7 2QS","la":"Liverpool","era":"other","nn":207,"risk":16,"cat":"green"},{"name":"Liverpool Arts Bar","lat":53.40276,"lon":-2.97057,"postcode":"L1 9BY","la":"Liverpool","era":"other","nn":0,"risk":14,"cat":"green"},{"name":"Liverpool Cricket Club","lat":53.36364,"lon":-2.918,"postcode":"L19 3QF","la":"Liverpool","era":"other","nn":89,"risk":35,"cat":"amber"},{"name":"Liverpool FC Supporters Club","lat":53.42794,"lon":-2.94923,"postcode":"L6 0AQ","la":"Liverpool","era":"other","nn":28,"risk":14,"cat":"green"},{"name":"Liverpool Football Club","lat":53.43089,"lon":-2.96185,"postcode":"L4 0TH","la":"Liverpool","era":"other","nn":90,"risk":15,"cat":"green"},{"name":"Liverpool Irish Centre","lat":53.41839,"lon":-2.95275,"postcode":"L6 5JG","la":"Liverpool","era":"other","nn":273,"risk":16,"cat":"green"},{"name":"Liverpool Masonic Hall","lat":53.40276,"lon":-2.97057,"postcode":"L1 9BY","la":"Liverpool","era":"trad","nn":0,"risk":14,"cat":"green"},{"name":"Liverpool Provincial Club","lat":53.41809,"lon":-2.9666,"postcode":"L6 2EP","la":"Liverpool","era":"other","nn":309,"risk":16,"cat":"green"},{"name":"Lord Nelson","lat":53.41688,"lon":-2.89775,"postcode":"L14 5ND","la":"Liverpool","era":"trad","nn":124,"risk":15,"cat":"green"},{"name":"Loretta's","lat":53.40389,"lon":-2.9886,"postcode":"L1 3DF","la":"Liverpool","era":"other","nn":57,"risk":15,"cat":"green"},{"name":"Lost on Lark Lane","lat":53.38045,"lon":-2.94655,"postcode":"L17 8US","la":"Liverpool","era":"other","nn":30,"risk":14,"cat":"green"},{"name":"Lounge 69","lat":53.40416,"lon":-2.9826,"postcode":"L1 3DY","la":"Liverpool","era":"mod","nn":36,"risk":14,"cat":"green"},{"name":"Lowlands West Derby Community Centre","lat":53.4329,"lon":-2.91446,"postcode":"L12 7JG","la":"Liverpool","era":"other","nn":214,"risk":16,"cat":"green"},{"name":"Lutine Bell","lat":53.4237,"lon":-2.95759,"postcode":"L5 6PT","la":"Liverpool","era":"other","nn":232,"risk":16,"cat":"green"},{"name":"M BOX","lat":53.40294,"lon":-2.97652,"postcode":"L1 4EN","la":"Liverpool","era":"other","nn":45,"risk":14,"cat":"green"},{"name":"Ma Boyles Alehouse & Eatery","lat":53.40664,"lon":-2.99433,"postcode":"L3 1LG","la":"Liverpool","era":"mod","nn":78,"risk":15,"cat":"green"},{"name":"Ma Egerton's Stage Door","lat":53.40864,"lon":-2.97773,"postcode":"L1 1JA","la":"Liverpool","era":"trad","nn":93,"risk":15,"cat":"green"},{"name":"Mackenzies Whisky Bar","lat":53.40213,"lon":-2.97347,"postcode":"L1 2TQ","la":"Liverpool","era":"other","nn":46,"risk":14,"cat":"green"},{"name":"Mansion","lat":53.40703,"lon":-2.98805,"postcode":"L2 5RH","la":"Liverpool","era":"other","nn":23,"risk":14,"cat":"green"},{"name":"Mariners Arms","lat":53.35391,"lon":-2.89872,"postcode":"L19 2NJ","la":"Liverpool","era":"trad","nn":105,"risk":15,"cat":"green"},{"name":"Masons Arms","lat":53.41357,"lon":-2.91108,"postcode":"L13 5XE","la":"Liverpool","era":"trad","nn":163,"risk":15,"cat":"green"},{"name":"Masquerade Bar","lat":53.40806,"lon":-2.98731,"postcode":"L1 6BU","la":"Liverpool","era":"other","nn":46,"risk":14,"cat":"green"},{"name":"May Duncans","lat":53.42049,"lon":-2.96895,"postcode":"L5 4LA","la":"Liverpool","era":"other","nn":309,"risk":16,"cat":"green"},{"name":"McCooley's","lat":53.40658,"lon":-2.98669,"postcode":"L2 6PY","la":"Liverpool","era":"other","nn":16,"risk":14,"cat":"green"},{"name":"Mccooleys Irish Bar","lat":53.40322,"lon":-2.98001,"postcode":"L1 4AQ","la":"Liverpool","era":"other","nn":13,"risk":14,"cat":"green"},{"name":"McGintys","lat":53.40665,"lon":-2.91413,"postcode":"L13 4AH","la":"Liverpool","era":"other","nn":505,"risk":18,"cat":"green"},{"name":"McGuffie & Co","lat":53.4066,"lon":-2.99147,"postcode":"L2 0NE","la":"Liverpool","era":"other","nn":12,"risk":14,"cat":"green"},{"name":"Mchales Irish American Bar","lat":53.40593,"lon":-2.97899,"postcode":"L1 1JN","la":"Liverpool","era":"other","nn":35,"risk":14,"cat":"green"},{"name":"Mean Eyed Cat Bar","lat":53.40166,"lon":-2.97782,"postcode":"L1 4BB","la":"Liverpool","era":"other","nn":12,"risk":14,"cat":"green"},{"name":"Melbourne","lat":53.41769,"lon":-2.92106,"postcode":"L13 6RH","la":"Liverpool","era":"other","nn":52,"risk":15,"cat":"green"},{"name":"Mere Bank","lat":53.42518,"lon":-2.97036,"postcode":"L5 4LJ","la":"Liverpool","era":"other","nn":386,"risk":17,"cat":"green"},{"name":"Metrocola","lat":53.40181,"lon":-2.97391,"postcode":"L1 2TR","la":"Liverpool","era":"other","nn":46,"risk":14,"cat":"green"},{"name":"Modo","lat":53.40348,"lon":-2.98027,"postcode":"L1 4NR","la":"Liverpool","era":"other","nn":0,"risk":14,"cat":"green"},{"name":"Molly Malones","lat":53.40717,"lon":-2.9872,"postcode":"L1 6BD","la":"Liverpool","era":"other","nn":24,"risk":14,"cat":"green"},{"name":"Moloko Bar","lat":53.40234,"lon":-2.97891,"postcode":"L1 4AS","la":"Liverpool","era":"other","nn":24,"risk":14,"cat":"green"},{"name":"Motel","lat":53.404,"lon":-2.98177,"postcode":"L1 4AR","la":"Liverpool","era":"other","nn":16,"risk":14,"cat":"green"},{"name":"Murphy's Distillery Liverpool","lat":53.41864,"lon":-2.99979,"postcode":"L3 7BX","la":"Liverpool","era":"other","nn":0,"risk":14,"cat":"green"},{"name":"Navy Bar","lat":53.40762,"lon":-2.98728,"postcode":"L1 6AA","la":"Liverpool","era":"other","nn":39,"risk":14,"cat":"green"},{"name":"Neighbourhood Liverpool","lat":53.40546,"lon":-2.99056,"postcode":"L2 7LQ","la":"Liverpool","era":"other","nn":21,"risk":14,"cat":"green"},{"name":"Newsham Park Hotel","lat":53.41577,"lon":-2.953,"postcode":"L6 6AD","la":"Liverpool","era":"other","nn":107,"risk":15,"cat":"green"},{"name":"No9 bar and kitchen","lat":53.44037,"lon":-2.95116,"postcode":"L4 6UY","la":"Liverpool","era":"mod","nn":590,"risk":18,"cat":"green"},{"name":"NQ64","lat":53.40174,"lon":-2.97772,"postcode":"L1 4DE","la":"Liverpool","era":"other","nn":12,"risk":14,"cat":"green"},{"name":"O'Briens","lat":53.40622,"lon":-2.98662,"postcode":"L2 6RE","la":"Liverpool","era":"other","nn":0,"risk":14,"cat":"green"},{"name":"Old Bank Alehouse","lat":53.37324,"lon":-2.93375,"postcode":"L17 0BJ","la":"Liverpool","era":"other","nn":344,"risk":22,"cat":"green"},{"name":"Old Post Office","lat":53.40453,"lon":-2.98302,"postcode":"L1 3DH","la":"Liverpool","era":"other","nn":16,"risk":14,"cat":"green"},{"name":"Old Swan","lat":53.41339,"lon":-2.91361,"postcode":"L13 5SA","la":"Liverpool","era":"trad","nn":53,"risk":15,"cat":"green"},{"name":"Old Swan Conservative Club","lat":53.41856,"lon":-2.91655,"postcode":"L13 6QE","la":"Liverpool","era":"trad","nn":162,"risk":15,"cat":"green"},{"name":"OMG Liverpool","lat":53.4069,"lon":-2.98849,"postcode":"L2 5QA","la":"Liverpool","era":"other","nn":19,"risk":14,"cat":"green"},{"name":"O'Neills","lat":53.40426,"lon":-2.98193,"postcode":"L1 4AQ","la":"Liverpool","era":"other","nn":15,"risk":14,"cat":"green"},{"name":"Only Fools","lat":53.40302,"lon":-2.98144,"postcode":"L1 4AU","la":"Liverpool","era":"other","nn":0,"risk":14,"cat":"green"},{"name":"Our Lady of Sorrows Parish Centre","lat":53.4511,"lon":-2.93867,"postcode":"L9 6AA","la":"Liverpool","era":"other","nn":1060,"risk":44,"cat":"amber"},{"name":"Outpost","lat":53.40296,"lon":-2.97584,"postcode":"L1 2SJ","la":"Liverpool","era":"other","nn":22,"risk":14,"cat":"green"},{"name":"Peter Kavanagh's","lat":53.39657,"lon":-2.96734,"postcode":"L8 7LY","la":"Liverpool","era":"other","nn":337,"risk":17,"cat":"green"},{"name":"Petit Cafe Du Coin","lat":53.40022,"lon":-2.97656,"postcode":"L1 4JQ","la":"Liverpool","era":"other","nn":36,"risk":14,"cat":"green"},{"name":"Petit Cafe Lark Lane","lat":53.38023,"lon":-2.94698,"postcode":"L17 8US","la":"Liverpool","era":"other","nn":23,"risk":14,"cat":"green"},{"name":"Phase One","lat":53.40268,"lon":-2.9814,"postcode":"L1 4BE","la":"Liverpool","era":"other","nn":26,"risk":14,"cat":"green"},{"name":"Philharmonic Dining Rooms","lat":53.40178,"lon":-2.97056,"postcode":"L1 9BX","la":"Liverpool","era":"mod","nn":23,"risk":14,"cat":"green"},{"name":"Pogue Mahone","lat":53.40126,"lon":-2.97661,"postcode":"L1 4BB","la":"Liverpool","era":"other","nn":20,"risk":14,"cat":"green"},{"name":"Pop World","lat":53.40414,"lon":-2.98181,"postcode":"L1 4AQ","la":"Liverpool","era":"other","nn":15,"risk":14,"cat":"green"},{"name":"Poste House","lat":53.40782,"lon":-2.98675,"postcode":"L1 6BU","la":"Liverpool","era":"other","nn":42,"risk":14,"cat":"green"},{"name":"Present Company","lat":53.40449,"lon":-2.9827,"postcode":"L1 3DA","la":"Liverpool","era":"other","nn":6,"risk":14,"cat":"green"},{"name":"Prince Alfred","lat":53.39872,"lon":-2.91845,"postcode":"L15 8HF","la":"Liverpool","era":"trad","nn":52,"risk":15,"cat":"green"},{"name":"Prince Leopold","lat":53.45451,"lon":-2.96226,"postcode":"L9 1AQ","la":"Liverpool","era":"trad","nn":178,"risk":15,"cat":"green"},{"name":"Punch Tarmeys","lat":53.39342,"lon":-2.97911,"postcode":"L8 5SD","la":"Liverpool","era":"other","nn":48,"risk":14,"cat":"green"},{"name":"Queen of Hope Street","lat":53.40162,"lon":-2.96995,"postcode":"L7 7DP","la":"Liverpool","era":"trad","nn":44,"risk":14,"cat":"green"},{"name":"Ranelaghs Tavern","lat":53.40505,"lon":-2.98077,"postcode":"L1 1JW","la":"Liverpool","era":"other","nn":37,"risk":14,"cat":"green"},{"name":"Red Door","lat":53.40083,"lon":-2.97579,"postcode":"L1 9DF","la":"Liverpool","era":"other","nn":11,"risk":14,"cat":"green"},{"name":"Reem Lounge","lat":53.40025,"lon":-2.97874,"postcode":"L1 5FD","la":"Liverpool","era":"mod","nn":31,"risk":14,"cat":"green"},{"name":"Remeniss","lat":53.40648,"lon":-2.98693,"postcode":"L2 6PY","la":"Liverpool","era":"other","nn":11,"risk":14,"cat":"green"},{"name":"Revolution","lat":53.39993,"lon":-2.9909,"postcode":"L3 4AE","la":"Liverpool","era":"other","nn":66,"risk":15,"cat":"green"},{"name":"Revolver","lat":53.4068,"lon":-2.98727,"postcode":"L2 6PY","la":"Liverpool","era":"other","nn":30,"risk":14,"cat":"green"},{"name":"Richmond Bowling Club","lat":53.42552,"lon":-2.948,"postcode":"L6 5AB","la":"Liverpool","era":"other","nn":281,"risk":16,"cat":"green"},{"name":"Richmond Pub","lat":53.40642,"lon":-2.9844,"postcode":"L1 1EB","la":"Liverpool","era":"other","nn":46,"risk":14,"cat":"green"},{"name":"Rileys","lat":53.40465,"lon":-2.97709,"postcode":"L3 5RY","la":"Liverpool","era":"other","nn":9,"risk":14,"cat":"green"},{"name":"Rileys Sports Bar","lat":53.4061,"lon":-2.97758,"postcode":"L3 5LX","la":"Liverpool","era":"other","nn":56,"risk":15,"cat":"green"},{"name":"Robbie Fowler Education and Football Academy at Melwood","lat":53.43138,"lon":-2.89728,"postcode":"L12 8SY","la":"Liverpool","era":"other","nn":318,"risk":16,"cat":"green"},{"name":"Rose of Mossley","lat":53.37999,"lon":-2.91441,"postcode":"L18 5EA","la":"Liverpool","era":"trad","nn":224,"risk":16,"cat":"green"},{"name":"Roxy Ballroom (Cavern Quarter)","lat":53.40613,"lon":-2.98673,"postcode":"L2 6PX","la":"Liverpool","era":"mod","nn":12,"risk":14,"cat":"green"},{"name":"Roxy Ballroom (Hanover Street)","lat":53.40368,"lon":-2.98375,"postcode":"L1 3DS","la":"Liverpool","era":"other","nn":93,"risk":15,"cat":"green"},{"name":"Roxy Lanes School Lane","lat":53.40466,"lon":-2.9847,"postcode":"L1 3AQ","la":"Liverpool","era":"other","nn":69,"risk":15,"cat":"green"},{"name":"Royal British Legion East Liverpool","lat":53.42582,"lon":-2.93312,"postcode":"L13 8AX","la":"Liverpool","era":"trad","nn":117,"risk":15,"cat":"green"},{"name":"Royal Institution Bar","lat":53.40126,"lon":-2.97776,"postcode":"L1 4DE","la":"Liverpool","era":"trad","nn":37,"risk":14,"cat":"green"},{"name":"Royal Oak","lat":53.438,"lon":-2.97095,"postcode":"L4 4BE","la":"Liverpool","era":"trad","nn":164,"risk":15,"cat":"green"},{"name":"Ruby Blues / Cotton Club","lat":53.40593,"lon":-2.97951,"postcode":"L1 1HU","la":"Liverpool","era":"other","nn":13,"risk":14,"cat":"green"},{"name":"Sable & Co","lat":53.33728,"lon":-2.85545,"postcode":"L24 1YD","la":"Liverpool","era":"other","nn":0,"risk":32,"cat":"amber"},{"name":"Saddle Inn","lat":53.40763,"lon":-2.98999,"postcode":"L2 2EZ","la":"Liverpool","era":"trad","nn":14,"risk":14,"cat":"green"},{"name":"Saddle Inn","lat":53.43324,"lon":-2.97808,"postcode":"L4 1ST","la":"Liverpool","era":"trad","nn":296,"risk":16,"cat":"green"},{"name":"Sefton Arms Hotel","lat":53.43212,"lon":-2.90921,"postcode":"L12 7HX","la":"Liverpool","era":"trad","nn":96,"risk":15,"cat":"green"},{"name":"Segura","lat":53.44136,"lon":-2.97103,"postcode":"L4 3QD","la":"Liverpool","era":"other","nn":98,"risk":15,"cat":"green"},{"name":"Sgt. Peppers","lat":53.40627,"lon":-2.9881,"postcode":"L2 6RE","la":"Liverpool","era":"other","nn":14,"risk":14,"cat":"green"},{"name":"sheil park","lat":53.41244,"lon":-2.94461,"postcode":"L6 3AA","la":"Liverpool","era":"other","nn":136,"risk":15,"cat":"green"},{"name":"Shenanigans","lat":53.41039,"lon":-2.98902,"postcode":"L2 2EN","la":"Liverpool","era":"other","nn":134,"risk":15,"cat":"green"},{"name":"Ship and Mitre","lat":53.40974,"lon":-2.9846,"postcode":"L2 2JH","la":"Liverpool","era":"trad","nn":28,"risk":14,"cat":"green"},{"name":"Shiraz Bar","lat":53.40668,"lon":-2.98385,"postcode":"L1 1EQ","la":"Liverpool","era":"other","nn":46,"risk":14,"cat":"green"},{"name":"SipSin","lat":53.40259,"lon":-2.98333,"postcode":"L1 4JH","la":"Liverpool","era":"other","nn":36,"risk":14,"cat":"green"},{"name":"Sir Thomas Norris","lat":53.44109,"lon":-2.92686,"postcode":"L11 1JA","la":"Liverpool","era":"other","nn":243,"risk":18,"cat":"green"},{"name":"Sir Walter Raleigh","lat":53.41606,"lon":-2.95146,"postcode":"L6 6AD","la":"Liverpool","era":"other","nn":107,"risk":15,"cat":"green"},{"name":"Sketch Bar","lat":53.40946,"lon":-2.97746,"postcode":"L3 8HR","la":"Liverpool","era":"other","nn":93,"risk":15,"cat":"green"},{"name":"Sky Lounge","lat":53.40791,"lon":-2.98314,"postcode":"L1 1RH","la":"Liverpool","era":"mod","nn":145,"risk":15,"cat":"green"},{"name":"Slaughter House","lat":53.40563,"lon":-2.99119,"postcode":"L2 7LS","la":"Liverpool","era":"other","nn":24,"risk":14,"cat":"green"},{"name":"Slug And Lettuce","lat":53.40654,"lon":-2.9892,"postcode":"L2 4SA","la":"Liverpool","era":"other","nn":34,"risk":14,"cat":"green"},{"name":"Soho","lat":53.40348,"lon":-2.98027,"postcode":"L1 4NR","la":"Liverpool","era":"other","nn":0,"risk":14,"cat":"green"},{"name":"Sotto","lat":53.40322,"lon":-2.9796,"postcode":"L1 4AQ","la":"Liverpool","era":"other","nn":13,"risk":14,"cat":"green"},{"name":"Sphinx Bar","lat":53.40508,"lon":-2.96611,"postcode":"L69 3GD","la":"Liverpool","era":"other","nn":121,"risk":15,"cat":"green"},{"name":"St Cyrils Parochial Club","lat":53.39381,"lon":-2.85335,"postcode":"L27 1YW","la":"Liverpool","era":"other","nn":1257,"risk":45,"cat":"amber"},{"name":"St Paschal Baylon R C Club","lat":53.40093,"lon":-2.87285,"postcode":"L16 2LN","la":"Liverpool","era":"other","nn":391,"risk":34,"cat":"amber"},{"name":"St Pauls Parish Club","lat":53.42958,"lon":-2.90101,"postcode":"L12 8SJ","la":"Liverpool","era":"other","nn":117,"risk":15,"cat":"green"},{"name":"St. Hilda Pub","lat":53.43472,"lon":-2.97294,"postcode":"L4 4AH","la":"Liverpool","era":"other","nn":98,"risk":15,"cat":"green"},{"name":"Superstar Boudoir","lat":53.4073,"lon":-2.98749,"postcode":"L1 6AF","la":"Liverpool","era":"other","nn":24,"risk":14,"cat":"green"},{"name":"Tailors Liverpool","lat":53.40848,"lon":-2.99344,"postcode":"L3 9HT","la":"Liverpool","era":"other","nn":152,"risk":15,"cat":"green"},{"name":"Taxi Club","lat":53.44317,"lon":-2.95872,"postcode":"L4 6UF","la":"Liverpool","era":"other","nn":194,"risk":16,"cat":"green"},{"name":"Tempest on Tithebarn","lat":53.40861,"lon":-2.9911,"postcode":"L2 2DT","la":"Liverpool","era":"other","nn":48,"risk":14,"cat":"green"},{"name":"Ten Streets Social","lat":53.41864,"lon":-2.99979,"postcode":"L3 7BX","la":"Liverpool","era":"mod","nn":0,"risk":14,"cat":"green"},{"name":"Terra Preta","lat":53.46549,"lon":-2.95445,"postcode":"L9 0EA","la":"Liverpool","era":"other","nn":244,"risk":16,"cat":"green"},{"name":"The Abbey","lat":53.43579,"lon":-2.9684,"postcode":"L4 4HH","la":"Liverpool","era":"trad","nn":288,"risk":16,"cat":"green"},{"name":"The Albany","lat":53.44051,"lon":-2.9763,"postcode":"L4 3SL","la":"Liverpool","era":"other","nn":326,"risk":16,"cat":"green"},{"name":"The Albany","lat":53.41713,"lon":-2.91603,"postcode":"L13 3BJ","la":"Liverpool","era":"other","nn":151,"risk":15,"cat":"green"},{"name":"The Albert","lat":53.38169,"lon":-2.94482,"postcode":"L17 8UU","la":"Liverpool","era":"other","nn":115,"risk":15,"cat":"green"},{"name":"The Albert Pub","lat":53.43021,"lon":-2.96255,"postcode":"L4 0RE","la":"Liverpool","era":"other","nn":90,"risk":15,"cat":"green"},{"name":"The Alchemist Liverpool","lat":53.40587,"lon":-2.99137,"postcode":"L2 0PQ","la":"Liverpool","era":"other","nn":29,"risk":14,"cat":"green"},{"name":"The Allerton Oak","lat":53.385,"lon":-2.90795,"postcode":"L18 5HU","la":"Liverpool","era":"trad","nn":26,"risk":14,"cat":"green"},{"name":"The Anfield Hotel","lat":53.44335,"lon":-2.96163,"postcode":"L4 5TX","la":"Liverpool","era":"other","nn":154,"risk":15,"cat":"green"},{"name":"The Anglesea","lat":53.38413,"lon":-2.96646,"postcode":"L8 4TW","la":"Liverpool","era":"other","nn":476,"risk":35,"cat":"amber"},{"name":"The Arkles","lat":53.4304,"lon":-2.95738,"postcode":"L4 0TJ","la":"Liverpool","era":"other","nn":301,"risk":16,"cat":"green"},{"name":"The Artists Club","lat":53.40805,"lon":-2.9899,"postcode":"L2 2AG","la":"Liverpool","era":"other","nn":1,"risk":14,"cat":"green"},{"name":"The Ashdale","lat":53.39787,"lon":-2.93773,"postcode":"L15 0EE","la":"Liverpool","era":"other","nn":466,"risk":17,"cat":"green"},{"name":"The Athenaeum","lat":53.40494,"lon":-2.98378,"postcode":"L1 3DD","la":"Liverpool","era":"other","nn":68,"risk":15,"cat":"green"},{"name":"The Attic","lat":53.40153,"lon":-2.97914,"postcode":"L1 1JN","la":"Liverpool","era":"other","nn":31,"risk":14,"cat":"green"},{"name":"The Baltic Fleet","lat":53.39834,"lon":-2.98665,"postcode":"L1 8DQ","la":"Liverpool","era":"other","nn":332,"risk":16,"cat":"green"},{"name":"The Beehive","lat":53.40469,"lon":-2.97721,"postcode":"L3 5RY","la":"Liverpool","era":"other","nn":9,"risk":14,"cat":"green"},{"name":"The Beeswing","lat":53.39043,"lon":-2.93084,"postcode":"L15 3JT","la":"Liverpool","era":"other","nn":93,"risk":15,"cat":"green"},{"name":"The Belvedere","lat":53.40022,"lon":-2.96962,"postcode":"L7 7EB","la":"Liverpool","era":"other","nn":108,"risk":15,"cat":"green"},{"name":"The Bentley","lat":53.40552,"lon":-2.99324,"postcode":"L2 0PL","la":"Liverpool","era":"other","nn":0,"risk":14,"cat":"green"},{"name":"The Black Horse","lat":53.44561,"lon":-2.96721,"postcode":"L4 5PW","la":"Liverpool","era":"trad","nn":293,"risk":16,"cat":"green"},{"name":"The Black Horse","lat":53.41509,"lon":-2.90806,"postcode":"L13 5XD","la":"Liverpool","era":"trad","nn":121,"risk":15,"cat":"green"},{"name":"The Blackburne Arms Gastro Pub and Hotel","lat":53.39952,"lon":-2.96848,"postcode":"L8 7NL","la":"Liverpool","era":"trad","nn":108,"risk":15,"cat":"green"},{"name":"The Blarney Stone","lat":53.40432,"lon":-2.97713,"postcode":"L1 2SA","la":"Liverpool","era":"other","nn":37,"risk":14,"cat":"green"},{"name":"The Blob Shop","lat":53.40543,"lon":-2.97965,"postcode":"L1 1HU","la":"Liverpool","era":"other","nn":22,"risk":14,"cat":"green"},{"name":"The Botanist","lat":53.39941,"lon":-2.99138,"postcode":"L3 4AD","la":"Liverpool","era":"other","nn":0,"risk":14,"cat":"green"},{"name":"The Boundary Pub","lat":53.39828,"lon":-2.94944,"postcode":"L7 4JG","la":"Liverpool","era":"other","nn":333,"risk":21,"cat":"green"},{"name":"The Bramley Moore","lat":53.42403,"lon":-2.99999,"postcode":"L5 9SR","la":"Liverpool","era":"trad","nn":600,"risk":18,"cat":"green"},{"name":"The Breeze","lat":53.4491,"lon":-2.96929,"postcode":"L9 1BQ","la":"Liverpool","era":"other","nn":202,"risk":16,"cat":"green"},{"name":"The Brick","lat":53.43946,"lon":-2.97076,"postcode":"L4 3QL","la":"Liverpool","era":"other","nn":85,"risk":15,"cat":"green"},{"name":"The Brown Cow","lat":53.38297,"lon":-2.86175,"postcode":"L25 3PG","la":"Liverpool","era":"other","nn":74,"risk":15,"cat":"green"},{"name":"The Brunch and Cocktail Club","lat":53.40228,"lon":-2.98351,"postcode":"L1 5AP","la":"Liverpool","era":"other","nn":36,"risk":14,"cat":"green"},{"name":"The Bull Dog","lat":53.42465,"lon":-2.8906,"postcode":"L12 9HB","la":"Liverpool","era":"trad","nn":538,"risk":18,"cat":"green"},{"name":"The Bullring Bar","lat":53.40868,"lon":-2.97084,"postcode":"L3 5PX","la":"Liverpool","era":"trad","nn":203,"risk":16,"cat":"green"},{"name":"The Caledonia","lat":53.40051,"lon":-2.96794,"postcode":"L7 7DX","la":"Liverpool","era":"other","nn":68,"risk":15,"cat":"green"},{"name":"The Cambridge","lat":53.4023,"lon":-2.96691,"postcode":"L7 7EE","la":"Liverpool","era":"other","nn":130,"risk":15,"cat":"green"},{"name":"The Canon Hotel","lat":53.42993,"lon":-2.94545,"postcode":"L6 0AY","la":"Liverpool","era":"other","nn":230,"risk":16,"cat":"green"},{"name":"The Captain Alexander (JD Wetherspoon)","lat":53.40474,"lon":-2.99134,"postcode":"L2 7NX","la":"Liverpool","era":"other","nn":35,"risk":14,"cat":"green"},{"name":"The Casa","lat":53.40222,"lon":-2.96982,"postcode":"L1 9BQ","la":"Liverpool","era":"other","nn":18,"risk":14,"cat":"green"},{"name":"The Castle","lat":53.42021,"lon":-2.98926,"postcode":"L5 8TZ","la":"Liverpool","era":"other","nn":286,"risk":16,"cat":"green"},{"name":"The Cavern Club","lat":53.40626,"lon":-2.98757,"postcode":"L2 6RE","la":"Liverpool","era":"other","nn":20,"risk":14,"cat":"green"},{"name":"The Celtic Corner","lat":53.40554,"lon":-2.97872,"postcode":"L1 1JR","la":"Liverpool","era":"other","nn":42,"risk":14,"cat":"green"},{"name":"The Central","lat":53.40522,"lon":-2.98007,"postcode":"L1 1JP","la":"Liverpool","era":"other","nn":9,"risk":14,"cat":"green"},{"name":"The Cheese Cellar","lat":53.35607,"lon":-2.90298,"postcode":"L19 2JJ","la":"Liverpool","era":"other","nn":322,"risk":16,"cat":"green"},{"name":"The Clock","lat":53.39813,"lon":-2.91636,"postcode":"L15 8JS","la":"Liverpool","era":"other","nn":14,"risk":14,"cat":"green"},{"name":"The Clock","lat":53.43561,"lon":-2.97293,"postcode":"L4 4AH","la":"Liverpool","era":"other","nn":36,"risk":14,"cat":"green"},{"name":"The Cobden","lat":53.37639,"lon":-2.8754,"postcode":"L25 6HA","la":"Liverpool","era":"other","nn":432,"risk":17,"cat":"green"},{"name":"The Coburg","lat":53.39276,"lon":-2.98211,"postcode":"L8 5RE","la":"Liverpool","era":"other","nn":212,"risk":16,"cat":"green"},{"name":"The Coffee House","lat":53.39745,"lon":-2.9157,"postcode":"L15 6TF","la":"Liverpool","era":"other","nn":87,"risk":15,"cat":"green"},{"name":"The Cove","lat":53.46395,"lon":-2.95894,"postcode":"L9 4RQ","la":"Liverpool","era":"other","nn":25,"risk":14,"cat":"green"},{"name":"The Crafty Swine","lat":53.38941,"lon":-2.91849,"postcode":"L15 5AN","la":"Liverpool","era":"mod","nn":35,"risk":14,"cat":"green"},{"name":"The Crocodile","lat":53.40589,"lon":-2.98907,"postcode":"L2 9QA","la":"Liverpool","era":"other","nn":18,"risk":14,"cat":"green"},{"name":"The Crown Inn","lat":53.42839,"lon":-2.8996,"postcode":"L12 9HA","la":"Liverpool","era":"trad","nn":54,"risk":15,"cat":"green"},{"name":"The Crown Vaults","lat":53.42688,"lon":-2.98088,"postcode":"L5 2QQ","la":"Liverpool","era":"trad","nn":723,"risk":22,"cat":"green"},{"name":"The Cuckoo Hotel","lat":53.46274,"lon":-2.97107,"postcode":"L9 8AQ","la":"Liverpool","era":"other","nn":109,"risk":15,"cat":"green"},{"name":"The Dead Crafty Beer Company","lat":53.40898,"lon":-2.98551,"postcode":"L2 5TF","la":"Liverpool","era":"mod","nn":0,"risk":14,"cat":"green"},{"name":"The Denbigh Castle","lat":53.40795,"lon":-2.9903,"postcode":"L2 2AW","la":"Liverpool","era":"other","nn":12,"risk":14,"cat":"green"},{"name":"The Derby Arms Hotel","lat":53.37168,"lon":-2.87362,"postcode":"L25 7RH","la":"Liverpool","era":"trad","nn":339,"risk":17,"cat":"green"},{"name":"The Derby Lodge","lat":53.41546,"lon":-2.9213,"postcode":"L13 3BS","la":"Liverpool","era":"other","nn":216,"risk":16,"cat":"green"},{"name":"The Deysbrook","lat":53.43546,"lon":-2.88881,"postcode":"L12 4YF","la":"Liverpool","era":"other","nn":722,"risk":39,"cat":"amber"},{"name":"The Dispensary","lat":53.40259,"lon":-2.97563,"postcode":"L1 2SP","la":"Liverpool","era":"other","nn":21,"risk":14,"cat":"green"},{"name":"The Eagle","lat":53.41537,"lon":-2.98956,"postcode":"L3 6EP","la":"Liverpool","era":"trad","nn":50,"risk":14,"cat":"green"},{"name":"The Earl Marshall","lat":53.39893,"lon":-2.94454,"postcode":"L7 6HD","la":"Liverpool","era":"other","nn":333,"risk":19,"cat":"green"},{"name":"The Edge at Joey Orrs","lat":53.46142,"lon":-2.96171,"postcode":"L9 8AP","la":"Liverpool","era":"other","nn":73,"risk":15,"cat":"green"},{"name":"The Edinburgh","lat":53.4134,"lon":-2.93693,"postcode":"L7 0JB","la":"Liverpool","era":"other","nn":388,"risk":17,"cat":"green"},{"name":"The Edinburgh","lat":53.39972,"lon":-2.92189,"postcode":"L15 8HY","la":"Liverpool","era":"other","nn":174,"risk":15,"cat":"green"},{"name":"The Empire","lat":53.40432,"lon":-2.98166,"postcode":"L1 4AG","la":"Liverpool","era":"other","nn":19,"risk":14,"cat":"green"},{"name":"The Excelsior","lat":53.40958,"lon":-2.98493,"postcode":"L2 2JH","la":"Liverpool","era":"other","nn":28,"risk":14,"cat":"green"},{"name":"The Flute","lat":53.40186,"lon":-2.97137,"postcode":"L1 9AS","la":"Liverpool","era":"other","nn":33,"risk":14,"cat":"green"},{"name":"The Fly In The Loaf","lat":53.40203,"lon":-2.97228,"postcode":"L1 9AS","la":"Liverpool","era":"other","nn":50,"risk":14,"cat":"green"},{"name":"The Font Bar","lat":53.40312,"lon":-2.9683,"postcode":"L7 7JE","la":"Liverpool","era":"other","nn":114,"risk":15,"cat":"green"},{"name":"The Glass House","lat":53.41765,"lon":-2.9897,"postcode":"L3 6BR","la":"Liverpool","era":"other","nn":248,"risk":16,"cat":"green"},{"name":"The Globe","lat":53.40523,"lon":-2.98031,"postcode":"L1 1HW","la":"Liverpool","era":"other","nn":11,"risk":14,"cat":"green"},{"name":"The Grapes","lat":53.40647,"lon":-2.98709,"postcode":"L2 6RE","la":"Liverpool","era":"other","nn":11,"risk":14,"cat":"green"},{"name":"The Grapes","lat":53.40041,"lon":-2.97476,"postcode":"L1 9DW","la":"Liverpool","era":"other","nn":83,"risk":15,"cat":"green"},{"name":"The Green Man","lat":53.38094,"lon":-2.94648,"postcode":"L17 8UW","la":"Liverpool","era":"other","nn":32,"risk":14,"cat":"green"},{"name":"The Green Room","lat":53.40155,"lon":-2.98175,"postcode":"L1 5AA","la":"Liverpool","era":"other","nn":59,"risk":15,"cat":"green"},{"name":"The Grove Hotel","lat":53.42506,"lon":-2.96453,"postcode":"L5 4QT","la":"Liverpool","era":"other","nn":248,"risk":16,"cat":"green"},{"name":"The Halfway House","lat":53.43236,"lon":-2.97386,"postcode":"L4 4AF","la":"Liverpool","era":"other","nn":270,"risk":16,"cat":"green"},{"name":"The Halton Castle","lat":53.43053,"lon":-2.91143,"postcode":"L12 7JD","la":"Liverpool","era":"other","nn":125,"risk":15,"cat":"green"},{"name":"The Harlech Castle","lat":53.44048,"lon":-2.97104,"postcode":"L4 3QD","la":"Liverpool","era":"other","nn":31,"risk":14,"cat":"green"},{"name":"The Head of Steam","lat":53.40439,"lon":-2.98218,"postcode":"L1 3DZ","la":"Liverpool","era":"trad","nn":8,"risk":14,"cat":"green"},{"name":"The Hunting Lodge","lat":53.43306,"lon":-2.90974,"postcode":"L12 5HW","la":"Liverpool","era":"other","nn":62,"risk":15,"cat":"green"},{"name":"The Irish House","lat":53.40524,"lon":-2.97974,"postcode":"L1 1JP","la":"Liverpool","era":"other","nn":3,"risk":14,"cat":"green"},{"name":"The Jacaranda","lat":53.4024,"lon":-2.97963,"postcode":"L1 4BW","la":"Liverpool","era":"other","nn":14,"risk":14,"cat":"green"},{"name":"The John Brodie Liverpool (88th Street, Value Mighty, Sin City Burger, Loco Loco, El Rodeo Mexicano, Burrito Bandits)","lat":53.38479,"lon":-2.90777,"postcode":"L18 5HU","la":"Liverpool","era":"other","nn":26,"risk":14,"cat":"green"},{"name":"The Jolly Miller","lat":53.42706,"lon":-2.91697,"postcode":"L12 7JF","la":"Liverpool","era":"trad","nn":94,"risk":15,"cat":"green"},{"name":"The Kensington","lat":53.41219,"lon":-2.94995,"postcode":"L7 2RF","la":"Liverpool","era":"other","nn":112,"risk":15,"cat":"green"},{"name":"The Lime Kiln (JD Wetherspoon)","lat":53.40329,"lon":-2.98017,"postcode":"L1 4BN","la":"Liverpool","era":"other","nn":13,"risk":14,"cat":"green"},{"name":"The Lingmell Inn","lat":53.43923,"lon":-2.91216,"postcode":"L11 1EP","la":"Liverpool","era":"trad","nn":705,"risk":19,"cat":"green"},{"name":"The Little Taproom","lat":53.37519,"lon":-2.9398,"postcode":"L17 9PJ","la":"Liverpool","era":"mod","nn":113,"risk":15,"cat":"green"},{"name":"The Liverpool Gin Distillery","lat":53.40564,"lon":-2.99055,"postcode":"L2 7LQ","la":"Liverpool","era":"other","nn":16,"risk":14,"cat":"green"},{"name":"The Liverpool Pub","lat":53.40507,"lon":-2.99165,"postcode":"L2 7PQ","la":"Liverpool","era":"other","nn":42,"risk":14,"cat":"green"},{"name":"The Lobster","lat":53.45679,"lon":-2.89696,"postcode":"L11 0BW","la":"Liverpool","era":"other","nn":749,"risk":37,"cat":"amber"},{"name":"The Lockin Bar and Restaurant","lat":53.4325,"lon":-2.96656,"postcode":"L4 0RY","la":"Liverpool","era":"mod","nn":188,"risk":15,"cat":"green"},{"name":"The Lodge","lat":53.38069,"lon":-2.94613,"postcode":"L17 8US","la":"Liverpool","era":"other","nn":27,"risk":14,"cat":"green"},{"name":"The Long Shot","lat":53.39941,"lon":-2.99138,"postcode":"L3 4AD","la":"Liverpool","era":"other","nn":0,"risk":14,"cat":"green"},{"name":"The Masonic","lat":53.35677,"lon":-2.89827,"postcode":"L19 1RR","la":"Liverpool","era":"trad","nn":102,"risk":15,"cat":"green"},{"name":"The Medlock Hotel","lat":53.4374,"lon":-2.97888,"postcode":"L4 1UB","la":"Liverpool","era":"other","nn":360,"risk":17,"cat":"green"},{"name":"The Merchant","lat":53.40199,"lon":-2.98057,"postcode":"L1 4BX","la":"Liverpool","era":"other","nn":16,"risk":14,"cat":"green"},{"name":"The Midland","lat":53.40517,"lon":-2.98017,"postcode":"L1 1JP","la":"Liverpool","era":"other","nn":9,"risk":14,"cat":"green"},{"name":"The Millfield Inn","lat":53.41491,"lon":-2.91785,"postcode":"L13 3DB","la":"Liverpool","era":"trad","nn":195,"risk":16,"cat":"green"},{"name":"The Monro","lat":53.40126,"lon":-2.98062,"postcode":"L1 5AG","la":"Liverpool","era":"other","nn":52,"risk":15,"cat":"green"},{"name":"The Mosley Arms","lat":53.38953,"lon":-2.97339,"postcode":"L8 6SR","la":"Liverpool","era":"trad","nn":505,"risk":18,"cat":"green"},{"name":"The Mountford","lat":53.38876,"lon":-2.94532,"postcode":"L8 3SQ","la":"Liverpool","era":"other","nn":491,"risk":18,"cat":"green"},{"name":"The Navigator","lat":53.41497,"lon":-2.90585,"postcode":"L13 5UH","la":"Liverpool","era":"other","nn":104,"risk":15,"cat":"green"},{"name":"The New Broadway","lat":53.44022,"lon":-2.93023,"postcode":"L11 8LU","la":"Liverpool","era":"other","nn":243,"risk":21,"cat":"green"},{"name":"The Newington Temple","lat":53.40349,"lon":-2.97848,"postcode":"L1 4ED","la":"Liverpool","era":"other","nn":64,"risk":15,"cat":"green"},{"name":"The Oakfield Pub","lat":53.42592,"lon":-2.95668,"postcode":"L4 2QE","la":"Liverpool","era":"trad","nn":169,"risk":15,"cat":"green"},{"name":"The Observatory","lat":53.39487,"lon":-2.97837,"postcode":"L1 0BS","la":"Liverpool","era":"other","nn":41,"risk":14,"cat":"green"},{"name":"The Old Fort","lat":53.41074,"lon":-2.96599,"postcode":"L7 8UE","la":"Liverpool","era":"other","nn":297,"risk":16,"cat":"green"},{"name":"The Old School House","lat":53.3809,"lon":-2.94593,"postcode":"L17 8UU","la":"Liverpool","era":"other","nn":27,"risk":14,"cat":"green"},{"name":"THE OLD TAVERN","lat":53.41409,"lon":-2.90878,"postcode":"L13 5XG","la":"Liverpool","era":"other","nn":121,"risk":15,"cat":"green"},{"name":"The One O'Clock Gun","lat":53.39941,"lon":-2.99138,"postcode":"L3 4AD","la":"Liverpool","era":"other","nn":0,"risk":14,"cat":"green"},{"name":"The Oracle","lat":53.40113,"lon":-2.97641,"postcode":"L1 4BB","la":"Liverpool","era":"other","nn":20,"risk":14,"cat":"green"},{"name":"The Oriel Bar (Oriel Close Barbershop)","lat":53.40655,"lon":-2.99317,"postcode":"L2 8TD","la":"Liverpool","era":"mod","nn":78,"risk":15,"cat":"green"},{"name":"The Orient","lat":53.34612,"lon":-2.82882,"postcode":"L24 2SX","la":"Liverpool","era":"other","nn":1507,"risk":47,"cat":"amber"},{"name":"The Other Place","lat":53.38495,"lon":-2.90694,"postcode":"L18 2DD","la":"Liverpool","era":"other","nn":58,"risk":15,"cat":"green"},{"name":"The Peacock","lat":53.44184,"lon":-2.9812,"postcode":"L4 3TF","la":"Liverpool","era":"other","nn":191,"risk":15,"cat":"green"},{"name":"The Peacock","lat":53.40218,"lon":-2.97914,"postcode":"L1 4AZ","la":"Liverpool","era":"other","nn":24,"risk":14,"cat":"green"},{"name":"The Pickled olive","lat":53.37559,"lon":-2.86724,"postcode":"L25 5JA","la":"Liverpool","era":"other","nn":54,"risk":15,"cat":"green"},{"name":"The Picton","lat":53.39966,"lon":-2.92581,"postcode":"L15 4LL","la":"Liverpool","era":"other","nn":19,"risk":14,"cat":"green"},{"name":"The Pilgrim","lat":53.40036,"lon":-2.97296,"postcode":"L1 9HB","la":"Liverpool","era":"other","nn":64,"risk":15,"cat":"green"},{"name":"The Pitch Pine","lat":53.44069,"lon":-2.98817,"postcode":"L20 7BX","la":"Liverpool","era":"other","nn":322,"risk":16,"cat":"green"},{"name":"The Prince Arthur","lat":53.44976,"lon":-2.96644,"postcode":"L9 1AD","la":"Liverpool","era":"trad","nn":202,"risk":16,"cat":"green"},{"name":"The Prince George","lat":53.4668,"lon":-2.94969,"postcode":"L9 0ED","la":"Liverpool","era":"trad","nn":58,"risk":15,"cat":"green"},{"name":"The Quarry","lat":53.37405,"lon":-2.86863,"postcode":"L25 7RE","la":"Liverpool","era":"other","nn":110,"risk":15,"cat":"green"},{"name":"The Queens Arms","lat":53.38632,"lon":-2.96028,"postcode":"L8 4QN","la":"Liverpool","era":"trad","nn":476,"risk":35,"cat":"amber"},{"name":"The Queens at Aintree","lat":53.47219,"lon":-2.95502,"postcode":"L9 0HZ","la":"Liverpool","era":"trad","nn":351,"risk":17,"cat":"green"},{"name":"The Railway","lat":53.40891,"lon":-2.99058,"postcode":"L2 2DT","la":"Liverpool","era":"trad","nn":17,"risk":14,"cat":"green"},{"name":"The Raven","lat":53.46361,"lon":-2.95849,"postcode":"L9 2BU","la":"Liverpool","era":"other","nn":48,"risk":14,"cat":"green"},{"name":"The Red Lion","lat":53.40205,"lon":-2.98036,"postcode":"L1 4BX","la":"Liverpool","era":"trad","nn":16,"risk":14,"cat":"green"},{"name":"The Richard John Blackler (JD Wetherspoon)","lat":53.40598,"lon":-2.9797,"postcode":"L1 1HU","la":"Liverpool","era":"other","nn":13,"risk":14,"cat":"green"},{"name":"The Rocket","lat":53.40621,"lon":-2.89972,"postcode":"L14 3PA","la":"Liverpool","era":"other","nn":551,"risk":21,"cat":"green"},{"name":"The Roscoe Head","lat":53.40223,"lon":-2.97417,"postcode":"L1 2SX","la":"Liverpool","era":"trad","nn":47,"risk":14,"cat":"green"},{"name":"The Rose Vaults","lat":53.39883,"lon":-2.91973,"postcode":"L15 8HE","la":"Liverpool","era":"trad","nn":86,"risk":15,"cat":"green"},{"name":"The Royal","lat":53.42223,"lon":-2.96007,"postcode":"L5 6PX","la":"Liverpool","era":"trad","nn":184,"risk":15,"cat":"green"},{"name":"The Royal Standard","lat":53.42886,"lon":-2.89973,"postcode":"L12 9EY","la":"Liverpool","era":"trad","nn":54,"risk":15,"cat":"green"},{"name":"The Salutation","lat":53.43646,"lon":-2.97261,"postcode":"L4 4AJ","la":"Liverpool","era":"other","nn":62,"risk":15,"cat":"green"},{"name":"THE SCHOLAR BAR","lat":53.40292,"lon":-2.97487,"postcode":"L1 2SU","la":"Liverpool","era":"other","nn":58,"risk":15,"cat":"green"},{"name":"The Shed Kitchen @ Murphy's Distillery","lat":53.41864,"lon":-2.99979,"postcode":"L3 7BX","la":"Liverpool","era":"mod","nn":0,"risk":14,"cat":"green"},{"name":"The Stadium","lat":53.42815,"lon":-2.94947,"postcode":"L6 0BA","la":"Liverpool","era":"other","nn":28,"risk":14,"cat":"green"},{"name":"The Stag And Rainbow","lat":53.42656,"lon":-2.91812,"postcode":"L13 0DL","la":"Liverpool","era":"trad","nn":94,"risk":15,"cat":"green"},{"name":"The Storrsdale","lat":53.37657,"lon":-2.90677,"postcode":"L18 7JY","la":"Liverpool","era":"other","nn":633,"risk":19,"cat":"green"},{"name":"The Swan Inn","lat":53.35454,"lon":-2.89755,"postcode":"L19 2LS","la":"Liverpool","era":"trad","nn":105,"risk":15,"cat":"green"},{"name":"The Swan Inn","lat":53.40241,"lon":-2.97797,"postcode":"L1 4DQ","la":"Liverpool","era":"trad","nn":30,"risk":14,"cat":"green"},{"name":"The Tank Room","lat":53.3936,"lon":-2.97846,"postcode":"L8 5XJ","la":"Liverpool","era":"other","nn":0,"risk":14,"cat":"green"},{"name":"The Thomas Frost (JD Wetherspoon)","lat":53.43591,"lon":-2.97274,"postcode":"L4 4AJ","la":"Liverpool","era":"other","nn":36,"risk":14,"cat":"green"},{"name":"The Tiny Tavern","lat":53.46475,"lon":-2.95821,"postcode":"L9 4RN","la":"Liverpool","era":"other","nn":42,"risk":14,"cat":"green"},{"name":"The Underground Gin Society","lat":53.40572,"lon":-2.99076,"postcode":"L2 7LQ","la":"Liverpool","era":"mod","nn":6,"risk":14,"cat":"green"},{"name":"The Vale Bar & Mo's Bistro","lat":53.46381,"lon":-2.95923,"postcode":"L9 4RQ","la":"Liverpool","era":"mod","nn":25,"risk":14,"cat":"green"},{"name":"The Vines","lat":53.40574,"lon":-2.97819,"postcode":"L1 1JQ","la":"Liverpool","era":"other","nn":42,"risk":14,"cat":"green"},{"name":"The Vive Bar","lat":53.37513,"lon":-2.86654,"postcode":"L25 5NH","la":"Liverpool","era":"other","nn":56,"risk":15,"cat":"green"},{"name":"The Welkin (JD Wetherspoon)","lat":53.40582,"lon":-2.98598,"postcode":"L1 6DS","la":"Liverpool","era":"other","nn":61,"risk":15,"cat":"green"},{"name":"The Wellington","lat":53.39964,"lon":-2.92553,"postcode":"L15 4LP","la":"Liverpool","era":"trad","nn":19,"risk":14,"cat":"green"},{"name":"The Wellington","lat":53.41734,"lon":-2.92054,"postcode":"L13 6RH","la":"Liverpool","era":"trad","nn":52,"risk":15,"cat":"green"},{"name":"The Western Approaches","lat":53.4478,"lon":-2.91061,"postcode":"L11 2SF","la":"Liverpool","era":"other","nn":612,"risk":36,"cat":"amber"},{"name":"The wheatsheaf","lat":53.41714,"lon":-2.89593,"postcode":"L14 5NG","la":"Liverpool","era":"trad","nn":124,"risk":15,"cat":"green"},{"name":"The William Gladstone","lat":53.40624,"lon":-2.98884,"postcode":"L2 9RL","la":"Liverpool","era":"other","nn":25,"risk":14,"cat":"green"},{"name":"The Windsor","lat":53.46206,"lon":-2.96147,"postcode":"L9 4RE","la":"Liverpool","era":"other","nn":73,"risk":15,"cat":"green"},{"name":"The Winslow Hotel","lat":53.43875,"lon":-2.96776,"postcode":"L4 4EH","la":"Liverpool","era":"other","nn":214,"risk":16,"cat":"green"},{"name":"The Zanzibar","lat":53.40237,"lon":-2.97943,"postcode":"L1 4AZ","la":"Liverpool","era":"other","nn":14,"risk":14,"cat":"green"},{"name":"Thomas Rigby's","lat":53.40766,"lon":-2.9897,"postcode":"L2 2EZ","la":"Liverpool","era":"other","nn":20,"risk":14,"cat":"green"},{"name":"Toby Carvery Stoneycroft","lat":53.42071,"lon":-2.91033,"postcode":"L13 0AS","la":"Liverpool","era":"other","nn":346,"risk":17,"cat":"green"},{"name":"Tom Thumb Bar","lat":53.40172,"lon":-2.97286,"postcode":"L1 9AX","la":"Liverpool","era":"other","nn":52,"risk":15,"cat":"green"},{"name":"Tonight Josephine","lat":53.40445,"lon":-2.98209,"postcode":"L1 3DY","la":"Liverpool","era":"other","nn":8,"risk":14,"cat":"green"},{"name":"Top House","lat":53.44503,"lon":-2.96155,"postcode":"L4 6TN","la":"Liverpool","era":"other","nn":168,"risk":15,"cat":"green"},{"name":"Tres Liverpool","lat":53.40693,"lon":-2.98682,"postcode":"L2 6PY","la":"Liverpool","era":"other","nn":14,"risk":14,"cat":"green"},{"name":"Trinity Tennis Club","lat":53.45921,"lon":-2.96565,"postcode":"L9 3AE","la":"Liverpool","era":"other","nn":359,"risk":17,"cat":"green"},{"name":"Turnpike Tavern","lat":53.40534,"lon":-2.89153,"postcode":"L14 3PL","la":"Liverpool","era":"other","nn":178,"risk":20,"cat":"green"},{"name":"Turpins","lat":53.42349,"lon":-2.96187,"postcode":"L5 4RP","la":"Liverpool","era":"other","nn":184,"risk":15,"cat":"green"},{"name":"Twelfth Man","lat":53.43093,"lon":-2.96552,"postcode":"L4 0RD","la":"Liverpool","era":"other","nn":188,"risk":15,"cat":"green"},{"name":"Twelve Cocktail & Wine Bar","lat":53.43284,"lon":-2.91059,"postcode":"L12 5HJ","la":"Liverpool","era":"other","nn":19,"risk":14,"cat":"green"},{"name":"Vauxhall Vaults","lat":53.41154,"lon":-2.98844,"postcode":"L3 6BL","la":"Liverpool","era":"other","nn":134,"risk":15,"cat":"green"},{"name":"Vernon Arms","lat":53.40853,"lon":-2.98767,"postcode":"L2 2HJ","la":"Liverpool","era":"trad","nn":57,"risk":15,"cat":"green"},{"name":"Victoria Cross","lat":53.40747,"lon":-2.98554,"postcode":"L1 6BW","la":"Liverpool","era":"trad","nn":8,"risk":14,"cat":"green"},{"name":"Victoria Memorial Club","lat":53.353,"lon":-2.8969,"postcode":"L19 2LW","la":"Liverpool","era":"trad","nn":158,"risk":15,"cat":"green"},{"name":"Vikings Landing","lat":53.45952,"lon":-2.90836,"postcode":"L11 2BD","la":"Liverpool","era":"trad","nn":813,"risk":37,"cat":"amber"},{"name":"Vinebrook","lat":53.41209,"lon":-2.95163,"postcode":"L7 2RE","la":"Liverpool","era":"other","nn":112,"risk":15,"cat":"green"},{"name":"Vons bar","lat":53.46307,"lon":-2.96952,"postcode":"L9 8AN","la":"Liverpool","era":"other","nn":109,"risk":15,"cat":"green"},{"name":"Vox Karaoke Cocktail Bar","lat":53.40075,"lon":-2.97589,"postcode":"L1 9DF","la":"Liverpool","era":"other","nn":11,"risk":14,"cat":"green"},{"name":"Wall of Fame","lat":53.40644,"lon":-2.98842,"postcode":"L2 6QE","la":"Liverpool","era":"other","nn":16,"risk":14,"cat":"green"},{"name":"Walton Social Club","lat":53.44411,"lon":-2.96357,"postcode":"L4 5TX","la":"Liverpool","era":"mod","nn":154,"risk":15,"cat":"green"},{"name":"Wavertree Town Hall","lat":53.39865,"lon":-2.91768,"postcode":"L15 8HF","la":"Liverpool","era":"other","nn":28,"risk":14,"cat":"green"},{"name":"West Derby Bowling Club","lat":53.43158,"lon":-2.91212,"postcode":"L12 7JG","la":"Liverpool","era":"other","nn":106,"risk":15,"cat":"green"},{"name":"West Derby Conservative Club","lat":53.43185,"lon":-2.91059,"postcode":"L12 7JB","la":"Liverpool","era":"other","nn":92,"risk":15,"cat":"green"},{"name":"Wetherspoons The Fiveways","lat":53.3968,"lon":-2.89647,"postcode":"L15 6XS","la":"Liverpool","era":"other","nn":272,"risk":19,"cat":"green"},{"name":"White Hart","lat":53.4025,"lon":-2.96967,"postcode":"L1 9BQ","la":"Liverpool","era":"trad","nn":32,"risk":14,"cat":"green"},{"name":"White Horse","lat":53.37608,"lon":-2.86729,"postcode":"L25 5JL","la":"Liverpool","era":"trad","nn":54,"risk":15,"cat":"green"},{"name":"Willow Bank","lat":53.39303,"lon":-2.93394,"postcode":"L15 3JA","la":"Liverpool","era":"trad","nn":263,"risk":16,"cat":"green"},{"name":"Winchester","lat":53.42862,"lon":-2.94814,"postcode":"L6 0BA","la":"Liverpool","era":"other","nn":103,"risk":15,"cat":"green"},{"name":"Wood Street Bar & Kitchen","lat":53.40313,"lon":-2.97947,"postcode":"L1 4AQ","la":"Liverpool","era":"mod","nn":13,"risk":14,"cat":"green"},{"name":"Woody's","lat":53.40279,"lon":-2.97884,"postcode":"L1 4DQ","la":"Liverpool","era":"other","nn":42,"risk":14,"cat":"green"},{"name":"Woolton Conservative Clue","lat":53.38362,"lon":-2.86157,"postcode":"L25 2PY","la":"Liverpool","era":"other","nn":74,"risk":15,"cat":"green"},{"name":"Woolton Village Club","lat":53.37468,"lon":-2.86722,"postcode":"L25 7RA","la":"Liverpool","era":"other","nn":67,"risk":15,"cat":"green"},{"name":"Xaverian","lat":53.38268,"lon":-2.88028,"postcode":"L25 6EG","la":"Liverpool","era":"other","nn":771,"risk":37,"cat":"amber"},{"name":"XOXO Liverpool","lat":53.40704,"lon":-2.98769,"postcode":"L2 5QS","la":"Liverpool","era":"other","nn":23,"risk":14,"cat":"green"},{"name":"Ye Cracke","lat":53.40051,"lon":-2.97203,"postcode":"L1 9BB","la":"Liverpool","era":"other","nn":64,"risk":15,"cat":"green"},{"name":"Ye Hole In Ye Wall","lat":53.40772,"lon":-2.99013,"postcode":"L2 2AW","la":"Liverpool","era":"other","nn":14,"risk":14,"cat":"green"},{"name":"Addison Arms - Chik Box/K-Town Chicken/Locked & Loaded","lat":53.45269,"lon":-2.99149,"postcode":"L20 3LT","la":"Sefton","era":"trad","nn":154,"risk":23,"cat":"green"},{"name":"Alba Restaurant & Bar","lat":53.50373,"lon":-2.90131,"postcode":"L31 1AP","la":"Sefton","era":"other","nn":1301,"risk":54,"cat":"amber"},{"name":"Albion Hotel","lat":53.45408,"lon":-2.98344,"postcode":"L20 9AY","la":"Sefton","era":"other","nn":409,"risk":25,"cat":"green"},{"name":"Alexandra Hotel","lat":53.47423,"lon":-3.02791,"postcode":"L22 5PE","la":"Sefton","era":"other","nn":0,"risk":22,"cat":"green"},{"name":"All Saints with St Frideswyde Church Hall","lat":53.49126,"lon":-3.01069,"postcode":"L23 9TQ","la":"Sefton","era":"trad","nn":745,"risk":27,"cat":"green"},{"name":"Alt Park","lat":53.5007,"lon":-2.94543,"postcode":"L31 5JA","la":"Sefton","era":"other","nn":309,"risk":24,"cat":"green"},{"name":"Always Sometimes","lat":53.476,"lon":-3.02297,"postcode":"L22 0LH","la":"Sefton","era":"other","nn":46,"risk":22,"cat":"green"},{"name":"Bar Du Fay","lat":53.50555,"lon":-2.94648,"postcode":"L31 7AG","la":"Sefton","era":"mod","nn":49,"risk":22,"cat":"green"},{"name":"Blue Anchor Inn","lat":53.47919,"lon":-2.93573,"postcode":"L10 8LH","la":"Sefton","era":"trad","nn":546,"risk":46,"cat":"amber"},{"name":"Blundellsands Sailing Club","lat":53.51875,"lon":-3.05985,"postcode":"L38 9EY","la":"Sefton","era":"other","nn":656,"risk":32,"cat":"amber"},{"name":"Bodega del Lobo","lat":53.47413,"lon":-3.02717,"postcode":"L22 5PQ","la":"Sefton","era":"other","nn":50,"risk":22,"cat":"green"},{"name":"Bootle Arms","lat":53.49446,"lon":-2.92161,"postcode":"L31 1EN","la":"Sefton","era":"trad","nn":173,"risk":28,"cat":"green"},{"name":"Bootle Golf Club","lat":53.47761,"lon":-2.97951,"postcode":"L30 2PP","la":"Sefton","era":"other","nn":210,"risk":44,"cat":"amber"},{"name":"Bootle Provincial Club","lat":53.44681,"lon":-2.98645,"postcode":"L20 3NF","la":"Sefton","era":"other","nn":261,"risk":24,"cat":"green"},{"name":"Bootle YMCA Social Club","lat":53.45029,"lon":-2.9826,"postcode":"L20 9AD","la":"Sefton","era":"mod","nn":302,"risk":24,"cat":"green"},{"name":"Caradoc Hotel","lat":53.4597,"lon":-3.01012,"postcode":"L21 4LU","la":"Sefton","era":"other","nn":457,"risk":25,"cat":"green"},{"name":"Coach & Horses","lat":53.52071,"lon":-2.9462,"postcode":"L31 2HP","la":"Sefton","era":"trad","nn":205,"risk":24,"cat":"green"},{"name":"Cooksons Bridge","lat":53.48597,"lon":-2.99388,"postcode":"L21 0EJ","la":"Sefton","era":"other","nn":719,"risk":47,"cat":"amber"},{"name":"Crosby Comrades Club","lat":53.48799,"lon":-3.02425,"postcode":"L23 5TG","la":"Sefton","era":"other","nn":126,"risk":23,"cat":"green"},{"name":"Crosby Hall Educational Trust","lat":53.50568,"lon":-3.02285,"postcode":"L23 4UA","la":"Sefton","era":"other","nn":993,"risk":49,"cat":"amber"},{"name":"Cross House Inn","lat":53.55468,"lon":-3.05788,"postcode":"L37 4BH","la":"Sefton","era":"other","nn":222,"risk":24,"cat":"green"},{"name":"Eden Vale Hotel","lat":53.48986,"lon":-2.97597,"postcode":"L30 5QW","la":"Sefton","era":"other","nn":254,"risk":24,"cat":"green"},{"name":"Edinburgh Inn","lat":53.4855,"lon":-3.03247,"postcode":"L23 3AS","la":"Sefton","era":"trad","nn":54,"risk":22,"cat":"green"},{"name":"Ego @ The Punchbowl","lat":53.50467,"lon":-2.97212,"postcode":"L29 7WA","la":"Sefton","era":"other","nn":1023,"risk":52,"cat":"amber"},{"name":"Endbutt","lat":53.48617,"lon":-3.01801,"postcode":"L23 0TU","la":"Sefton","era":"other","nn":360,"risk":25,"cat":"green"},{"name":"Firwood Bootle Cricket Club","lat":53.44341,"lon":-2.98651,"postcode":"L20 2DD","la":"Sefton","era":"other","nn":294,"risk":24,"cat":"green"},{"name":"Flanagans","lat":53.47278,"lon":-3.02638,"postcode":"L22 5PA","la":"Sefton","era":"other","nn":117,"risk":23,"cat":"green"},{"name":"Formby Artisans Golf Club","lat":53.5669,"lon":-3.07285,"postcode":"L37 1YH","la":"Sefton","era":"other","nn":0,"risk":22,"cat":"green"},{"name":"Formby Golf Club","lat":53.56749,"lon":-3.07348,"postcode":"L37 1LQ","la":"Sefton","era":"other","nn":77,"risk":23,"cat":"green"},{"name":"Formby Hall Golf Resort & Spa","lat":53.58132,"lon":-3.04131,"postcode":"L37 0AB","la":"Sefton","era":"other","nn":1407,"risk":54,"cat":"amber"},{"name":"Formby Hockey and Squash Club","lat":53.5667,"lon":-3.06164,"postcode":"L37 7DP","la":"Sefton","era":"other","nn":291,"risk":24,"cat":"green"},{"name":"Formby Ladies' Golf Club","lat":53.5669,"lon":-3.07285,"postcode":"L37 1YH","la":"Sefton","era":"other","nn":0,"risk":22,"cat":"green"},{"name":"Formby Lawn Tennis Club","lat":53.56506,"lon":-3.06507,"postcode":"L37 7DF","la":"Sefton","era":"other","nn":291,"risk":24,"cat":"green"},{"name":"Formby Little Theatre Club","lat":53.55791,"lon":-3.06345,"postcode":"L37 3HF","la":"Sefton","era":"other","nn":199,"risk":24,"cat":"green"},{"name":"Freshfield Hotel","lat":53.56864,"lon":-3.06766,"postcode":"L37 7BD","la":"Sefton","era":"other","nn":393,"risk":25,"cat":"green"},{"name":"Grapes Hotel Formby - Chik Box/K-Town Chicken/Locked & Loaded","lat":53.56493,"lon":-3.0579,"postcode":"L37 7DL","la":"Sefton","era":"other","nn":316,"risk":24,"cat":"green"},{"name":"Great Mogul","lat":53.50629,"lon":-2.93204,"postcode":"L31 3DE","la":"Sefton","era":"other","nn":206,"risk":24,"cat":"green"},{"name":"Hare & Hounds","lat":53.51537,"lon":-2.94593,"postcode":"L31 2HF","la":"Sefton","era":"trad","nn":161,"risk":23,"cat":"green"},{"name":"Hawthorne Public House","lat":53.44348,"lon":-2.98208,"postcode":"L20 2DQ","la":"Sefton","era":"trad","nn":191,"risk":23,"cat":"green"},{"name":"Hearts Health Club","lat":53.49378,"lon":-3.02655,"postcode":"L23 2TE","la":"Sefton","era":"other","nn":113,"risk":23,"cat":"green"},{"name":"Hightown Bar@kitchen","lat":53.52451,"lon":-3.05769,"postcode":"L38 0BA","la":"Sefton","era":"mod","nn":188,"risk":28,"cat":"green"},{"name":"Hoggins Irish Pub","lat":53.47384,"lon":-3.02774,"postcode":"L22 5PQ","la":"Sefton","era":"other","nn":45,"risk":22,"cat":"green"},{"name":"Homebrew Tap Crosby","lat":53.48881,"lon":-3.02293,"postcode":"L23 0TR","la":"Sefton","era":"mod","nn":126,"risk":23,"cat":"green"},{"name":"Horse & Jockey","lat":53.48539,"lon":-2.91422,"postcode":"L31 1DU","la":"Sefton","era":"trad","nn":286,"risk":24,"cat":"green"},{"name":"Ince Blundell Village Hall","lat":53.52261,"lon":-3.02387,"postcode":"L38 6JE","la":"Sefton","era":"other","nn":1173,"risk":53,"cat":"amber"},{"name":"Jawbone Tavern","lat":53.44939,"lon":-2.9869,"postcode":"L20 3BZ","la":"Sefton","era":"other","nn":186,"risk":23,"cat":"green"},{"name":"Jubilee Pub","lat":53.47458,"lon":-3.00659,"postcode":"L21 9JH","la":"Sefton","era":"other","nn":587,"risk":26,"cat":"green"},{"name":"Larkins Bar Crosby","lat":53.49242,"lon":-3.02475,"postcode":"L23 2UE","la":"Sefton","era":"mod","nn":35,"risk":22,"cat":"green"},{"name":"Lathom Hall","lat":53.46504,"lon":-3.01574,"postcode":"L21 1EB","la":"Sefton","era":"other","nn":563,"risk":29,"cat":"green"},{"name":"LCFA Sefton","lat":53.49156,"lon":-2.99936,"postcode":"L23 9RR","la":"Sefton","era":"other","nn":719,"risk":45,"cat":"amber"},{"name":"Lion & Unicorn","lat":53.47385,"lon":-3.02616,"postcode":"L22 5NB","la":"Sefton","era":"trad","nn":74,"risk":23,"cat":"green"},{"name":"Litherland Royal British Legion","lat":53.47014,"lon":-2.99428,"postcode":"L21 8NU","la":"Sefton","era":"trad","nn":366,"risk":25,"cat":"green"},{"name":"Little Kings and Queens","lat":53.45119,"lon":-2.98727,"postcode":"L20 3HZ","la":"Sefton","era":"trad","nn":186,"risk":23,"cat":"green"},{"name":"Lock & Quay","lat":53.44904,"lon":-2.99789,"postcode":"L20 4AH","la":"Sefton","era":"other","nn":561,"risk":26,"cat":"green"},{"name":"Lucilla Dramatic Society","lat":53.49062,"lon":-3.03281,"postcode":"L23 8UQ","la":"Sefton","era":"other","nn":253,"risk":24,"cat":"green"},{"name":"Maghull Cask","lat":53.50278,"lon":-2.94853,"postcode":"L31 7BN","la":"Sefton","era":"other","nn":309,"risk":24,"cat":"green"},{"name":"Maghull Community Association","lat":53.51965,"lon":-2.94874,"postcode":"L31 2JH","la":"Sefton","era":"other","nn":205,"risk":24,"cat":"green"},{"name":"Maghull Town Hall","lat":53.50759,"lon":-2.94478,"postcode":"L31 7BB","la":"Sefton","era":"other","nn":253,"risk":24,"cat":"green"},{"name":"Marine Football Club","lat":53.48528,"lon":-3.03175,"postcode":"L23 3AS","la":"Sefton","era":"other","nn":54,"risk":22,"cat":"green"},{"name":"Marti's Bar","lat":53.48821,"lon":-2.97331,"postcode":"L30 5QA","la":"Sefton","era":"other","nn":56,"risk":22,"cat":"green"},{"name":"Meadows Hotel","lat":53.50563,"lon":-2.94722,"postcode":"L31 7AD","la":"Sefton","era":"other","nn":49,"risk":22,"cat":"green"},{"name":"Mel-Inn Social Club","lat":53.46144,"lon":-2.98774,"postcode":"L20 6JJ","la":"Sefton","era":"other","nn":517,"risk":26,"cat":"green"},{"name":"Melling Residents Community Association","lat":53.48796,"lon":-2.91449,"postcode":"L31 1DQ","la":"Sefton","era":"other","nn":286,"risk":24,"cat":"green"},{"name":"Mersey Motor Boat Club Limited","lat":53.52983,"lon":-2.95627,"postcode":"L31 4HF","la":"Sefton","era":"other","nn":175,"risk":28,"cat":"green"},{"name":"Millies Bar","lat":53.51302,"lon":-2.94415,"postcode":"L31 2PN","la":"Sefton","era":"trad","nn":102,"risk":23,"cat":"green"},{"name":"Nags Head","lat":53.50146,"lon":-3.00054,"postcode":"L23 1TJ","la":"Sefton","era":"trad","nn":129,"risk":43,"cat":"amber"},{"name":"Neptune Beerhouse","lat":53.51371,"lon":-2.94518,"postcode":"L31 2HB","la":"Sefton","era":"other","nn":102,"risk":23,"cat":"green"},{"name":"Netherton Hotel","lat":53.47585,"lon":-2.98066,"postcode":"L21 5HF","la":"Sefton","era":"other","nn":210,"risk":44,"cat":"amber"},{"name":"Netherton Snooker Club","lat":53.48794,"lon":-2.9726,"postcode":"L30 5QA","la":"Sefton","era":"other","nn":56,"risk":22,"cat":"green"},{"name":"Orrell & District Veterans Club","lat":53.4594,"lon":-2.98072,"postcode":"L20 0AH","la":"Sefton","era":"other","nn":517,"risk":26,"cat":"green"},{"name":"Pacific Hotel","lat":53.4616,"lon":-2.99611,"postcode":"L21 8JU","la":"Sefton","era":"other","nn":350,"risk":25,"cat":"green"},{"name":"Paul's Bar L22","lat":53.47793,"lon":-3.02799,"postcode":"L22 9QB","la":"Sefton","era":"mod","nn":228,"risk":24,"cat":"green"},{"name":"Petrichor","lat":53.48582,"lon":-2.94855,"postcode":"L10 2JA","la":"Sefton","era":"other","nn":868,"risk":46,"cat":"amber"},{"name":"Pheasant Inn","lat":53.52368,"lon":-3.04153,"postcode":"L38 3RA","la":"Sefton","era":"trad","nn":811,"risk":48,"cat":"amber"},{"name":"Pinewoods - Loco Loco, El Rodeo Mexicano, Burrito Bandits, K-Town, Chi","lat":53.55843,"lon":-3.0821,"postcode":"L37 1PR","la":"Sefton","era":"other","nn":1013,"risk":52,"cat":"amber"},{"name":"Queens Hotel","lat":53.45984,"lon":-3.00323,"postcode":"L20 4NR","la":"Sefton","era":"trad","nn":457,"risk":25,"cat":"green"},{"name":"Railway Hotel","lat":53.47591,"lon":-3.02865,"postcode":"L22 5NG","la":"Sefton","era":"trad","nn":193,"risk":23,"cat":"green"},{"name":"Railway Hotel","lat":53.46693,"lon":-3.00543,"postcode":"L21 6PG","la":"Sefton","era":"trad","nn":190,"risk":23,"cat":"green"},{"name":"Red Lion Hotel","lat":53.46834,"lon":-3.00069,"postcode":"L21 2PB","la":"Sefton","era":"trad","nn":351,"risk":25,"cat":"green"},{"name":"Royal Oak Hotel","lat":53.48241,"lon":-3.04024,"postcode":"L22 6QN","la":"Sefton","era":"trad","nn":619,"risk":29,"cat":"green"},{"name":"Salisbury Hotel","lat":53.45521,"lon":-2.99978,"postcode":"L20 4JE","la":"Sefton","era":"other","nn":239,"risk":24,"cat":"green"},{"name":"Saltbox","lat":53.46441,"lon":-2.99847,"postcode":"L21 8NR","la":"Sefton","era":"other","nn":350,"risk":25,"cat":"green"},{"name":"St Benets Parochial Centre","lat":53.49384,"lon":-2.96704,"postcode":"L30 7PE","la":"Sefton","era":"other","nn":738,"risk":27,"cat":"green"},{"name":"St Faith's Parish Hall","lat":53.48073,"lon":-3.02031,"postcode":"L22 4RE","la":"Sefton","era":"other","nn":204,"risk":24,"cat":"green"},{"name":"St George's Social Centre","lat":53.50788,"lon":-2.93617,"postcode":"L31 3DF","la":"Sefton","era":"other","nn":133,"risk":23,"cat":"green"},{"name":"St Helens Church Parochial Cen","lat":53.49193,"lon":-3.02797,"postcode":"L23 7TQ","la":"Sefton","era":"other","nn":126,"risk":23,"cat":"green"},{"name":"St Oswalds Church Hall","lat":53.48568,"lon":-2.96979,"postcode":"L30 5RD","la":"Sefton","era":"other","nn":312,"risk":24,"cat":"green"},{"name":"St Peter & Paul Parochial Club","lat":53.48665,"lon":-3.02339,"postcode":"L23 5TE","la":"Sefton","era":"other","nn":159,"risk":23,"cat":"green"},{"name":"St Stephens Church Hall","lat":53.52569,"lon":-3.05973,"postcode":"L38 0BL","la":"Sefton","era":"other","nn":188,"risk":28,"cat":"green"},{"name":"St Thomas Of Canterbury Church","lat":53.4722,"lon":-3.02351,"postcode":"L22 1RD","la":"Sefton","era":"other","nn":201,"risk":24,"cat":"green"},{"name":"Suburb 24","lat":53.4921,"lon":-3.02541,"postcode":"L23 2UE","la":"Sefton","era":"other","nn":56,"risk":22,"cat":"green"},{"name":"The Alexandra","lat":53.45403,"lon":-2.99675,"postcode":"L20 4JH","la":"Sefton","era":"other","nn":239,"risk":24,"cat":"green"},{"name":"The Angus","lat":53.49113,"lon":-3.02622,"postcode":"L23 5RH","la":"Sefton","era":"other","nn":93,"risk":23,"cat":"green"},{"name":"The Beaconsfield","lat":53.45239,"lon":-2.98922,"postcode":"L20 3HL","la":"Sefton","era":"other","nn":154,"risk":23,"cat":"green"},{"name":"The Birkey","lat":53.49316,"lon":-3.02789,"postcode":"L23 2TB","la":"Sefton","era":"other","nn":113,"risk":23,"cat":"green"},{"name":"The Cabin Coffee & Wine Bar","lat":53.51548,"lon":-2.94351,"postcode":"L31 2PH","la":"Sefton","era":"other","nn":161,"risk":23,"cat":"green"},{"name":"The Coop","lat":53.48478,"lon":-3.03076,"postcode":"L23 0RP","la":"Sefton","era":"other","nn":85,"risk":23,"cat":"green"},{"name":"The Corkscrew","lat":53.49083,"lon":-3.02753,"postcode":"L23 5RE","la":"Sefton","era":"other","nn":93,"risk":23,"cat":"green"},{"name":"The Crows Nest","lat":53.49247,"lon":-3.0306,"postcode":"L23 7XY","la":"Sefton","era":"other","nn":185,"risk":23,"cat":"green"},{"name":"The Formby Club","lat":53.55628,"lon":-3.05988,"postcode":"L37 4AQ","la":"Sefton","era":"other","nn":119,"risk":23,"cat":"green"},{"name":"The Fox","lat":53.51134,"lon":-2.92651,"postcode":"L31 3EW","la":"Sefton","era":"trad","nn":670,"risk":29,"cat":"green"},{"name":"The Frank Hornby","lat":53.51563,"lon":-2.93837,"postcode":"L31 6BR","la":"Sefton","era":"other","nn":340,"risk":24,"cat":"green"},{"name":"The George Crosby - K-Town/Chik Box/Locked and Loaded/Loco Loco/ElRode","lat":53.49271,"lon":-3.02495,"postcode":"L23 2SE","la":"Sefton","era":"trad","nn":35,"risk":22,"cat":"green"},{"name":"The Grapes","lat":53.50099,"lon":-3.00233,"postcode":"L23 1TJ","la":"Sefton","era":"other","nn":129,"risk":43,"cat":"amber"},{"name":"The Hightown Club","lat":53.52374,"lon":-3.0538,"postcode":"L38 3RQ","la":"Sefton","era":"other","nn":271,"risk":27,"cat":"green"},{"name":"The Jolly's","lat":53.45394,"lon":-2.99288,"postcode":"L20 5BW","la":"Sefton","era":"other","nn":166,"risk":23,"cat":"green"},{"name":"The Kensington House Sports & Leisure Club","lat":53.50692,"lon":-2.93496,"postcode":"L31 3DF","la":"Sefton","era":"mod","nn":133,"risk":23,"cat":"green"},{"name":"The Liver Hotel","lat":53.47646,"lon":-3.02319,"postcode":"L22 0LT","la":"Sefton","era":"other","nn":48,"risk":22,"cat":"green"},{"name":"The Marine Bar & Kitchen","lat":53.47423,"lon":-3.02791,"postcode":"L22 5PE","la":"Sefton","era":"mod","nn":0,"risk":22,"cat":"green"},{"name":"The Masonic Hall","lat":53.47177,"lon":-2.99907,"postcode":"L21 7PQ","la":"Sefton","era":"trad","nn":366,"risk":25,"cat":"green"},{"name":"The Melling Tithebarn","lat":53.49557,"lon":-2.91943,"postcode":"L31 1EE","la":"Sefton","era":"other","nn":79,"risk":28,"cat":"green"},{"name":"The Merton Inn","lat":53.44847,"lon":-2.98924,"postcode":"L20 3BW","la":"Sefton","era":"trad","nn":186,"risk":23,"cat":"green"},{"name":"The New Valentinos","lat":53.48282,"lon":-2.9607,"postcode":"L30 6UZ","la":"Sefton","era":"other","nn":680,"risk":29,"cat":"green"},{"name":"The Northern Club","lat":53.49755,"lon":-3.01663,"postcode":"L23 2SX","la":"Sefton","era":"other","nn":770,"risk":27,"cat":"green"},{"name":"The Old Bank Inn","lat":53.47423,"lon":-3.02791,"postcode":"L22 5PE","la":"Sefton","era":"trad","nn":0,"risk":22,"cat":"green"},{"name":"The Old Tap","lat":53.48002,"lon":-3.02316,"postcode":"L22 4QQ","la":"Sefton","era":"mod","nn":204,"risk":24,"cat":"green"},{"name":"The Queens Nook","lat":53.49022,"lon":-3.02432,"postcode":"L23 5TD","la":"Sefton","era":"trad","nn":161,"risk":23,"cat":"green"},{"name":"The Queen's Picture House","lat":53.47423,"lon":-3.02791,"postcode":"L22 5PE","la":"Sefton","era":"trad","nn":0,"risk":22,"cat":"green"},{"name":"The Railway Hotel","lat":53.55302,"lon":-3.06975,"postcode":"L37 4AS","la":"Sefton","era":"trad","nn":563,"risk":26,"cat":"green"},{"name":"The Red Lion Club","lat":53.5123,"lon":-2.94657,"postcode":"L31 7DJ","la":"Sefton","era":"trad","nn":179,"risk":23,"cat":"green"},{"name":"The Royal British Legion","lat":53.49606,"lon":-2.97757,"postcode":"L30 0QG","la":"Sefton","era":"trad","nn":697,"risk":29,"cat":"green"},{"name":"The Running Horses","lat":53.52376,"lon":-2.95172,"postcode":"L31 4EN","la":"Sefton","era":"trad","nn":498,"risk":28,"cat":"green"},{"name":"The Scotch Piper","lat":53.53642,"lon":-2.96007,"postcode":"L31 4HD","la":"Sefton","era":"other","nn":775,"risk":45,"cat":"amber"},{"name":"The Seaforth Arms","lat":53.46564,"lon":-3.0073,"postcode":"L21 3TA","la":"Sefton","era":"trad","nn":190,"risk":23,"cat":"green"},{"name":"The Tin Shed","lat":53.55613,"lon":-3.06303,"postcode":"L37 4ED","la":"Sefton","era":"other","nn":96,"risk":23,"cat":"green"},{"name":"The Weld Blundell Arms","lat":53.52905,"lon":-2.95396,"postcode":"L31 4EF","la":"Sefton","era":"trad","nn":175,"risk":28,"cat":"green"},{"name":"Toby Carvery Aintree","lat":53.47534,"lon":-2.95541,"postcode":"L9 5AD","la":"Sefton","era":"other","nn":351,"risk":42,"cat":"amber"},{"name":"Trap & Hatch","lat":53.47613,"lon":-3.02363,"postcode":"L22 0LT","la":"Sefton","era":"other","nn":46,"risk":22,"cat":"green"},{"name":"Valentine Liverpool/Pizza Amore/Dough Masters","lat":53.48409,"lon":-2.93576,"postcode":"L10 6LP","la":"Sefton","era":"other","nn":546,"risk":43,"cat":"amber"},{"name":"Victoria Hotel","lat":53.47192,"lon":-3.02739,"postcode":"L22 5PS","la":"Sefton","era":"trad","nn":117,"risk":23,"cat":"green"},{"name":"Volunteer Canteen","lat":53.47501,"lon":-3.03152,"postcode":"L22 8QR","la":"Sefton","era":"other","nn":215,"risk":24,"cat":"green"},{"name":"Waterloo Rugby Club","lat":53.49253,"lon":-3.04518,"postcode":"L23 8TW","la":"Sefton","era":"other","nn":831,"risk":30,"cat":"green"},{"name":"West Lancashire Artisans Golf Club","lat":53.49712,"lon":-3.05509,"postcode":"L23 8SY","la":"Sefton","era":"other","nn":0,"risk":40,"cat":"amber"},{"name":"West Lancs Golf Club","lat":53.49712,"lon":-3.05509,"postcode":"L23 8SY","la":"Sefton","era":"other","nn":0,"risk":40,"cat":"amber"},{"name":"Woodwards Wine Bar","lat":53.55643,"lon":-3.06167,"postcode":"L37 4DU","la":"Sefton","era":"other","nn":96,"risk":23,"cat":"green"},{"name":"Blundells Hill Golf Club","lat":53.40856,"lon":-2.77388,"postcode":"L35 6NA","la":"St. Helens","era":"other","nn":976,"risk":37,"cat":"amber"},{"name":"Coach & Horses Hotel","lat":53.41939,"lon":-2.76531,"postcode":"L35 4PE","la":"St. Helens","era":"trad","nn":271,"risk":27,"cat":"green"},{"name":"Commercial Hotel","lat":53.41698,"lon":-2.7659,"postcode":"L35 0LP","la":"St. Helens","era":"other","nn":72,"risk":25,"cat":"green"},{"name":"Cookhouse Pub and Carvery","lat":53.41654,"lon":-2.7651,"postcode":"L35 0LR","la":"St. Helens","era":"mod","nn":72,"risk":25,"cat":"green"},{"name":"Eretno LTD","lat":53.41784,"lon":-2.77372,"postcode":"L35 9JE","la":"St. Helens","era":"other","nn":467,"risk":28,"cat":"green"},{"name":"Manor Farm","lat":53.40676,"lon":-2.75944,"postcode":"L35 6NE","la":"St. Helens","era":"other","nn":492,"risk":46,"cat":"amber"},{"name":"Rainhill Recreation Club","lat":53.41686,"lon":-2.76259,"postcode":"L35 0LH","la":"St. Helens","era":"other","nn":170,"risk":26,"cat":"green"},{"name":"Ship Inn","lat":53.40766,"lon":-2.75218,"postcode":"L35 6PE","la":"St. Helens","era":"trad","nn":492,"risk":48,"cat":"amber"},{"name":"Skew Bridge Alehouse Ltd","lat":53.41637,"lon":-2.76712,"postcode":"L35 4LU","la":"St. Helens","era":"mod","nn":26,"risk":25,"cat":"green"},{"name":"The Grapes Hotel","lat":53.43453,"lon":-2.77884,"postcode":"L34 2QH","la":"St. Helens","era":"other","nn":948,"risk":52,"cat":"amber"},{"name":"The Hop House","lat":53.41627,"lon":-2.76677,"postcode":"L35 4LU","la":"St. Helens","era":"other","nn":26,"risk":25,"cat":"green"},{"name":"The Wellington Hotel","lat":53.43216,"lon":-2.79259,"postcode":"L34 2RH","la":"St. Helens","era":"trad","nn":540,"risk":29,"cat":"green"},{"name":"Alpine Club Lodge","lat":53.56747,"lon":-2.88336,"postcode":"L39 2DN","la":"West Lancashire","era":"other","nn":91,"risk":28,"cat":"green"},{"name":"Arthurs Wine Bar","lat":53.54368,"lon":-2.90211,"postcode":"L39 6SE","la":"West Lancashire","era":"other","nn":63,"risk":30,"cat":"green"},{"name":"Aughton Institute","lat":53.54234,"lon":-2.9067,"postcode":"L39 6SG","la":"West Lancashire","era":"other","nn":338,"risk":30,"cat":"green"},{"name":"Aughton Lawn Tennis Club","lat":53.54587,"lon":-2.90636,"postcode":"L39 5DT","la":"West Lancashire","era":"other","nn":281,"risk":29,"cat":"green"},{"name":"Aughton Village Hall","lat":53.54599,"lon":-2.91061,"postcode":"L39 5DH","la":"West Lancashire","era":"other","nn":281,"risk":29,"cat":"green"},{"name":"Bull And Dog Inn","lat":53.58776,"lon":-2.86176,"postcode":"L40 7SS","la":"West Lancashire","era":"trad","nn":1832,"risk":63,"cat":"red"},{"name":"Burscough Cricket Club","lat":53.60327,"lon":-2.83891,"postcode":"L40 4AE","la":"West Lancashire","era":"other","nn":137,"risk":28,"cat":"green"},{"name":"Cactus Ray's","lat":53.60267,"lon":-2.8425,"postcode":"L40 5RZ","la":"West Lancashire","era":"other","nn":117,"risk":28,"cat":"green"},{"name":"Club 22","lat":53.56574,"lon":-2.88619,"postcode":"L39 4RU","la":"West Lancashire","era":"other","nn":131,"risk":28,"cat":"green"},{"name":"Dog And Gun Inn","lat":53.55221,"lon":-2.8911,"postcode":"L39 5BU","la":"West Lancashire","era":"trad","nn":955,"risk":54,"cat":"amber"},{"name":"Eagle And Child Inn","lat":53.61467,"lon":-2.77294,"postcode":"L40 3SG","la":"West Lancashire","era":"trad","nn":1378,"risk":60,"cat":"amber"},{"name":"Eden Bar","lat":53.60368,"lon":-2.84451,"postcode":"L40 0SQ","la":"West Lancashire","era":"other","nn":162,"risk":29,"cat":"green"},{"name":"Eureka","lat":53.57158,"lon":-2.89594,"postcode":"L39 3AX","la":"West Lancashire","era":"other","nn":610,"risk":32,"cat":"amber"},{"name":"Farmers Arms","lat":53.60491,"lon":-2.86462,"postcode":"L40 8JA","la":"West Lancashire","era":"trad","nn":305,"risk":50,"cat":"amber"},{"name":"Golden Lion","lat":53.56725,"lon":-2.88468,"postcode":"L39 2AA","la":"West Lancashire","era":"trad","nn":0,"risk":28,"cat":"green"},{"name":"Greyhound Hotel","lat":53.56517,"lon":-2.8897,"postcode":"L39 3BS","la":"West Lancashire","era":"trad","nn":51,"risk":28,"cat":"green"},{"name":"Hesketh Arms","lat":53.63366,"lon":-2.81595,"postcode":"L40 1SB","la":"West Lancashire","era":"trad","nn":1924,"risk":63,"cat":"red"},{"name":"Hop Vine","lat":53.60363,"lon":-2.84177,"postcode":"L40 4BY","la":"West Lancashire","era":"other","nn":42,"risk":28,"cat":"green"},{"name":"Horse Shoe Inn","lat":53.56953,"lon":-2.88736,"postcode":"L39 3AP","la":"West Lancashire","era":"trad","nn":155,"risk":29,"cat":"green"},{"name":"Hurlston Hall Golf Club","lat":53.58879,"lon":-2.90387,"postcode":"L40 8HB","la":"West Lancashire","era":"other","nn":1017,"risk":57,"cat":"amber"},{"name":"Kicking Donkey Inn","lat":53.58357,"lon":-2.89122,"postcode":"L40 8HY","la":"West Lancashire","era":"trad","nn":932,"risk":54,"cat":"amber"},{"name":"Kings Arms Hotel","lat":53.56546,"lon":-2.96662,"postcode":"L39 7JJ","la":"West Lancashire","era":"trad","nn":528,"risk":49,"cat":"amber"},{"name":"Lime Tyger","lat":53.56662,"lon":-2.88377,"postcode":"L39 2AQ","la":"West Lancashire","era":"other","nn":49,"risk":28,"cat":"green"},{"name":"Liquid Bar","lat":53.56475,"lon":-2.88282,"postcode":"L39 4QR","la":"West Lancashire","era":"other","nn":217,"risk":29,"cat":"green"},{"name":"Mossock Hall Golf Club","lat":53.52383,"lon":-2.88325,"postcode":"L39 0EE","la":"West Lancashire","era":"other","nn":2534,"risk":68,"cat":"red"},{"name":"Murphy's Irish Bar","lat":53.56692,"lon":-2.88612,"postcode":"L39 3BH","la":"West Lancashire","era":"other","nn":95,"risk":28,"cat":"green"},{"name":"Mylo & Co","lat":53.56845,"lon":-2.885,"postcode":"L39 2ES","la":"West Lancashire","era":"other","nn":38,"risk":28,"cat":"green"},{"name":"No 12","lat":53.56797,"lon":-2.88648,"postcode":"L39 3AN","la":"West Lancashire","era":"other","nn":65,"risk":28,"cat":"green"},{"name":"Ormskirk Cricket Club","lat":53.55953,"lon":-2.88353,"postcode":"L39 4RG","la":"West Lancashire","era":"other","nn":583,"risk":32,"cat":"amber"},{"name":"Ormskirk Division Agricultural Club","lat":53.57021,"lon":-2.88402,"postcode":"L39 2EL","la":"West Lancashire","era":"other","nn":169,"risk":29,"cat":"green"},{"name":"Plough Inn","lat":53.56516,"lon":-2.82299,"postcode":"L40 6JG","la":"West Lancashire","era":"trad","nn":1445,"risk":60,"cat":"amber"},{"name":"Premier Inn, Morris Dancers","lat":53.60978,"lon":-2.9337,"postcode":"L40 9RG","la":"West Lancashire","era":"trad","nn":377,"risk":50,"cat":"amber"},{"name":"Prince Albert","lat":53.56346,"lon":-2.84469,"postcode":"L40 6HY","la":"West Lancashire","era":"trad","nn":1445,"risk":60,"cat":"amber"},{"name":"Royal Oak","lat":53.55546,"lon":-2.90888,"postcode":"L39 3LW","la":"West Lancashire","era":"trad","nn":1060,"risk":57,"cat":"amber"},{"name":"Rufford Arms Hotel","lat":53.65025,"lon":-2.82424,"postcode":"L40 1SQ","la":"West Lancashire","era":"trad","nn":1924,"risk":63,"cat":"red"},{"name":"Saracens Head","lat":53.58056,"lon":-2.94348,"postcode":"L39 8RH","la":"West Lancashire","era":"trad","nn":1920,"risk":63,"cat":"red"},{"name":"Scarisbrick National Services Club","lat":53.61105,"lon":-2.939,"postcode":"L40 9RR","la":"West Lancashire","era":"other","nn":377,"risk":50,"cat":"amber"},{"name":"Ship Inn","lat":53.56583,"lon":-2.95866,"postcode":"L39 7JP","la":"West Lancashire","era":"trad","nn":528,"risk":51,"cat":"amber"},{"name":"Solo","lat":53.54417,"lon":-2.90258,"postcode":"L39 6SF","la":"West Lancashire","era":"other","nn":63,"risk":30,"cat":"green"},{"name":"Stanley Arms Hotel","lat":53.54299,"lon":-2.92058,"postcode":"L39 6SA","la":"West Lancashire","era":"trad","nn":738,"risk":38,"cat":"amber"},{"name":"Stanley Institute","lat":53.60174,"lon":-2.84403,"postcode":"L40 5TN","la":"West Lancashire","era":"other","nn":145,"risk":29,"cat":"green"},{"name":"Styles Bar","lat":53.56845,"lon":-2.88586,"postcode":"L39 3QG","la":"West Lancashire","era":"other","nn":57,"risk":28,"cat":"green"},{"name":"Tap Room No 12","lat":53.56772,"lon":-2.8856,"postcode":"L39 2ER","la":"West Lancashire","era":"other","nn":54,"risk":28,"cat":"green"},{"name":"The Bridge Hotel","lat":53.60395,"lon":-2.84209,"postcode":"L40 0SA","la":"West Lancashire","era":"other","nn":42,"risk":28,"cat":"green"},{"name":"The Court Leet, Weatherspoon","lat":53.56813,"lon":-2.88517,"postcode":"L39 2XA","la":"West Lancashire","era":"other","nn":38,"risk":28,"cat":"green"},{"name":"The Green Room","lat":53.56725,"lon":-2.88468,"postcode":"L39 2AA","la":"West Lancashire","era":"other","nn":0,"risk":28,"cat":"green"},{"name":"The Hayfield","lat":53.5745,"lon":-2.88733,"postcode":"L39 1NN","la":"West Lancashire","era":"other","nn":0,"risk":28,"cat":"green"},{"name":"The New Scarisbrick Arms","lat":53.55777,"lon":-2.96729,"postcode":"L39 7HX","la":"West Lancashire","era":"trad","nn":855,"risk":54,"cat":"amber"},{"name":"The Queen Inn","lat":53.56498,"lon":-2.889,"postcode":"L39 3BN","la":"West Lancashire","era":"trad","nn":51,"risk":28,"cat":"green"},{"name":"The Queens Head","lat":53.56687,"lon":-2.88437,"postcode":"L39 2AQ","la":"West Lancashire","era":"trad","nn":46,"risk":28,"cat":"green"},{"name":"The Railway Hotel","lat":53.56879,"lon":-2.88313,"postcode":"L39 2BJ","la":"West Lancashire","era":"trad","nn":129,"risk":28,"cat":"green"},{"name":"The Royal British Legion","lat":53.60322,"lon":-2.84098,"postcode":"L40 4BZ","la":"West Lancashire","era":"trad","nn":69,"risk":28,"cat":"green"},{"name":"The Sandpiper","lat":53.53921,"lon":-2.83338,"postcode":"L39 0HD","la":"West Lancashire","era":"other","nn":1455,"risk":60,"cat":"amber"},{"name":"The Ship Inn","lat":53.59699,"lon":-2.82997,"postcode":"L40 4BX","la":"West Lancashire","era":"trad","nn":914,"risk":54,"cat":"amber"},{"name":"The Slipway","lat":53.60421,"lon":-2.86014,"postcode":"L40 0RN","la":"West Lancashire","era":"other","nn":305,"risk":50,"cat":"amber"},{"name":"The Stanley Gate","lat":53.54577,"lon":-2.85244,"postcode":"L39 9EN","la":"West Lancashire","era":"other","nn":1455,"risk":60,"cat":"amber"},{"name":"The Yew Tree","lat":53.57531,"lon":-2.88884,"postcode":"L39 1PD","la":"West Lancashire","era":"other","nn":134,"risk":28,"cat":"green"},{"name":"Toby Carvery","lat":53.5745,"lon":-2.88733,"postcode":"L39 1NN","la":"West Lancashire","era":"other","nn":0,"risk":28,"cat":"green"}]