[{"name":"The Blue Bell","lat":54.58421,"lon":-1.43523,"postcode":"TS21 1EZ","la":"Darlington","era":"other","nn":2241,"risk":64,"cat":"red"},{"name":"All Inn Lounge","lat":54.72581,"lon":-1.37934,"postcode":"TS28 5AA","la":"County Durham","era":"other","nn":0,"risk":19,"cat":"green"},{"name":"Blackhall Cricket Club","lat":54.74952,"lon":-1.29501,"postcode":"TS27 4LX","la":"County Durham","era":"other","nn":242,"risk":20,"cat":"green"},{"name":"Blackhall Navy Club","lat":54.75015,"lon":-1.29139,"postcode":"TS27 4HA","la":"County Durham","era":"other","nn":242,"risk":20,"cat":"green"},{"name":"Blackhall Rafa Club","lat":54.74638,"lon":-1.2885,"postcode":"TS27 4HE","la":"County Durham","era":"other","nn":185,"risk":20,"cat":"green"},{"name":"Castle Eden Cricket Club","lat":54.73169,"lon":-1.34288,"postcode":"TS27 4TJ","la":"County Durham","era":"other","nn":297,"risk":21,"cat":"green"},{"name":"Castle Eden Golf Club","lat":54.7373,"lon":-1.35438,"postcode":"TS27 4SS","la":"County Durham","era":"other","nn":967,"risk":41,"cat":"amber"},{"name":"Castle Eden Inn","lat":54.72949,"lon":-1.34024,"postcode":"TS27 4SD","la":"County Durham","era":"trad","nn":0,"risk":31,"cat":"amber"},{"name":"Castle Eden Masonic Club","lat":54.72949,"lon":-1.34024,"postcode":"TS27 4SD","la":"County Durham","era":"trad","nn":0,"risk":31,"cat":"amber"},{"name":"Denemouth Caravan Park","lat":54.73184,"lon":-1.26099,"postcode":"TS27 4BL","la":"County Durham","era":"other","nn":178,"risk":35,"cat":"amber"},{"name":"Fishburn Workingmens Club","lat":54.68193,"lon":-1.43709,"postcode":"TS21 4BU","la":"County Durham","era":"trad","nn":185,"risk":35,"cat":"amber"},{"name":"Golden Lion","lat":54.65405,"lon":-1.44579,"postcode":"TS21 3AU","la":"County Durham","era":"trad","nn":245,"risk":20,"cat":"green"},{"name":"Hardwick Hotel","lat":54.74791,"lon":-1.28966,"postcode":"TS27 4EE","la":"County Durham","era":"other","nn":185,"risk":20,"cat":"green"},{"name":"Hesleden Workingmens Club","lat":54.73653,"lon":-1.3182,"postcode":"TS27 4PH","la":"County Durham","era":"trad","nn":1617,"risk":48,"cat":"amber"},{"name":"Parkdean Resorts Ltd","lat":54.73309,"lon":-1.25926,"postcode":"TS27 4BN","la":"County Durham","era":"other","nn":178,"risk":35,"cat":"amber"},{"name":"Sedgefield Community Assoc Social Club","lat":54.65257,"lon":-1.4486,"postcode":"TS21 2AE","la":"County Durham","era":"mod","nn":0,"risk":19,"cat":"green"},{"name":"Sedgefield Cricket Club","lat":54.65021,"lon":-1.45793,"postcode":"TS21 2DA","la":"County Durham","era":"other","nn":655,"risk":23,"cat":"green"},{"name":"Sedgefield Social Club","lat":54.65257,"lon":-1.4486,"postcode":"TS21 2AE","la":"County Durham","era":"mod","nn":0,"risk":19,"cat":"green"},{"name":"The Beehive","lat":54.68348,"lon":-1.43604,"postcode":"TS21 4AS","la":"County Durham","era":"other","nn":185,"risk":35,"cat":"amber"},{"name":"The Black Bull","lat":54.70178,"lon":-1.42492,"postcode":"TS29 6PG","la":"County Durham","era":"trad","nn":683,"risk":39,"cat":"amber"},{"name":"The Dovecote Inn","lat":54.71609,"lon":-1.42772,"postcode":"TS29 6EP","la":"County Durham","era":"trad","nn":1066,"risk":44,"cat":"amber"},{"name":"The Plough Inn","lat":54.71925,"lon":-1.34026,"postcode":"TS27 4RH","la":"County Durham","era":"trad","nn":1139,"risk":44,"cat":"amber"},{"name":"The Royal","lat":54.71764,"lon":-1.41134,"postcode":"TS29 6AD","la":"County Durham","era":"trad","nn":150,"risk":35,"cat":"amber"},{"name":"The Top House","lat":54.72581,"lon":-1.37934,"postcode":"TS28 5AA","la":"County Durham","era":"other","nn":0,"risk":19,"cat":"green"},{"name":"The Wingate Pub Company Ltd","lat":54.72581,"lon":-1.37934,"postcode":"TS28 5AA","la":"County Durham","era":"other","nn":0,"risk":19,"cat":"green"},{"name":"Trimdon Colliery & Deaf Hill WMC & I Limited","lat":54.71686,"lon":-1.40943,"postcode":"TS29 6AJ","la":"County Durham","era":"other","nn":150,"risk":35,"cat":"amber"},{"name":"Trimdon Community Assoc Social Club","lat":54.69571,"lon":-1.42655,"postcode":"TS29 6JU","la":"County Durham","era":"mod","nn":683,"risk":39,"cat":"amber"},{"name":"Wingate Constitutional Club","lat":54.72526,"lon":-1.37739,"postcode":"TS28 5QA","la":"County Durham","era":"other","nn":139,"risk":20,"cat":"green"},{"name":"7ven Lounge and Terrace","lat":54.68569,"lon":-1.20785,"postcode":"TS24 7DA","la":"Hartlepool","era":"mod","nn":27,"risk":25,"cat":"green"},{"name":"Bar 31","lat":54.69189,"lon":-1.19853,"postcode":"TS24 0UG","la":"Hartlepool","era":"mod","nn":0,"risk":25,"cat":"green"},{"name":"Bar Central","lat":54.69209,"lon":-1.19832,"postcode":"TS24 0UH","la":"Hartlepool","era":"mod","nn":26,"risk":25,"cat":"green"},{"name":"Bar One","lat":54.68513,"lon":-1.21585,"postcode":"TS24 7SE","la":"Hartlepool","era":"mod","nn":42,"risk":25,"cat":"green"},{"name":"Belle Vue Way Social Club","lat":54.67243,"lon":-1.2104,"postcode":"TS25 1QU","la":"Hartlepool","era":"mod","nn":416,"risk":28,"cat":"green"},{"name":"Black Olive","lat":54.69189,"lon":-1.19853,"postcode":"TS24 0UG","la":"Hartlepool","era":"other","nn":0,"risk":25,"cat":"green"},{"name":"Blacksmiths Arms","lat":54.68,"lon":-1.21306,"postcode":"TS24 7QT","la":"Hartlepool","era":"trad","nn":0,"risk":25,"cat":"green"},{"name":"Blue Lounge","lat":54.69189,"lon":-1.19853,"postcode":"TS24 0UG","la":"Hartlepool","era":"mod","nn":0,"risk":25,"cat":"green"},{"name":"Bottoms Up","lat":54.68697,"lon":-1.20509,"postcode":"TS24 7DN","la":"Hartlepool","era":"other","nn":0,"risk":25,"cat":"green"},{"name":"Bull & Dog","lat":54.64664,"lon":-1.23999,"postcode":"TS25 2EJ","la":"Hartlepool","era":"trad","nn":352,"risk":32,"cat":"amber"},{"name":"Carol Hammond Dance Studio","lat":54.68281,"lon":-1.21993,"postcode":"TS26 9EL","la":"Hartlepool","era":"mod","nn":140,"risk":26,"cat":"green"},{"name":"Club H","lat":54.68653,"lon":-1.20683,"postcode":"TS24 7DX","la":"Hartlepool","era":"other","nn":0,"risk":25,"cat":"green"},{"name":"Gaiety's","lat":54.69749,"lon":-1.18435,"postcode":"TS24 0JX","la":"Hartlepool","era":"other","nn":70,"risk":25,"cat":"green"},{"name":"Gillen Arms","lat":54.71235,"lon":-1.24963,"postcode":"TS27 3QY","la":"Hartlepool","era":"trad","nn":542,"risk":46,"cat":"amber"},{"name":"Golden Lion","lat":54.6896,"lon":-1.24501,"postcode":"TS26 0EN","la":"Hartlepool","era":"trad","nn":475,"risk":33,"cat":"amber"},{"name":"Hartlepool Catholic Mens Social Club","lat":54.67117,"lon":-1.23744,"postcode":"TS25 4JJ","la":"Hartlepool","era":"other","nn":491,"risk":48,"cat":"amber"},{"name":"Hartlepool Cricket Club","lat":54.68535,"lon":-1.24574,"postcode":"TS26 0DA","la":"Hartlepool","era":"trad","nn":475,"risk":46,"cat":"amber"},{"name":"Hartlepool Indoor Bowling Club","lat":54.68937,"lon":-1.21575,"postcode":"TS24 8AR","la":"Hartlepool","era":"trad","nn":81,"risk":26,"cat":"green"},{"name":"Hartlepool Rovers RFC","lat":54.70555,"lon":-1.20989,"postcode":"TS24 0BP","la":"Hartlepool","era":"trad","nn":328,"risk":45,"cat":"amber"},{"name":"Hartlepool Rovers Sports & Social Club","lat":54.69975,"lon":-1.22508,"postcode":"TS24 8JZ","la":"Hartlepool","era":"other","nn":182,"risk":26,"cat":"green"},{"name":"Hartlepool Rugby Club","lat":54.70555,"lon":-1.23397,"postcode":"TS24 9BA","la":"Hartlepool","era":"trad","nn":684,"risk":32,"cat":"amber"},{"name":"Hartlepool Smallcraft Association","lat":54.69319,"lon":-1.19598,"postcode":"TS24 0SA","la":"Hartlepool","era":"other","nn":164,"risk":26,"cat":"green"},{"name":"Hartlepool Snooker and Social Club","lat":54.67908,"lon":-1.21538,"postcode":"TS24 7QR","la":"Hartlepool","era":"other","nn":52,"risk":25,"cat":"green"},{"name":"Hartlepool United Football Club","lat":54.68819,"lon":-1.21365,"postcode":"TS24 8BZ","la":"Hartlepool","era":"trad","nn":0,"risk":25,"cat":"green"},{"name":"Hartlepool Utd Supporters Club","lat":54.68865,"lon":-1.22472,"postcode":"TS26 8PS","la":"Hartlepool","era":"trad","nn":230,"risk":27,"cat":"green"},{"name":"Hartlepool Working Mens Club","lat":54.71123,"lon":-1.23807,"postcode":"TS24 9PF","la":"Hartlepool","era":"trad","nn":684,"risk":35,"cat":"amber"},{"name":"Headlands Social Club","lat":54.69794,"lon":-1.18359,"postcode":"TS24 0LG","la":"Hartlepool","era":"other","nn":70,"risk":25,"cat":"green"},{"name":"Hope and Anchor","lat":54.64347,"lon":-1.23975,"postcode":"TS25 2EN","la":"Hartlepool","era":"trad","nn":352,"risk":47,"cat":"amber"},{"name":"Hops and Cheese","lat":54.6849,"lon":-1.20846,"postcode":"TS24 7HH","la":"Hartlepool","era":"other","nn":0,"risk":25,"cat":"green"},{"name":"Hornby Park","lat":54.65599,"lon":-1.18908,"postcode":"TS25 2AZ","la":"Hartlepool","era":"other","nn":458,"risk":28,"cat":"green"},{"name":"Idols","lat":54.68593,"lon":-1.20792,"postcode":"TS24 7DG","la":"Hartlepool","era":"other","nn":27,"risk":25,"cat":"green"},{"name":"Jacksons Arms","lat":54.6849,"lon":-1.20846,"postcode":"TS24 7HH","la":"Hartlepool","era":"trad","nn":0,"risk":25,"cat":"green"},{"name":"Jacksons Wharf","lat":54.70173,"lon":-1.21857,"postcode":"TS24 0XN","la":"Hartlepool","era":"other","nn":324,"risk":27,"cat":"green"},{"name":"JP's Bar","lat":54.69295,"lon":-1.19849,"postcode":"TS24 0UQ","la":"Hartlepool","era":"other","nn":0,"risk":25,"cat":"green"},{"name":"King Johns Tavern","lat":54.68461,"lon":-1.2178,"postcode":"TS26 9HD","la":"Hartlepool","era":"trad","nn":93,"risk":26,"cat":"green"},{"name":"Kitty Bill's","lat":54.66002,"lon":-1.18764,"postcode":"TS25 1BS","la":"Hartlepool","era":"other","nn":0,"risk":25,"cat":"green"},{"name":"Loons","lat":54.68549,"lon":-1.21603,"postcode":"TS24 7SD","la":"Hartlepool","era":"other","nn":0,"risk":25,"cat":"green"},{"name":"Manhattan & Bar Paris","lat":54.68549,"lon":-1.21603,"postcode":"TS24 7SD","la":"Hartlepool","era":"mod","nn":0,"risk":25,"cat":"green"},{"name":"Masonic Hall","lat":54.69451,"lon":-1.18033,"postcode":"TS24 0QN","la":"Hartlepool","era":"trad","nn":76,"risk":25,"cat":"green"},{"name":"Merry Go Round/Wacky Warehouse","lat":54.7017,"lon":-1.22431,"postcode":"TS24 9AL","la":"Hartlepool","era":"other","nn":223,"risk":29,"cat":"green"},{"name":"No 8","lat":54.68553,"lon":-1.20818,"postcode":"TS24 7DA","la":"Hartlepool","era":"other","nn":7,"risk":25,"cat":"green"},{"name":"Oasis Club","lat":54.66376,"lon":-1.19152,"postcode":"TS25 1AJ","la":"Hartlepool","era":"other","nn":265,"risk":27,"cat":"green"},{"name":"O'Malley's","lat":54.68521,"lon":-1.20949,"postcode":"TS24 7EU","la":"Hartlepool","era":"other","nn":42,"risk":25,"cat":"green"},{"name":"OUT OUT","lat":54.69295,"lon":-1.19849,"postcode":"TS24 0UQ","la":"Hartlepool","era":"other","nn":0,"risk":25,"cat":"green"},{"name":"Owton Lodge","lat":54.65785,"lon":-1.22096,"postcode":"TS25 1HA","la":"Hartlepool","era":"other","nn":126,"risk":28,"cat":"green"},{"name":"Owton Manor Social Club CIC","lat":54.66117,"lon":-1.23873,"postcode":"TS25 3LQ","la":"Hartlepool","era":"mod","nn":710,"risk":35,"cat":"amber"},{"name":"Raby Arms","lat":54.70708,"lon":-1.27256,"postcode":"TS27 3AW","la":"Hartlepool","era":"trad","nn":138,"risk":46,"cat":"amber"},{"name":"Raglan Quoit & Social Club","lat":54.69121,"lon":-1.21221,"postcode":"TS24 8DA","la":"Hartlepool","era":"mod","nn":306,"risk":27,"cat":"green"},{"name":"Rat Race Ale House","lat":54.68674,"lon":-1.20795,"postcode":"TS24 7ED","la":"Hartlepool","era":"other","nn":76,"risk":25,"cat":"green"},{"name":"Richardson & Westgarth Sport and Social Club","lat":54.69973,"lon":-1.22224,"postcode":"TS24 9AA","la":"Hartlepool","era":"mod","nn":182,"risk":29,"cat":"green"},{"name":"Rosie's","lat":54.69189,"lon":-1.19853,"postcode":"TS24 0UG","la":"Hartlepool","era":"other","nn":0,"risk":25,"cat":"green"},{"name":"Royal Naval Association","lat":54.68592,"lon":-1.21939,"postcode":"TS26 8AF","la":"Hartlepool","era":"trad","nn":178,"risk":26,"cat":"green"},{"name":"Sam's Snooker and American Pool","lat":54.6827,"lon":-1.21776,"postcode":"TS26 9HU","la":"Hartlepool","era":"other","nn":0,"risk":25,"cat":"green"},{"name":"Seaton Carew Social Club","lat":54.66134,"lon":-1.19183,"postcode":"TS25 1BG","la":"Hartlepool","era":"mod","nn":135,"risk":26,"cat":"green"},{"name":"Seaton Hotel","lat":54.66002,"lon":-1.18764,"postcode":"TS25 1BS","la":"Hartlepool","era":"other","nn":0,"risk":25,"cat":"green"},{"name":"Skyy","lat":54.68723,"lon":-1.21551,"postcode":"TS24 8AT","la":"Hartlepool","era":"other","nn":105,"risk":26,"cat":"green"},{"name":"South Durham Social Club","lat":54.67633,"lon":-1.21869,"postcode":"TS25 5RE","la":"Hartlepool","era":"mod","nn":283,"risk":27,"cat":"green"},{"name":"Spotted Cow","lat":54.68383,"lon":-1.29402,"postcode":"TS27 3EF","la":"Hartlepool","era":"other","nn":49,"risk":45,"cat":"amber"},{"name":"Stephanies","lat":54.68653,"lon":-1.20683,"postcode":"TS24 7DX","la":"Hartlepool","era":"other","nn":0,"risk":25,"cat":"green"},{"name":"Stranton Social Club","lat":54.67914,"lon":-1.21457,"postcode":"TS24 7QJ","la":"Hartlepool","era":"mod","nn":52,"risk":25,"cat":"green"},{"name":"Tall Ships","lat":54.70748,"lon":-1.24922,"postcode":"TS26 0BF","la":"Hartlepool","era":"trad","nn":542,"risk":46,"cat":"amber"},{"name":"Tech Rugby Club","lat":54.69623,"lon":-1.23824,"postcode":"TS26 0TB","la":"Hartlepool","era":"other","nn":855,"risk":48,"cat":"amber"},{"name":"Tees and Hartlepool Yacht Club","lat":54.68857,"lon":-1.19749,"postcode":"TS24 0SP","la":"Hartlepool","era":"trad","nn":290,"risk":27,"cat":"green"},{"name":"The 9 Anchors","lat":54.66002,"lon":-1.18764,"postcode":"TS25 1BS","la":"Hartlepool","era":"trad","nn":0,"risk":25,"cat":"green"},{"name":"The Athenaeum","lat":54.68623,"lon":-1.20655,"postcode":"TS24 7DH","la":"Hartlepool","era":"other","nn":0,"risk":25,"cat":"green"},{"name":"The Blue Bells","lat":54.63269,"lon":-1.28075,"postcode":"TS22 5PQ","la":"Hartlepool","era":"other","nn":923,"risk":51,"cat":"amber"},{"name":"The Causeway","lat":54.68,"lon":-1.21306,"postcode":"TS24 7QT","la":"Hartlepool","era":"other","nn":0,"risk":25,"cat":"green"},{"name":"The Central","lat":54.70423,"lon":-1.20532,"postcode":"TS24 0BS","la":"Hartlepool","era":"other","nn":328,"risk":32,"cat":"amber"},{"name":"The Clarendon","lat":54.68526,"lon":-1.20877,"postcode":"TS24 7HF","la":"Hartlepool","era":"other","nn":28,"risk":25,"cat":"green"},{"name":"The Corner Flag","lat":54.68819,"lon":-1.21365,"postcode":"TS24 8BZ","la":"Hartlepool","era":"other","nn":0,"risk":25,"cat":"green"},{"name":"The Cosmopolitan Hotel","lat":54.69613,"lon":-1.18236,"postcode":"TS24 0HY","la":"Hartlepool","era":"other","nn":150,"risk":26,"cat":"green"},{"name":"The Drunken Duck","lat":54.66177,"lon":-1.19379,"postcode":"TS25 1EZ","la":"Hartlepool","era":"other","nn":135,"risk":26,"cat":"green"},{"name":"The Duke of Cleveland","lat":54.69495,"lon":-1.18123,"postcode":"TS24 0ND","la":"Hartlepool","era":"trad","nn":76,"risk":25,"cat":"green"},{"name":"The Fens","lat":54.65404,"lon":-1.23294,"postcode":"TS25 2LT","la":"Hartlepool","era":"other","nn":647,"risk":29,"cat":"green"},{"name":"The Fishermans Arms","lat":54.69571,"lon":-1.1866,"postcode":"TS24 0JJ","la":"Hartlepool","era":"trad","nn":110,"risk":26,"cat":"green"},{"name":"The Fuschia Lounge","lat":54.69189,"lon":-1.19853,"postcode":"TS24 0UG","la":"Hartlepool","era":"mod","nn":0,"risk":25,"cat":"green"},{"name":"The Globe","lat":54.69889,"lon":-1.18606,"postcode":"TS24 0LJ","la":"Hartlepool","era":"other","nn":190,"risk":26,"cat":"green"},{"name":"The Greenside","lat":54.65746,"lon":-1.2228,"postcode":"TS25 2PG","la":"Hartlepool","era":"other","nn":126,"risk":28,"cat":"green"},{"name":"The Hillcarter","lat":54.68623,"lon":-1.20655,"postcode":"TS24 7DH","la":"Hartlepool","era":"other","nn":0,"risk":25,"cat":"green"},{"name":"The Lodge Bar","lat":54.68653,"lon":-1.20683,"postcode":"TS24 7DX","la":"Hartlepool","era":"other","nn":0,"risk":25,"cat":"green"},{"name":"The Mayfair Centre","lat":54.6497,"lon":-1.19124,"postcode":"TS25 1DE","la":"Hartlepool","era":"other","nn":713,"risk":50,"cat":"amber"},{"name":"The McOrville Inn","lat":54.68421,"lon":-1.2944,"postcode":"TS27 3ED","la":"Hartlepool","era":"trad","nn":49,"risk":45,"cat":"amber"},{"name":"The Mill House Inn","lat":54.68864,"lon":-1.21567,"postcode":"TS24 8AP","la":"Hartlepool","era":"other","nn":81,"risk":26,"cat":"green"},{"name":"The Mowbray","lat":54.65389,"lon":-1.24429,"postcode":"TS25 2ND","la":"Hartlepool","era":"other","nn":730,"risk":35,"cat":"amber"},{"name":"The Nursery Inn","lat":54.69003,"lon":-1.22207,"postcode":"TS26 8RA","la":"Hartlepool","era":"trad","nn":195,"risk":26,"cat":"green"},{"name":"The Old West Quay","lat":54.68954,"lon":-1.20168,"postcode":"TS24 0YG","la":"Hartlepool","era":"other","nn":290,"risk":27,"cat":"green"},{"name":"The Owl","lat":54.68558,"lon":-1.20822,"postcode":"TS24 7DA","la":"Hartlepool","era":"other","nn":7,"risk":25,"cat":"green"},{"name":"The Park Inn","lat":54.6827,"lon":-1.21776,"postcode":"TS26 9HU","la":"Hartlepool","era":"trad","nn":0,"risk":25,"cat":"green"},{"name":"The Pot House","lat":54.69468,"lon":-1.18262,"postcode":"TS24 0QX","la":"Hartlepool","era":"other","nn":94,"risk":26,"cat":"green"},{"name":"The Rossmere","lat":54.65918,"lon":-1.22824,"postcode":"TS25 3AX","la":"Hartlepool","era":"other","nn":399,"risk":28,"cat":"green"},{"name":"The Royal","lat":54.68696,"lon":-1.2051,"postcode":"TS24 7DN","la":"Hartlepool","era":"trad","nn":0,"risk":25,"cat":"green"},{"name":"The Ship Inn","lat":54.69591,"lon":-1.18492,"postcode":"TS24 0JN","la":"Hartlepool","era":"trad","nn":110,"risk":26,"cat":"green"},{"name":"The Showroom","lat":54.68549,"lon":-1.21603,"postcode":"TS24 7SD","la":"Hartlepool","era":"other","nn":0,"risk":25,"cat":"green"},{"name":"The Stag & Monkey","lat":54.66805,"lon":-1.21249,"postcode":"TS25 1SD","la":"Hartlepool","era":"trad","nn":505,"risk":33,"cat":"amber"},{"name":"The Studio","lat":54.68493,"lon":-1.20904,"postcode":"TS24 7HQ","la":"Hartlepool","era":"mod","nn":38,"risk":25,"cat":"green"},{"name":"The Tipsy Doorman","lat":54.68653,"lon":-1.20683,"postcode":"TS24 7DX","la":"Hartlepool","era":"other","nn":0,"risk":25,"cat":"green"},{"name":"The Ugly Duckling","lat":54.69189,"lon":-1.19853,"postcode":"TS24 0UG","la":"Hartlepool","era":"other","nn":0,"risk":25,"cat":"green"},{"name":"The Ward Jackson","lat":54.68551,"lon":-1.20872,"postcode":"TS24 7EY","la":"Hartlepool","era":"other","nn":28,"risk":25,"cat":"green"},{"name":"The White Hart","lat":54.70764,"lon":-1.27064,"postcode":"TS27 3AJ","la":"Hartlepool","era":"trad","nn":138,"risk":46,"cat":"amber"},{"name":"The White House","lat":54.68453,"lon":-1.23458,"postcode":"TS26 0DR","la":"Hartlepool","era":"other","nn":723,"risk":30,"cat":"green"},{"name":"Three Brass Monkeys","lat":54.68497,"lon":-1.21649,"postcode":"TS26 9DQ","la":"Hartlepool","era":"trad","nn":45,"risk":25,"cat":"green"},{"name":"Town Hall Theatre","lat":54.68676,"lon":-1.2141,"postcode":"TS24 8AH","la":"Hartlepool","era":"other","nn":105,"risk":26,"cat":"green"},{"name":"Travellers Rest","lat":54.66418,"lon":-1.21946,"postcode":"TS25 1LB","la":"Hartlepool","era":"other","nn":622,"risk":32,"cat":"amber"},{"name":"Vibes","lat":54.69189,"lon":-1.19853,"postcode":"TS24 0UG","la":"Hartlepool","era":"other","nn":0,"risk":25,"cat":"green"},{"name":"Victoria Arms","lat":54.70156,"lon":-1.19362,"postcode":"TS24 0EQ","la":"Hartlepool","era":"trad","nn":570,"risk":29,"cat":"green"},{"name":"West Hartlepool Rugby Football Club","lat":54.67555,"lon":-1.23647,"postcode":"TS25 4HA","la":"Hartlepool","era":"trad","nn":491,"risk":48,"cat":"amber"},{"name":"West Hartlepool Victory Social Club","lat":54.68868,"lon":-1.22014,"postcode":"TS26 8PN","la":"Hartlepool","era":"other","nn":195,"risk":26,"cat":"green"},{"name":"Ye Olde Durhams Social Club","lat":54.67522,"lon":-1.21472,"postcode":"TS25 1SN","la":"Hartlepool","era":"mod","nn":283,"risk":27,"cat":"green"},{"name":"Acklam Iron & Steel Works Athletic Club","lat":54.56263,"lon":-1.22782,"postcode":"TS4 2RD","la":"Middlesbrough","era":"mod","nn":243,"risk":27,"cat":"green"},{"name":"Acklam Park Club","lat":54.55108,"lon":-1.2523,"postcode":"TS5 7SL","la":"Middlesbrough","era":"other","nn":496,"risk":29,"cat":"green"},{"name":"Acklam Rugby Club","lat":54.55705,"lon":-1.2179,"postcode":"TS4 3PR","la":"Middlesbrough","era":"other","nn":543,"risk":32,"cat":"amber"},{"name":"Apple Tree","lat":54.53659,"lon":-1.21352,"postcode":"TS7 8RH","la":"Middlesbrough","era":"other","nn":438,"risk":31,"cat":"amber"},{"name":"Bar Cuda","lat":54.5768,"lon":-1.23416,"postcode":"TS1 1QD","la":"Middlesbrough","era":"mod","nn":47,"risk":26,"cat":"green"},{"name":"Beechwood & Easterside DSC","lat":54.54689,"lon":-1.21875,"postcode":"TS4 3PP","la":"Middlesbrough","era":"other","nn":407,"risk":46,"cat":"amber"},{"name":"Bier & Beer","lat":54.57669,"lon":-1.23487,"postcode":"TS1 1NG","la":"Middlesbrough","era":"other","nn":10,"risk":26,"cat":"green"},{"name":"BluebellHotel/KTown/ChikBox/Locked&Loaded/88Street/SinCity/MightyBurge","lat":54.53252,"lon":-1.24211,"postcode":"TS5 7HL","la":"Middlesbrough","era":"other","nn":774,"risk":36,"cat":"amber"},{"name":"Brambles Farm Social Club","lat":54.56927,"lon":-1.18536,"postcode":"TS3 9EB","la":"Middlesbrough","era":"other","nn":307,"risk":33,"cat":"amber"},{"name":"Cargo Fleet Club","lat":54.56291,"lon":-1.19144,"postcode":"TS3 8NN","la":"Middlesbrough","era":"other","nn":600,"risk":35,"cat":"amber"},{"name":"Central Hotel","lat":54.57643,"lon":-1.23285,"postcode":"TS1 1LT","la":"Middlesbrough","era":"other","nn":0,"risk":26,"cat":"green"},{"name":"Chapel","lat":54.56924,"lon":-1.25745,"postcode":"TS5 4BY","la":"Middlesbrough","era":"other","nn":90,"risk":44,"cat":"amber"},{"name":"Chequers/Mint","lat":54.57771,"lon":-1.23402,"postcode":"TS1 1QA","la":"Middlesbrough","era":"other","nn":39,"risk":26,"cat":"green"},{"name":"Cochranes Sports & Social Club","lat":54.543,"lon":-1.25554,"postcode":"TS5 7EZ","la":"Middlesbrough","era":"mod","nn":126,"risk":26,"cat":"green"},{"name":"Dickens Inn","lat":54.57087,"lon":-1.2348,"postcode":"TS1 3BZ","la":"Middlesbrough","era":"trad","nn":0,"risk":26,"cat":"green"},{"name":"Disgraceland","lat":54.57334,"lon":-1.23639,"postcode":"TS1 2LF","la":"Middlesbrough","era":"other","nn":5,"risk":26,"cat":"green"},{"name":"Dorman Long Athletic Club","lat":54.5566,"lon":-1.24879,"postcode":"TS5 5DT","la":"Middlesbrough","era":"other","nn":239,"risk":27,"cat":"green"},{"name":"Dr Watson\u2019s","lat":54.57352,"lon":-1.23651,"postcode":"TS1 2LH","la":"Middlesbrough","era":"other","nn":19,"risk":26,"cat":"green"},{"name":"Erimus Quoit & Rifle Club","lat":54.55987,"lon":-1.24128,"postcode":"TS5 6JB","la":"Middlesbrough","era":"other","nn":118,"risk":26,"cat":"green"},{"name":"Flares/Reflex","lat":54.5779,"lon":-1.23452,"postcode":"TS1 1PQ","la":"Middlesbrough","era":"other","nn":39,"risk":26,"cat":"green"},{"name":"Hemlington Social Club","lat":54.52534,"lon":-1.24039,"postcode":"TS8 9JH","la":"Middlesbrough","era":"mod","nn":0,"risk":31,"cat":"amber"},{"name":"Hit The Bar","lat":54.57963,"lon":-1.23192,"postcode":"TS2 1NW","la":"Middlesbrough","era":"other","nn":253,"risk":27,"cat":"green"},{"name":"Hollywood Bowl","lat":54.56018,"lon":-1.27384,"postcode":"TS17 7BU","la":"Middlesbrough","era":"trad","nn":1173,"risk":56,"cat":"amber"},{"name":"Intrepid Explorer Middlesborough","lat":54.56855,"lon":-1.23912,"postcode":"TS1 3QS","la":"Middlesbrough","era":"other","nn":196,"risk":27,"cat":"green"},{"name":"Jack and Jill","lat":54.56002,"lon":-1.20633,"postcode":"TS3 7PE","la":"Middlesbrough","era":"other","nn":816,"risk":49,"cat":"amber"},{"name":"Jack Hatfield Sports Club","lat":54.54993,"lon":-1.25974,"postcode":"TS5 7BN","la":"Middlesbrough","era":"other","nn":293,"risk":28,"cat":"green"},{"name":"Jovial Monk","lat":54.56977,"lon":-1.21233,"postcode":"TS3 6NQ","la":"Middlesbrough","era":"trad","nn":47,"risk":26,"cat":"green"},{"name":"Legends","lat":54.56615,"lon":-1.22293,"postcode":"TS4 2JQ","la":"Middlesbrough","era":"other","nn":62,"risk":26,"cat":"green"},{"name":"Lingfield Farm","lat":54.52258,"lon":-1.21872,"postcode":"TS8 0FA","la":"Middlesbrough","era":"other","nn":251,"risk":45,"cat":"amber"},{"name":"Longlands Club","lat":54.56637,"lon":-1.22381,"postcode":"TS4 2HF","la":"Middlesbrough","era":"other","nn":62,"risk":26,"cat":"green"},{"name":"Marton Cricket Club","lat":54.53577,"lon":-1.20688,"postcode":"TS7 8JU","la":"Middlesbrough","era":"other","nn":204,"risk":32,"cat":"amber"},{"name":"Middlesbrough & District Motor Club","lat":54.52953,"lon":-1.23127,"postcode":"TS8 0RP","la":"Middlesbrough","era":"other","nn":750,"risk":36,"cat":"amber"},{"name":"Middlesbrough Bowling Club","lat":54.55688,"lon":-1.24188,"postcode":"TS5 5QL","la":"Middlesbrough","era":"other","nn":128,"risk":26,"cat":"green"},{"name":"Middlesbrough Conservative Club","lat":54.55574,"lon":-1.24159,"postcode":"TS5 5PN","la":"Middlesbrough","era":"other","nn":119,"risk":26,"cat":"green"},{"name":"Middlesbrough Empire","lat":54.57594,"lon":-1.23322,"postcode":"TS1 2RT","la":"Middlesbrough","era":"other","nn":60,"risk":26,"cat":"green"},{"name":"Middlesbrough No.1 Amalgamated Club","lat":54.55259,"lon":-1.18591,"postcode":"TS3 0JJ","la":"Middlesbrough","era":"other","nn":377,"risk":46,"cat":"amber"},{"name":"Middlesbrough Theatre","lat":54.55482,"lon":-1.24062,"postcode":"TS5 6SA","la":"Middlesbrough","era":"other","nn":0,"risk":26,"cat":"green"},{"name":"Middlesbrough Town Hall (Venue)","lat":54.57598,"lon":-1.23506,"postcode":"TS1 2RU","la":"Middlesbrough","era":"other","nn":70,"risk":26,"cat":"green"},{"name":"North Ormesby Conservative Club","lat":54.57016,"lon":-1.2098,"postcode":"TS3 6NN","la":"Middlesbrough","era":"other","nn":130,"risk":27,"cat":"green"},{"name":"North Ormesby Institute","lat":54.54932,"lon":-1.19135,"postcode":"TS3 0DY","la":"Middlesbrough","era":"other","nn":506,"risk":47,"cat":"amber"},{"name":"North Ormesby W.M.Club","lat":54.56982,"lon":-1.21367,"postcode":"TS3 6EF","la":"Middlesbrough","era":"other","nn":87,"risk":26,"cat":"green"},{"name":"Nunthorpe And Marton Recreation Club","lat":54.52538,"lon":-1.17023,"postcode":"TS7 0JA","la":"Middlesbrough","era":"other","nn":0,"risk":46,"cat":"amber"},{"name":"Nunthorpe Bowling Club","lat":54.52538,"lon":-1.17023,"postcode":"TS7 0JA","la":"Middlesbrough","era":"other","nn":0,"risk":46,"cat":"amber"},{"name":"O'Connells","lat":54.57372,"lon":-1.23641,"postcode":"TS1 2LL","la":"Middlesbrough","era":"other","nn":0,"risk":26,"cat":"green"},{"name":"Ormesby Club & Institute","lat":54.54954,"lon":-1.18336,"postcode":"TS7 9PB","la":"Middlesbrough","era":"other","nn":377,"risk":46,"cat":"amber"},{"name":"Parkway Social Club","lat":54.52427,"lon":-1.21615,"postcode":"TS8 0TJ","la":"Middlesbrough","era":"mod","nn":251,"risk":45,"cat":"amber"},{"name":"Polton Allstars at Top Corner Sports","lat":54.57079,"lon":-1.18932,"postcode":"TS3 8DR","la":"Middlesbrough","era":"other","nn":307,"risk":33,"cat":"amber"},{"name":"Priory Social Club","lat":54.56081,"lon":-1.22328,"postcode":"TS4 2PB","la":"Middlesbrough","era":"mod","nn":117,"risk":26,"cat":"green"},{"name":"Rudds Arms","lat":54.53433,"lon":-1.20491,"postcode":"TS7 8BG","la":"Middlesbrough","era":"trad","nn":204,"risk":32,"cat":"amber"},{"name":"Saltersgill Hotel","lat":54.55097,"lon":-1.23401,"postcode":"TS4 3LD","la":"Middlesbrough","era":"other","nn":604,"risk":30,"cat":"green"},{"name":"Sapphires","lat":54.57664,"lon":-1.23811,"postcode":"TS1 1LE","la":"Middlesbrough","era":"other","nn":0,"risk":26,"cat":"green"},{"name":"Sapphires","lat":54.57664,"lon":-1.23811,"postcode":"TS1 1LE","la":"Middlesbrough","era":"other","nn":0,"risk":26,"cat":"green"},{"name":"Sherlocks","lat":54.57335,"lon":-1.23647,"postcode":"TS1 2LF","la":"Middlesbrough","era":"other","nn":0,"risk":26,"cat":"green"},{"name":"Skins and Needles","lat":54.57184,"lon":-1.23792,"postcode":"TS1 3RB","la":"Middlesbrough","era":"other","nn":65,"risk":26,"cat":"green"},{"name":"Southern Cross","lat":54.52675,"lon":-1.19356,"postcode":"TS7 8NX","la":"Middlesbrough","era":"trad","nn":744,"risk":51,"cat":"amber"},{"name":"St. Francis Social Club","lat":54.55161,"lon":-1.26325,"postcode":"TS5 4PS","la":"Middlesbrough","era":"mod","nn":293,"risk":30,"cat":"green"},{"name":"Swatter's Carr","lat":54.57027,"lon":-1.23841,"postcode":"TS1 3QW","la":"Middlesbrough","era":"other","nn":0,"risk":26,"cat":"green"},{"name":"Teesside Bridge Social Club","lat":54.57006,"lon":-1.21181,"postcode":"TS3 6NH","la":"Middlesbrough","era":"mod","nn":47,"risk":26,"cat":"green"},{"name":"Teesside University -The Hub and The Terrace","lat":54.57209,"lon":-1.23471,"postcode":"TS1 3BA","la":"Middlesbrough","era":"mod","nn":102,"risk":26,"cat":"green"},{"name":"Tennis World","lat":54.54221,"lon":-1.2095,"postcode":"TS4 3SA","la":"Middlesbrough","era":"other","nn":412,"risk":28,"cat":"green"},{"name":"The Bottled Note","lat":54.57272,"lon":-1.23646,"postcode":"TS1 3AA","la":"Middlesbrough","era":"other","nn":37,"risk":26,"cat":"green"},{"name":"The Bridge Cafe Bar","lat":54.57814,"lon":-1.21778,"postcode":"TS3 6RS","la":"Middlesbrough","era":"other","nn":387,"risk":28,"cat":"green"},{"name":"The Brunton Arms","lat":54.53099,"lon":-1.18466,"postcode":"TS7 0AQ","la":"Middlesbrough","era":"trad","nn":744,"risk":51,"cat":"amber"},{"name":"The Buccaneer","lat":54.56717,"lon":-1.21156,"postcode":"TS3 6HB","la":"Middlesbrough","era":"other","nn":292,"risk":28,"cat":"green"},{"name":"The Chairman","lat":54.57372,"lon":-1.23641,"postcode":"TS1 2LL","la":"Middlesbrough","era":"other","nn":0,"risk":26,"cat":"green"},{"name":"The Cleveland Hotel","lat":54.56065,"lon":-1.24252,"postcode":"TS5 6JG","la":"Middlesbrough","era":"other","nn":88,"risk":26,"cat":"green"},{"name":"The Cleveland Huntsman","lat":54.52534,"lon":-1.24039,"postcode":"TS8 9JH","la":"Middlesbrough","era":"other","nn":0,"risk":31,"cat":"amber"},{"name":"The Coronation Inn","lat":54.54539,"lon":-1.25885,"postcode":"TS5 8AY","la":"Middlesbrough","era":"trad","nn":217,"risk":27,"cat":"green"},{"name":"The Coulby Farm","lat":54.51668,"lon":-1.22096,"postcode":"TS8 9DX","la":"Middlesbrough","era":"other","nn":672,"risk":48,"cat":"amber"},{"name":"The Devils Advocate","lat":54.57269,"lon":-1.23589,"postcode":"TS1 3AA","la":"Middlesbrough","era":"other","nn":37,"risk":26,"cat":"green"},{"name":"The Discovery(88th st/ Value Mighty/ Sin City Burger/ K-town/Chik Box)","lat":54.5763,"lon":-1.23836,"postcode":"TS1 5AE","la":"Middlesbrough","era":"other","nn":41,"risk":26,"cat":"green"},{"name":"The Green Tree","lat":54.57572,"lon":-1.24167,"postcode":"TS1 5EH","la":"Middlesbrough","era":"other","nn":223,"risk":27,"cat":"green"},{"name":"The Grenadier","lat":54.5382,"lon":-1.26215,"postcode":"TS5 8SB","la":"Middlesbrough","era":"other","nn":683,"risk":35,"cat":"amber"},{"name":"The Highfield","lat":54.56158,"lon":-1.22452,"postcode":"TS4 2PA","la":"Middlesbrough","era":"other","nn":117,"risk":26,"cat":"green"},{"name":"The Infant Hercules","lat":54.57413,"lon":-1.23611,"postcode":"TS1 2LS","la":"Middlesbrough","era":"other","nn":50,"risk":26,"cat":"green"},{"name":"The Isaac Wilson","lat":54.57797,"lon":-1.23754,"postcode":"TS1 1SF","la":"Middlesbrough","era":"other","nn":153,"risk":27,"cat":"green"},{"name":"The Linthorpe Hotel","lat":54.55706,"lon":-1.24517,"postcode":"TS5 6SQ","la":"Middlesbrough","era":"other","nn":213,"risk":27,"cat":"green"},{"name":"The Lobby","lat":54.57661,"lon":-1.23492,"postcode":"TS1 1NG","la":"Middlesbrough","era":"other","nn":10,"risk":26,"cat":"green"},{"name":"The Master Cooper","lat":54.54378,"lon":-1.25694,"postcode":"TS5 7EL","la":"Middlesbrough","era":"trad","nn":126,"risk":26,"cat":"green"},{"name":"The Navigation Hotel","lat":54.57645,"lon":-1.21181,"postcode":"TS3 6AR","la":"Middlesbrough","era":"other","nn":276,"risk":28,"cat":"green"},{"name":"The Nuthatch","lat":54.57372,"lon":-1.23641,"postcode":"TS1 2LL","la":"Middlesbrough","era":"other","nn":0,"risk":26,"cat":"green"},{"name":"The Pig Iron","lat":54.57643,"lon":-1.23285,"postcode":"TS1 1LT","la":"Middlesbrough","era":"other","nn":0,"risk":26,"cat":"green"},{"name":"The Red Lion","lat":54.56143,"lon":-1.2423,"postcode":"TS5 6HW","la":"Middlesbrough","era":"trad","nn":88,"risk":26,"cat":"green"},{"name":"The Six Medals","lat":54.57498,"lon":-1.21526,"postcode":"TS3 6AT","la":"Middlesbrough","era":"other","nn":276,"risk":28,"cat":"green"},{"name":"The Southfield/88thStreet/ValueMighty/SinCityBurger/PizzaAmore/DoughMa","lat":54.57087,"lon":-1.2348,"postcode":"TS1 3BZ","la":"Middlesbrough","era":"other","nn":0,"risk":26,"cat":"green"},{"name":"The Theatre Club","lat":54.55482,"lon":-1.24062,"postcode":"TS5 6SA","la":"Middlesbrough","era":"other","nn":0,"risk":26,"cat":"green"},{"name":"The Thorntree","lat":54.56501,"lon":-1.18286,"postcode":"TS3 9ND","la":"Middlesbrough","era":"other","nn":500,"risk":34,"cat":"amber"},{"name":"The Tower Club Ballroom","lat":54.56899,"lon":-1.25877,"postcode":"TS5 4BT","la":"Middlesbrough","era":"other","nn":90,"risk":44,"cat":"amber"},{"name":"The Townhouse","lat":54.57027,"lon":-1.23841,"postcode":"TS1 3QW","la":"Middlesbrough","era":"other","nn":0,"risk":26,"cat":"green"},{"name":"The Twisted Lip","lat":54.57335,"lon":-1.23647,"postcode":"TS1 2LF","la":"Middlesbrough","era":"other","nn":0,"risk":26,"cat":"green"},{"name":"The Viking Hotel","lat":54.54386,"lon":-1.21522,"postcode":"TS4 3PX","la":"Middlesbrough","era":"trad","nn":407,"risk":33,"cat":"amber"},{"name":"TS One","lat":54.57125,"lon":-1.23794,"postcode":"TS1 3RF","la":"Middlesbrough","era":"other","nn":65,"risk":26,"cat":"green"},{"name":"Western Social Club","lat":54.57193,"lon":-1.24545,"postcode":"TS1 5PJ","la":"Middlesbrough","era":"mod","nn":486,"risk":29,"cat":"green"},{"name":"Buck Inn","lat":54.38912,"lon":-1.14136,"postcode":"TS9 7JL","la":"North Yorkshire","era":"trad","nn":6275,"risk":72,"cat":"red"},{"name":"Captain Cook Inn","lat":54.55581,"lon":-0.79464,"postcode":"TS13 5AD","la":"North Yorkshire","era":"trad","nn":279,"risk":19,"cat":"green"},{"name":"Cod And Lobster Inn","lat":54.55883,"lon":-0.7922,"postcode":"TS13 5BQ","la":"North Yorkshire","era":"trad","nn":35,"risk":20,"cat":"green"},{"name":"Fox And Hounds Inn","lat":54.55076,"lon":-0.80039,"postcode":"TS13 5DT","la":"North Yorkshire","era":"trad","nn":517,"risk":35,"cat":"amber"},{"name":"Fox Inn","lat":54.53002,"lon":-0.82161,"postcode":"TS13 5EB","la":"North Yorkshire","era":"trad","nn":2682,"risk":56,"cat":"amber"},{"name":"Great Ayton Conservative Club Committee","lat":54.48899,"lon":-1.1422,"postcode":"TS9 6NN","la":"North Yorkshire","era":"other","nn":540,"risk":38,"cat":"amber"},{"name":"Kings Head","lat":54.45079,"lon":-1.28001,"postcode":"TS15 0DA","la":"North Yorkshire","era":"trad","nn":4500,"risk":68,"cat":"red"},{"name":"Runswick Bay Hotel","lat":54.53422,"lon":-0.7565,"postcode":"TS13 5HR","la":"North Yorkshire","era":"other","nn":1346,"risk":46,"cat":"amber"},{"name":"Spread Eagle","lat":54.4696,"lon":-1.1921,"postcode":"TS9 5AD","la":"North Yorkshire","era":"trad","nn":2980,"risk":58,"cat":"amber"},{"name":"Staithes Athletic & Social Club","lat":54.55336,"lon":-0.79372,"postcode":"TS13 5AY","la":"North Yorkshire","era":"mod","nn":279,"risk":19,"cat":"green"},{"name":"The Badger Hounds","lat":54.54027,"lon":-0.77613,"postcode":"TS13 5JX","la":"North Yorkshire","era":"trad","nn":96,"risk":35,"cat":"amber"},{"name":"The Bay Horse","lat":54.44601,"lon":-1.15527,"postcode":"TS9 7HA","la":"North Yorkshire","era":"trad","nn":263,"risk":21,"cat":"green"},{"name":"The Black Swan","lat":54.4459,"lon":-1.1706,"postcode":"TS9 7AW","la":"North Yorkshire","era":"trad","nn":947,"risk":38,"cat":"amber"},{"name":"The Blackwell Ox","lat":54.43274,"lon":-1.21773,"postcode":"TS9 7DJ","la":"North Yorkshire","era":"other","nn":3381,"risk":60,"cat":"amber"},{"name":"The Brown Cow","lat":54.53961,"lon":-0.77518,"postcode":"TS13 5ET","la":"North Yorkshire","era":"other","nn":96,"risk":35,"cat":"amber"},{"name":"The Jet Miners Inn","lat":54.44826,"lon":-1.15653,"postcode":"TS9 7EF","la":"North Yorkshire","era":"trad","nn":263,"risk":21,"cat":"green"},{"name":"The Royal George","lat":54.55889,"lon":-0.79274,"postcode":"TS13 5BH","la":"North Yorkshire","era":"trad","nn":35,"risk":20,"cat":"green"},{"name":"The Sun Inn","lat":54.33428,"lon":-1.11854,"postcode":"TS9 7LQ","la":"North Yorkshire","era":"trad","nn":6275,"risk":72,"cat":"red"},{"name":"The Tannery","lat":54.48872,"lon":-1.13386,"postcode":"TS9 6BW","la":"North Yorkshire","era":"other","nn":540,"risk":38,"cat":"amber"},{"name":"The Wainstones Hotel","lat":54.45067,"lon":-1.15723,"postcode":"TS9 7EW","la":"North Yorkshire","era":"other","nn":272,"risk":34,"cat":"amber"},{"name":"White Hart Inn","lat":54.50584,"lon":-0.7632,"postcode":"TS13 5LU","la":"North Yorkshire","era":"trad","nn":1862,"risk":50,"cat":"amber"},{"name":"Angels","lat":54.61716,"lon":-1.06131,"postcode":"TS10 3DH","la":"Redcar and Cleveland","era":"trad","nn":0,"risk":24,"cat":"green"},{"name":"Aruba","lat":54.61701,"lon":-1.05874,"postcode":"TS10 3AW","la":"Redcar and Cleveland","era":"other","nn":106,"risk":25,"cat":"green"},{"name":"Bar Creations","lat":54.55505,"lon":-0.98538,"postcode":"TS12 2DD","la":"Redcar and Cleveland","era":"mod","nn":0,"risk":29,"cat":"green"},{"name":"Bar eleven","lat":54.61772,"lon":-1.06952,"postcode":"TS10 1EE","la":"Redcar and Cleveland","era":"mod","nn":40,"risk":24,"cat":"green"},{"name":"Bar Noir","lat":54.61818,"lon":-1.06843,"postcode":"TS10 3EA","la":"Redcar and Cleveland","era":"mod","nn":2,"risk":24,"cat":"green"},{"name":"Birdies","lat":54.58327,"lon":-0.97253,"postcode":"TS12 1AH","la":"Redcar and Cleveland","era":"other","nn":0,"risk":24,"cat":"green"},{"name":"Brass Monkey Beer Boutique","lat":54.53542,"lon":-1.05299,"postcode":"TS14 6BG","la":"Redcar and Cleveland","era":"trad","nn":23,"risk":24,"cat":"green"},{"name":"Brotton Bowls Club","lat":54.57043,"lon":-0.93452,"postcode":"TS12 2UE","la":"Redcar and Cleveland","era":"other","nn":191,"risk":28,"cat":"green"},{"name":"Brotton Working Mens Club","lat":54.5674,"lon":-0.93947,"postcode":"TS12 2PD","la":"Redcar and Cleveland","era":"trad","nn":80,"risk":27,"cat":"green"},{"name":"Carlin How & District Working Men's Club & Institute","lat":54.56415,"lon":-0.9085,"postcode":"TS13 4DG","la":"Redcar and Cleveland","era":"trad","nn":1426,"risk":57,"cat":"amber"},{"name":"Cleveland Hotel","lat":54.61794,"lon":-1.07658,"postcode":"TS10 1SQ","la":"Redcar and Cleveland","era":"other","nn":114,"risk":25,"cat":"green"},{"name":"Coatham Road Social Club","lat":54.61759,"lon":-1.07443,"postcode":"TS10 1RY","la":"Redcar and Cleveland","era":"mod","nn":143,"risk":25,"cat":"green"},{"name":"Corus Sports & Social Club","lat":54.60479,"lon":-1.09669,"postcode":"TS10 5LZ","la":"Redcar and Cleveland","era":"mod","nn":282,"risk":31,"cat":"amber"},{"name":"Cross Keys (Upsall)","lat":54.53405,"lon":-1.12486,"postcode":"TS14 6RW","la":"Redcar and Cleveland","era":"trad","nn":2834,"risk":67,"cat":"red"},{"name":"Crown and Anchor","lat":54.61716,"lon":-1.06131,"postcode":"TS10 3DH","la":"Redcar and Cleveland","era":"trad","nn":0,"risk":24,"cat":"green"},{"name":"Duke William","lat":54.56114,"lon":-0.98948,"postcode":"TS12 2ES","la":"Redcar and Cleveland","era":"trad","nn":441,"risk":32,"cat":"amber"},{"name":"Ennis Square Social Club","lat":54.6078,"lon":-1.09798,"postcode":"TS10 5JR","la":"Redcar and Cleveland","era":"mod","nn":300,"risk":31,"cat":"amber"},{"name":"Eston & Normanby Social Club","lat":54.55869,"lon":-1.15248,"postcode":"TS6 0QU","la":"Redcar and Cleveland","era":"mod","nn":170,"risk":25,"cat":"green"},{"name":"Eston Institute & Working Mens Club","lat":54.56004,"lon":-1.14228,"postcode":"TS6 9JD","la":"Redcar and Cleveland","era":"trad","nn":89,"risk":25,"cat":"green"},{"name":"Eston Labour Club","lat":54.56614,"lon":-1.15025,"postcode":"TS6 9RH","la":"Redcar and Cleveland","era":"other","nn":261,"risk":26,"cat":"green"},{"name":"Funky Monkey","lat":54.61723,"lon":-1.06035,"postcode":"TS10 3DH","la":"Redcar and Cleveland","era":"trad","nn":62,"risk":25,"cat":"green"},{"name":"Golden Lion","lat":54.55363,"lon":-0.88377,"postcode":"TS13 4HG","la":"Redcar and Cleveland","era":"trad","nn":0,"risk":24,"cat":"green"},{"name":"Guisborough Conservative Club","lat":54.53453,"lon":-1.05283,"postcode":"TS14 6QE","la":"Redcar and Cleveland","era":"other","nn":63,"risk":25,"cat":"green"},{"name":"Guisborough Cricket Club","lat":54.5336,"lon":-1.05086,"postcode":"TS14 7DQ","la":"Redcar and Cleveland","era":"other","nn":80,"risk":25,"cat":"green"},{"name":"Guisborough Quoit Social Club","lat":54.53748,"lon":-1.0524,"postcode":"TS14 6JP","la":"Redcar and Cleveland","era":"mod","nn":186,"risk":25,"cat":"green"},{"name":"Guisborough Rugby Club","lat":54.5311,"lon":-1.04802,"postcode":"TS14 7BB","la":"Redcar and Cleveland","era":"other","nn":297,"risk":26,"cat":"green"},{"name":"Guisborough Town F C","lat":54.53558,"lon":-1.06281,"postcode":"TS14 6LE","la":"Redcar and Cleveland","era":"other","nn":0,"risk":24,"cat":"green"},{"name":"Harry's Bar","lat":54.53581,"lon":-1.05073,"postcode":"TS14 6BN","la":"Redcar and Cleveland","era":"other","nn":89,"risk":25,"cat":"green"},{"name":"Hop & Grape","lat":54.6179,"lon":-1.06248,"postcode":"TS10 3DE","la":"Redcar and Cleveland","era":"other","nn":112,"risk":25,"cat":"green"},{"name":"Ibo\u2019s Bunker","lat":54.55398,"lon":-0.88954,"postcode":"TS13 4PW","la":"Redcar and Cleveland","era":"other","nn":0,"risk":24,"cat":"green"},{"name":"Jimmy Macs","lat":54.61816,"lon":-1.06841,"postcode":"TS10 3EA","la":"Redcar and Cleveland","era":"other","nn":0,"risk":24,"cat":"green"},{"name":"Kenzies","lat":54.61933,"lon":-1.07,"postcode":"TS10 1AN","la":"Redcar and Cleveland","era":"other","nn":31,"risk":24,"cat":"green"},{"name":"King George V Bowling Club","lat":54.53558,"lon":-1.06281,"postcode":"TS14 6LE","la":"Redcar and Cleveland","era":"trad","nn":0,"risk":24,"cat":"green"},{"name":"Kingfisher Hotel","lat":54.606,"lon":-1.08871,"postcode":"TS10 5HN","la":"Redcar and Cleveland","era":"trad","nn":334,"risk":32,"cat":"amber"},{"name":"Kings Head","lat":54.53491,"lon":-1.05428,"postcode":"TS14 6AF","la":"Redcar and Cleveland","era":"trad","nn":0,"risk":24,"cat":"green"},{"name":"KOZE","lat":54.58351,"lon":-0.97404,"postcode":"TS12 1AQ","la":"Redcar and Cleveland","era":"other","nn":68,"risk":25,"cat":"green"},{"name":"Lakes Social Club","lat":54.60695,"lon":-1.07218,"postcode":"TS10 4BB","la":"Redcar and Cleveland","era":"mod","nn":623,"risk":49,"cat":"amber"},{"name":"Lazenby Social Club","lat":54.56988,"lon":-1.11494,"postcode":"TS6 8DX","la":"Redcar and Cleveland","era":"mod","nn":0,"risk":44,"cat":"amber"},{"name":"Lobster Inn","lat":54.61738,"lon":-1.07806,"postcode":"TS10 1RZ","la":"Redcar and Cleveland","era":"trad","nn":114,"risk":25,"cat":"green"},{"name":"Loftus Cricket & Athletic Club","lat":54.55409,"lon":-0.87734,"postcode":"TS13 4LG","la":"Redcar and Cleveland","era":"other","nn":418,"risk":27,"cat":"green"},{"name":"Loftus West Road Social Club","lat":54.5547,"lon":-0.89108,"postcode":"TS13 4RG","la":"Redcar and Cleveland","era":"mod","nn":127,"risk":25,"cat":"green"},{"name":"Mad Alice's","lat":54.55398,"lon":-0.88954,"postcode":"TS13 4PW","la":"Redcar and Cleveland","era":"other","nn":0,"risk":24,"cat":"green"},{"name":"MaQueens","lat":54.61823,"lon":-1.06983,"postcode":"TS10 1DT","la":"Redcar and Cleveland","era":"trad","nn":23,"risk":24,"cat":"green"},{"name":"Marske-by-the-Sea Cricket Club","lat":54.5894,"lon":-1.01131,"postcode":"TS11 7HB","la":"Redcar and Cleveland","era":"other","nn":220,"risk":26,"cat":"green"},{"name":"Mermaid Inn","lat":54.53546,"lon":-1.05212,"postcode":"TS14 6BG","la":"Redcar and Cleveland","era":"trad","nn":57,"risk":25,"cat":"green"},{"name":"Micklow Taps","lat":54.55357,"lon":-0.88425,"postcode":"TS13 4HG","la":"Redcar and Cleveland","era":"mod","nn":32,"risk":24,"cat":"green"},{"name":"Miners Arms","lat":54.55505,"lon":-0.98538,"postcode":"TS12 2DD","la":"Redcar and Cleveland","era":"trad","nn":0,"risk":29,"cat":"green"},{"name":"Moorsholm Cricket and Athletic Sports Club","lat":54.53151,"lon":-0.95949,"postcode":"TS12 3JX","la":"Redcar and Cleveland","era":"other","nn":1984,"risk":61,"cat":"red"},{"name":"New Marske Institute Club","lat":54.58251,"lon":-1.03852,"postcode":"TS11 8EG","la":"Redcar and Cleveland","era":"other","nn":0,"risk":42,"cat":"amber"},{"name":"New Marske Sports Club","lat":54.58251,"lon":-1.03852,"postcode":"TS11 8EG","la":"Redcar and Cleveland","era":"other","nn":0,"risk":42,"cat":"amber"},{"name":"No. Twenty Three","lat":54.58407,"lon":-0.97348,"postcode":"TS12 1DJ","la":"Redcar and Cleveland","era":"other","nn":48,"risk":25,"cat":"green"},{"name":"Olive or Twist","lat":54.53453,"lon":-1.05719,"postcode":"TS14 6AP","la":"Redcar and Cleveland","era":"other","nn":0,"risk":24,"cat":"green"},{"name":"Pauly's","lat":54.61816,"lon":-1.06841,"postcode":"TS10 3EA","la":"Redcar and Cleveland","era":"other","nn":0,"risk":24,"cat":"green"},{"name":"Peggy Junes","lat":54.61832,"lon":-1.0695,"postcode":"TS10 1DY","la":"Redcar and Cleveland","era":"other","nn":23,"risk":24,"cat":"green"},{"name":"Queens Head","lat":54.55861,"lon":-1.14016,"postcode":"TS6 9LA","la":"Redcar and Cleveland","era":"trad","nn":95,"risk":25,"cat":"green"},{"name":"Redcar Borough Park Bowling Club","lat":54.60905,"lon":-1.06321,"postcode":"TS10 2FD","la":"Redcar and Cleveland","era":"other","nn":531,"risk":28,"cat":"green"},{"name":"Redcar Cricket Club","lat":54.61594,"lon":-1.0776,"postcode":"TS10 1QH","la":"Redcar and Cleveland","era":"other","nn":162,"risk":25,"cat":"green"},{"name":"Redcar Masonic Club","lat":54.61884,"lon":-1.06791,"postcode":"TS10 3BY","la":"Redcar and Cleveland","era":"trad","nn":78,"risk":25,"cat":"green"},{"name":"Redcar Rugby Club","lat":54.60403,"lon":-1.04135,"postcode":"TS10 3RW","la":"Redcar and Cleveland","era":"other","nn":0,"risk":44,"cat":"amber"},{"name":"Redcar Unionist Club","lat":54.61572,"lon":-1.06049,"postcode":"TS10 3JH","la":"Redcar and Cleveland","era":"other","nn":168,"risk":25,"cat":"green"},{"name":"Rita's Pantry","lat":54.61954,"lon":-1.0685,"postcode":"TS10 3AA","la":"Redcar and Cleveland","era":"other","nn":60,"risk":25,"cat":"green"},{"name":"Saltburn Conservative & Unionist Club","lat":54.58311,"lon":-0.97151,"postcode":"TS12 1AS","la":"Redcar and Cleveland","era":"other","nn":68,"risk":25,"cat":"green"},{"name":"Saltburn Cricket, Bowls & Tennis Club","lat":54.57925,"lon":-0.98126,"postcode":"TS12 1HJ","la":"Redcar and Cleveland","era":"other","nn":453,"risk":27,"cat":"green"},{"name":"Saltburn Masonic Trust Ltd","lat":54.58569,"lon":-0.97371,"postcode":"TS12 1DZ","la":"Redcar and Cleveland","era":"trad","nn":181,"risk":25,"cat":"green"},{"name":"Ship Inn","lat":54.55909,"lon":-1.14842,"postcode":"TS6 9EG","la":"Redcar and Cleveland","era":"trad","nn":95,"risk":25,"cat":"green"},{"name":"Simians","lat":54.61871,"lon":-1.06911,"postcode":"TS10 1DL","la":"Redcar and Cleveland","era":"other","nn":51,"risk":25,"cat":"green"},{"name":"Smugglers Den","lat":54.5921,"lon":-1.02058,"postcode":"TS11 6AA","la":"Redcar and Cleveland","era":"other","nn":119,"risk":25,"cat":"green"},{"name":"St Mary's Social Club","lat":54.57473,"lon":-1.14975,"postcode":"TS6 7HP","la":"Redcar and Cleveland","era":"mod","nn":955,"risk":51,"cat":"amber"},{"name":"St Peters Social Club","lat":54.5746,"lon":-1.16974,"postcode":"TS6 6SP","la":"Redcar and Cleveland","era":"mod","nn":1169,"risk":55,"cat":"amber"},{"name":"St William's Social Club","lat":54.60667,"lon":-1.09375,"postcode":"TS10 5LH","la":"Redcar and Cleveland","era":"mod","nn":282,"risk":31,"cat":"amber"},{"name":"Stapylton Arms","lat":54.55899,"lon":-1.14989,"postcode":"TS6 9DY","la":"Redcar and Cleveland","era":"trad","nn":95,"risk":25,"cat":"green"},{"name":"Starting Gate","lat":54.59568,"lon":-1.06781,"postcode":"TS10 4PS","la":"Redcar and Cleveland","era":"other","nn":794,"risk":50,"cat":"amber"},{"name":"Station Hotel","lat":54.55295,"lon":-0.89309,"postcode":"TS13 4QB","la":"Redcar and Cleveland","era":"other","nn":233,"risk":26,"cat":"green"},{"name":"Teesside Athletic Football Club Ltd","lat":54.60403,"lon":-1.04135,"postcode":"TS10 3RW","la":"Redcar and Cleveland","era":"other","nn":0,"risk":44,"cat":"amber"},{"name":"Territorial Club","lat":54.53098,"lon":-1.06316,"postcode":"TS14 6QW","la":"Redcar and Cleveland","era":"other","nn":452,"risk":27,"cat":"green"},{"name":"That's the Spirit","lat":54.61951,"lon":-1.06943,"postcode":"TS10 1AP","la":"Redcar and Cleveland","era":"other","nn":41,"risk":24,"cat":"green"},{"name":"The Abbey Inn","lat":54.53905,"lon":-1.05097,"postcode":"TS14 6HR","la":"Redcar and Cleveland","era":"trad","nn":197,"risk":26,"cat":"green"},{"name":"The Anchor Inn","lat":54.5336,"lon":-1.04963,"postcode":"TS14 7AB","la":"Redcar and Cleveland","era":"trad","nn":80,"risk":25,"cat":"green"},{"name":"The Bank Bar Redcar","lat":54.61905,"lon":-1.06997,"postcode":"TS10 1AN","la":"Redcar and Cleveland","era":"mod","nn":16,"risk":24,"cat":"green"},{"name":"The Beacon Eston","lat":54.5648,"lon":-1.14692,"postcode":"TS6 9PP","la":"Redcar and Cleveland","era":"other","nn":261,"risk":26,"cat":"green"},{"name":"The Britannia Inn","lat":54.55363,"lon":-0.88377,"postcode":"TS13 4HG","la":"Redcar and Cleveland","era":"trad","nn":0,"risk":24,"cat":"green"},{"name":"The Clarendon","lat":54.59099,"lon":-1.01924,"postcode":"TS11 7BA","la":"Redcar and Cleveland","era":"other","nn":49,"risk":25,"cat":"green"},{"name":"The Cleveland","lat":54.55613,"lon":-1.15464,"postcode":"TS6 0LX","la":"Redcar and Cleveland","era":"other","nn":154,"risk":25,"cat":"green"},{"name":"The Cleveland Bay","lat":54.61236,"lon":-1.05729,"postcode":"TS10 2DD","la":"Redcar and Cleveland","era":"other","nn":427,"risk":27,"cat":"green"},{"name":"The Courtyard","lat":54.53491,"lon":-1.05428,"postcode":"TS14 6AF","la":"Redcar and Cleveland","era":"mod","nn":0,"risk":24,"cat":"green"},{"name":"The Cove","lat":54.59171,"lon":-1.01885,"postcode":"TS11 7LD","la":"Redcar and Cleveland","era":"other","nn":83,"risk":25,"cat":"green"},{"name":"The Deck","lat":54.61851,"lon":-1.06503,"postcode":"TS10 3AF","la":"Redcar and Cleveland","era":"other","nn":177,"risk":25,"cat":"green"},{"name":"The Frigate","lat":54.59135,"lon":-1.01188,"postcode":"TS11 7DH","la":"Redcar and Cleveland","era":"other","nn":220,"risk":26,"cat":"green"},{"name":"The Green Tree","lat":54.56875,"lon":-0.93217,"postcode":"TS12 2PX","la":"Redcar and Cleveland","era":"other","nn":57,"risk":27,"cat":"green"},{"name":"The Guns Bar","lat":54.58415,"lon":-0.97275,"postcode":"TS12 1DH","la":"Redcar and Cleveland","era":"other","nn":48,"risk":25,"cat":"green"},{"name":"The Gypsy Rover","lat":54.61816,"lon":-1.07027,"postcode":"TS10 1DU","la":"Redcar and Cleveland","era":"other","nn":29,"risk":24,"cat":"green"},{"name":"The Half Moon","lat":54.56988,"lon":-1.11494,"postcode":"TS6 8DX","la":"Redcar and Cleveland","era":"other","nn":0,"risk":44,"cat":"amber"},{"name":"The Halt","lat":54.61888,"lon":-1.07032,"postcode":"TS10 1AG","la":"Redcar and Cleveland","era":"other","nn":10,"risk":24,"cat":"green"},{"name":"The Hideout","lat":54.61807,"lon":-1.06936,"postcode":"TS10 1ED","la":"Redcar and Cleveland","era":"other","nn":29,"risk":24,"cat":"green"},{"name":"The Highcliff","lat":54.52632,"lon":-1.05621,"postcode":"TS14 7LQ","la":"Redcar and Cleveland","era":"other","nn":685,"risk":29,"cat":"green"},{"name":"The Hollywell View","lat":54.55207,"lon":-0.90108,"postcode":"TS13 4QH","la":"Redcar and Cleveland","era":"trad","nn":524,"risk":30,"cat":"green"},{"name":"The Ironstone Miner","lat":54.53453,"lon":-1.05719,"postcode":"TS14 6AP","la":"Redcar and Cleveland","era":"other","nn":0,"risk":24,"cat":"green"},{"name":"The Lockdown","lat":54.59056,"lon":-1.01913,"postcode":"TS11 7BA","la":"Redcar and Cleveland","era":"other","nn":49,"risk":25,"cat":"green"},{"name":"The Longacre","lat":54.56764,"lon":-0.96579,"postcode":"TS12 2ZL","la":"Redcar and Cleveland","era":"other","nn":1198,"risk":55,"cat":"amber"},{"name":"The Monk","lat":54.5365,"lon":-1.05005,"postcode":"TS14 6HG","la":"Redcar and Cleveland","era":"trad","nn":0,"risk":24,"cat":"green"},{"name":"The North Skelton","lat":54.55747,"lon":-0.95962,"postcode":"TS12 2AL","la":"Redcar and Cleveland","era":"other","nn":1198,"risk":55,"cat":"amber"},{"name":"The Pig & Whistle","lat":54.61893,"lon":-1.06985,"postcode":"TS10 1AN","la":"Redcar and Cleveland","era":"other","nn":16,"risk":24,"cat":"green"},{"name":"The Pitcher House","lat":54.61895,"lon":-1.07041,"postcode":"TS10 1AG","la":"Redcar and Cleveland","era":"other","nn":10,"risk":24,"cat":"green"},{"name":"The Poverina Inn","lat":54.55648,"lon":-1.1587,"postcode":"TS6 0LD","la":"Redcar and Cleveland","era":"trad","nn":125,"risk":25,"cat":"green"},{"name":"The Prickly Arms","lat":54.5591,"lon":-1.14314,"postcode":"TS6 9JA","la":"Redcar and Cleveland","era":"trad","nn":35,"risk":24,"cat":"green"},{"name":"The Queens Hotel Private Members Club","lat":54.5829,"lon":-0.97412,"postcode":"TS12 1AE","la":"Redcar and Cleveland","era":"trad","nn":68,"risk":25,"cat":"green"},{"name":"The Railway Arms","lat":54.56668,"lon":-0.93955,"postcode":"TS12 2SP","la":"Redcar and Cleveland","era":"trad","nn":80,"risk":27,"cat":"green"},{"name":"The Saltburn Social Club","lat":54.5803,"lon":-0.97448,"postcode":"TS12 1JU","la":"Redcar and Cleveland","era":"mod","nn":290,"risk":26,"cat":"green"},{"name":"The Shed","lat":54.55728,"lon":-1.15599,"postcode":"TS6 0LN","la":"Redcar and Cleveland","era":"other","nn":8,"risk":24,"cat":"green"},{"name":"The Ship Inn","lat":54.53394,"lon":-1.05837,"postcode":"TS14 6AN","la":"Redcar and Cleveland","era":"trad","nn":100,"risk":25,"cat":"green"},{"name":"The Ship Inn","lat":54.56926,"lon":-0.93236,"postcode":"TS12 2PY","la":"Redcar and Cleveland","era":"trad","nn":57,"risk":27,"cat":"green"},{"name":"The Ship Inn","lat":54.58498,"lon":-0.96514,"postcode":"TS12 1HF","la":"Redcar and Cleveland","era":"trad","nn":460,"risk":27,"cat":"green"},{"name":"The Ship Inn","lat":54.59439,"lon":-1.01881,"postcode":"TS11 7LL","la":"Redcar and Cleveland","era":"trad","nn":279,"risk":26,"cat":"green"},{"name":"The Skinny Frog","lat":54.55731,"lon":-1.15738,"postcode":"TS6 0JZ","la":"Redcar and Cleveland","era":"trad","nn":88,"risk":25,"cat":"green"},{"name":"The Stockton","lat":54.61716,"lon":-1.06131,"postcode":"TS10 3DH","la":"Redcar and Cleveland","era":"other","nn":0,"risk":24,"cat":"green"},{"name":"The Talbot","lat":54.55928,"lon":-1.14269,"postcode":"TS6 9JA","la":"Redcar and Cleveland","era":"trad","nn":35,"risk":24,"cat":"green"},{"name":"The Three Fiddles","lat":54.53563,"lon":-1.05303,"postcode":"TS14 6BA","la":"Redcar and Cleveland","era":"other","nn":23,"risk":24,"cat":"green"},{"name":"The Top House Boosbeck","lat":54.54356,"lon":-0.98218,"postcode":"TS12 3AA","la":"Redcar and Cleveland","era":"mod","nn":1224,"risk":55,"cat":"amber"},{"name":"The Travelers Rest","lat":54.534,"lon":-0.99157,"postcode":"TS12 3BZ","la":"Redcar and Cleveland","era":"other","nn":1224,"risk":55,"cat":"amber"},{"name":"The Twisted Peel","lat":54.5365,"lon":-1.05005,"postcode":"TS14 6HG","la":"Redcar and Cleveland","era":"other","nn":0,"risk":24,"cat":"green"},{"name":"The Twisted Taps","lat":54.59871,"lon":-1.07897,"postcode":"TS10 4GA","la":"Redcar and Cleveland","era":"mod","nn":794,"risk":50,"cat":"amber"},{"name":"The Victoria","lat":54.58327,"lon":-0.97253,"postcode":"TS12 1AH","la":"Redcar and Cleveland","era":"trad","nn":0,"risk":24,"cat":"green"},{"name":"The Wellington","lat":54.55782,"lon":-1.14075,"postcode":"TS6 9ET","la":"Redcar and Cleveland","era":"trad","nn":95,"risk":25,"cat":"green"},{"name":"The Wheatlands Farm","lat":54.59495,"lon":-1.0503,"postcode":"TS10 2TB","la":"Redcar and Cleveland","era":"other","nn":1131,"risk":55,"cat":"amber"},{"name":"The Workies","lat":54.61716,"lon":-1.06131,"postcode":"TS10 3DH","la":"Redcar and Cleveland","era":"other","nn":0,"risk":24,"cat":"green"},{"name":"The Yorkshire Lass","lat":54.58251,"lon":-1.03852,"postcode":"TS11 8EG","la":"Redcar and Cleveland","era":"other","nn":0,"risk":42,"cat":"amber"},{"name":"Wharton Arms Hotel","lat":54.56132,"lon":-0.98264,"postcode":"TS12 2DY","la":"Redcar and Cleveland","era":"trad","nn":441,"risk":32,"cat":"amber"},{"name":"White Horse Inn","lat":54.55363,"lon":-0.88377,"postcode":"TS13 4HG","la":"Redcar and Cleveland","era":"trad","nn":0,"risk":24,"cat":"green"},{"name":"Woodman Arms","lat":54.55734,"lon":-1.15602,"postcode":"TS6 0NH","la":"Redcar and Cleveland","era":"trad","nn":8,"risk":24,"cat":"green"},{"name":"Zetland Hotel","lat":54.58924,"lon":-1.01921,"postcode":"TS11 6JQ","la":"Redcar and Cleveland","era":"other","nn":146,"risk":25,"cat":"green"},{"name":"Zetland Masonic Hall","lat":54.53437,"lon":-1.0519,"postcode":"TS14 6QD","la":"Redcar and Cleveland","era":"trad","nn":63,"risk":25,"cat":"green"},{"name":"Anson Farm","lat":54.52656,"lon":-1.29462,"postcode":"TS17 9LN","la":"Stockton-on-Tees","era":"other","nn":844,"risk":35,"cat":"amber"},{"name":"Atomic Beers","lat":54.50868,"lon":-1.35488,"postcode":"TS15 9SF","la":"Stockton-on-Tees","era":"other","nn":31,"risk":24,"cat":"green"},{"name":"Beckfields (Chik Box & K-Town Chicken)","lat":54.51645,"lon":-1.30582,"postcode":"TS17 0QA","la":"Stockton-on-Tees","era":"other","nn":727,"risk":47,"cat":"amber"},{"name":"Bibi's Bar","lat":54.56359,"lon":-1.31471,"postcode":"TS18 1EF","la":"Stockton-on-Tees","era":"other","nn":5,"risk":24,"cat":"green"},{"name":"Billingham Catholic Club","lat":54.60674,"lon":-1.29927,"postcode":"TS23 2RU","la":"Stockton-on-Tees","era":"other","nn":325,"risk":26,"cat":"green"},{"name":"Billingham Constitutional Club","lat":54.60389,"lon":-1.30048,"postcode":"TS23 2RR","la":"Stockton-on-Tees","era":"other","nn":118,"risk":25,"cat":"green"},{"name":"Billingham Golf Club","lat":54.60885,"lon":-1.31261,"postcode":"TS22 5NA","la":"Stockton-on-Tees","era":"other","nn":409,"risk":27,"cat":"green"},{"name":"Billingham Masonic Hall  & Club","lat":54.5926,"lon":-1.28959,"postcode":"TS23 1HF","la":"Stockton-on-Tees","era":"trad","nn":203,"risk":25,"cat":"green"},{"name":"Billingham Rugby Club","lat":54.6031,"lon":-1.27048,"postcode":"TS23 4AZ","la":"Stockton-on-Tees","era":"other","nn":585,"risk":46,"cat":"amber"},{"name":"Billingham Social Club","lat":54.5951,"lon":-1.29456,"postcode":"TS23 1DX","la":"Stockton-on-Tees","era":"mod","nn":164,"risk":25,"cat":"green"},{"name":"Billingham Synthonia Club","lat":54.59623,"lon":-1.28204,"postcode":"TS23 1LH","la":"Stockton-on-Tees","era":"other","nn":494,"risk":27,"cat":"green"},{"name":"Billingham Synthonia Junior F.C.","lat":54.59931,"lon":-1.29505,"postcode":"TS23 1LU","la":"Stockton-on-Tees","era":"other","nn":328,"risk":26,"cat":"green"},{"name":"Billingham Town Football Club","lat":54.60235,"lon":-1.28202,"postcode":"TS23 4AE","la":"Stockton-on-Tees","era":"other","nn":471,"risk":27,"cat":"green"},{"name":"Billingham Trade Union Club","lat":54.60557,"lon":-1.28677,"postcode":"TS23 2RE","la":"Stockton-on-Tees","era":"other","nn":415,"risk":27,"cat":"green"},{"name":"Black Market","lat":54.56338,"lon":-1.31488,"postcode":"TS18 1DB","la":"Stockton-on-Tees","era":"other","nn":0,"risk":24,"cat":"green"},{"name":"Blue Bell","lat":54.51256,"lon":-1.35465,"postcode":"TS16 0JF","la":"Stockton-on-Tees","era":"other","nn":178,"risk":25,"cat":"green"},{"name":"Blue Post","lat":54.56365,"lon":-1.31368,"postcode":"TS18 1AY","la":"Stockton-on-Tees","era":"other","nn":51,"risk":24,"cat":"green"},{"name":"Blytheholme Social Club","lat":54.55905,"lon":-1.32347,"postcode":"TS18 3NG","la":"Stockton-on-Tees","era":"mod","nn":301,"risk":26,"cat":"green"},{"name":"Buffs Social Club","lat":54.5692,"lon":-1.31221,"postcode":"TS18 2BX","la":"Stockton-on-Tees","era":"mod","nn":145,"risk":25,"cat":"green"},{"name":"Canteen And Cocktails","lat":54.58692,"lon":-1.31041,"postcode":"TS20 1AH","la":"Stockton-on-Tees","era":"other","nn":0,"risk":24,"cat":"green"},{"name":"Chadwicks Inn Maltby","lat":54.51362,"lon":-1.28082,"postcode":"TS8 0BG","la":"Stockton-on-Tees","era":"trad","nn":680,"risk":49,"cat":"amber"},{"name":"Champagne Charlie's","lat":54.56798,"lon":-1.31302,"postcode":"TS18 2BW","la":"Stockton-on-Tees","era":"other","nn":37,"risk":24,"cat":"green"},{"name":"Charlie's Bar","lat":54.56186,"lon":-1.31479,"postcode":"TS18 1DF","la":"Stockton-on-Tees","era":"other","nn":30,"risk":24,"cat":"green"},{"name":"Che Bar","lat":54.56273,"lon":-1.31332,"postcode":"TS18 1BD","la":"Stockton-on-Tees","era":"other","nn":0,"risk":24,"cat":"green"},{"name":"Cleveland Bay","lat":54.51433,"lon":-1.35576,"postcode":"TS16 0JE","la":"Stockton-on-Tees","era":"other","nn":209,"risk":25,"cat":"green"},{"name":"Cowpen Sports & Leisure Club","lat":54.60745,"lon":-1.27557,"postcode":"TS23 4JE","la":"Stockton-on-Tees","era":"other","nn":485,"risk":27,"cat":"green"},{"name":"Crafty Cock","lat":54.6035,"lon":-1.29878,"postcode":"TS23 2RL","la":"Stockton-on-Tees","era":"mod","nn":114,"risk":25,"cat":"green"},{"name":"Crown Hotel","lat":54.48283,"lon":-1.33363,"postcode":"TS15 9LT","la":"Stockton-on-Tees","era":"trad","nn":1788,"risk":59,"cat":"amber"},{"name":"Dr.Inks","lat":54.56334,"lon":-1.31474,"postcode":"TS18 1EF","la":"Stockton-on-Tees","era":"other","nn":0,"risk":24,"cat":"green"},{"name":"Elm Tree Social Club","lat":54.57128,"lon":-1.34775,"postcode":"TS19 0QJ","la":"Stockton-on-Tees","era":"other","nn":288,"risk":26,"cat":"green"},{"name":"Fairfield Sports & Social Club","lat":54.57345,"lon":-1.35019,"postcode":"TS19 0UW","la":"Stockton-on-Tees","era":"mod","nn":0,"risk":24,"cat":"green"},{"name":"George & Dragon","lat":54.50953,"lon":-1.35406,"postcode":"TS15 9AH","la":"Stockton-on-Tees","era":"trad","nn":108,"risk":25,"cat":"green"},{"name":"George & Dragon","lat":54.59088,"lon":-1.31251,"postcode":"TS20 1AA","la":"Stockton-on-Tees","era":"trad","nn":0,"risk":24,"cat":"green"},{"name":"Golden Jubilee","lat":54.49763,"lon":-1.34442,"postcode":"TS15 9XN","la":"Stockton-on-Tees","era":"other","nn":1349,"risk":56,"cat":"amber"},{"name":"Goldies Bar","lat":54.56197,"lon":-1.31331,"postcode":"TS18 1AA","la":"Stockton-on-Tees","era":"other","nn":76,"risk":24,"cat":"green"},{"name":"Gracie's beer and cocktail bar","lat":54.56485,"lon":-1.31183,"postcode":"TS18 1TN","la":"Stockton-on-Tees","era":"other","nn":13,"risk":24,"cat":"green"},{"name":"Green Dragon","lat":54.5642,"lon":-1.31181,"postcode":"TS18 1AR","la":"Stockton-on-Tees","era":"trad","nn":24,"risk":24,"cat":"green"},{"name":"Grosvenor Casinos Limited","lat":54.55942,"lon":-1.30931,"postcode":"TS18 3BA","la":"Stockton-on-Tees","era":"other","nn":309,"risk":26,"cat":"green"},{"name":"Hardwick Social Club","lat":54.58571,"lon":-1.36261,"postcode":"TS19 8TD","la":"Stockton-on-Tees","era":"mod","nn":713,"risk":34,"cat":"amber"},{"name":"Highland Laddie","lat":54.58825,"lon":-1.31102,"postcode":"TS20 1AQ","la":"Stockton-on-Tees","era":"other","nn":153,"risk":25,"cat":"green"},{"name":"Hope & Union","lat":54.56479,"lon":-1.31166,"postcode":"TS18 1SL","la":"Stockton-on-Tees","era":"other","nn":13,"risk":24,"cat":"green"},{"name":"Hoptimist","lat":54.56161,"lon":-1.31463,"postcode":"TS18 1ES","la":"Stockton-on-Tees","era":"other","nn":30,"risk":24,"cat":"green"},{"name":"Horse & Jockey","lat":54.59056,"lon":-1.35201,"postcode":"TS19 8HH","la":"Stockton-on-Tees","era":"trad","nn":309,"risk":29,"cat":"green"},{"name":"Hydes Bar","lat":54.58752,"lon":-1.30879,"postcode":"TS20 2RZ","la":"Stockton-on-Tees","era":"other","nn":116,"risk":25,"cat":"green"},{"name":"Ivy's Wine & Cocktail Bar","lat":54.61192,"lon":-1.30892,"postcode":"TS22 5DE","la":"Stockton-on-Tees","era":"other","nn":174,"risk":28,"cat":"green"},{"name":"Ketton Ox","lat":54.51103,"lon":-1.35546,"postcode":"TS15 9AU","la":"Stockton-on-Tees","era":"other","nn":178,"risk":25,"cat":"green"},{"name":"Ku Bar/Social Room","lat":54.56218,"lon":-1.31474,"postcode":"TS18 1DF","la":"Stockton-on-Tees","era":"mod","nn":36,"risk":24,"cat":"green"},{"name":"Locomotion","lat":54.52982,"lon":-1.34787,"postcode":"TS16 0BU","la":"Stockton-on-Tees","era":"other","nn":183,"risk":43,"cat":"amber"},{"name":"Lucifers","lat":54.56441,"lon":-1.31188,"postcode":"TS18 1AE","la":"Stockton-on-Tees","era":"other","nn":24,"risk":24,"cat":"green"},{"name":"Malleable Social Club","lat":54.58205,"lon":-1.3113,"postcode":"TS20 2PH","la":"Stockton-on-Tees","era":"mod","nn":354,"risk":26,"cat":"green"},{"name":"Mission to Seafarers Centre North Tees and Hartlepool","lat":54.6103,"lon":-1.17805,"postcode":"TS2 1UB","la":"Stockton-on-Tees","era":"trad","nn":4006,"risk":74,"cat":"red"},{"name":"Mrs Miggins Tap House","lat":54.56334,"lon":-1.31474,"postcode":"TS18 1EF","la":"Stockton-on-Tees","era":"mod","nn":0,"risk":24,"cat":"green"},{"name":"Myton House Farm","lat":54.51899,"lon":-1.31621,"postcode":"TS17 0WB","la":"Stockton-on-Tees","era":"mod","nn":539,"risk":33,"cat":"amber"},{"name":"Norton Sports & Leisure Promotions","lat":54.59717,"lon":-1.31937,"postcode":"TS20 1PE","la":"Stockton-on-Tees","era":"other","nn":0,"risk":26,"cat":"green"},{"name":"Norton Tavern Ltd","lat":54.59717,"lon":-1.31937,"postcode":"TS20 1PE","la":"Stockton-on-Tees","era":"other","nn":0,"risk":26,"cat":"green"},{"name":"Norton Village Club","lat":54.58628,"lon":-1.31113,"postcode":"TS20 1AP","la":"Stockton-on-Tees","era":"other","nn":85,"risk":25,"cat":"green"},{"name":"Osbournes","lat":54.50852,"lon":-1.35363,"postcode":"TS15 9AE","la":"Stockton-on-Tees","era":"other","nn":55,"risk":24,"cat":"green"},{"name":"Owington Farm","lat":54.62551,"lon":-1.28795,"postcode":"TS23 3TL","la":"Stockton-on-Tees","era":"other","nn":589,"risk":33,"cat":"amber"},{"name":"Oxbridge Social Club","lat":54.56206,"lon":-1.32521,"postcode":"TS18 4BU","la":"Stockton-on-Tees","era":"mod","nn":61,"risk":24,"cat":"green"},{"name":"Preston & Eaglescliffe Mens Club","lat":54.52829,"lon":-1.34895,"postcode":"TS16 0DD","la":"Stockton-on-Tees","era":"trad","nn":183,"risk":30,"cat":"green"},{"name":"Preston Farm","lat":54.54614,"lon":-1.33197,"postcode":"TS18 3RT","la":"Stockton-on-Tees","era":"other","nn":613,"risk":48,"cat":"amber"},{"name":"Queens Social Club","lat":54.55561,"lon":-1.30191,"postcode":"TS17 6PA","la":"Stockton-on-Tees","era":"other","nn":170,"risk":25,"cat":"green"},{"name":"Rebels/Moores","lat":54.56811,"lon":-1.31354,"postcode":"TS18 2AA","la":"Stockton-on-Tees","era":"other","nn":37,"risk":24,"cat":"green"},{"name":"Red Goat (Teesside Golf Club)","lat":54.55237,"lon":-1.28957,"postcode":"TS17 7JS","la":"Stockton-on-Tees","era":"other","nn":0,"risk":24,"cat":"green"},{"name":"River Tees Watersports Centre","lat":54.56638,"lon":-1.30312,"postcode":"TS18 2NL","la":"Stockton-on-Tees","era":"other","nn":368,"risk":27,"cat":"green"},{"name":"Room 21 Leisure Limited","lat":54.5614,"lon":-1.31397,"postcode":"TS18 3DR","la":"Stockton-on-Tees","era":"other","nn":49,"risk":24,"cat":"green"},{"name":"Roseworth Community Social Club","lat":54.59222,"lon":-1.34818,"postcode":"TS19 9NA","la":"Stockton-on-Tees","era":"mod","nn":309,"risk":44,"cat":"amber"},{"name":"Senators","lat":54.57225,"lon":-1.33929,"postcode":"TS19 0QB","la":"Stockton-on-Tees","era":"other","nn":286,"risk":26,"cat":"green"},{"name":"Sir Thomas Brown","lat":54.5205,"lon":-1.34935,"postcode":"TS16 9JP","la":"Stockton-on-Tees","era":"other","nn":723,"risk":29,"cat":"green"},{"name":"Smith & Jaques","lat":54.60854,"lon":-1.28286,"postcode":"TS23 3AA","la":"Stockton-on-Tees","era":"other","nn":415,"risk":27,"cat":"green"},{"name":"Stafford Place Cricket Club","lat":54.5365,"lon":-1.3075,"postcode":"TS17 0AF","la":"Stockton-on-Tees","era":"other","nn":386,"risk":29,"cat":"green"},{"name":"Stockton Arms","lat":54.55539,"lon":-1.33808,"postcode":"TS18 5BH","la":"Stockton-on-Tees","era":"trad","nn":154,"risk":30,"cat":"green"},{"name":"Stockton Bowling Club","lat":54.57887,"lon":-1.31171,"postcode":"TS20 2DS","la":"Stockton-on-Tees","era":"other","nn":354,"risk":26,"cat":"green"},{"name":"Stockton Masonic Hall Limited","lat":54.56617,"lon":-1.31655,"postcode":"TS18 1RD","la":"Stockton-on-Tees","era":"trad","nn":210,"risk":25,"cat":"green"},{"name":"Stockton Town Football Club","lat":54.57041,"lon":-1.3424,"postcode":"TS19 0QD","la":"Stockton-on-Tees","era":"other","nn":286,"risk":26,"cat":"green"},{"name":"Tap & Stone","lat":54.56357,"lon":-1.31448,"postcode":"TS18 1EF","la":"Stockton-on-Tees","era":"other","nn":10,"risk":24,"cat":"green"},{"name":"Teal Arms","lat":54.52367,"lon":-1.3078,"postcode":"TS17 0RJ","la":"Stockton-on-Tees","era":"trad","nn":752,"risk":32,"cat":"amber"},{"name":"Ted & Gingers","lat":54.56347,"lon":-1.31478,"postcode":"TS18 1EF","la":"Stockton-on-Tees","era":"other","nn":11,"risk":24,"cat":"green"},{"name":"The Astronaut & Galaxy Lounge","lat":54.60715,"lon":-1.29428,"postcode":"TS23 2NH","la":"Stockton-on-Tees","era":"mod","nn":28,"risk":24,"cat":"green"},{"name":"The Black Bull","lat":54.50853,"lon":-1.35448,"postcode":"TS15 9BH","la":"Stockton-on-Tees","era":"trad","nn":0,"risk":24,"cat":"green"},{"name":"The Castle & Anchor","lat":54.56707,"lon":-1.31246,"postcode":"TS18 1TY","la":"Stockton-on-Tees","era":"trad","nn":0,"risk":24,"cat":"green"},{"name":"The Cattle Market","lat":54.56707,"lon":-1.31246,"postcode":"TS18 1TY","la":"Stockton-on-Tees","era":"other","nn":0,"risk":24,"cat":"green"},{"name":"The Centenary","lat":54.58979,"lon":-1.32431,"postcode":"TS20 1RF","la":"Stockton-on-Tees","era":"other","nn":769,"risk":29,"cat":"green"},{"name":"The Derry","lat":54.54236,"lon":-1.40899,"postcode":"TS21 1BX","la":"Stockton-on-Tees","era":"other","nn":3366,"risk":70,"cat":"red"},{"name":"The Dolphin","lat":54.56808,"lon":-1.30802,"postcode":"TS18 2DS","la":"Stockton-on-Tees","era":"other","nn":297,"risk":26,"cat":"green"},{"name":"The Dubliners","lat":54.55871,"lon":-1.30462,"postcode":"TS17 6BE","la":"Stockton-on-Tees","era":"other","nn":203,"risk":25,"cat":"green"},{"name":"The Eagle Inn","lat":54.51932,"lon":-1.36037,"postcode":"TS16 0NA","la":"Stockton-on-Tees","era":"trad","nn":630,"risk":31,"cat":"amber"},{"name":"The Elm Tree","lat":54.57345,"lon":-1.35019,"postcode":"TS19 0UW","la":"Stockton-on-Tees","era":"trad","nn":0,"risk":24,"cat":"green"},{"name":"The Fairfield","lat":54.56263,"lon":-1.35078,"postcode":"TS19 7AJ","la":"Stockton-on-Tees","era":"other","nn":851,"risk":35,"cat":"amber"},{"name":"The Falcon Inn at Hilton Ltd","lat":54.49551,"lon":-1.28246,"postcode":"TS15 9LB","la":"Stockton-on-Tees","era":"trad","nn":1900,"risk":60,"cat":"amber"},{"name":"The Five Alls","lat":54.57837,"lon":-1.36057,"postcode":"TS19 8UQ","la":"Stockton-on-Tees","era":"other","nn":486,"risk":27,"cat":"green"},{"name":"The Food Palace","lat":54.55486,"lon":-1.29962,"postcode":"TS17 6PG","la":"Stockton-on-Tees","era":"other","nn":101,"risk":25,"cat":"green"},{"name":"The Fox Covert","lat":54.50466,"lon":-1.30777,"postcode":"TS15 9JW","la":"Stockton-on-Tees","era":"trad","nn":1317,"risk":56,"cat":"amber"},{"name":"The Griffin","lat":54.53344,"lon":-1.30411,"postcode":"TS17 0EH","la":"Stockton-on-Tees","era":"trad","nn":404,"risk":27,"cat":"green"},{"name":"The Half Moon Inn","lat":54.60739,"lon":-1.29412,"postcode":"TS23 2NW","la":"Stockton-on-Tees","era":"trad","nn":28,"risk":24,"cat":"green"},{"name":"The Hamilton Russell Arms","lat":54.6038,"lon":-1.38151,"postcode":"TS21 3JW","la":"Stockton-on-Tees","era":"trad","nn":115,"risk":45,"cat":"amber"},{"name":"The Hardwick","lat":54.58327,"lon":-1.35238,"postcode":"TS19 8RQ","la":"Stockton-on-Tees","era":"other","nn":549,"risk":30,"cat":"green"},{"name":"The Haverton Hill Hotel","lat":54.59634,"lon":-1.24774,"postcode":"TS23 1QE","la":"Stockton-on-Tees","era":"other","nn":1646,"risk":58,"cat":"amber"},{"name":"The Head Of Steam","lat":54.58643,"lon":-1.30969,"postcode":"TS20 1AL","la":"Stockton-on-Tees","era":"trad","nn":21,"risk":24,"cat":"green"},{"name":"The Ivy Tree Pub & Kitchen","lat":54.55147,"lon":-1.32958,"postcode":"TS18 3RY","la":"Stockton-on-Tees","era":"mod","nn":598,"risk":28,"cat":"green"},{"name":"The Keys","lat":54.50853,"lon":-1.35448,"postcode":"TS15 9BH","la":"Stockton-on-Tees","era":"other","nn":0,"risk":24,"cat":"green"},{"name":"The Kopper Keg","lat":54.56423,"lon":-1.31459,"postcode":"TS18 1LH","la":"Stockton-on-Tees","era":"other","nn":71,"risk":24,"cat":"green"},{"name":"The Lambton","lat":54.56286,"lon":-1.31266,"postcode":"TS18 1UB","la":"Stockton-on-Tees","era":"other","nn":46,"risk":24,"cat":"green"},{"name":"The Last Post Memorial Bar","lat":54.55533,"lon":-1.29828,"postcode":"TS17 7DR","la":"Stockton-on-Tees","era":"other","nn":87,"risk":25,"cat":"green"},{"name":"The Lion","lat":54.61383,"lon":-1.28279,"postcode":"TS23 3DF","la":"Stockton-on-Tees","era":"trad","nn":587,"risk":31,"cat":"amber"},{"name":"The Little Acre","lat":54.53977,"lon":-1.2897,"postcode":"TS17 9HA","la":"Stockton-on-Tees","era":"other","nn":692,"risk":34,"cat":"amber"},{"name":"The Manor House","lat":54.51187,"lon":-1.29092,"postcode":"TS8 0BN","la":"Stockton-on-Tees","era":"other","nn":680,"risk":49,"cat":"amber"},{"name":"The Market Tavern","lat":54.55712,"lon":-1.30309,"postcode":"TS17 6BU","la":"Stockton-on-Tees","era":"other","nn":184,"risk":25,"cat":"green"},{"name":"The Masham","lat":54.55418,"lon":-1.34025,"postcode":"TS18 5DR","la":"Stockton-on-Tees","era":"other","nn":195,"risk":30,"cat":"green"},{"name":"The Merlin","lat":54.62077,"lon":-1.28387,"postcode":"TS23 3QJ","la":"Stockton-on-Tees","era":"other","nn":589,"risk":46,"cat":"amber"},{"name":"The Mitre","lat":54.57515,"lon":-1.36567,"postcode":"TS19 8TF","la":"Stockton-on-Tees","era":"other","nn":486,"risk":45,"cat":"amber"},{"name":"The Oddfellows Arms","lat":54.53927,"lon":-1.30392,"postcode":"TS17 0AA","la":"Stockton-on-Tees","era":"trad","nn":186,"risk":25,"cat":"green"},{"name":"The Oxbridge","lat":54.56152,"lon":-1.32539,"postcode":"TS18 4AW","la":"Stockton-on-Tees","era":"other","nn":61,"risk":24,"cat":"green"},{"name":"The Penny Black","lat":54.55633,"lon":-1.36269,"postcode":"TS18 5PU","la":"Stockton-on-Tees","era":"other","nn":1039,"risk":54,"cat":"amber"},{"name":"The Pot And Glass","lat":54.51161,"lon":-1.35025,"postcode":"TS16 9DQ","la":"Stockton-on-Tees","era":"other","nn":303,"risk":26,"cat":"green"},{"name":"The Ramsgate Pub","lat":54.56321,"lon":-1.31394,"postcode":"TS18 1BS","la":"Stockton-on-Tees","era":"trad","nn":0,"risk":24,"cat":"green"},{"name":"The Red Lion","lat":54.58662,"lon":-1.3097,"postcode":"TS20 1AL","la":"Stockton-on-Tees","era":"trad","nn":21,"risk":24,"cat":"green"},{"name":"The Red Lion","lat":54.56321,"lon":-1.31394,"postcode":"TS18 1BS","la":"Stockton-on-Tees","era":"trad","nn":0,"risk":24,"cat":"green"},{"name":"The Reindeer","lat":54.56321,"lon":-1.31394,"postcode":"TS18 1BS","la":"Stockton-on-Tees","era":"other","nn":0,"risk":24,"cat":"green"},{"name":"The Rimswell","lat":54.56959,"lon":-1.35859,"postcode":"TS19 7HE","la":"Stockton-on-Tees","era":"other","nn":691,"risk":29,"cat":"green"},{"name":"The Riverbank","lat":54.56273,"lon":-1.31332,"postcode":"TS18 1BD","la":"Stockton-on-Tees","era":"other","nn":0,"risk":24,"cat":"green"},{"name":"The Roundel","lat":54.54831,"lon":-1.28262,"postcode":"TS17 9AE","la":"Stockton-on-Tees","era":"other","nn":636,"risk":46,"cat":"amber"},{"name":"The Royal Oak","lat":54.56598,"lon":-1.31211,"postcode":"TS18 1SP","la":"Stockton-on-Tees","era":"trad","nn":48,"risk":24,"cat":"green"},{"name":"The Scruffy Duck","lat":54.58692,"lon":-1.31041,"postcode":"TS20 1AH","la":"Stockton-on-Tees","era":"other","nn":0,"risk":24,"cat":"green"},{"name":"The Sheraton Pub","lat":54.58578,"lon":-1.34504,"postcode":"TS19 8DL","la":"Stockton-on-Tees","era":"other","nn":549,"risk":33,"cat":"amber"},{"name":"The Ship Inn","lat":54.58386,"lon":-1.40045,"postcode":"TS21 1EP","la":"Stockton-on-Tees","era":"trad","nn":877,"risk":50,"cat":"amber"},{"name":"The Smiths Arms","lat":54.58964,"lon":-1.39118,"postcode":"TS21 1EA","la":"Stockton-on-Tees","era":"trad","nn":877,"risk":50,"cat":"amber"},{"name":"The Smiths Arms","lat":54.59463,"lon":-1.29189,"postcode":"TS23 1EW","la":"Stockton-on-Tees","era":"trad","nn":180,"risk":25,"cat":"green"},{"name":"The Stables","lat":54.63585,"lon":-1.35227,"postcode":"TS22 5QQ","la":"Stockton-on-Tees","era":"other","nn":1563,"risk":57,"cat":"amber"},{"name":"The Stag Inn","lat":54.56504,"lon":-1.31191,"postcode":"TS18 1SX","la":"Stockton-on-Tees","era":"trad","nn":23,"risk":24,"cat":"green"},{"name":"The Station","lat":54.56843,"lon":-1.31626,"postcode":"TS18 2AQ","la":"Stockton-on-Tees","era":"other","nn":179,"risk":25,"cat":"green"},{"name":"The Station Hotel","lat":54.60294,"lon":-1.29731,"postcode":"TS23 2RH","la":"Stockton-on-Tees","era":"other","nn":114,"risk":25,"cat":"green"},{"name":"The Storytellers","lat":54.56428,"lon":-1.31647,"postcode":"TS18 1LL","la":"Stockton-on-Tees","era":"other","nn":121,"risk":25,"cat":"green"},{"name":"The Sun Inn","lat":54.56562,"lon":-1.31171,"postcode":"TS18 1SU","la":"Stockton-on-Tees","era":"trad","nn":48,"risk":24,"cat":"green"},{"name":"The Swan Hotel","lat":54.61086,"lon":-1.29951,"postcode":"TS23 2SF","la":"Stockton-on-Tees","era":"trad","nn":457,"risk":27,"cat":"green"},{"name":"The Three Horseshoes","lat":54.61594,"lon":-1.2569,"postcode":"TS23 4HS","la":"Stockton-on-Tees","era":"trad","nn":1528,"risk":57,"cat":"amber"},{"name":"The Three Rivers","lat":54.52235,"lon":-1.32221,"postcode":"TS17 5AA","la":"Stockton-on-Tees","era":"other","nn":539,"risk":45,"cat":"amber"},{"name":"The Twisted Peel","lat":54.58527,"lon":-1.31053,"postcode":"TS20 2QQ","la":"Stockton-on-Tees","era":"other","nn":119,"risk":25,"cat":"green"},{"name":"The Unicorn","lat":54.59088,"lon":-1.31251,"postcode":"TS20 1AA","la":"Stockton-on-Tees","era":"other","nn":0,"risk":24,"cat":"green"},{"name":"The Vane Arms","lat":54.60476,"lon":-1.38083,"postcode":"TS21 3JU","la":"Stockton-on-Tees","era":"trad","nn":115,"risk":45,"cat":"amber"},{"name":"The Village Crossing Bar","lat":54.59647,"lon":-1.29362,"postcode":"TS23 1AF","la":"Stockton-on-Tees","era":"trad","nn":164,"risk":25,"cat":"green"},{"name":"The Village Green Club","lat":54.54395,"lon":-1.30665,"postcode":"TS17 8PX","la":"Stockton-on-Tees","era":"other","nn":549,"risk":33,"cat":"amber"},{"name":"The Wasps Nest","lat":54.56482,"lon":-1.31146,"postcode":"TS18 1TB","la":"Stockton-on-Tees","era":"other","nn":13,"risk":24,"cat":"green"},{"name":"The Wellington Inn","lat":54.62406,"lon":-1.29953,"postcode":"TS22 5JY","la":"Stockton-on-Tees","era":"trad","nn":692,"risk":46,"cat":"amber"},{"name":"The White Rose","lat":54.56338,"lon":-1.31488,"postcode":"TS18 1DB","la":"Stockton-on-Tees","era":"other","nn":0,"risk":24,"cat":"green"},{"name":"The Wobbly Goblin","lat":54.56084,"lon":-1.31343,"postcode":"TS18 3BT","la":"Stockton-on-Tees","era":"other","nn":37,"risk":24,"cat":"green"},{"name":"The Wynyard","lat":54.61073,"lon":-1.30716,"postcode":"TS22 5AS","la":"Stockton-on-Tees","era":"mod","nn":174,"risk":25,"cat":"green"},{"name":"Theatre Upstairs","lat":54.5944,"lon":-1.28902,"postcode":"TS23 1EY","la":"Stockton-on-Tees","era":"other","nn":187,"risk":25,"cat":"green"},{"name":"Thirsty Souls","lat":54.56334,"lon":-1.31474,"postcode":"TS18 1EF","la":"Stockton-on-Tees","era":"other","nn":0,"risk":24,"cat":"green"},{"name":"Thomas Sheraton","lat":54.56115,"lon":-1.31323,"postcode":"TS18 3BW","la":"Stockton-on-Tees","era":"other","nn":37,"risk":24,"cat":"green"},{"name":"Thornaby Constitutional Club (Smokeys)","lat":54.55585,"lon":-1.29929,"postcode":"TS17 7EA","la":"Stockton-on-Tees","era":"other","nn":87,"risk":25,"cat":"green"},{"name":"Thornaby Cricket Club","lat":54.55237,"lon":-1.28957,"postcode":"TS17 7JS","la":"Stockton-on-Tees","era":"other","nn":0,"risk":24,"cat":"green"},{"name":"Thornaby Snooker Centre","lat":54.53984,"lon":-1.3012,"postcode":"TS17 0AS","la":"Stockton-on-Tees","era":"other","nn":186,"risk":25,"cat":"green"},{"name":"Thornaby Sports & Leisure Club","lat":54.53354,"lon":-1.28946,"postcode":"TS17 9JP","la":"Stockton-on-Tees","era":"other","nn":692,"risk":34,"cat":"amber"},{"name":"Tipsy Turtle","lat":54.56359,"lon":-1.31464,"postcode":"TS18 1EF","la":"Stockton-on-Tees","era":"other","nn":5,"risk":24,"cat":"green"},{"name":"Toby Carvery","lat":54.62862,"lon":-1.30686,"postcode":"TS22 5PZ","la":"Stockton-on-Tees","era":"other","nn":692,"risk":49,"cat":"amber"},{"name":"TS18 Ltd@Stocktoncricket&RugbyClub","lat":54.56504,"lon":-1.33826,"postcode":"TS18 4JF","la":"Stockton-on-Tees","era":"other","nn":654,"risk":29,"cat":"green"},{"name":"Turtle Lounge","lat":54.56334,"lon":-1.31474,"postcode":"TS18 1EF","la":"Stockton-on-Tees","era":"mod","nn":0,"risk":24,"cat":"green"},{"name":"Union Arms","lat":54.50853,"lon":-1.35448,"postcode":"TS15 9BH","la":"Stockton-on-Tees","era":"trad","nn":0,"risk":24,"cat":"green"},{"name":"West End Bowling Club","lat":54.55551,"lon":-1.3357,"postcode":"TS18 5BD","la":"Stockton-on-Tees","era":"other","nn":154,"risk":25,"cat":"green"},{"name":"Wolviston Recreation Ground Association","lat":54.6177,"lon":-1.3238,"postcode":"TS22 5NB","la":"Stockton-on-Tees","era":"other","nn":1153,"risk":55,"cat":"amber"},{"name":"Wynyard Golf Club","lat":54.62659,"lon":-1.334,"postcode":"TS22 5QJ","la":"Stockton-on-Tees","era":"mod","nn":1186,"risk":55,"cat":"amber"},{"name":"Yarm RUFC & Preston Cricket Club","lat":54.52973,"lon":-1.3529,"postcode":"TS16 0RG","la":"Stockton-on-Tees","era":"other","nn":301,"risk":44,"cat":"amber"}]