[{"name":"Butcombe Brewery Limited At The Bourne Valley Inn","lat":51.24677,"lon":-1.39199,"postcode":"SP11 6BT","la":"Basingstoke and Deane","era":"trad","nn":699,"risk":53,"cat":"amber"},{"name":"The George Inn","lat":51.25232,"lon":-1.3967,"postcode":"SP11 6BG","la":"Basingstoke and Deane","era":"trad","nn":699,"risk":53,"cat":"amber"},{"name":"Wyke Down Country Pub","lat":51.22674,"lon":-1.42411,"postcode":"SP11 6LX","la":"Basingstoke and Deane","era":"other","nn":2664,"risk":69,"cat":"red"},{"name":"Alderholt Sports Club","lat":50.90735,"lon":-1.82572,"postcode":"SP6 3DF","la":"Dorset","era":"other","nn":1195,"risk":49,"cat":"amber"},{"name":"Bullpits Golf Club","lat":51.07944,"lon":-2.32252,"postcode":"SP8 5AX","la":"Dorset","era":"trad","nn":435,"risk":39,"cat":"amber"},{"name":"Coronation Club","lat":51.03625,"lon":-2.27387,"postcode":"SP8 4QF","la":"Dorset","era":"other","nn":134,"risk":19,"cat":"green"},{"name":"Dolphin Inn","lat":51.04613,"lon":-2.27974,"postcode":"SP8 4HB","la":"Dorset","era":"trad","nn":968,"risk":45,"cat":"amber"},{"name":"Gillingham Bowling Club","lat":51.0375,"lon":-2.2724,"postcode":"SP8 4QW","la":"Dorset","era":"other","nn":0,"risk":18,"cat":"green"},{"name":"Gillingham Town Football & Supporters Club","lat":51.03751,"lon":-2.26696,"postcode":"SP8 4HX","la":"Dorset","era":"other","nn":380,"risk":21,"cat":"green"},{"name":"Kings Arms Inn","lat":51.00919,"lon":-2.26786,"postcode":"SP8 5NB","la":"Dorset","era":"trad","nn":3023,"risk":62,"cat":"red"},{"name":"North Dorset Rugby Football Club","lat":51.04586,"lon":-2.30432,"postcode":"SP8 5SY","la":"Dorset","era":"other","nn":1718,"risk":52,"cat":"amber"},{"name":"Pitchers, Shaftesbury Sports Club Ltd","lat":51.00636,"lon":-2.19217,"postcode":"SP7 8PD","la":"Dorset","era":"other","nn":0,"risk":18,"cat":"green"},{"name":"Red Lion","lat":51.03734,"lon":-2.27471,"postcode":"SP8 4AA","la":"Dorset","era":"trad","nn":0,"risk":18,"cat":"green"},{"name":"Red Lion Hotel","lat":51.03734,"lon":-2.27471,"postcode":"SP8 4AA","la":"Dorset","era":"trad","nn":0,"risk":18,"cat":"green"},{"name":"Royal British Legion","lat":51.0052,"lon":-2.18806,"postcode":"SP7 8PF","la":"Dorset","era":"trad","nn":315,"risk":20,"cat":"green"},{"name":"Royal British Legion","lat":51.0375,"lon":-2.2724,"postcode":"SP8 4QW","la":"Dorset","era":"trad","nn":0,"risk":18,"cat":"green"},{"name":"Santonino Trattoria","lat":51.00678,"lon":-2.1957,"postcode":"SP7 8AD","la":"Dorset","era":"other","nn":123,"risk":19,"cat":"green"},{"name":"Shaftesbury Football Club","lat":51.00636,"lon":-2.19217,"postcode":"SP7 8PD","la":"Dorset","era":"other","nn":0,"risk":18,"cat":"green"},{"name":"Shaston Social Club Ltd","lat":51.00792,"lon":-2.1974,"postcode":"SP7 8AW","la":"Dorset","era":"mod","nn":127,"risk":19,"cat":"green"},{"name":"Ship Inn","lat":51.00717,"lon":-2.19876,"postcode":"SP7 8JZ","la":"Dorset","era":"trad","nn":116,"risk":19,"cat":"green"},{"name":"The Churchill Arms","lat":50.91208,"lon":-1.84102,"postcode":"SP6 3AA","la":"Dorset","era":"trad","nn":1195,"risk":49,"cat":"amber"},{"name":"The Coppleridge Inn","lat":51.03902,"lon":-2.22561,"postcode":"SP7 9HW","la":"Dorset","era":"trad","nn":2896,"risk":61,"cat":"red"},{"name":"The Fontmell","lat":50.95125,"lon":-2.19086,"postcode":"SP7 0PA","la":"Dorset","era":"other","nn":2571,"risk":58,"cat":"amber"},{"name":"The Grosvenor Arms","lat":51.00617,"lon":-2.19826,"postcode":"SP7 8JA","la":"Dorset","era":"trad","nn":116,"risk":19,"cat":"green"},{"name":"The Half Moon","lat":51.00191,"lon":-2.17926,"postcode":"SP7 8BS","la":"Dorset","era":"other","nn":716,"risk":43,"cat":"amber"},{"name":"The Mitre","lat":51.00582,"lon":-2.19656,"postcode":"SP7 8JE","la":"Dorset","era":"other","nn":123,"risk":19,"cat":"green"},{"name":"The Phoenix","lat":51.0375,"lon":-2.27792,"postcode":"SP8 4AY","la":"Dorset","era":"other","nn":225,"risk":20,"cat":"green"},{"name":"The Ship Inn","lat":51.00155,"lon":-2.30933,"postcode":"SP8 5RP","la":"Dorset","era":"trad","nn":3023,"risk":62,"cat":"red"},{"name":"The Stapleton Arms","lat":51.02147,"lon":-2.34718,"postcode":"SP8 5HS","la":"Dorset","era":"trad","nn":3452,"risk":65,"cat":"red"},{"name":"The Two Brewers","lat":51.00346,"lon":-2.19857,"postcode":"SP7 8HE","la":"Dorset","era":"other","nn":298,"risk":20,"cat":"green"},{"name":"White Lion Inn","lat":51.07846,"lon":-2.31649,"postcode":"SP8 5AT","la":"Dorset","era":"trad","nn":435,"risk":39,"cat":"amber"},{"name":"BAT AND BALL","lat":50.96052,"lon":-1.7753,"postcode":"SP6 2EA","la":"New Forest","era":"other","nn":0,"risk":45,"cat":"amber"},{"name":"CARTWHEEL INN","lat":50.96842,"lon":-1.81681,"postcode":"SP6 3PZ","la":"New Forest","era":"trad","nn":3036,"risk":69,"cat":"red"},{"name":"HYDE CLUB","lat":50.91044,"lon":-1.76361,"postcode":"SP6 2QH","la":"New Forest","era":"other","nn":770,"risk":48,"cat":"amber"},{"name":"THE COMPASSES INN","lat":50.94528,"lon":-1.85039,"postcode":"SP6 3HQ","la":"New Forest","era":"trad","nn":3486,"risk":72,"cat":"red"},{"name":"THE CROWN INN","lat":50.92718,"lon":-1.79124,"postcode":"SP6 1AX","la":"New Forest","era":"trad","nn":0,"risk":42,"cat":"amber"},{"name":"THE FIGHTING COCKS","lat":50.93435,"lon":-1.74947,"postcode":"SP6 2LL","la":"New Forest","era":"other","nn":2169,"risk":63,"cat":"red"},{"name":"THE FORESTERS ARMS","lat":50.91495,"lon":-1.75266,"postcode":"SP6 2JA","la":"New Forest","era":"trad","nn":917,"risk":51,"cat":"amber"},{"name":"THE GEORGE","lat":50.92718,"lon":-1.78835,"postcode":"SP6 1AH","la":"New Forest","era":"trad","nn":202,"risk":44,"cat":"amber"},{"name":"THE HART OF MARTIN","lat":50.979,"lon":-1.91035,"postcode":"SP6 3LR","la":"New Forest","era":"trad","nn":5630,"risk":82,"cat":"red"},{"name":"THE HORSE AND GROOM","lat":50.9576,"lon":-1.75816,"postcode":"SP6 2AS","la":"New Forest","era":"trad","nn":1244,"risk":56,"cat":"amber"},{"name":"THE HULSE HALL","lat":50.96052,"lon":-1.7753,"postcode":"SP6 2EA","la":"New Forest","era":"other","nn":0,"risk":45,"cat":"amber"},{"name":"THE ROYAL OAK","lat":50.90646,"lon":-1.77259,"postcode":"SP6 2PB","la":"New Forest","era":"trad","nn":770,"risk":50,"cat":"amber"},{"name":"THE SHIP INN","lat":50.92718,"lon":-1.79124,"postcode":"SP6 1AX","la":"New Forest","era":"trad","nn":0,"risk":42,"cat":"amber"},{"name":"THE THREE LIONS","lat":50.92062,"lon":-1.77379,"postcode":"SP6 2HF","la":"New Forest","era":"trad","nn":1255,"risk":56,"cat":"amber"},{"name":"Andover Artisan Catering Limited","lat":51.20688,"lon":-1.47672,"postcode":"SP10 1EP","la":"Test Valley","era":"other","nn":0,"risk":28,"cat":"green"},{"name":"Andover Central Club","lat":51.20688,"lon":-1.47672,"postcode":"SP10 1EP","la":"Test Valley","era":"other","nn":0,"risk":28,"cat":"green"},{"name":"Andover Football Club","lat":51.21674,"lon":-1.51631,"postcode":"SP10 3LF","la":"Test Valley","era":"other","nn":496,"risk":37,"cat":"amber"},{"name":"Andover Golf Club","lat":51.19984,"lon":-1.48002,"postcode":"SP10 2EF","la":"Test Valley","era":"other","nn":557,"risk":32,"cat":"amber"},{"name":"Andover Lawn Tennis Club","lat":51.19682,"lon":-1.49706,"postcode":"SP11 7LW","la":"Test Valley","era":"other","nn":781,"risk":54,"cat":"amber"},{"name":"Andover Premier Inn","lat":51.21245,"lon":-1.51823,"postcode":"SP10 3UX","la":"Test Valley","era":"trad","nn":291,"risk":35,"cat":"amber"},{"name":"Andover Rugby Club","lat":51.2329,"lon":-1.49903,"postcode":"SP11 0TA","la":"Test Valley","era":"other","nn":1406,"risk":61,"cat":"red"},{"name":"Cameo And Vinyl","lat":51.20597,"lon":-1.47762,"postcode":"SP10 2PA","la":"Test Valley","era":"other","nn":0,"risk":28,"cat":"green"},{"name":"Chalkhill Blue","lat":51.20993,"lon":-1.51936,"postcode":"SP11 8BF","la":"Test Valley","era":"other","nn":291,"risk":35,"cat":"amber"},{"name":"Foresters Arms","lat":51.20597,"lon":-1.47762,"postcode":"SP10 2PA","la":"Test Valley","era":"trad","nn":0,"risk":28,"cat":"green"},{"name":"Globe","lat":51.20715,"lon":-1.47965,"postcode":"SP10 1LJ","la":"Test Valley","era":"other","nn":0,"risk":28,"cat":"green"},{"name":"Hampshire Golf Club","lat":51.18467,"lon":-1.47248,"postcode":"SP11 7TB","la":"Test Valley","era":"other","nn":1005,"risk":58,"cat":"amber"},{"name":"Home Guard Club","lat":51.16673,"lon":-1.44593,"postcode":"SP11 7JB","la":"Test Valley","era":"other","nn":1130,"risk":59,"cat":"amber"},{"name":"Malthouse","lat":51.20732,"lon":-1.49555,"postcode":"SP10 3AN","la":"Test Valley","era":"other","nn":438,"risk":31,"cat":"amber"},{"name":"Plough Inn","lat":51.19355,"lon":-1.39087,"postcode":"SP11 6PB","la":"Test Valley","era":"trad","nn":854,"risk":54,"cat":"amber"},{"name":"Poplar Farm Inn","lat":51.19123,"lon":-1.51775,"postcode":"SP11 7NJ","la":"Test Valley","era":"trad","nn":949,"risk":55,"cat":"amber"},{"name":"Redbridge","lat":51.20629,"lon":-1.48006,"postcode":"SP10 1BE","la":"Test Valley","era":"other","nn":100,"risk":29,"cat":"green"},{"name":"Royal British Legion Club Andover Branch","lat":51.20608,"lon":-1.48446,"postcode":"SP10 2JG","la":"Test Valley","era":"trad","nn":119,"risk":29,"cat":"green"},{"name":"Royal British Legion Hurstbourne Tarrant","lat":51.27963,"lon":-1.45472,"postcode":"SP11 0BH","la":"Test Valley","era":"trad","nn":4462,"risk":82,"cat":"red"},{"name":"Spin Nightclub And Bar","lat":51.20597,"lon":-1.47762,"postcode":"SP10 2PA","la":"Test Valley","era":"other","nn":0,"risk":28,"cat":"green"},{"name":"Station Inn","lat":51.20578,"lon":-1.48282,"postcode":"SP10 1BY","la":"Test Valley","era":"trad","nn":79,"risk":29,"cat":"green"},{"name":"The Andover Tap At The Lamb","lat":51.20555,"lon":-1.47854,"postcode":"SP10 2EA","la":"Test Valley","era":"mod","nn":79,"risk":29,"cat":"green"},{"name":"The Angel Inn","lat":51.20941,"lon":-1.47903,"postcode":"SP10 1ND","la":"Test Valley","era":"trad","nn":255,"risk":30,"cat":"green"},{"name":"The Anton Arms","lat":51.20354,"lon":-1.49381,"postcode":"SP10 2JN","la":"Test Valley","era":"trad","nn":438,"risk":31,"cat":"amber"},{"name":"The Black Horse","lat":51.07033,"lon":-1.60895,"postcode":"SP5 1NF","la":"Test Valley","era":"trad","nn":3874,"risk":78,"cat":"red"},{"name":"The Chestnut Tree","lat":51.20983,"lon":-1.51145,"postcode":"SP10 3LL","la":"Test Valley","era":"other","nn":551,"risk":37,"cat":"amber"},{"name":"The Cricketers Inn","lat":51.19874,"lon":-1.38184,"postcode":"SP11 6PZ","la":"Test Valley","era":"trad","nn":854,"risk":54,"cat":"amber"},{"name":"The Eagle Inn","lat":51.18946,"lon":-1.53108,"postcode":"SP11 7BG","la":"Test Valley","era":"trad","nn":337,"risk":48,"cat":"amber"},{"name":"The Folly","lat":51.21314,"lon":-1.48759,"postcode":"SP10 3JJ","la":"Test Valley","era":"other","nn":727,"risk":33,"cat":"amber"},{"name":"The Fox Inn","lat":51.26501,"lon":-1.52401,"postcode":"SP11 0RU","la":"Test Valley","era":"trad","nn":1987,"risk":65,"cat":"red"},{"name":"The George Inn","lat":51.30664,"lon":-1.51016,"postcode":"SP11 0JY","la":"Test Valley","era":"trad","nn":4530,"risk":83,"cat":"red"},{"name":"The Hare And Hounds","lat":51.24448,"lon":-1.49092,"postcode":"SP11 0JA","la":"Test Valley","era":"trad","nn":1348,"risk":60,"cat":"amber"},{"name":"The Hawk Inn","lat":51.19957,"lon":-1.56035,"postcode":"SP11 8AE","la":"Test Valley","era":"trad","nn":1619,"risk":62,"cat":"red"},{"name":"The Jack Russell Inn Ltd","lat":51.32126,"lon":-1.44166,"postcode":"SP11 0DS","la":"Test Valley","era":"trad","nn":4717,"risk":84,"cat":"red"},{"name":"The John Russell Fox","lat":51.20715,"lon":-1.47965,"postcode":"SP10 1LJ","la":"Test Valley","era":"trad","nn":0,"risk":28,"cat":"green"},{"name":"The Lion","lat":51.23727,"lon":-1.54536,"postcode":"SP11 9HN","la":"Test Valley","era":"trad","nn":1856,"risk":64,"cat":"red"},{"name":"The New Clatford Arms","lat":51.17601,"lon":-1.48522,"postcode":"SP11 7RN","la":"Test Valley","era":"trad","nn":359,"risk":51,"cat":"amber"},{"name":"The Oak","lat":51.23952,"lon":-1.45648,"postcode":"SP11 6JJ","la":"Test Valley","era":"trad","nn":2460,"risk":68,"cat":"red"},{"name":"The Old Bell And Crown","lat":51.25022,"lon":-1.50798,"postcode":"SP11 0HT","la":"Test Valley","era":"trad","nn":1348,"risk":60,"cat":"amber"},{"name":"The Queen Charlotte Inn","lat":51.21015,"lon":-1.45763,"postcode":"SP10 2PR","la":"Test Valley","era":"trad","nn":833,"risk":54,"cat":"amber"},{"name":"The Rockhouse Foundation","lat":51.20636,"lon":-1.47763,"postcode":"SP10 2NU","la":"Test Valley","era":"mod","nn":44,"risk":29,"cat":"green"},{"name":"The Royal Oak","lat":51.21947,"lon":-1.4978,"postcode":"SP10 4AJ","la":"Test Valley","era":"trad","nn":1000,"risk":58,"cat":"amber"},{"name":"The Royal Oak","lat":51.17913,"lon":-1.48387,"postcode":"SP11 7QY","la":"Test Valley","era":"trad","nn":359,"risk":51,"cat":"amber"},{"name":"The Southampton Arms","lat":51.20478,"lon":-1.47874,"postcode":"SP10 2EG","la":"Test Valley","era":"trad","nn":87,"risk":29,"cat":"green"},{"name":"The SP Bar","lat":51.20627,"lon":-1.48199,"postcode":"SP10 1BW","la":"Test Valley","era":"other","nn":79,"risk":29,"cat":"green"},{"name":"The Swallow","lat":51.21683,"lon":-1.46304,"postcode":"SP10 5HY","la":"Test Valley","era":"other","nn":833,"risk":54,"cat":"amber"},{"name":"The Town Mills","lat":51.20722,"lon":-1.48133,"postcode":"SP10 1BL","la":"Test Valley","era":"trad","nn":115,"risk":29,"cat":"green"},{"name":"The White Hart Inn","lat":51.22472,"lon":-1.52779,"postcode":"SP11 0RD","la":"Test Valley","era":"trad","nn":1194,"risk":59,"cat":"amber"},{"name":"The White Horse Inn","lat":51.20944,"lon":-1.57744,"postcode":"SP11 8EE","la":"Test Valley","era":"trad","nn":1619,"risk":62,"cat":"red"},{"name":"Walnut Tree Inn","lat":51.18646,"lon":-1.5317,"postcode":"SP11 7BN","la":"Test Valley","era":"trad","nn":337,"risk":51,"cat":"amber"},{"name":"Welcome Stranger","lat":51.21925,"lon":-1.60011,"postcode":"SP11 8PG","la":"Test Valley","era":"other","nn":1919,"risk":64,"cat":"red"},{"name":"West Dean Club","lat":51.0393,"lon":-1.63415,"postcode":"SP5 1EX","la":"Test Valley","era":"other","nn":3178,"risk":73,"cat":"red"},{"name":"Wolversdene Club","lat":51.20551,"lon":-1.47595,"postcode":"SP10 2AA","la":"Test Valley","era":"other","nn":127,"risk":29,"cat":"green"},{"name":"Alderbury Bowls Club","lat":51.03863,"lon":-1.72967,"postcode":"SP5 3AD","la":"Wiltshire","era":"other","nn":1050,"risk":45,"cat":"amber"},{"name":"Amesbury Bowls Club","lat":51.17061,"lon":-1.77835,"postcode":"SP4 7HH","la":"Wiltshire","era":"other","nn":220,"risk":17,"cat":"green"},{"name":"Barford Inn","lat":51.08232,"lon":-1.91959,"postcode":"SP3 4AB","la":"Wiltshire","era":"trad","nn":2540,"risk":56,"cat":"amber"},{"name":"Beckford Arms","lat":51.08014,"lon":-2.10209,"postcode":"SP3 6PX","la":"Wiltshire","era":"trad","nn":2153,"risk":53,"cat":"amber"},{"name":"Bemerton Conservative Club","lat":51.07397,"lon":-1.82336,"postcode":"SP2 9NJ","la":"Wiltshire","era":"other","nn":168,"risk":16,"cat":"green"},{"name":"Benett Bar","lat":51.06342,"lon":-2.0814,"postcode":"SP3 6HD","la":"Wiltshire","era":"other","nn":194,"risk":34,"cat":"amber"},{"name":"Black Dog Inn","lat":51.09521,"lon":-2.04383,"postcode":"SP3 5AH","la":"Wiltshire","era":"trad","nn":3474,"risk":62,"cat":"red"},{"name":"Boot Inn","lat":51.15382,"lon":-1.89952,"postcode":"SP3 4TN","la":"Wiltshire","era":"trad","nn":1740,"risk":50,"cat":"amber"},{"name":"Boscombe Down Recreational Club","lat":51.16817,"lon":-1.76643,"postcode":"SP4 7PE","la":"Wiltshire","era":"other","nn":874,"risk":41,"cat":"amber"},{"name":"Boscombe Village Social Club","lat":51.14668,"lon":-1.71287,"postcode":"SP4 0AB","la":"Wiltshire","era":"mod","nn":726,"risk":38,"cat":"amber"},{"name":"Bulford Working Mens Club","lat":51.19183,"lon":-1.76268,"postcode":"SP4 9DR","la":"Wiltshire","era":"trad","nn":239,"risk":37,"cat":"amber"},{"name":"Caboose","lat":51.07039,"lon":-1.80404,"postcode":"SP2 7RR","la":"Wiltshire","era":"other","nn":0,"risk":15,"cat":"green"},{"name":"Castle Street Social Club","lat":51.07134,"lon":-1.79605,"postcode":"SP1 3TR","la":"Wiltshire","era":"mod","nn":50,"risk":16,"cat":"green"},{"name":"Chickpea (QH) Ltd","lat":51.02979,"lon":-1.94637,"postcode":"SP5 5EN","la":"Wiltshire","era":"other","nn":3002,"risk":59,"cat":"amber"},{"name":"Chute Club","lat":51.27625,"lon":-1.55834,"postcode":"SP11 9DU","la":"Wiltshire","era":"other","nn":265,"risk":37,"cat":"amber"},{"name":"Cosy Club Salisbury","lat":51.06707,"lon":-1.79591,"postcode":"SP1 2PH","la":"Wiltshire","era":"other","nn":0,"risk":15,"cat":"green"},{"name":"Crown Inn","lat":51.25612,"lon":-1.62194,"postcode":"SP11 9PZ","la":"Wiltshire","era":"trad","nn":0,"risk":20,"cat":"green"},{"name":"Dog & Gun Inn","lat":51.23782,"lon":-1.79335,"postcode":"SP4 9RQ","la":"Wiltshire","era":"trad","nn":1798,"risk":50,"cat":"amber"},{"name":"Donhead Sports Club","lat":51.00055,"lon":-2.14197,"postcode":"SP7 0PL","la":"Wiltshire","era":"trad","nn":611,"risk":37,"cat":"amber"},{"name":"Duck Inn","lat":51.07306,"lon":-1.77275,"postcode":"SP1 1PU","la":"Wiltshire","era":"trad","nn":1042,"risk":45,"cat":"amber"},{"name":"Duke of York","lat":51.07327,"lon":-1.80403,"postcode":"SP2 7AS","la":"Wiltshire","era":"trad","nn":164,"risk":16,"cat":"green"},{"name":"Dunkirk Social Club","lat":51.1716,"lon":-1.78335,"postcode":"SP4 7EU","la":"Wiltshire","era":"mod","nn":0,"risk":18,"cat":"green"},{"name":"Durrington Plough Inn","lat":51.20237,"lon":-1.77283,"postcode":"SP4 8HB","la":"Wiltshire","era":"trad","nn":229,"risk":34,"cat":"amber"},{"name":"Durrington Working Mens Club","lat":51.20036,"lon":-1.7735,"postcode":"SP4 8HG","la":"Wiltshire","era":"trad","nn":229,"risk":34,"cat":"amber"},{"name":"Figheldean Working Mens Club","lat":51.22308,"lon":-1.78273,"postcode":"SP4 8JT","la":"Wiltshire","era":"trad","nn":1798,"risk":50,"cat":"amber"},{"name":"Fisherton Working Mens Club","lat":51.07235,"lon":-1.80606,"postcode":"SP2 7ED","la":"Wiltshire","era":"trad","nn":70,"risk":16,"cat":"green"},{"name":"Five Bells Inn","lat":51.07085,"lon":-1.79161,"postcode":"SP1 1EG","la":"Wiltshire","era":"trad","nn":154,"risk":16,"cat":"green"},{"name":"Five Rivers Bowls Club","lat":51.06533,"lon":-1.78524,"postcode":"SP1 2JJ","la":"Wiltshire","era":"other","nn":248,"risk":17,"cat":"green"},{"name":"Fox And Hounds","lat":51.08039,"lon":-2.18504,"postcode":"SP3 6BN","la":"Wiltshire","era":"trad","nn":4290,"risk":68,"cat":"red"},{"name":"George And Dragon","lat":51.07171,"lon":-1.79646,"postcode":"SP1 3SP","la":"Wiltshire","era":"trad","nn":0,"risk":15,"cat":"green"},{"name":"Green Dragon","lat":51.04597,"lon":-1.73914,"postcode":"SP5 3AR","la":"Wiltshire","era":"trad","nn":1050,"risk":45,"cat":"amber"},{"name":"Halfway House","lat":51.07486,"lon":-1.82055,"postcode":"SP2 7JY","la":"Wiltshire","era":"other","nn":219,"risk":17,"cat":"green"},{"name":"Hamptworth Golf Club","lat":50.97802,"lon":-1.65695,"postcode":"SP5 2DU","la":"Wiltshire","era":"other","nn":0,"risk":35,"cat":"amber"},{"name":"Harlequin Sports Club","lat":51.08019,"lon":-1.83291,"postcode":"SP2 9DR","la":"Wiltshire","era":"other","nn":722,"risk":20,"cat":"green"},{"name":"Harnham Community Sports & Social Cl","lat":51.06001,"lon":-1.80838,"postcode":"SP2 8LA","la":"Wiltshire","era":"mod","nn":879,"risk":41,"cat":"amber"},{"name":"High Post Golf Club","lat":51.12784,"lon":-1.78621,"postcode":"SP4 6AT","la":"Wiltshire","era":"other","nn":2649,"risk":56,"cat":"amber"},{"name":"Hindon Fellowship Club","lat":51.096,"lon":-2.12683,"postcode":"SP3 6ER","la":"Wiltshire","era":"trad","nn":198,"risk":37,"cat":"amber"},{"name":"Hook And Glove Inn","lat":51.06218,"lon":-1.67999,"postcode":"SP5 1AB","la":"Wiltshire","era":"trad","nn":3941,"risk":65,"cat":"red"},{"name":"Kings Arms","lat":51.1716,"lon":-1.78335,"postcode":"SP4 7EU","la":"Wiltshire","era":"trad","nn":0,"risk":18,"cat":"green"},{"name":"Kings Head","lat":50.99088,"lon":-1.71453,"postcode":"SP5 2JT","la":"Wiltshire","era":"trad","nn":1283,"risk":47,"cat":"amber"},{"name":"Kludo","lat":51.06856,"lon":-1.79225,"postcode":"SP1 2AP","la":"Wiltshire","era":"other","nn":0,"risk":15,"cat":"green"},{"name":"Lake Estate Club","lat":51.14936,"lon":-1.81475,"postcode":"SP4 7BN","la":"Wiltshire","era":"other","nn":2051,"risk":52,"cat":"amber"},{"name":"Lettuce Entertain You","lat":51.01109,"lon":-1.6527,"postcode":"SP5 2SG","la":"Wiltshire","era":"other","nn":302,"risk":37,"cat":"amber"},{"name":"Live Escape Rooms Salisbury Ltd","lat":51.06941,"lon":-1.79364,"postcode":"SP1 1EL","la":"Wiltshire","era":"mod","nn":66,"risk":16,"cat":"green"},{"name":"Lord Nelsons Arms","lat":51.09574,"lon":-1.66185,"postcode":"SP5 1QS","la":"Wiltshire","era":"trad","nn":3941,"risk":65,"cat":"red"},{"name":"Lounge 30","lat":51.06856,"lon":-1.79225,"postcode":"SP1 2AP","la":"Wiltshire","era":"mod","nn":0,"risk":15,"cat":"green"},{"name":"Ludgershall Sports & Social Club","lat":51.2547,"lon":-1.62605,"postcode":"SP11 9QE","la":"Wiltshire","era":"mod","nn":327,"risk":23,"cat":"green"},{"name":"Malet Arms","lat":51.16326,"lon":-1.69186,"postcode":"SP4 0HF","la":"Wiltshire","era":"trad","nn":1676,"risk":50,"cat":"amber"},{"name":"New Inn","lat":51.17295,"lon":-1.78054,"postcode":"SP4 7DL","la":"Wiltshire","era":"trad","nn":84,"risk":18,"cat":"green"},{"name":"Old Ale and Coffee House","lat":51.06757,"lon":-1.79856,"postcode":"SP1 2QD","la":"Wiltshire","era":"other","nn":0,"risk":15,"cat":"green"},{"name":"Old Castle Club","lat":51.25767,"lon":-1.62253,"postcode":"SP11 9QR","la":"Wiltshire","era":"other","nn":177,"risk":22,"cat":"green"},{"name":"Old Castle Harvester","lat":51.09183,"lon":-1.79869,"postcode":"SP1 3SF","la":"Wiltshire","era":"trad","nn":474,"risk":39,"cat":"amber"},{"name":"Ox Row Inn","lat":51.06888,"lon":-1.79554,"postcode":"SP1 1EU","la":"Wiltshire","era":"trad","nn":20,"risk":15,"cat":"green"},{"name":"Parish Lantern","lat":51.01224,"lon":-1.64879,"postcode":"SP5 2SA","la":"Wiltshire","era":"other","nn":302,"risk":37,"cat":"amber"},{"name":"Pembroke Park Club Ltd","lat":51.07682,"lon":-1.82407,"postcode":"SP2 9DG","la":"Wiltshire","era":"other","nn":213,"risk":17,"cat":"green"},{"name":"Penruddocke Arms","lat":51.0815,"lon":-1.95592,"postcode":"SP3 5EL","la":"Wiltshire","era":"trad","nn":1362,"risk":47,"cat":"amber"},{"name":"Queens Head","lat":51.25612,"lon":-1.62194,"postcode":"SP11 9PZ","la":"Wiltshire","era":"trad","nn":0,"risk":20,"cat":"green"},{"name":"Radnor Arms","lat":51.03433,"lon":-1.77613,"postcode":"SP5 4HS","la":"Wiltshire","era":"trad","nn":1183,"risk":46,"cat":"amber"},{"name":"Railway Social Club","lat":51.0707,"lon":-1.80286,"postcode":"SP2 7QT","la":"Wiltshire","era":"other","nn":90,"risk":16,"cat":"green"},{"name":"Redlynch Playing Fields Sports & Soc","lat":50.97966,"lon":-1.71877,"postcode":"SP5 2LN","la":"Wiltshire","era":"other","nn":0,"risk":35,"cat":"amber"},{"name":"Rose And Crown","lat":51.19008,"lon":-1.7607,"postcode":"SP4 9DS","la":"Wiltshire","era":"trad","nn":239,"risk":37,"cat":"amber"},{"name":"Rushmore Golf Club","lat":50.96883,"lon":-2.06053,"postcode":"SP5 5QB","la":"Wiltshire","era":"other","nn":3635,"risk":63,"cat":"red"},{"name":"Salisbury & South Wilts Sports Club","lat":51.07502,"lon":-1.82509,"postcode":"SP2 9NY","la":"Wiltshire","era":"other","nn":168,"risk":16,"cat":"green"},{"name":"Salisbury Bowling Club","lat":51.0793,"lon":-1.79378,"postcode":"SP1 3NW","la":"Wiltshire","era":"other","nn":720,"risk":20,"cat":"green"},{"name":"Salisbury Catering Ltd","lat":51.06369,"lon":-1.83836,"postcode":"SP2 8PR","la":"Wiltshire","era":"other","nn":1552,"risk":49,"cat":"amber"},{"name":"Salisbury Cycling Club","lat":51.07058,"lon":-1.7938,"postcode":"SP1 1DU","la":"Wiltshire","era":"other","nn":19,"risk":15,"cat":"green"},{"name":"Salisbury FC Limited","lat":51.10402,"lon":-1.78625,"postcode":"SP4 6PU","la":"Wiltshire","era":"other","nn":1610,"risk":49,"cat":"amber"},{"name":"Salisbury Masonic Association Ltd","lat":51.06757,"lon":-1.79856,"postcode":"SP1 2QD","la":"Wiltshire","era":"trad","nn":0,"risk":15,"cat":"green"},{"name":"Salisbury Rugby Club Bar","lat":51.08756,"lon":-1.79897,"postcode":"SP1 3SA","la":"Wiltshire","era":"other","nn":474,"risk":36,"cat":"amber"},{"name":"Shrewton Sports & Social Club","lat":51.19497,"lon":-1.90784,"postcode":"SP3 4JL","la":"Wiltshire","era":"mod","nn":405,"risk":38,"cat":"amber"},{"name":"St Paul's Conservative Club","lat":51.07356,"lon":-1.80633,"postcode":"SP2 7AA","la":"Wiltshire","era":"other","nn":122,"risk":16,"cat":"green"},{"name":"Stonehenge Inn","lat":51.19606,"lon":-1.78226,"postcode":"SP4 8BN","la":"Wiltshire","era":"trad","nn":776,"risk":38,"cat":"amber"},{"name":"Swan Inn","lat":51.12019,"lon":-1.88209,"postcode":"SP2 0PR","la":"Wiltshire","era":"trad","nn":605,"risk":40,"cat":"amber"},{"name":"The Anchor And Hope","lat":51.0694,"lon":-1.79106,"postcode":"SP1 1HL","la":"Wiltshire","era":"trad","nn":87,"risk":16,"cat":"green"},{"name":"The Avon Brewery","lat":51.07171,"lon":-1.79646,"postcode":"SP1 3SP","la":"Wiltshire","era":"other","nn":0,"risk":15,"cat":"green"},{"name":"The Bear Inn","lat":51.08037,"lon":-1.86419,"postcode":"SP2 0DF","la":"Wiltshire","era":"trad","nn":90,"risk":21,"cat":"green"},{"name":"The Bell","lat":51.17224,"lon":-1.78013,"postcode":"SP4 7AW","la":"Wiltshire","era":"other","nn":84,"risk":18,"cat":"green"},{"name":"The Bell & Crown","lat":51.06705,"lon":-1.79336,"postcode":"SP1 2DH","la":"Wiltshire","era":"trad","nn":131,"risk":16,"cat":"green"},{"name":"The Bell Inn","lat":51.16874,"lon":-1.89199,"postcode":"SP3 4SZ","la":"Wiltshire","era":"trad","nn":1740,"risk":50,"cat":"amber"},{"name":"The Bell Inn","lat":51.10707,"lon":-1.87589,"postcode":"SP2 0QD","la":"Wiltshire","era":"trad","nn":1522,"risk":48,"cat":"amber"},{"name":"The Benett Arms","lat":51.0418,"lon":-2.15302,"postcode":"SP7 9AS","la":"Wiltshire","era":"trad","nn":3097,"risk":59,"cat":"amber"},{"name":"The Bishops Mill","lat":51.06944,"lon":-1.79787,"postcode":"SP1 1BD","la":"Wiltshire","era":"trad","nn":92,"risk":16,"cat":"green"},{"name":"The Boot Inn","lat":51.06636,"lon":-2.08044,"postcode":"SP3 6PS","la":"Wiltshire","era":"trad","nn":334,"risk":35,"cat":"amber"},{"name":"The Bridge Inn","lat":51.13193,"lon":-1.82438,"postcode":"SP4 6NU","la":"Wiltshire","era":"trad","nn":1803,"risk":50,"cat":"amber"},{"name":"The Bridge Tap","lat":51.06911,"lon":-1.79907,"postcode":"SP2 7RG","la":"Wiltshire","era":"mod","nn":92,"risk":16,"cat":"green"},{"name":"The Coach And Horses","lat":51.06953,"lon":-1.79229,"postcode":"SP1 1HG","la":"Wiltshire","era":"trad","nn":87,"risk":16,"cat":"green"},{"name":"The Compasses Inn","lat":51.06423,"lon":-2.03741,"postcode":"SP3 6NB","la":"Wiltshire","era":"trad","nn":2494,"risk":55,"cat":"amber"},{"name":"The Crown Inn","lat":51.18105,"lon":-1.67775,"postcode":"SP4 0DW","la":"Wiltshire","era":"trad","nn":2209,"risk":53,"cat":"amber"},{"name":"The Cuckoo Inn","lat":50.97802,"lon":-1.65695,"postcode":"SP5 2DU","la":"Wiltshire","era":"trad","nn":0,"risk":35,"cat":"amber"},{"name":"The Devizes Inn","lat":51.07481,"lon":-1.80767,"postcode":"SP2 7LQ","la":"Wiltshire","era":"trad","nn":168,"risk":16,"cat":"green"},{"name":"The Earl of Normanton","lat":51.14227,"lon":-1.72225,"postcode":"SP4 0AG","la":"Wiltshire","era":"other","nn":818,"risk":41,"cat":"amber"},{"name":"The Forester","lat":51.02387,"lon":-2.11913,"postcode":"SP7 9EE","la":"Wiltshire","era":"other","nn":2586,"risk":56,"cat":"amber"},{"name":"The Fox And Goose","lat":51.03795,"lon":-1.84738,"postcode":"SP5 4LE","la":"Wiltshire","era":"trad","nn":2931,"risk":58,"cat":"amber"},{"name":"The Goat at Downton","lat":50.99251,"lon":-1.75209,"postcode":"SP5 3LY","la":"Wiltshire","era":"other","nn":637,"risk":40,"cat":"amber"},{"name":"The Greyfisher","lat":51.05993,"lon":-1.79581,"postcode":"SP2 8DW","la":"Wiltshire","era":"other","nn":794,"risk":21,"cat":"green"},{"name":"The Greyhound","lat":51.07987,"lon":-1.86316,"postcode":"SP2 0HT","la":"Wiltshire","era":"trad","nn":90,"risk":21,"cat":"green"},{"name":"The Grove Arms","lat":51.00253,"lon":-2.13382,"postcode":"SP7 9ND","la":"Wiltshire","era":"trad","nn":611,"risk":40,"cat":"amber"},{"name":"The Hampton Inn","lat":51.08932,"lon":-1.77128,"postcode":"SP1 3GU","la":"Wiltshire","era":"trad","nn":1811,"risk":50,"cat":"amber"},{"name":"The Hatchet Inn","lat":51.27688,"lon":-1.55466,"postcode":"SP11 9DX","la":"Wiltshire","era":"trad","nn":265,"risk":37,"cat":"amber"},{"name":"The Haunch Of Venison","lat":51.06901,"lon":-1.79644,"postcode":"SP1 1TB","la":"Wiltshire","era":"other","nn":64,"risk":16,"cat":"green"},{"name":"The Horse And Groom","lat":51.07379,"lon":-1.81308,"postcode":"SP2 7ES","la":"Wiltshire","era":"trad","nn":395,"risk":18,"cat":"green"},{"name":"The Horseshoe Inn","lat":51.01683,"lon":-2.01202,"postcode":"SP5 5JF","la":"Wiltshire","era":"trad","nn":4073,"risk":66,"cat":"red"},{"name":"The Huntsman Tavern","lat":51.06719,"lon":-1.79137,"postcode":"SP1 2BQ","la":"Wiltshire","era":"other","nn":121,"risk":16,"cat":"green"},{"name":"The Kings Head","lat":51.06852,"lon":-1.79781,"postcode":"SP1 2ND","la":"Wiltshire","era":"trad","nn":103,"risk":16,"cat":"green"},{"name":"The Lamb Inn","lat":51.09433,"lon":-2.12778,"postcode":"SP3 6DP","la":"Wiltshire","era":"trad","nn":198,"risk":37,"cat":"amber"},{"name":"The Landford Poacher","lat":50.98036,"lon":-1.63665,"postcode":"SP5 2EE","la":"Wiltshire","era":"other","nn":1445,"risk":48,"cat":"amber"},{"name":"The Market Inn","lat":51.06889,"lon":-1.79526,"postcode":"SP1 1EP","la":"Wiltshire","era":"trad","nn":20,"risk":15,"cat":"green"},{"name":"The New Inn & Old House Restaurant","lat":51.06707,"lon":-1.79591,"postcode":"SP1 2PH","la":"Wiltshire","era":"other","nn":0,"risk":15,"cat":"green"},{"name":"The Old Inn","lat":51.15277,"lon":-1.7091,"postcode":"SP4 0BN","la":"Wiltshire","era":"trad","nn":726,"risk":40,"cat":"amber"},{"name":"The Pack Horse","lat":51.19737,"lon":-1.81911,"postcode":"SP4 8QB","la":"Wiltshire","era":"trad","nn":2572,"risk":56,"cat":"amber"},{"name":"The Pelican Inn","lat":51.13189,"lon":-1.90461,"postcode":"SP3 4LT","la":"Wiltshire","era":"trad","nn":1752,"risk":50,"cat":"amber"},{"name":"The Pheasant Inn","lat":51.07072,"lon":-1.79395,"postcode":"SP1 1DT","la":"Wiltshire","era":"trad","nn":19,"risk":15,"cat":"green"},{"name":"The Plume Of Feathers","lat":51.19693,"lon":-1.90294,"postcode":"SP3 4BZ","la":"Wiltshire","era":"other","nn":405,"risk":38,"cat":"amber"},{"name":"The Rai d'Or","lat":51.06806,"lon":-1.79241,"postcode":"SP1 2AS","la":"Wiltshire","era":"other","nn":57,"risk":16,"cat":"green"},{"name":"The Railway Inn/Dusthole","lat":51.06558,"lon":-1.78172,"postcode":"SP1 2JG","la":"Wiltshire","era":"trad","nn":248,"risk":17,"cat":"green"},{"name":"The Railway Tavern","lat":51.07039,"lon":-1.80404,"postcode":"SP2 7RR","la":"Wiltshire","era":"trad","nn":0,"risk":15,"cat":"green"},{"name":"The Rainbow On The Lake","lat":51.13501,"lon":-1.93733,"postcode":"SP3 4LZ","la":"Wiltshire","era":"other","nn":2310,"risk":54,"cat":"amber"},{"name":"The Ram Inn","lat":51.24296,"lon":-1.66455,"postcode":"SP9 7LG","la":"Wiltshire","era":"trad","nn":537,"risk":37,"cat":"amber"},{"name":"The Rising Sun Inn","lat":51.00101,"lon":-2.15146,"postcode":"SP7 9LT","la":"Wiltshire","era":"trad","nn":666,"risk":40,"cat":"amber"},{"name":"The Rose And Crown","lat":51.2308,"lon":-1.95332,"postcode":"SP3 4RZ","la":"Wiltshire","era":"trad","nn":5091,"risk":73,"cat":"red"},{"name":"The Royal George","lat":51.07142,"lon":-1.79371,"postcode":"SP1 3UT","la":"Wiltshire","era":"trad","nn":75,"risk":16,"cat":"green"},{"name":"The Royal Oak","lat":51.08428,"lon":-1.82083,"postcode":"SP2 9LX","la":"Wiltshire","era":"trad","nn":860,"risk":39,"cat":"amber"},{"name":"The Royal Oak","lat":51.11886,"lon":-1.89048,"postcode":"SP2 0PD","la":"Wiltshire","era":"trad","nn":605,"risk":40,"cat":"amber"},{"name":"The Royal Oak","lat":51.04366,"lon":-2.05167,"postcode":"SP3 5PA","la":"Wiltshire","era":"trad","nn":2494,"risk":55,"cat":"amber"},{"name":"The Salisbury Arms","lat":51.07095,"lon":-1.79448,"postcode":"SP1 1DP","la":"Wiltshire","era":"trad","nn":45,"risk":16,"cat":"green"},{"name":"The Talbot Inn","lat":51.00026,"lon":-2.07622,"postcode":"SP7 0HA","la":"Wiltshire","era":"trad","nn":3664,"risk":63,"cat":"red"},{"name":"The Village Freehouse","lat":51.07255,"lon":-1.80702,"postcode":"SP2 7EF","la":"Wiltshire","era":"other","nn":70,"risk":16,"cat":"green"},{"name":"The Wheatsheaf","lat":51.11574,"lon":-1.82285,"postcode":"SP4 6NQ","la":"Wiltshire","era":"trad","nn":1803,"risk":50,"cat":"amber"},{"name":"The Wig And Quill Inn","lat":51.06707,"lon":-1.79591,"postcode":"SP1 2PH","la":"Wiltshire","era":"trad","nn":0,"risk":15,"cat":"green"},{"name":"The Winchester Gate","lat":51.06965,"lon":-1.78946,"postcode":"SP1 1JA","la":"Wiltshire","era":"other","nn":115,"risk":16,"cat":"green"},{"name":"The Winterbourne Arms","lat":51.11124,"lon":-1.75043,"postcode":"SP4 6EW","la":"Wiltshire","era":"trad","nn":2626,"risk":56,"cat":"amber"},{"name":"The Wooden Spoon","lat":50.99286,"lon":-1.743,"postcode":"SP5 3PG","la":"Wiltshire","era":"other","nn":637,"risk":40,"cat":"amber"},{"name":"The Woodfalls Inn","lat":50.97966,"lon":-1.71877,"postcode":"SP5 2LN","la":"Wiltshire","era":"trad","nn":0,"risk":35,"cat":"amber"},{"name":"The Wyndham Arms","lat":51.07311,"lon":-1.78812,"postcode":"SP1 3AS","la":"Wiltshire","era":"trad","nn":115,"risk":16,"cat":"green"},{"name":"The Wyndham Arms","lat":51.0829,"lon":-1.97529,"postcode":"SP3 5EG","la":"Wiltshire","era":"trad","nn":1362,"risk":47,"cat":"amber"},{"name":"The Yew Tree Inn","lat":51.03363,"lon":-1.79302,"postcode":"SP5 4JE","la":"Wiltshire","era":"trad","nn":1183,"risk":46,"cat":"amber"},{"name":"Tidworth Garrison Golf Club","lat":51.22691,"lon":-1.68532,"postcode":"SP9 7AF","la":"Wiltshire","era":"other","nn":1820,"risk":51,"cat":"amber"},{"name":"Tidworth Royal British Legion","lat":51.23595,"lon":-1.66353,"postcode":"SP9 7SU","la":"Wiltshire","era":"trad","nn":784,"risk":41,"cat":"amber"},{"name":"Tisbury Sports & Social Club","lat":51.06204,"lon":-2.0797,"postcode":"SP3 6JR","la":"Wiltshire","era":"mod","nn":194,"risk":34,"cat":"amber"},{"name":"Toby Carvery Amesbury, Solstice RP","lat":51.17747,"lon":-1.75655,"postcode":"SP4 7SQ","la":"Wiltshire","era":"other","nn":1242,"risk":47,"cat":"amber"},{"name":"Welly Extra Club","lat":51.24768,"lon":-1.66293,"postcode":"SP9 7FP","la":"Wiltshire","era":"other","nn":537,"risk":39,"cat":"amber"},{"name":"Wheatsheaf","lat":51.0826,"lon":-1.85733,"postcode":"SP2 0AX","la":"Wiltshire","era":"trad","nn":331,"risk":23,"cat":"green"},{"name":"White Hart","lat":51.03197,"lon":-1.90359,"postcode":"SP5 4AA","la":"Wiltshire","era":"trad","nn":3002,"risk":59,"cat":"amber"},{"name":"White Horse Inn","lat":51.07874,"lon":-1.84304,"postcode":"SP2 9AS","la":"Wiltshire","era":"trad","nn":726,"risk":40,"cat":"amber"},{"name":"Wilton Club","lat":51.08157,"lon":-1.86177,"postcode":"SP2 0HJ","la":"Wiltshire","era":"other","nn":212,"risk":22,"cat":"green"},{"name":"Wyndham Park Conservative Club","lat":51.07335,"lon":-1.78971,"postcode":"SP1 3AL","la":"Wiltshire","era":"other","nn":115,"risk":16,"cat":"green"},{"name":"Your Only Young Once","lat":51.06884,"lon":-1.79335,"postcode":"SP1 2AJ","la":"Wiltshire","era":"other","nn":66,"risk":16,"cat":"green"}]