[{"name":"Ahir Lorenzo's Bar Restaurant","lat":51.60275,"lon":-0.19557,"postcode":"N3 1RJ","la":"Barnet","era":"mod","nn":215,"risk":27,"cat":"green"},{"name":"Albanian Association","lat":51.60603,"lon":-0.17278,"postcode":"N12 0PD","la":"Barnet","era":"other","nn":12,"risk":26,"cat":"green"},{"name":"Annie's Freehouse","lat":51.60552,"lon":-0.18733,"postcode":"N3 2PA","la":"Barnet","era":"other","nn":321,"risk":28,"cat":"green"},{"name":"Bald Faced Stag","lat":51.58915,"lon":-0.16474,"postcode":"N2 8AB","la":"Barnet","era":"trad","nn":178,"risk":27,"cat":"green"},{"name":"David Lloyd Club","lat":51.60586,"lon":-0.17445,"postcode":"N12 0QZ","la":"Barnet","era":"other","nn":117,"risk":27,"cat":"green"},{"name":"East Finchley Constitutional Club","lat":51.59265,"lon":-0.16899,"postcode":"N2 8DE","la":"Barnet","era":"other","nn":184,"risk":27,"cat":"green"},{"name":"Elephant Inn","lat":51.6114,"lon":-0.17986,"postcode":"N12 8NR","la":"Barnet","era":"trad","nn":213,"risk":27,"cat":"green"},{"name":"Finchley Bowling Club","lat":51.60629,"lon":-0.18285,"postcode":"N3 2DT","la":"Barnet","era":"other","nn":321,"risk":28,"cat":"green"},{"name":"Finchley Lawn Tennis Club","lat":51.60907,"lon":-0.1959,"postcode":"N3 1AJ","la":"Barnet","era":"other","nn":438,"risk":29,"cat":"green"},{"name":"Finchley Manor Lawn Tennis, Squash And Health Club","lat":51.6017,"lon":-0.20413,"postcode":"N3 1TD","la":"Barnet","era":"other","nn":111,"risk":27,"cat":"green"},{"name":"Finchley Rugby Club","lat":51.60592,"lon":-0.17273,"postcode":"N12 0PD","la":"Barnet","era":"other","nn":12,"risk":26,"cat":"green"},{"name":"Finchley United Services Club","lat":51.61289,"lon":-0.17792,"postcode":"N12 8LY","la":"Barnet","era":"other","nn":141,"risk":27,"cat":"green"},{"name":"Friary Park Bowling Club","lat":51.61938,"lon":-0.16184,"postcode":"N20 0NR","la":"Barnet","era":"other","nn":882,"risk":52,"cat":"amber"},{"name":"Gertie Brownes","lat":51.59074,"lon":-0.16494,"postcode":"N2 8AG","la":"Barnet","era":"other","nn":40,"risk":26,"cat":"green"},{"name":"Hampstead Golf Club","lat":51.57207,"lon":-0.17425,"postcode":"N2 0TU","la":"Barnet","era":"other","nn":259,"risk":45,"cat":"amber"},{"name":"Maddens Bar","lat":51.59085,"lon":-0.16438,"postcode":"N2 9ED","la":"Barnet","era":"other","nn":40,"risk":26,"cat":"green"},{"name":"Malt And Hops","lat":51.61876,"lon":-0.17749,"postcode":"N12 8QA","la":"Barnet","era":"other","nn":73,"risk":26,"cat":"green"},{"name":"Merkur Slots","lat":51.60231,"lon":-0.19197,"postcode":"N3 2BJ","la":"Barnet","era":"other","nn":123,"risk":27,"cat":"green"},{"name":"Oakleigh Lawn Tennis & Squash Club","lat":51.62967,"lon":-0.16916,"postcode":"N20 9EZ","la":"Barnet","era":"trad","nn":0,"risk":26,"cat":"green"},{"name":"Oakleigh Park School Of Swimming","lat":51.62967,"lon":-0.16916,"postcode":"N20 9EZ","la":"Barnet","era":"trad","nn":0,"risk":26,"cat":"green"},{"name":"Orange Tree Public House","lat":51.63001,"lon":-0.19643,"postcode":"N20 8NX","la":"Barnet","era":"other","nn":282,"risk":45,"cat":"amber"},{"name":"Osidge Arms","lat":51.63216,"lon":-0.14241,"postcode":"N14 5JP","la":"Barnet","era":"trad","nn":621,"risk":30,"cat":"green"},{"name":"Poolside Manor Ltd","lat":51.60167,"lon":-0.20252,"postcode":"N3 1TD","la":"Barnet","era":"other","nn":111,"risk":27,"cat":"green"},{"name":"South Herts Golf Club","lat":51.63238,"lon":-0.18792,"postcode":"N20 8QU","la":"Barnet","era":"other","nn":433,"risk":31,"cat":"amber"},{"name":"Southover Pre School","lat":51.61921,"lon":-0.19048,"postcode":"N12 7JE","la":"Barnet","era":"other","nn":85,"risk":29,"cat":"green"},{"name":"Tally Ho","lat":51.61375,"lon":-0.17643,"postcode":"N12 0BP","la":"Barnet","era":"other","nn":120,"risk":27,"cat":"green"},{"name":"The Bohemia","lat":51.61543,"lon":-0.17635,"postcode":"N12 9QH","la":"Barnet","era":"other","nn":188,"risk":27,"cat":"green"},{"name":"The Cavalier","lat":51.62971,"lon":-0.15796,"postcode":"N20 0BB","la":"Barnet","era":"other","nn":4,"risk":28,"cat":"green"},{"name":"The Finchley Tavern","lat":51.61282,"lon":-0.17554,"postcode":"N12 9PT","la":"Barnet","era":"other","nn":120,"risk":27,"cat":"green"},{"name":"The Five Bells","lat":51.59029,"lon":-0.1719,"postcode":"N2 0LZ","la":"Barnet","era":"other","nn":331,"risk":28,"cat":"green"},{"name":"The Furlong","lat":51.59949,"lon":-0.14759,"postcode":"N10 1LR","la":"Barnet","era":"other","nn":644,"risk":30,"cat":"green"},{"name":"The Griffin","lat":51.63044,"lon":-0.17465,"postcode":"N20 9HH","la":"Barnet","era":"trad","nn":375,"risk":28,"cat":"green"},{"name":"The Joiners/Chick Box/K Town/Locked & Loaded/Pizza Amore","lat":51.60335,"lon":-0.19133,"postcode":"N3 1XP","la":"Barnet","era":"other","nn":123,"risk":27,"cat":"green"},{"name":"The King Of Prussia","lat":51.60088,"lon":-0.19475,"postcode":"N3 1DH","la":"Barnet","era":"trad","nn":215,"risk":27,"cat":"green"},{"name":"The Kitch At The Cav","lat":51.62975,"lon":-0.15792,"postcode":"N20 0BB","la":"Barnet","era":"other","nn":4,"risk":28,"cat":"green"},{"name":"The Old White Lion","lat":51.58734,"lon":-0.16476,"postcode":"N2 0NW","la":"Barnet","era":"trad","nn":201,"risk":27,"cat":"green"},{"name":"The Windsor Castle","lat":51.59358,"lon":-0.17119,"postcode":"N2 8DL","la":"Barnet","era":"other","nn":184,"risk":27,"cat":"green"},{"name":"The Woodhouse","lat":51.61147,"lon":-0.16281,"postcode":"N12 0RS","la":"Barnet","era":"other","nn":882,"risk":32,"cat":"amber"},{"name":"Three Horseshoes Whetstone","lat":51.62708,"lon":-0.17493,"postcode":"N20 0RA","la":"Barnet","era":"trad","nn":375,"risk":28,"cat":"green"},{"name":"Toolans","lat":51.61877,"lon":-0.17643,"postcode":"N12 9RH","la":"Barnet","era":"other","nn":73,"risk":26,"cat":"green"},{"name":"Totteridge Millhillians Cricket Club","lat":51.6279,"lon":-0.19417,"postcode":"N20 8PB","la":"Barnet","era":"trad","nn":282,"risk":30,"cat":"green"},{"name":"Totteridge Tennis Club","lat":51.63278,"lon":-0.18168,"postcode":"N20 8QL","la":"Barnet","era":"other","nn":433,"risk":29,"cat":"green"},{"name":"Waterfall Tennis Club","lat":51.62313,"lon":-0.13797,"postcode":"N11 1DD","la":"Barnet","era":"other","nn":600,"risk":30,"cat":"green"},{"name":"Wilf Slack Sports Club","lat":51.59656,"lon":-0.19156,"postcode":"N3 2SU","la":"Barnet","era":"other","nn":529,"risk":30,"cat":"green"},{"name":"Woodside Park Club","lat":51.61988,"lon":-0.19105,"postcode":"N12 7JG","la":"Barnet","era":"other","nn":85,"risk":31,"cat":"amber"},{"name":"BABEL BEERHOUSE","lat":51.53795,"lon":-0.12603,"postcode":"N1C 4DL","la":"Camden","era":"other","nn":326,"risk":23,"cat":"green"},{"name":"Betjeman Arms","lat":51.53143,"lon":-0.12612,"postcode":"N1C 4QL","la":"Camden","era":"trad","nn":265,"risk":23,"cat":"green"},{"name":"Flask Tavern","lat":51.56985,"lon":-0.15076,"postcode":"N6 6BU","la":"Camden","era":"other","nn":175,"risk":22,"cat":"green"},{"name":"Gatehouse","lat":51.56135,"lon":-0.15098,"postcode":"N6 6JS","la":"Camden","era":"other","nn":120,"risk":22,"cat":"green"},{"name":"GOODSWAY","lat":51.53423,"lon":-0.12576,"postcode":"N1C 4DP","la":"Camden","era":"other","nn":271,"risk":23,"cat":"green"},{"name":"Prince of Wales","lat":51.57089,"lon":-0.14886,"postcode":"N6 5JX","la":"Camden","era":"trad","nn":94,"risk":21,"cat":"green"},{"name":"Scala","lat":51.53058,"lon":-0.12068,"postcode":"N1 9NL","la":"Camden","era":"other","nn":64,"risk":21,"cat":"green"},{"name":"The Angel Inn","lat":51.57055,"lon":-0.14762,"postcode":"N6 5JT","la":"Camden","era":"trad","nn":72,"risk":21,"cat":"green"},{"name":"The Newmarket Arms","lat":51.54321,"lon":-0.12616,"postcode":"N7 9QG","la":"Camden","era":"trad","nn":504,"risk":24,"cat":"green"},{"name":"The Star","lat":51.56345,"lon":-0.14264,"postcode":"N19 5DF","la":"Camden","era":"other","nn":437,"risk":24,"cat":"green"},{"name":"The Wine Cellar","lat":51.56208,"lon":-0.14969,"postcode":"N6 6QX","la":"Camden","era":"other","nn":120,"risk":22,"cat":"green"},{"name":"Alan Pullinger Youth Cntr","lat":51.63083,"lon":-0.12693,"postcode":"N14 6BT","la":"Enfield","era":"other","nn":144,"risk":27,"cat":"green"},{"name":"Bounds Green Bowls And Tennis Club","lat":51.61007,"lon":-0.12243,"postcode":"N11 2BS","la":"Enfield","era":"other","nn":336,"risk":28,"cat":"green"},{"name":"Brackendale Lawn Tennis Club","lat":51.6287,"lon":-0.11006,"postcode":"N21 3DH","la":"Enfield","era":"other","nn":479,"risk":29,"cat":"green"},{"name":"Broomfield Club","lat":51.62214,"lon":-0.0983,"postcode":"N13 5SZ","la":"Enfield","era":"other","nn":606,"risk":30,"cat":"green"},{"name":"Bush Hill Park Golf Club 1895 Limited","lat":51.64402,"lon":-0.09052,"postcode":"N21 2BU","la":"Enfield","era":"other","nn":550,"risk":30,"cat":"green"},{"name":"Chestnut Tree","lat":51.61781,"lon":-0.10996,"postcode":"N13 4YD","la":"Enfield","era":"other","nn":112,"risk":27,"cat":"green"},{"name":"Conway Lawn Tennis Club","lat":51.62237,"lon":-0.11928,"postcode":"N14 7BD","la":"Enfield","era":"other","nn":390,"risk":29,"cat":"green"},{"name":"Cousins Professional Snooker Club LTD","lat":51.61386,"lon":-0.06489,"postcode":"N18 2XB","la":"Enfield","era":"other","nn":157,"risk":27,"cat":"green"},{"name":"Crown And Anchor","lat":51.61643,"lon":-0.06363,"postcode":"N18 2QD","la":"Enfield","era":"trad","nn":0,"risk":26,"cat":"green"},{"name":"Dicey Rileys Public House","lat":51.61638,"lon":-0.07681,"postcode":"N18 1PY","la":"Enfield","era":"other","nn":591,"risk":30,"cat":"green"},{"name":"Dog and Duck","lat":51.62641,"lon":-0.10419,"postcode":"N21 3LH","la":"Enfield","era":"other","nn":479,"risk":29,"cat":"green"},{"name":"Doyle's","lat":51.64885,"lon":-0.12918,"postcode":"N14 4XA","la":"Enfield","era":"other","nn":1120,"risk":56,"cat":"amber"},{"name":"Edmonton Conservative Club","lat":51.635,"lon":-0.05223,"postcode":"N9 7EY","la":"Enfield","era":"other","nn":240,"risk":45,"cat":"amber"},{"name":"Edmonton Sports & Social Club","lat":51.62915,"lon":-0.07626,"postcode":"N9 9HL","la":"Enfield","era":"mod","nn":502,"risk":32,"cat":"amber"},{"name":"Fishmongers Arms","lat":51.63376,"lon":-0.12473,"postcode":"N14 6AD","la":"Enfield","era":"trad","nn":145,"risk":27,"cat":"green"},{"name":"Friends Social Club","lat":51.61312,"lon":-0.07005,"postcode":"N18 1HL","la":"Enfield","era":"mod","nn":332,"risk":28,"cat":"green"},{"name":"Gryphon","lat":51.64265,"lon":-0.09818,"postcode":"N21 1RE","la":"Enfield","era":"other","nn":550,"risk":30,"cat":"green"},{"name":"Hazelwood Tennis Club","lat":51.63635,"lon":-0.08836,"postcode":"N21 2AJ","la":"Enfield","era":"other","nn":180,"risk":27,"cat":"green"},{"name":"LT's","lat":51.61054,"lon":-0.06534,"postcode":"N18 2SW","la":"Enfield","era":"other","nn":96,"risk":26,"cat":"green"},{"name":"Luxe Lounge","lat":51.60854,"lon":-0.11008,"postcode":"N13 6JR","la":"Enfield","era":"mod","nn":441,"risk":29,"cat":"green"},{"name":"Mayfield Athletic Club","lat":51.61736,"lon":-0.09389,"postcode":"N13 5DR","la":"Enfield","era":"other","nn":612,"risk":33,"cat":"amber"},{"name":"Minchenden Association Ltd","lat":51.64234,"lon":-0.14304,"postcode":"N14 4HL","la":"Enfield","era":"other","nn":4,"risk":31,"cat":"amber"},{"name":"Mollys Bar","lat":51.61645,"lon":-0.13565,"postcode":"N11 1AH","la":"Enfield","era":"other","nn":97,"risk":31,"cat":"amber"},{"name":"New Southgate Conservative Club","lat":51.61403,"lon":-0.14,"postcode":"N11 1PP","la":"Enfield","era":"other","nn":403,"risk":46,"cat":"amber"},{"name":"Old Edmontonians FC Clubhouse","lat":51.63355,"lon":-0.05479,"postcode":"N9 7RA","la":"Enfield","era":"other","nn":240,"risk":45,"cat":"amber"},{"name":"Old Grammarians RFC","lat":51.64352,"lon":-0.10797,"postcode":"N21 1EP","la":"Enfield","era":"trad","nn":651,"risk":48,"cat":"amber"},{"name":"On Broadway","lat":51.63176,"lon":-0.09595,"postcode":"N21 3SA","la":"Enfield","era":"other","nn":0,"risk":26,"cat":"green"},{"name":"On The Corner Bar Ltd","lat":51.63132,"lon":-0.12887,"postcode":"N14 5EJ","la":"Enfield","era":"mod","nn":144,"risk":27,"cat":"green"},{"name":"Piano bar 2","lat":51.61704,"lon":-0.10891,"postcode":"N13 5UD","la":"Enfield","era":"mod","nn":107,"risk":27,"cat":"green"},{"name":"Queens Head Winchmore Hill","lat":51.63322,"lon":-0.09979,"postcode":"N21 3NB","la":"Enfield","era":"trad","nn":221,"risk":27,"cat":"green"},{"name":"Salisbury Arms","lat":51.63298,"lon":-0.10301,"postcode":"N21 3NP","la":"Enfield","era":"trad","nn":189,"risk":27,"cat":"green"},{"name":"Saracens Amateur Rugby F/ball Club","lat":51.64231,"lon":-0.143,"postcode":"N14 4AB","la":"Enfield","era":"other","nn":4,"risk":31,"cat":"amber"},{"name":"Selborne Bowling Club","lat":51.62528,"lon":-0.12399,"postcode":"N14 6EN","la":"Enfield","era":"other","nn":71,"risk":26,"cat":"green"},{"name":"Social Club","lat":51.61643,"lon":-0.06363,"postcode":"N18 2QD","la":"Enfield","era":"mod","nn":0,"risk":26,"cat":"green"},{"name":"Southgate Masonic Centre","lat":51.6274,"lon":-0.12578,"postcode":"N14 6EB","la":"Enfield","era":"trad","nn":267,"risk":28,"cat":"green"},{"name":"Southgate Royal British Legion","lat":51.63634,"lon":-0.13354,"postcode":"N14 5QD","la":"Enfield","era":"trad","nn":358,"risk":28,"cat":"green"},{"name":"The Alfred Herring","lat":51.61895,"lon":-0.1072,"postcode":"N13 5TT","la":"Enfield","era":"other","nn":138,"risk":27,"cat":"green"},{"name":"The Arnos Arms","lat":51.61624,"lon":-0.13428,"postcode":"N11 1AN","la":"Enfield","era":"trad","nn":97,"risk":31,"cat":"amber"},{"name":"The Beehive PH","lat":51.63309,"lon":-0.07982,"postcode":"N9 9JZ","la":"Enfield","era":"other","nn":298,"risk":28,"cat":"green"},{"name":"The Bird","lat":51.61108,"lon":-0.10159,"postcode":"N13 6DG","la":"Enfield","era":"other","nn":650,"risk":30,"cat":"green"},{"name":"The Fox PH","lat":51.62056,"lon":-0.10671,"postcode":"N13 4JD","la":"Enfield","era":"trad","nn":182,"risk":27,"cat":"green"},{"name":"The Gilpins Bell","lat":51.60977,"lon":-0.06596,"postcode":"N18 2SS","la":"Enfield","era":"other","nn":96,"risk":26,"cat":"green"},{"name":"The Hart","lat":51.63412,"lon":-0.12676,"postcode":"N14 6HA","la":"Enfield","era":"trad","nn":145,"risk":27,"cat":"green"},{"name":"The Hyde Arms","lat":51.62252,"lon":-0.06599,"postcode":"N9 9BB","la":"Enfield","era":"trad","nn":402,"risk":29,"cat":"green"},{"name":"The Kings Gate","lat":51.63354,"lon":-0.13096,"postcode":"N14 5PH","la":"Enfield","era":"trad","nn":0,"risk":26,"cat":"green"},{"name":"The Kings Head","lat":51.63467,"lon":-0.10332,"postcode":"N21 1BB","la":"Enfield","era":"trad","nn":189,"risk":27,"cat":"green"},{"name":"The Little Green Dragon Enfield","lat":51.63604,"lon":-0.09092,"postcode":"N21 2AD","la":"Enfield","era":"trad","nn":178,"risk":27,"cat":"green"},{"name":"The New Crown","lat":51.63354,"lon":-0.13096,"postcode":"N14 5PH","la":"Enfield","era":"trad","nn":0,"risk":26,"cat":"green"},{"name":"The Old Hammam and Spa","lat":51.62578,"lon":-0.06347,"postcode":"N9 9DY","la":"Enfield","era":"other","nn":402,"risk":31,"cat":"amber"},{"name":"The Orange Tree","lat":51.62903,"lon":-0.09593,"postcode":"N21 3HA","la":"Enfield","era":"other","nn":303,"risk":28,"cat":"green"},{"name":"The Railway Tavern","lat":51.62426,"lon":-0.05818,"postcode":"N9 0TZ","la":"Enfield","era":"trad","nn":402,"risk":29,"cat":"green"},{"name":"The Rising Sun","lat":51.63111,"lon":-0.06511,"postcode":"N9 9EF","la":"Enfield","era":"other","nn":604,"risk":30,"cat":"green"},{"name":"The Southgate Club","lat":51.63266,"lon":-0.12962,"postcode":"N14 5BP","la":"Enfield","era":"other","nn":135,"risk":27,"cat":"green"},{"name":"The Stag And Hounds","lat":51.63477,"lon":-0.07646,"postcode":"N9 9JW","la":"Enfield","era":"trad","nn":298,"risk":28,"cat":"green"},{"name":"The Three Wishes","lat":51.63176,"lon":-0.09595,"postcode":"N21 3SA","la":"Enfield","era":"other","nn":0,"risk":26,"cat":"green"},{"name":"The Walker Cricket Ground","lat":51.62584,"lon":-0.13045,"postcode":"N14 7JZ","la":"Enfield","era":"other","nn":366,"risk":28,"cat":"green"},{"name":"The White Horse","lat":51.61248,"lon":-0.06535,"postcode":"N18 2XF","la":"Enfield","era":"trad","nn":157,"risk":27,"cat":"green"},{"name":"The Winchmore","lat":51.63825,"lon":-0.11209,"postcode":"N21 1QA","la":"Enfield","era":"other","nn":651,"risk":35,"cat":"amber"},{"name":"Unikat - 2 B6 Restaurant","lat":51.61794,"lon":-0.10836,"postcode":"N13 5TU","la":"Enfield","era":"other","nn":107,"risk":27,"cat":"green"},{"name":"Vicars Moor Lawn Tennis Club","lat":51.6361,"lon":-0.0935,"postcode":"N21 2NU","la":"Enfield","era":"other","nn":178,"risk":27,"cat":"green"},{"name":"Winchmore Hill Bowling Club","lat":51.63361,"lon":-0.09665,"postcode":"N21 2SD","la":"Enfield","era":"other","nn":212,"risk":27,"cat":"green"},{"name":"Winchmore Hill Sports Club (CC)","lat":51.63299,"lon":-0.09006,"postcode":"N21 3ER","la":"Enfield","era":"other","nn":344,"risk":28,"cat":"green"},{"name":"Ye Olde Cherry Tree","lat":51.62494,"lon":-0.12311,"postcode":"N14 6EN","la":"Enfield","era":"other","nn":71,"risk":26,"cat":"green"},{"name":"Bar A Bar","lat":51.55631,"lon":-0.07484,"postcode":"N16 8BT","la":"Hackney","era":"mod","nn":42,"risk":24,"cat":"green"},{"name":"Beef & Brew","lat":51.53893,"lon":-0.07859,"postcode":"N1 5AA","la":"Hackney","era":"other","nn":305,"risk":26,"cat":"green"},{"name":"Besiktas F.C.","lat":51.56011,"lon":-0.07375,"postcode":"N16 7NY","la":"Hackney","era":"other","nn":124,"risk":24,"cat":"green"},{"name":"Brookgate","lat":51.56132,"lon":-0.09885,"postcode":"N4 2JS","la":"Hackney","era":"other","nn":48,"risk":24,"cat":"green"},{"name":"Chicago Deep Dish Ltd","lat":51.52779,"lon":-0.08183,"postcode":"N1 6NU","la":"Hackney","era":"other","nn":109,"risk":24,"cat":"green"},{"name":"Crown and Manor Boys Club","lat":51.53658,"lon":-0.08732,"postcode":"N1 5DH","la":"Hackney","era":"trad","nn":119,"risk":24,"cat":"green"},{"name":"Dalston Social","lat":51.55099,"lon":-0.07484,"postcode":"N16 7XN","la":"Hackney","era":"mod","nn":36,"risk":24,"cat":"green"},{"name":"Deniz Social Club","lat":51.55911,"lon":-0.07453,"postcode":"N16 8EL","la":"Hackney","era":"mod","nn":3,"risk":23,"cat":"green"},{"name":"Duke Of Wellington","lat":51.54624,"lon":-0.08005,"postcode":"N1 4BL","la":"Hackney","era":"trad","nn":0,"risk":23,"cat":"green"},{"name":"Earth Theatre","lat":51.55113,"lon":-0.07536,"postcode":"N16 8BH","la":"Hackney","era":"other","nn":18,"risk":24,"cat":"green"},{"name":"Earth Venue","lat":51.55097,"lon":-0.07537,"postcode":"N16 8BH","la":"Hackney","era":"other","nn":18,"risk":24,"cat":"green"},{"name":"Elbistan Sporting Club","lat":51.56581,"lon":-0.07274,"postcode":"N16 6XT","la":"Hackney","era":"other","nn":48,"risk":24,"cat":"green"},{"name":"George & Vulture","lat":51.52902,"lon":-0.08386,"postcode":"N1 6BU","la":"Hackney","era":"trad","nn":171,"risk":25,"cat":"green"},{"name":"Howl at the Moon","lat":51.53341,"lon":-0.07994,"postcode":"N1 5LH","la":"Hackney","era":"other","nn":297,"risk":26,"cat":"green"},{"name":"Jazz Bar","lat":51.54868,"lon":-0.07624,"postcode":"N16 8JN","la":"Hackney","era":"other","nn":19,"risk":24,"cat":"green"},{"name":"Jolly Butchers (Stoke Newington) Limited","lat":51.56256,"lon":-0.07329,"postcode":"N16 7HU","la":"Hackney","era":"other","nn":83,"risk":24,"cat":"green"},{"name":"Karadeniz Social Club","lat":51.55426,"lon":-0.08906,"postcode":"N16 9BX","la":"Hackney","era":"mod","nn":36,"risk":24,"cat":"green"},{"name":"Laziko Social Club","lat":51.55513,"lon":-0.08974,"postcode":"N16 9DA","la":"Hackney","era":"mod","nn":50,"risk":24,"cat":"green"},{"name":"Lion","lat":51.56224,"lon":-0.08047,"postcode":"N16 0JX","la":"Hackney","era":"trad","nn":206,"risk":25,"cat":"green"},{"name":"Lion and the Lamb","lat":51.52963,"lon":-0.08158,"postcode":"N1 6LG","la":"Hackney","era":"trad","nn":125,"risk":24,"cat":"green"},{"name":"Marquis Of Lansdowne","lat":51.55159,"lon":-0.0748,"postcode":"N16 7XJ","la":"Hackney","era":"other","nn":24,"risk":24,"cat":"green"},{"name":"Members only social club","lat":51.55708,"lon":-0.08373,"postcode":"N16 9LD","la":"Hackney","era":"mod","nn":201,"risk":25,"cat":"green"},{"name":"Mountgrove Bothy","lat":51.56109,"lon":-0.09769,"postcode":"N5 2LT","la":"Hackney","era":"other","nn":84,"risk":24,"cat":"green"},{"name":"N16 Adana Spor F.C","lat":51.55265,"lon":-0.07464,"postcode":"N16 7XB","la":"Hackney","era":"other","nn":0,"risk":23,"cat":"green"},{"name":"Oaktree Community Centre","lat":51.57067,"lon":-0.08126,"postcode":"N16 5ED","la":"Hackney","era":"trad","nn":674,"risk":28,"cat":"green"},{"name":"Pazarcik","lat":51.5547,"lon":-0.07502,"postcode":"N16 8BX","la":"Hackney","era":"other","nn":137,"risk":24,"cat":"green"},{"name":"Prince Arthur","lat":51.52762,"lon":-0.08527,"postcode":"N1 6EB","la":"Hackney","era":"trad","nn":138,"risk":24,"cat":"green"},{"name":"Rose And Crown","lat":51.56105,"lon":-0.08403,"postcode":"N16 9ES","la":"Hackney","era":"trad","nn":83,"risk":24,"cat":"green"},{"name":"Ruby House 3","lat":51.55258,"lon":-0.07466,"postcode":"N16 7XB","la":"Hackney","era":"mod","nn":8,"risk":23,"cat":"green"},{"name":"Ryans' N16","lat":51.56111,"lon":-0.08283,"postcode":"N16 0UL","la":"Hackney","era":"other","nn":83,"risk":24,"cat":"green"},{"name":"The Axe","lat":51.56288,"lon":-0.07221,"postcode":"N16 7HR","la":"Hackney","era":"other","nn":83,"risk":24,"cat":"green"},{"name":"The Beehive","lat":51.53186,"lon":-0.08625,"postcode":"N1 6TE","la":"Hackney","era":"other","nn":356,"risk":26,"cat":"green"},{"name":"The Brownswood Park Tavern","lat":51.56418,"lon":-0.09291,"postcode":"N4 2EX","la":"Hackney","era":"other","nn":477,"risk":27,"cat":"green"},{"name":"The Duke of Wellington","lat":51.54624,"lon":-0.08005,"postcode":"N1 4BL","la":"Hackney","era":"trad","nn":0,"risk":23,"cat":"green"},{"name":"The Eagle","lat":51.52865,"lon":-0.09168,"postcode":"N1 7LB","la":"Hackney","era":"trad","nn":244,"risk":25,"cat":"green"},{"name":"The Finsbury","lat":51.57191,"lon":-0.09636,"postcode":"N4 1BY","la":"Hackney","era":"other","nn":479,"risk":27,"cat":"green"},{"name":"The Grapevine","lat":51.56866,"lon":-0.06577,"postcode":"N16 6NA","la":"Hackney","era":"other","nn":529,"risk":27,"cat":"green"},{"name":"The Hunter S Pub","lat":51.54597,"lon":-0.08345,"postcode":"N1 3HT","la":"Hackney","era":"other","nn":237,"risk":25,"cat":"green"},{"name":"The Londesborough","lat":51.55761,"lon":-0.08065,"postcode":"N16 0SS","la":"Hackney","era":"other","nn":221,"risk":25,"cat":"green"},{"name":"The Macbeth","lat":51.53031,"lon":-0.08014,"postcode":"N1 6LP","la":"Hackney","era":"other","nn":125,"risk":24,"cat":"green"},{"name":"The Monarch","lat":51.55418,"lon":-0.08856,"postcode":"N16 9EJ","la":"Hackney","era":"other","nn":36,"risk":24,"cat":"green"},{"name":"The Nest","lat":51.55179,"lon":-0.07471,"postcode":"N16 7XJ","la":"Hackney","era":"other","nn":24,"risk":24,"cat":"green"},{"name":"The Prince","lat":51.56005,"lon":-0.07834,"postcode":"N16 0EB","la":"Hackney","era":"trad","nn":284,"risk":25,"cat":"green"},{"name":"The Scolt Head","lat":51.54387,"lon":-0.08159,"postcode":"N1 4HT","la":"Hackney","era":"trad","nn":193,"risk":25,"cat":"green"},{"name":"The Shakespeare","lat":51.55555,"lon":-0.08217,"postcode":"N16 8RY","la":"Hackney","era":"other","nn":201,"risk":25,"cat":"green"},{"name":"The Stags Head","lat":51.53616,"lon":-0.0788,"postcode":"N1 5RA","la":"Hackney","era":"trad","nn":139,"risk":24,"cat":"green"},{"name":"The Talbot","lat":51.54296,"lon":-0.07922,"postcode":"N1 4JY","la":"Hackney","era":"trad","nn":193,"risk":25,"cat":"green"},{"name":"The Wenlock Arms","lat":51.53141,"lon":-0.09399,"postcode":"N1 7TA","la":"Hackney","era":"trad","nn":346,"risk":26,"cat":"green"},{"name":"The Wheatsheaf","lat":51.56607,"lon":-0.07219,"postcode":"N16 6UP","la":"Hackney","era":"trad","nn":0,"risk":23,"cat":"green"},{"name":"The Wheatsheaf Public House","lat":51.56607,"lon":-0.07219,"postcode":"N16 6UP","la":"Hackney","era":"trad","nn":0,"risk":23,"cat":"green"},{"name":"The White Hart","lat":51.5591,"lon":-0.07449,"postcode":"N16 8EL","la":"Hackney","era":"trad","nn":3,"risk":23,"cat":"green"},{"name":"Turkish Social Club","lat":51.55487,"lon":-0.08915,"postcode":"N16 9EH","la":"Hackney","era":"mod","nn":50,"risk":24,"cat":"green"},{"name":"VFD","lat":51.55265,"lon":-0.07464,"postcode":"N16 7XB","la":"Hackney","era":"other","nn":0,"risk":23,"cat":"green"},{"name":"Vortex Jazz Club","lat":51.54872,"lon":-0.07651,"postcode":"N16 8AZ","la":"Hackney","era":"other","nn":19,"risk":24,"cat":"green"},{"name":"Yucatan Bar","lat":51.55593,"lon":-0.07484,"postcode":"N16 8BT","la":"Hackney","era":"other","nn":42,"risk":24,"cat":"green"},{"name":"A Bar (The Alabar Lounge)","lat":51.60605,"lon":-0.06849,"postcode":"N17 8ER","la":"Haringey","era":"mod","nn":67,"risk":26,"cat":"green"},{"name":"AJ's Kitchen @","lat":51.57758,"lon":-0.12435,"postcode":"N8 8DH","la":"Haringey","era":"mod","nn":72,"risk":26,"cat":"green"},{"name":"Antwerp Arms Association","lat":51.6019,"lon":-0.07486,"postcode":"N17 8AS","la":"Haringey","era":"trad","nn":0,"risk":25,"cat":"green"},{"name":"Bar @","lat":51.60076,"lon":-0.13705,"postcode":"N22 7UT","la":"Haringey","era":"mod","nn":47,"risk":28,"cat":"green"},{"name":"Bar Esteban","lat":51.58077,"lon":-0.12528,"postcode":"N8 8TE","la":"Haringey","era":"mod","nn":36,"risk":26,"cat":"green"},{"name":"Belmeis","lat":51.59293,"lon":-0.14321,"postcode":"N10 1BT","la":"Haringey","era":"trad","nn":227,"risk":27,"cat":"green"},{"name":"Body Works Gym","lat":51.58408,"lon":-0.06307,"postcode":"N15 4QL","la":"Haringey","era":"mod","nn":113,"risk":26,"cat":"green"},{"name":"Bohem Tap Room","lat":51.6066,"lon":-0.11847,"postcode":"N22 8NQ","la":"Haringey","era":"mod","nn":49,"risk":26,"cat":"green"},{"name":"Brouhaha","lat":51.5811,"lon":-0.09977,"postcode":"N4 1AL","la":"Haringey","era":"other","nn":395,"risk":33,"cat":"amber"},{"name":"Carboys","lat":51.58129,"lon":-0.12619,"postcode":"N8 8SY","la":"Haringey","era":"other","nn":46,"risk":26,"cat":"green"},{"name":"Clissold Arms","lat":51.59048,"lon":-0.15487,"postcode":"N2 9HR","la":"Haringey","era":"trad","nn":535,"risk":29,"cat":"green"},{"name":"Crouch End Vampires Football Club","lat":51.60334,"lon":-0.15455,"postcode":"N10 1JP","la":"Haringey","era":"other","nn":644,"risk":50,"cat":"amber"},{"name":"Feast Yard","lat":51.58831,"lon":-0.07036,"postcode":"N15 4BN","la":"Haringey","era":"mod","nn":129,"risk":26,"cat":"green"},{"name":"Gencler Birligi  FC","lat":51.6056,"lon":-0.06913,"postcode":"N17 8DP","la":"Haringey","era":"other","nn":67,"risk":26,"cat":"green"},{"name":"Goksun FC Social Club","lat":51.59347,"lon":-0.09794,"postcode":"N22 6RS","la":"Haringey","era":"mod","nn":43,"risk":26,"cat":"green"},{"name":"Grand Palace","lat":51.60104,"lon":-0.11157,"postcode":"N22 8JX","la":"Haringey","era":"other","nn":105,"risk":26,"cat":"green"},{"name":"Haringey Borough Football Club","lat":51.60654,"lon":-0.09169,"postcode":"N17 7JP","la":"Haringey","era":"other","nn":850,"risk":36,"cat":"amber"},{"name":"Harringay Arms","lat":51.57731,"lon":-0.12341,"postcode":"N8 9QH","la":"Haringey","era":"trad","nn":72,"risk":26,"cat":"green"},{"name":"Highgate Golf Club","lat":51.57773,"lon":-0.16038,"postcode":"N6 4AH","la":"Haringey","era":"other","nn":787,"risk":33,"cat":"amber"},{"name":"Hillbilly Social at 101","lat":51.60633,"lon":-0.11792,"postcode":"N22 8NE","la":"Haringey","era":"mod","nn":49,"risk":26,"cat":"green"},{"name":"K K Mccools","lat":51.58629,"lon":-0.08894,"postcode":"N15 3BH","la":"Haringey","era":"other","nn":739,"risk":33,"cat":"amber"},{"name":"Kings Head Public House","lat":51.57829,"lon":-0.12433,"postcode":"N8 8AA","la":"Haringey","era":"trad","nn":79,"risk":26,"cat":"green"},{"name":"Langham Working Mens Club","lat":51.58465,"lon":-0.09931,"postcode":"N8 0RY","la":"Haringey","era":"trad","nn":395,"risk":28,"cat":"green"},{"name":"Lea Valley Gin Distillery","lat":51.57496,"lon":-0.08815,"postcode":"N4 1DN","la":"Haringey","era":"other","nn":564,"risk":32,"cat":"amber"},{"name":"Ludo's","lat":51.59716,"lon":-0.11167,"postcode":"N22 7TB","la":"Haringey","era":"other","nn":130,"risk":26,"cat":"green"},{"name":"Mannions","lat":51.58473,"lon":-0.06432,"postcode":"N15 4QJ","la":"Haringey","era":"other","nn":113,"risk":26,"cat":"green"},{"name":"McCafferty's Irish Bar","lat":51.5839,"lon":-0.11662,"postcode":"N8 7EL","la":"Haringey","era":"other","nn":454,"risk":29,"cat":"green"},{"name":"Miller & Carter Steakhouse","lat":51.58986,"lon":-0.14483,"postcode":"N10 3HA","la":"Haringey","era":"trad","nn":99,"risk":26,"cat":"green"},{"name":"Mother Kellys Blendary and Taproom","lat":51.59019,"lon":-0.06196,"postcode":"N17 9ST","la":"Haringey","era":"mod","nn":183,"risk":27,"cat":"green"},{"name":"Muswell Hill Bowling Club Ltd","lat":51.5927,"lon":-0.148,"postcode":"N10 1PB","la":"Haringey","era":"other","nn":301,"risk":28,"cat":"green"},{"name":"New Salamina","lat":51.60656,"lon":-0.11562,"postcode":"N22 8NW","la":"Haringey","era":"other","nn":161,"risk":27,"cat":"green"},{"name":"Neza Caffe Bar","lat":51.59824,"lon":-0.07651,"postcode":"N17 6XE","la":"Haringey","era":"other","nn":423,"risk":28,"cat":"green"},{"name":"No 8 Tottenham","lat":51.60216,"lon":-0.06735,"postcode":"N17 0AG","la":"Haringey","era":"other","nn":7,"risk":26,"cat":"green"},{"name":"NO.8 Seven Sisters","lat":51.57832,"lon":-0.08203,"postcode":"N15 6JH","la":"Haringey","era":"other","nn":564,"risk":29,"cat":"green"},{"name":"Our Lady of Muswell Lawn Tennis Club","lat":51.60035,"lon":-0.13723,"postcode":"N22 7UR","la":"Haringey","era":"other","nn":47,"risk":28,"cat":"green"},{"name":"P.J O'Connors","lat":51.59825,"lon":-0.11103,"postcode":"N22 8HF","la":"Haringey","era":"other","nn":130,"risk":26,"cat":"green"},{"name":"Pearce Catering","lat":51.58839,"lon":-0.1416,"postcode":"N10 3QY","la":"Haringey","era":"other","nn":0,"risk":25,"cat":"green"},{"name":"Powerleague Fives Ltd","lat":51.60663,"lon":-0.05331,"postcode":"N17 0SL","la":"Haringey","era":"other","nn":611,"risk":35,"cat":"amber"},{"name":"Queens","lat":51.58048,"lon":-0.12253,"postcode":"N8 9DE","la":"Haringey","era":"trad","nn":65,"risk":26,"cat":"green"},{"name":"Rio Nightclub","lat":51.59602,"lon":-0.10954,"postcode":"N22 6DS","la":"Haringey","era":"other","nn":121,"risk":26,"cat":"green"},{"name":"Royal British Legion","lat":51.58774,"lon":-0.14667,"postcode":"N10 3NG","la":"Haringey","era":"trad","nn":268,"risk":27,"cat":"green"},{"name":"Shawarma_gyros @","lat":51.6019,"lon":-0.07486,"postcode":"N17 8AS","la":"Haringey","era":"other","nn":0,"risk":25,"cat":"green"},{"name":"Small Beer","lat":51.58105,"lon":-0.12234,"postcode":"N8 8PT","la":"Haringey","era":"other","nn":65,"risk":26,"cat":"green"},{"name":"Spouters Corner","lat":51.59698,"lon":-0.10872,"postcode":"N22 6EJ","la":"Haringey","era":"other","nn":121,"risk":26,"cat":"green"},{"name":"Station House","lat":51.58003,"lon":-0.07252,"postcode":"N15 6UJ","la":"Haringey","era":"other","nn":522,"risk":29,"cat":"green"},{"name":"The Antwerp Arms","lat":51.6019,"lon":-0.07486,"postcode":"N17 8AS","la":"Haringey","era":"trad","nn":0,"risk":25,"cat":"green"},{"name":"The Beaconfield Public House","lat":51.57594,"lon":-0.09878,"postcode":"N4 1DZ","la":"Haringey","era":"other","nn":479,"risk":31,"cat":"amber"},{"name":"The Beehive P.H","lat":51.59391,"lon":-0.0687,"postcode":"N17 9BQ","la":"Haringey","era":"other","nn":132,"risk":26,"cat":"green"},{"name":"The Blue Bar","lat":51.60071,"lon":-0.06824,"postcode":"N17 8AD","la":"Haringey","era":"other","nn":173,"risk":27,"cat":"green"},{"name":"The Boogaloo","lat":51.57643,"lon":-0.14347,"postcode":"N6 5AT","la":"Haringey","era":"other","nn":276,"risk":27,"cat":"green"},{"name":"The Coach & Horses","lat":51.60699,"lon":-0.06783,"postcode":"N17 0EY","la":"Haringey","era":"trad","nn":114,"risk":26,"cat":"green"},{"name":"The Corner Pin","lat":51.6022,"lon":-0.06727,"postcode":"N17 0AG","la":"Haringey","era":"other","nn":7,"risk":26,"cat":"green"},{"name":"The Crop @","lat":51.6019,"lon":-0.07486,"postcode":"N17 8AS","la":"Haringey","era":"other","nn":0,"risk":25,"cat":"green"},{"name":"The Crouch End Cellars","lat":51.58016,"lon":-0.1242,"postcode":"N8 8DT","la":"Haringey","era":"other","nn":90,"risk":26,"cat":"green"},{"name":"The Dukes Head","lat":51.57065,"lon":-0.14658,"postcode":"N6 5JG","la":"Haringey","era":"trad","nn":72,"risk":26,"cat":"green"},{"name":"The Elbow Room","lat":51.59303,"lon":-0.06999,"postcode":"N17 6QA","la":"Haringey","era":"other","nn":0,"risk":25,"cat":"green"},{"name":"The Faltering Fullback","lat":51.56866,"lon":-0.10861,"postcode":"N4 3HB","la":"Haringey","era":"other","nn":189,"risk":27,"cat":"green"},{"name":"The Famous Royal Oak","lat":51.58839,"lon":-0.1416,"postcode":"N10 3QY","la":"Haringey","era":"trad","nn":0,"risk":25,"cat":"green"},{"name":"The Fountain","lat":51.58499,"lon":-0.07834,"postcode":"N15 5DE","la":"Haringey","era":"other","nn":217,"risk":27,"cat":"green"},{"name":"The Fox at Crouch End","lat":51.58088,"lon":-0.12479,"postcode":"N8 8TD","la":"Haringey","era":"trad","nn":36,"risk":26,"cat":"green"},{"name":"The Great Northern Railway Tavern","lat":51.58799,"lon":-0.11676,"postcode":"N8 7QB","la":"Haringey","era":"trad","nn":269,"risk":27,"cat":"green"},{"name":"The High Cross","lat":51.5894,"lon":-0.06973,"postcode":"N17 9HT","la":"Haringey","era":"trad","nn":129,"risk":26,"cat":"green"},{"name":"The Highgate Inn","lat":51.57834,"lon":-0.14903,"postcode":"N6 4ER","la":"Haringey","era":"trad","nn":162,"risk":27,"cat":"green"},{"name":"The Hornsey Arms","lat":51.58722,"lon":-0.12045,"postcode":"N8 7PB","la":"Haringey","era":"trad","nn":29,"risk":26,"cat":"green"},{"name":"The Maid of Muswell","lat":51.59894,"lon":-0.13796,"postcode":"N10 2DP","la":"Haringey","era":"other","nn":165,"risk":27,"cat":"green"},{"name":"The Maynard Arms","lat":51.58171,"lon":-0.12616,"postcode":"N8 8SX","la":"Haringey","era":"trad","nn":46,"risk":26,"cat":"green"},{"name":"The Mossy Well","lat":51.59087,"lon":-0.14216,"postcode":"N10 3SH","la":"Haringey","era":"other","nn":60,"risk":26,"cat":"green"},{"name":"The Nags Head","lat":51.59173,"lon":-0.10436,"postcode":"N22 6BX","la":"Haringey","era":"trad","nn":453,"risk":29,"cat":"green"},{"name":"The New Moon Public House","lat":51.59787,"lon":-0.09134,"postcode":"N17 6AG","la":"Haringey","era":"other","nn":235,"risk":30,"cat":"green"},{"name":"The Olive Branch Pub","lat":51.60285,"lon":-0.05975,"postcode":"N17 0HJ","la":"Haringey","era":"other","nn":524,"risk":29,"cat":"green"},{"name":"The Park Inn","lat":51.59891,"lon":-0.12256,"postcode":"N22 7BN","la":"Haringey","era":"trad","nn":209,"risk":27,"cat":"green"},{"name":"The Prince N22 @","lat":51.60124,"lon":-0.1162,"postcode":"N22 8PA","la":"Haringey","era":"trad","nn":0,"risk":25,"cat":"green"},{"name":"The Prince of  Wales","lat":51.60124,"lon":-0.1162,"postcode":"N22 8PA","la":"Haringey","era":"trad","nn":0,"risk":25,"cat":"green"},{"name":"The Priory","lat":51.58727,"lon":-0.1329,"postcode":"N8 8NB","la":"Haringey","era":"other","nn":99,"risk":26,"cat":"green"},{"name":"The Ranelagh Arms","lat":51.60842,"lon":-0.1265,"postcode":"N11 2EU","la":"Haringey","era":"trad","nn":336,"risk":30,"cat":"green"},{"name":"The Recshop CIC","lat":51.59438,"lon":-0.10937,"postcode":"N22 6YD","la":"Haringey","era":"other","nn":183,"risk":27,"cat":"green"},{"name":"The Red Lion & Sun","lat":51.57305,"lon":-0.15012,"postcode":"N6 4BE","la":"Haringey","era":"trad","nn":154,"risk":27,"cat":"green"},{"name":"The Ship","lat":51.59303,"lon":-0.06999,"postcode":"N17 6QA","la":"Haringey","era":"trad","nn":0,"risk":25,"cat":"green"},{"name":"The Starting Gate","lat":51.59827,"lon":-0.11971,"postcode":"N22 7SS","la":"Haringey","era":"other","nn":209,"risk":27,"cat":"green"},{"name":"The Tav","lat":51.58707,"lon":-0.12079,"postcode":"N8 7PB","la":"Haringey","era":"other","nn":29,"risk":26,"cat":"green"},{"name":"The Twelve Pins","lat":51.56529,"lon":-0.10494,"postcode":"N4 2DE","la":"Haringey","era":"other","nn":76,"risk":26,"cat":"green"},{"name":"The Two Brewers","lat":51.59688,"lon":-0.06724,"postcode":"N17 9TT","la":"Haringey","era":"other","nn":0,"risk":25,"cat":"green"},{"name":"The Venue N10","lat":51.59119,"lon":-0.14147,"postcode":"N10 2QR","la":"Haringey","era":"other","nn":60,"risk":26,"cat":"green"},{"name":"The Victoria","lat":51.59688,"lon":-0.06724,"postcode":"N17 9TT","la":"Haringey","era":"trad","nn":0,"risk":25,"cat":"green"},{"name":"The Village Green","lat":51.59025,"lon":-0.14613,"postcode":"N10 3HN","la":"Haringey","era":"other","nn":99,"risk":26,"cat":"green"},{"name":"The Volunteer","lat":51.59038,"lon":-0.06459,"postcode":"N17 9EU","la":"Haringey","era":"other","nn":183,"risk":27,"cat":"green"},{"name":"The Welcome Inn","lat":51.59798,"lon":-0.09475,"postcode":"N22 5DJ","la":"Haringey","era":"trad","nn":235,"risk":27,"cat":"green"},{"name":"The Westbury","lat":51.5936,"lon":-0.09853,"postcode":"N22 6BS","la":"Haringey","era":"other","nn":43,"risk":26,"cat":"green"},{"name":"The Woodman","lat":51.57766,"lon":-0.14695,"postcode":"N6 5UA","la":"Haringey","era":"other","nn":162,"risk":27,"cat":"green"},{"name":"The Wrestlers","lat":51.57435,"lon":-0.14936,"postcode":"N6 4AA","la":"Haringey","era":"other","nn":154,"risk":27,"cat":"green"},{"name":"Tottenham Conservative Club","lat":51.5947,"lon":-0.07103,"postcode":"N17 6RA","la":"Haringey","era":"other","nn":13,"risk":26,"cat":"green"},{"name":"Tottenham Trades Club","lat":51.59482,"lon":-0.07106,"postcode":"N17 6RA","la":"Haringey","era":"other","nn":13,"risk":26,"cat":"green"},{"name":"True Craft","lat":51.58437,"lon":-0.07537,"postcode":"N15 5NR","la":"Haringey","era":"mod","nn":217,"risk":27,"cat":"green"},{"name":"Victoria Stakes","lat":51.58731,"lon":-0.13433,"postcode":"N10 3TH","la":"Haringey","era":"trad","nn":99,"risk":26,"cat":"green"},{"name":"Winchester Hall Tavern","lat":51.57354,"lon":-0.14085,"postcode":"N6 5BA","la":"Haringey","era":"other","nn":369,"risk":28,"cat":"green"},{"name":"Wood Green AFS Association","lat":51.60113,"lon":-0.11005,"postcode":"N22 5SL","la":"Haringey","era":"other","nn":105,"risk":26,"cat":"green"},{"name":"2Northdown","lat":51.53135,"lon":-0.11921,"postcode":"N1 9BG","la":"Islington","era":"other","nn":87,"risk":25,"cat":"green"},{"name":"Almeida Theatre","lat":51.5395,"lon":-0.10329,"postcode":"N1 1TA","la":"Islington","era":"other","nn":60,"risk":25,"cat":"green"},{"name":"Archway Tavern and Live Room","lat":51.56603,"lon":-0.13503,"postcode":"N19 3TD","la":"Islington","era":"other","nn":115,"risk":25,"cat":"green"},{"name":"Bank Of Friendship PH","lat":51.55853,"lon":-0.09864,"postcode":"N5 1EA","la":"Islington","era":"trad","nn":51,"risk":25,"cat":"green"},{"name":"Bar With No Name","lat":51.53663,"lon":-0.10103,"postcode":"N1 8AB","la":"Islington","era":"mod","nn":116,"risk":25,"cat":"green"},{"name":"Bedford Tavern","lat":51.56133,"lon":-0.11212,"postcode":"N7 7PT","la":"Islington","era":"other","nn":250,"risk":26,"cat":"green"},{"name":"Blackstock Public House","lat":51.56453,"lon":-0.10443,"postcode":"N4 2HY","la":"Islington","era":"other","nn":43,"risk":25,"cat":"green"},{"name":"Camden Head Public House","lat":51.53564,"lon":-0.10279,"postcode":"N1 8DY","la":"Islington","era":"trad","nn":93,"risk":25,"cat":"green"},{"name":"Chapel Bar","lat":51.53271,"lon":-0.11165,"postcode":"N1 9PX","la":"Islington","era":"other","nn":106,"risk":25,"cat":"green"},{"name":"Charles 1 Public House","lat":51.53247,"lon":-0.11973,"postcode":"N1 9BL","la":"Islington","era":"other","nn":130,"risk":26,"cat":"green"},{"name":"Clissold Park Tavern","lat":51.55781,"lon":-0.09082,"postcode":"N16 9DB","la":"Islington","era":"other","nn":307,"risk":27,"cat":"green"},{"name":"Corner Flag PH","lat":51.56728,"lon":-0.12188,"postcode":"N19 4EF","la":"Islington","era":"other","nn":568,"risk":29,"cat":"green"},{"name":"Cousin's Professional Snooker Club","lat":51.55804,"lon":-0.11867,"postcode":"N7 6AH","la":"Islington","era":"other","nn":167,"risk":26,"cat":"green"},{"name":"El Comandante Public House","lat":51.55547,"lon":-0.1126,"postcode":"N7 6ET","la":"Islington","era":"other","nn":174,"risk":26,"cat":"green"},{"name":"Famous Cock Tavern Public House","lat":51.54602,"lon":-0.1034,"postcode":"N1 1RU","la":"Islington","era":"other","nn":0,"risk":25,"cat":"green"},{"name":"Famous Cocktail Bar","lat":51.54602,"lon":-0.1034,"postcode":"N1 1RU","la":"Islington","era":"other","nn":0,"risk":25,"cat":"green"},{"name":"Flight Club","lat":51.5355,"lon":-0.10441,"postcode":"N1 0NY","la":"Islington","era":"other","nn":51,"risk":25,"cat":"green"},{"name":"Gunners Public House","lat":51.55897,"lon":-0.09881,"postcode":"N5 1EN","la":"Islington","era":"other","nn":51,"risk":25,"cat":"green"},{"name":"Hemingford Arms Public House","lat":51.54306,"lon":-0.11315,"postcode":"N1 1DF","la":"Islington","era":"trad","nn":278,"risk":27,"cat":"green"},{"name":"Hen & Chickens Public House","lat":51.54599,"lon":-0.10193,"postcode":"N1 2NA","la":"Islington","era":"other","nn":102,"risk":25,"cat":"green"},{"name":"Highbury Library","lat":51.55339,"lon":-0.10471,"postcode":"N5 1ND","la":"Islington","era":"other","nn":6,"risk":25,"cat":"green"},{"name":"Hoxley and Porter","lat":51.54035,"lon":-0.10281,"postcode":"N1 1RA","la":"Islington","era":"other","nn":49,"risk":25,"cat":"green"},{"name":"Island Queen","lat":51.53321,"lon":-0.09844,"postcode":"N1 8HD","la":"Islington","era":"trad","nn":342,"risk":27,"cat":"green"},{"name":"Islington Sports Bar & Grill","lat":51.55405,"lon":-0.11367,"postcode":"N7 6NE","la":"Islington","era":"mod","nn":174,"risk":26,"cat":"green"},{"name":"Kennedy's Public House","lat":51.54079,"lon":-0.11737,"postcode":"N1 1EG","la":"Islington","era":"other","nn":41,"risk":25,"cat":"green"},{"name":"Lady Mildmay","lat":51.55069,"lon":-0.08447,"postcode":"N1 4PR","la":"Islington","era":"other","nn":346,"risk":27,"cat":"green"},{"name":"Ladybird","lat":51.53607,"lon":-0.10394,"postcode":"N1 0NY","la":"Islington","era":"other","nn":72,"risk":25,"cat":"green"},{"name":"Laki Kane","lat":51.53991,"lon":-0.10274,"postcode":"N1 1QY","la":"Islington","era":"other","nn":49,"risk":25,"cat":"green"},{"name":"Large Glass","lat":51.54248,"lon":-0.11706,"postcode":"N1 1DN","la":"Islington","era":"other","nn":190,"risk":26,"cat":"green"},{"name":"Lincoln Lounge","lat":51.53321,"lon":-0.1222,"postcode":"N1 9AB","la":"Islington","era":"mod","nn":176,"risk":26,"cat":"green"},{"name":"Marquess Tavern Public House","lat":51.54318,"lon":-0.09532,"postcode":"N1 2TB","la":"Islington","era":"other","nn":227,"risk":26,"cat":"green"},{"name":"Meltdown","lat":51.54074,"lon":-0.11678,"postcode":"N1 1BB","la":"Islington","era":"other","nn":41,"risk":25,"cat":"green"},{"name":"Miller's Bar","lat":51.53162,"lon":-0.12108,"postcode":"N1 9DX","la":"Islington","era":"trad","nn":56,"risk":25,"cat":"green"},{"name":"Must & Lees Ltd","lat":51.53986,"lon":-0.10673,"postcode":"N1 1LX","la":"Islington","era":"other","nn":95,"risk":25,"cat":"green"},{"name":"Oak and Pastor","lat":51.5625,"lon":-0.1365,"postcode":"N19 5QU","la":"Islington","era":"trad","nn":166,"risk":26,"cat":"green"},{"name":"Orleans Bar","lat":51.56459,"lon":-0.10505,"postcode":"N4 2DD","la":"Islington","era":"other","nn":18,"risk":25,"cat":"green"},{"name":"Park Tavern Public House","lat":51.56801,"lon":-0.11116,"postcode":"N4 3AD","la":"Islington","era":"other","nn":186,"risk":26,"cat":"green"},{"name":"Rosemary Branch Public House","lat":51.53762,"lon":-0.08693,"postcode":"N1 3DT","la":"Islington","era":"other","nn":119,"risk":25,"cat":"green"},{"name":"Siorai","lat":51.56108,"lon":-0.1372,"postcode":"N19 5LB","la":"Islington","era":"other","nn":166,"risk":26,"cat":"green"},{"name":"Slim Jim's Liquor Store","lat":51.53812,"lon":-0.10273,"postcode":"N1 1QN","la":"Islington","era":"other","nn":158,"risk":26,"cat":"green"},{"name":"Steam Passage","lat":51.53509,"lon":-0.10476,"postcode":"N1 0PN","la":"Islington","era":"other","nn":51,"risk":25,"cat":"green"},{"name":"T Bird Bar","lat":51.56132,"lon":-0.09954,"postcode":"N4 2DX","la":"Islington","era":"other","nn":48,"risk":25,"cat":"green"},{"name":"Tarmon Public House","lat":51.53889,"lon":-0.11637,"postcode":"N1 1BA","la":"Islington","era":"other","nn":208,"risk":26,"cat":"green"},{"name":"The Albion","lat":51.53938,"lon":-0.10953,"postcode":"N1 1HW","la":"Islington","era":"other","nn":143,"risk":26,"cat":"green"},{"name":"The Alma Public House","lat":51.54838,"lon":-0.08782,"postcode":"N1 4QU","la":"Islington","era":"other","nn":257,"risk":26,"cat":"green"},{"name":"The Alpaca","lat":51.53843,"lon":-0.09896,"postcode":"N1 8LU","la":"Islington","era":"other","nn":139,"risk":26,"cat":"green"},{"name":"The Angelic PH","lat":51.53479,"lon":-0.10738,"postcode":"N1 0RJ","la":"Islington","era":"trad","nn":184,"risk":26,"cat":"green"},{"name":"The Bill Murray","lat":51.53628,"lon":-0.09883,"postcode":"N1 8NQ","la":"Islington","era":"other","nn":157,"risk":26,"cat":"green"},{"name":"The Canonbury PH","lat":51.54467,"lon":-0.09757,"postcode":"N1 2NS","la":"Islington","era":"other","nn":227,"risk":26,"cat":"green"},{"name":"The Castle Public House","lat":51.53205,"lon":-0.10904,"postcode":"N1 9HF","la":"Islington","era":"other","nn":102,"risk":25,"cat":"green"},{"name":"The Charlotte Despard","lat":51.56831,"lon":-0.1367,"postcode":"N19 3TX","la":"Islington","era":"other","nn":226,"risk":26,"cat":"green"},{"name":"The Cross","lat":51.53366,"lon":-0.11888,"postcode":"N1 9RY","la":"Islington","era":"trad","nn":145,"risk":26,"cat":"green"},{"name":"The De Beauvoir Arms","lat":51.54164,"lon":-0.08518,"postcode":"N1 3JS","la":"Islington","era":"trad","nn":351,"risk":27,"cat":"green"},{"name":"The Depot N7","lat":51.54888,"lon":-0.12176,"postcode":"N7 9EF","la":"Islington","era":"mod","nn":515,"risk":28,"cat":"green"},{"name":"The Drapers Arms Public House","lat":51.54051,"lon":-0.10852,"postcode":"N1 1ER","la":"Islington","era":"trad","nn":143,"risk":26,"cat":"green"},{"name":"The Drayton Park Public House","lat":51.55344,"lon":-0.10472,"postcode":"N5 1ND","la":"Islington","era":"other","nn":6,"risk":25,"cat":"green"},{"name":"The Eaglet","lat":51.55998,"lon":-0.11502,"postcode":"N7 6AE","la":"Islington","era":"trad","nn":250,"risk":26,"cat":"green"},{"name":"The Fellow","lat":51.53163,"lon":-0.12231,"postcode":"N1 9AA","la":"Islington","era":"other","nn":85,"risk":25,"cat":"green"},{"name":"The Florin","lat":51.56267,"lon":-0.12722,"postcode":"N19 4DQ","la":"Islington","era":"other","nn":617,"risk":29,"cat":"green"},{"name":"The Hanbury Arms","lat":51.53621,"lon":-0.0935,"postcode":"N1 7DU","la":"Islington","era":"trad","nn":369,"risk":27,"cat":"green"},{"name":"The Hercules","lat":51.55903,"lon":-0.12049,"postcode":"N7 6JA","la":"Islington","era":"other","nn":86,"risk":25,"cat":"green"},{"name":"The King's Head Public House","lat":51.53761,"lon":-0.10047,"postcode":"N1 2SF","la":"Islington","era":"trad","nn":116,"risk":25,"cat":"green"},{"name":"The Lamb","lat":51.54874,"lon":-0.10704,"postcode":"N7 8JL","la":"Islington","era":"other","nn":393,"risk":27,"cat":"green"},{"name":"The Lexington","lat":51.53177,"lon":-0.11142,"postcode":"N1 9JB","la":"Islington","era":"other","nn":106,"risk":25,"cat":"green"},{"name":"The Night Owl Finsbury Park","lat":51.56465,"lon":-0.10529,"postcode":"N4 2DH","la":"Islington","era":"other","nn":18,"risk":25,"cat":"green"},{"name":"The Old Dairy","lat":51.57061,"lon":-0.11564,"postcode":"N4 4AP","la":"Islington","era":"other","nn":424,"risk":28,"cat":"green"},{"name":"The Plimsoll","lat":51.56198,"lon":-0.10504,"postcode":"N4 2QW","la":"Islington","era":"other","nn":286,"risk":27,"cat":"green"},{"name":"The Railway Tavern","lat":51.54875,"lon":-0.07931,"postcode":"N16 8JT","la":"Islington","era":"trad","nn":194,"risk":26,"cat":"green"},{"name":"The Regent","lat":51.53903,"lon":-0.10703,"postcode":"N1 1LX","la":"Islington","era":"other","nn":95,"risk":25,"cat":"green"},{"name":"The Scottish Stores and The Stores","lat":51.53115,"lon":-0.12081,"postcode":"N1 9DT","la":"Islington","era":"other","nn":56,"risk":25,"cat":"green"},{"name":"The Snooty Fox","lat":51.54916,"lon":-0.09132,"postcode":"N5 2NN","la":"Islington","era":"trad","nn":257,"risk":26,"cat":"green"},{"name":"The Star of Kings","lat":51.53637,"lon":-0.12205,"postcode":"N1 0AX","la":"Islington","era":"trad","nn":326,"risk":27,"cat":"green"},{"name":"The Swimmer At The Grafton Arms Ph","lat":51.55949,"lon":-0.11949,"postcode":"N7 6AR","la":"Islington","era":"trad","nn":86,"risk":25,"cat":"green"},{"name":"The Three Johns","lat":51.53297,"lon":-0.1091,"postcode":"N1 9PF","la":"Islington","era":"other","nn":102,"risk":25,"cat":"green"},{"name":"The Vineyard","lat":51.54172,"lon":-0.10336,"postcode":"N1 1RG","la":"Islington","era":"mod","nn":157,"risk":26,"cat":"green"},{"name":"The White Swan Public House","lat":51.54575,"lon":-0.10345,"postcode":"N1 1RU","la":"Islington","era":"trad","nn":30,"risk":25,"cat":"green"},{"name":"Thornhill Arms Public House","lat":51.53437,"lon":-0.11699,"postcode":"N1 9RD","la":"Islington","era":"trad","nn":152,"risk":26,"cat":"green"},{"name":"Twilight Contemporary","lat":51.54487,"lon":-0.08843,"postcode":"N1 3PF","la":"Islington","era":"other","nn":365,"risk":27,"cat":"green"},{"name":"Two Brewers","lat":51.54628,"lon":-0.1156,"postcode":"N7 8UR","la":"Islington","era":"other","nn":395,"risk":27,"cat":"green"},{"name":"W. B Yeats","lat":51.56636,"lon":-0.11164,"postcode":"N4 3HU","la":"Islington","era":"other","nn":186,"risk":26,"cat":"green"},{"name":"Whittington Stone","lat":51.56628,"lon":-0.13665,"postcode":"N19 5NE","la":"Islington","era":"other","nn":115,"risk":25,"cat":"green"},{"name":"World's End","lat":51.56697,"lon":-0.10836,"postcode":"N4 3EF","la":"Islington","era":"other","nn":189,"risk":26,"cat":"green"},{"name":"Ferry Boat Inn/Chik Box/K-Town Chicken/Locked and Loaded","lat":51.58696,"lon":-0.05261,"postcode":"N17 9NG","la":"Waltham Forest","era":"trad","nn":548,"risk":30,"cat":"green"}]