[{"name":"Bar 201","lat":51.40654,"lon":0.01312,"postcode":"BR1 1NY","la":"Bromley","era":"mod","nn":0,"risk":24,"cat":"green"},{"name":"Barrel & Horn","lat":51.40598,"lon":0.01335,"postcode":"BR1 1PW","la":"Bromley","era":"other","nn":20,"risk":24,"cat":"green"},{"name":"Batak Turkish Social Club","lat":51.4203,"lon":0.01941,"postcode":"BR1 5AA","la":"Bromley","era":"mod","nn":118,"risk":24,"cat":"green"},{"name":"Beccehamians Rugby Football Club","lat":51.36957,"lon":-0.00671,"postcode":"BR4 9BB","la":"Bromley","era":"other","nn":309,"risk":28,"cat":"green"},{"name":"Beckenham Rugby Football Club","lat":51.39717,"lon":-0.03998,"postcode":"BR3 3RD","la":"Bromley","era":"other","nn":351,"risk":29,"cat":"green"},{"name":"Beckenham Social Club","lat":51.40749,"lon":-0.04407,"postcode":"BR3 4QQ","la":"Bromley","era":"mod","nn":117,"risk":24,"cat":"green"},{"name":"Beckenham Sports Club","lat":51.41385,"lon":-0.02077,"postcode":"BR3 5AS","la":"Bromley","era":"other","nn":470,"risk":27,"cat":"green"},{"name":"Beckenham Town Football Club","lat":51.39266,"lon":-0.02775,"postcode":"BR3 3JL","la":"Bromley","era":"other","nn":341,"risk":26,"cat":"green"},{"name":"Bickley Park Cricket Club","lat":51.40178,"lon":0.04667,"postcode":"BR1 2AS","la":"Bromley","era":"other","nn":884,"risk":35,"cat":"amber"},{"name":"Black Horse","lat":51.36826,"lon":0.05668,"postcode":"BR6 8NW","la":"Bromley","era":"trad","nn":229,"risk":45,"cat":"amber"},{"name":"Br3wery Limited","lat":51.40986,"lon":-0.04568,"postcode":"BR3 4RP","la":"Bromley","era":"other","nn":287,"risk":26,"cat":"green"},{"name":"Bricklayers Arms","lat":51.39629,"lon":0.02482,"postcode":"BR2 9HW","la":"Bromley","era":"trad","nn":0,"risk":24,"cat":"green"},{"name":"Bricklayers Arms","lat":51.40665,"lon":-0.03184,"postcode":"BR3 1BN","la":"Bromley","era":"trad","nn":109,"risk":24,"cat":"green"},{"name":"Bridge Bar","lat":51.41064,"lon":-0.02517,"postcode":"BR3 1AZ","la":"Bromley","era":"other","nn":0,"risk":24,"cat":"green"},{"name":"Brockenhurst Recreational & Social Club","lat":51.39147,"lon":0.13635,"postcode":"BR5 4ET","la":"Bromley","era":"mod","nn":0,"risk":44,"cat":"amber"},{"name":"Bromley Bowling Club","lat":51.41314,"lon":0.02533,"postcode":"BR1 3JF","la":"Bromley","era":"other","nn":284,"risk":26,"cat":"green"},{"name":"Bromley Common Cricket Club - The Grove","lat":51.37433,"lon":0.04,"postcode":"BR2 8HQ","la":"Bromley","era":"other","nn":0,"risk":26,"cat":"green"},{"name":"Bromley Common Social And Athletic Club","lat":51.3958,"lon":0.02948,"postcode":"BR2 9NF","la":"Bromley","era":"mod","nn":324,"risk":26,"cat":"green"},{"name":"Bromley Football Club - Broomfields","lat":51.3911,"lon":0.01767,"postcode":"BR2 9EF","la":"Bromley","era":"other","nn":0,"risk":24,"cat":"green"},{"name":"Bromley Golf Centre","lat":51.38317,"lon":0.04394,"postcode":"BR2 8JF","la":"Bromley","era":"other","nn":770,"risk":46,"cat":"amber"},{"name":"Bromley Indoor Bowls Centre","lat":51.37658,"lon":0.11223,"postcode":"BR5 4LX","la":"Bromley","era":"other","nn":671,"risk":31,"cat":"amber"},{"name":"Bromley Lawn Tennis And Squash Club","lat":51.39537,"lon":0.01753,"postcode":"BR2 9AN","la":"Bromley","era":"other","nn":461,"risk":27,"cat":"green"},{"name":"Bromley Tennis Centre","lat":51.36753,"lon":0.07683,"postcode":"BR6 9SA","la":"Bromley","era":"other","nn":1012,"risk":53,"cat":"amber"},{"name":"Bromley Town Bowling Club","lat":51.3911,"lon":0.01767,"postcode":"BR2 9EF","la":"Bromley","era":"other","nn":0,"risk":24,"cat":"green"},{"name":"Bromley Town Cricket Club","lat":51.3911,"lon":0.01767,"postcode":"BR2 9EF","la":"Bromley","era":"other","nn":0,"risk":24,"cat":"green"},{"name":"Bulls Head Hotel","lat":51.4116,"lon":0.07534,"postcode":"BR7 6NR","la":"Bromley","era":"trad","nn":47,"risk":24,"cat":"green"},{"name":"Change Of Horses","lat":51.35952,"lon":0.06993,"postcode":"BR6 7BB","la":"Bromley","era":"trad","nn":32,"risk":41,"cat":"amber"},{"name":"Chatterton Arms","lat":51.39335,"lon":0.03511,"postcode":"BR2 9QW","la":"Bromley","era":"trad","nn":322,"risk":26,"cat":"green"},{"name":"Chelsfield Lakes Golf Centre","lat":51.36167,"lon":0.11574,"postcode":"BR6 9BX","la":"Bromley","era":"other","nn":240,"risk":30,"cat":"green"},{"name":"Chislehurst Golf Club - Nourish Catering","lat":51.41123,"lon":0.06538,"postcode":"BR7 5HJ","la":"Bromley","era":"other","nn":315,"risk":26,"cat":"green"},{"name":"Churchill Theatre","lat":51.40378,"lon":0.01444,"postcode":"BR1 1HA","la":"Bromley","era":"other","nn":161,"risk":25,"cat":"green"},{"name":"Club Langley","lat":51.38858,"lon":-0.02252,"postcode":"BR3 3SR","la":"Bromley","era":"other","nn":325,"risk":26,"cat":"green"},{"name":"Conservative Club","lat":51.40772,"lon":-0.04242,"postcode":"BR3 4PX","la":"Bromley","era":"other","nn":117,"risk":24,"cat":"green"},{"name":"Coral Sea","lat":51.38848,"lon":0.0729,"postcode":"BR5 1DQ","la":"Bromley","era":"other","nn":56,"risk":24,"cat":"green"},{"name":"Crepeaffaire","lat":51.40557,"lon":0.01552,"postcode":"BR1 1NA","la":"Bromley","era":"other","nn":97,"risk":24,"cat":"green"},{"name":"Crown And Anchor","lat":51.40814,"lon":0.0216,"postcode":"BR1 3HJ","la":"Bromley","era":"trad","nn":93,"risk":24,"cat":"green"},{"name":"Crown Inn","lat":51.41066,"lon":0.07292,"postcode":"BR7 5PQ","la":"Bromley","era":"trad","nn":192,"risk":25,"cat":"green"},{"name":"Crown Of Bromley","lat":51.39562,"lon":0.02482,"postcode":"BR2 9JG","la":"Bromley","era":"trad","nn":74,"risk":24,"cat":"green"},{"name":"Croydon Rugby Club","lat":51.36399,"lon":-0.01929,"postcode":"BR4 9BF","la":"Bromley","era":"other","nn":918,"risk":48,"cat":"amber"},{"name":"David Lloyd Leisure","lat":51.39578,"lon":-0.03544,"postcode":"BR3 3HL","la":"Bromley","era":"other","nn":351,"risk":29,"cat":"green"},{"name":"Daylight Inn","lat":51.389,"lon":0.07516,"postcode":"BR5 1LZ","la":"Bromley","era":"trad","nn":81,"risk":24,"cat":"green"},{"name":"East Hub @ Link Youth Centre","lat":51.4091,"lon":0.10648,"postcode":"BR5 2QL","la":"Bromley","era":"mod","nn":966,"risk":50,"cat":"amber"},{"name":"Erin's","lat":51.40777,"lon":-0.02719,"postcode":"BR3 1EA","la":"Bromley","era":"other","nn":92,"risk":24,"cat":"green"},{"name":"Ex Blues Club","lat":51.37858,"lon":-0.00642,"postcode":"BR4 0AW","la":"Bromley","era":"other","nn":251,"risk":25,"cat":"green"},{"name":"Farnborough Sports Club","lat":51.35923,"lon":0.06994,"postcode":"BR6 7BA","la":"Bromley","era":"other","nn":0,"risk":41,"cat":"amber"},{"name":"Five Bells","lat":51.35709,"lon":0.12754,"postcode":"BR6 7RE","la":"Bromley","era":"other","nn":965,"risk":50,"cat":"amber"},{"name":"Freelands Tavern","lat":51.41062,"lon":0.02457,"postcode":"BR1 3HZ","la":"Bromley","era":"other","nn":202,"risk":25,"cat":"green"},{"name":"George And Dragon","lat":51.33621,"lon":0.05368,"postcode":"BR6 7UT","la":"Bromley","era":"trad","nn":52,"risk":41,"cat":"amber"},{"name":"Glebe Football Club","lat":51.41703,"lon":0.08463,"postcode":"BR7 6SD","la":"Bromley","era":"other","nn":258,"risk":28,"cat":"green"},{"name":"Goals Soccer Centre","lat":51.39995,"lon":-0.05071,"postcode":"BR3 4EJ","la":"Bromley","era":"other","nn":409,"risk":31,"cat":"amber"},{"name":"High Elms Golf Club","lat":51.34187,"lon":0.06492,"postcode":"BR6 7JL","la":"Bromley","era":"trad","nn":963,"risk":50,"cat":"amber"},{"name":"Holmesdale Football Club","lat":51.3736,"lon":0.03966,"postcode":"BR2 8HQ","la":"Bromley","era":"other","nn":85,"risk":27,"cat":"green"},{"name":"HSBC Sports And Social Club","lat":51.41757,"lon":-0.03683,"postcode":"BR3 1QW","la":"Bromley","era":"mod","nn":896,"risk":50,"cat":"amber"},{"name":"Imperial Arms","lat":51.40878,"lon":0.06077,"postcode":"BR7 5LZ","la":"Bromley","era":"trad","nn":81,"risk":24,"cat":"green"},{"name":"Jolly Woodman","lat":51.4066,"lon":-0.01874,"postcode":"BR3 6NR","la":"Bromley","era":"other","nn":92,"risk":24,"cat":"green"},{"name":"Langley Park Golf Club","lat":51.38766,"lon":-0.00855,"postcode":"BR3 6SZ","la":"Bromley","era":"other","nn":557,"risk":27,"cat":"green"},{"name":"Metropolis","lat":51.4069,"lon":0.01191,"postcode":"BR1 1PG","la":"Bromley","era":"other","nn":0,"risk":24,"cat":"green"},{"name":"Metropolitan Police Sports And Social Club","lat":51.37063,"lon":0.00857,"postcode":"BR2 7AL","la":"Bromley","era":"mod","nn":502,"risk":32,"cat":"amber"},{"name":"Miller & Carter","lat":51.3848,"lon":0.00228,"postcode":"BR4 0HH","la":"Bromley","era":"trad","nn":694,"risk":31,"cat":"amber"},{"name":"Naturist Foundation - Tea Pot Cafe","lat":51.39147,"lon":0.13635,"postcode":"BR5 4ET","la":"Bromley","era":"other","nn":0,"risk":44,"cat":"amber"},{"name":"Nuffield Health (formally Virgin Active Health Club)","lat":51.43151,"lon":0.07654,"postcode":"BR7 6RP","la":"Bromley","era":"other","nn":735,"risk":34,"cat":"amber"},{"name":"Nuffield Health Fitness & Wellbeing Centre","lat":51.3911,"lon":0.01767,"postcode":"BR2 9EF","la":"Bromley","era":"other","nn":0,"risk":24,"cat":"green"},{"name":"Old Bromleians Football Club","lat":51.37819,"lon":0.05167,"postcode":"BR2 8LL","la":"Bromley","era":"other","nn":770,"risk":31,"cat":"amber"},{"name":"Old Dunstonian Sports Club","lat":51.39001,"lon":-0.01563,"postcode":"BR3 3SS","la":"Bromley","era":"other","nn":504,"risk":27,"cat":"green"},{"name":"One Inn The Wood - Micro Pub","lat":51.39009,"lon":0.0739,"postcode":"BR5 1LA","la":"Bromley","era":"trad","nn":69,"risk":24,"cat":"green"},{"name":"O'Neills","lat":51.41064,"lon":-0.02517,"postcode":"BR3 1AZ","la":"Bromley","era":"other","nn":0,"risk":24,"cat":"green"},{"name":"O'Neills","lat":51.4068,"lon":0.01568,"postcode":"BR1 1QE","la":"Bromley","era":"other","nn":66,"risk":24,"cat":"green"},{"name":"Orpington Conservative Club - Bar","lat":51.37184,"lon":0.09653,"postcode":"BR6 9JJ","la":"Bromley","era":"other","nn":155,"risk":27,"cat":"green"},{"name":"Orpington Liberal Club","lat":51.37255,"lon":0.0946,"postcode":"BR6 0RZ","la":"Bromley","era":"other","nn":0,"risk":26,"cat":"green"},{"name":"Park House Rugby Football Club","lat":51.37167,"lon":0.02478,"postcode":"BR2 7AA","la":"Bromley","era":"mod","nn":0,"risk":29,"cat":"green"},{"name":"Park Langley Tennis Club","lat":51.39521,"lon":-0.01529,"postcode":"BR3 3AF","la":"Bromley","era":"other","nn":579,"risk":30,"cat":"green"},{"name":"Patrick's","lat":51.41064,"lon":-0.02517,"postcode":"BR3 1AZ","la":"Bromley","era":"other","nn":0,"risk":24,"cat":"green"},{"name":"Petts Wood Bowling Club","lat":51.39339,"lon":0.07941,"postcode":"BR5 1PE","la":"Bromley","era":"other","nn":530,"risk":27,"cat":"green"},{"name":"Petts Wood Football Club","lat":51.37167,"lon":0.02478,"postcode":"BR2 7AA","la":"Bromley","era":"other","nn":0,"risk":29,"cat":"green"},{"name":"Petts Wood Snooker Club","lat":51.38877,"lon":0.07356,"postcode":"BR5 1DB","la":"Bromley","era":"other","nn":56,"risk":24,"cat":"green"},{"name":"Prince Frederick","lat":51.41576,"lon":0.01926,"postcode":"BR1 4DE","la":"Bromley","era":"trad","nn":167,"risk":25,"cat":"green"},{"name":"Prive","lat":51.39947,"lon":0.01654,"postcode":"BR1 1DS","la":"Bromley","era":"other","nn":40,"risk":24,"cat":"green"},{"name":"Queens Head","lat":51.41823,"lon":0.06784,"postcode":"BR7 5AN","la":"Bromley","era":"trad","nn":126,"risk":24,"cat":"green"},{"name":"Queens Head","lat":51.33667,"lon":0.05383,"postcode":"BR6 7US","la":"Bromley","era":"trad","nn":52,"risk":29,"cat":"green"},{"name":"Queens Head","lat":51.35294,"lon":0.0892,"postcode":"BR6 6BQ","la":"Bromley","era":"trad","nn":190,"risk":42,"cat":"amber"},{"name":"Railway Tavern","lat":51.40741,"lon":0.01608,"postcode":"BR1 1QQ","la":"Bromley","era":"trad","nn":41,"risk":24,"cat":"green"},{"name":"Ramblers Rest","lat":51.40871,"lon":0.06193,"postcode":"BR7 5ND","la":"Bromley","era":"trad","nn":81,"risk":24,"cat":"green"},{"name":"Red Lion","lat":51.40999,"lon":0.02184,"postcode":"BR1 3LG","la":"Bromley","era":"trad","nn":145,"risk":25,"cat":"green"},{"name":"Richmal Crompton - J D Wetherspoon","lat":51.39978,"lon":0.01626,"postcode":"BR1 1DS","la":"Bromley","era":"other","nn":40,"risk":24,"cat":"green"},{"name":"Royal British Legion Club","lat":51.37478,"lon":0.01142,"postcode":"BR2 7DJ","la":"Bromley","era":"trad","nn":148,"risk":25,"cat":"green"},{"name":"Royal British Legion Club","lat":51.37973,"lon":-0.01663,"postcode":"BR4 0JJ","la":"Bromley","era":"trad","nn":245,"risk":25,"cat":"green"},{"name":"Royal British Legion Club","lat":51.37899,"lon":0.10338,"postcode":"BR6 0HE","la":"Bromley","era":"trad","nn":85,"risk":24,"cat":"green"},{"name":"Royal British Legion Club","lat":51.38807,"lon":0.07413,"postcode":"BR5 1DH","la":"Bromley","era":"trad","nn":88,"risk":24,"cat":"green"},{"name":"Royal Oak","lat":51.35123,"lon":0.08923,"postcode":"BR6 6BJ","la":"Bromley","era":"trad","nn":190,"risk":42,"cat":"amber"},{"name":"Shortlands Golf Club","lat":51.40724,"lon":0.00225,"postcode":"BR2 0DX","la":"Bromley","era":"other","nn":288,"risk":26,"cat":"green"},{"name":"Shortlands Tavern","lat":51.40494,"lon":0.00416,"postcode":"BR2 0EY","la":"Bromley","era":"other","nn":288,"risk":26,"cat":"green"},{"name":"Star And Garter","lat":51.40694,"lon":0.01243,"postcode":"BR1 1NZ","la":"Bromley","era":"other","nn":36,"risk":24,"cat":"green"},{"name":"Sundridge Park Golf Club","lat":51.41766,"lon":0.02504,"postcode":"BR1 3NE","la":"Bromley","era":"other","nn":239,"risk":25,"cat":"green"},{"name":"Sundridge Park Lawn Tennis & Squash Rackets Club","lat":51.41594,"lon":0.02297,"postcode":"BR1 3NA","la":"Bromley","era":"other","nn":239,"risk":25,"cat":"green"},{"name":"Sundridge Park Working Men's Club","lat":51.42052,"lon":0.02107,"postcode":"BR1 5AF","la":"Bromley","era":"trad","nn":118,"risk":24,"cat":"green"},{"name":"Swan And Mitre","lat":51.4069,"lon":0.01191,"postcode":"BR1 1PG","la":"Bromley","era":"trad","nn":0,"risk":24,"cat":"green"},{"name":"Sydney Arms","lat":51.41508,"lon":0.08665,"postcode":"BR7 6PL","la":"Bromley","era":"trad","nn":258,"risk":28,"cat":"green"},{"name":"The Anglesey Arms","lat":51.40884,"lon":0.02086,"postcode":"BR1 3JX","la":"Bromley","era":"trad","nn":0,"risk":24,"cat":"green"},{"name":"The Artful Duke","lat":51.40598,"lon":0.01364,"postcode":"BR1 1HE","la":"Bromley","era":"trad","nn":20,"risk":24,"cat":"green"},{"name":"The Beaverwood Sports And Social Club","lat":51.41805,"lon":0.08965,"postcode":"BR7 6HF","la":"Bromley","era":"mod","nn":366,"risk":31,"cat":"amber"},{"name":"The Beech Tree","lat":51.38481,"lon":0.1112,"postcode":"BR5 4AG","la":"Bromley","era":"other","nn":834,"risk":32,"cat":"amber"},{"name":"The Bickley","lat":51.40725,"lon":0.0559,"postcode":"BR7 5NP","la":"Bromley","era":"other","nn":378,"risk":26,"cat":"green"},{"name":"The Bitter End Cafe Bar","lat":51.39629,"lon":0.02482,"postcode":"BR2 9HW","la":"Bromley","era":"other","nn":0,"risk":24,"cat":"green"},{"name":"The Bo Peep","lat":51.3503,"lon":0.13746,"postcode":"BR6 7QL","la":"Bromley","era":"other","nn":1022,"risk":53,"cat":"amber"},{"name":"The British Queen","lat":51.36671,"lon":0.0545,"postcode":"BR6 8NL","la":"Bromley","era":"trad","nn":229,"risk":45,"cat":"amber"},{"name":"The Buff","lat":51.35881,"lon":0.08664,"postcode":"BR6 9NL","la":"Bromley","era":"other","nn":676,"risk":46,"cat":"amber"},{"name":"The Bull Inn","lat":51.40393,"lon":0.11768,"postcode":"BR5 3HS","la":"Bromley","era":"trad","nn":966,"risk":50,"cat":"amber"},{"name":"The Chancery","lat":51.40687,"lon":-0.0175,"postcode":"BR3 5NP","la":"Bromley","era":"other","nn":92,"risk":24,"cat":"green"},{"name":"The Chelsfield","lat":51.35636,"lon":0.10529,"postcode":"BR6 6EY","la":"Bromley","era":"other","nn":936,"risk":50,"cat":"amber"},{"name":"The Chequers","lat":51.39027,"lon":0.04515,"postcode":"BR2 8AP","la":"Bromley","era":"other","nn":736,"risk":34,"cat":"amber"},{"name":"The Cockpit","lat":51.41189,"lon":0.07486,"postcode":"BR7 6NR","la":"Bromley","era":"other","nn":47,"risk":24,"cat":"green"},{"name":"The Craft Beer Cabin","lat":51.40908,"lon":0.01091,"postcode":"BR1 3QR","la":"Bromley","era":"mod","nn":63,"risk":24,"cat":"green"},{"name":"The Craft Beer Rooms","lat":51.37612,"lon":0.00686,"postcode":"BR2 7EY","la":"Bromley","era":"mod","nn":304,"risk":26,"cat":"green"},{"name":"The Cricketers","lat":51.38147,"lon":0.10039,"postcode":"BR6 0DQ","la":"Bromley","era":"other","nn":260,"risk":28,"cat":"green"},{"name":"The Crown In Sundridge","lat":51.41428,"lon":0.01966,"postcode":"BR1 3PA","la":"Bromley","era":"trad","nn":167,"risk":25,"cat":"green"},{"name":"The Crown Inn","lat":51.34331,"lon":0.03163,"postcode":"BR2 6DQ","la":"Bromley","era":"trad","nn":1230,"risk":55,"cat":"amber"},{"name":"The Elm Tree","lat":51.39879,"lon":-0.04512,"postcode":"BR3 4DF","la":"Bromley","era":"trad","nn":400,"risk":29,"cat":"green"},{"name":"The George","lat":51.37993,"lon":0.01827,"postcode":"BR2 7LE","la":"Bromley","era":"trad","nn":368,"risk":29,"cat":"green"},{"name":"The Gordon Arms","lat":51.4193,"lon":0.06845,"postcode":"BR7 5AY","la":"Bromley","era":"trad","nn":126,"risk":27,"cat":"green"},{"name":"The Greyhound","lat":51.40654,"lon":0.01312,"postcode":"BR1 1NY","la":"Bromley","era":"trad","nn":0,"risk":24,"cat":"green"},{"name":"The Greyhound","lat":51.36359,"lon":0.02857,"postcode":"BR2 6BP","la":"Bromley","era":"trad","nn":936,"risk":48,"cat":"amber"},{"name":"The Grove Sports Club","lat":51.37433,"lon":0.04,"postcode":"BR2 8HQ","la":"Bromley","era":"other","nn":0,"risk":26,"cat":"green"},{"name":"The Lord Homesdale","lat":51.39985,"lon":0.03385,"postcode":"BR1 2QZ","la":"Bromley","era":"other","nn":543,"risk":27,"cat":"green"},{"name":"The Maxwell","lat":51.37255,"lon":0.0946,"postcode":"BR6 0RZ","la":"Bromley","era":"other","nn":0,"risk":26,"cat":"green"},{"name":"The Oak","lat":51.40585,"lon":0.03407,"postcode":"BR1 2RH","la":"Bromley","era":"trad","nn":667,"risk":28,"cat":"green"},{"name":"The Partridge","lat":51.40522,"lon":0.01424,"postcode":"BR1 1HE","la":"Bromley","era":"other","nn":94,"risk":24,"cat":"green"},{"name":"The Railway","lat":51.38024,"lon":-0.01318,"postcode":"BR4 0EW","la":"Bromley","era":"trad","nn":245,"risk":25,"cat":"green"},{"name":"The Real Ale Way","lat":51.37611,"lon":0.01124,"postcode":"BR2 7EB","la":"Bromley","era":"other","nn":148,"risk":25,"cat":"green"},{"name":"The Real Ale Way","lat":51.37685,"lon":-0.01412,"postcode":"BR4 0PX","la":"Bromley","era":"other","nn":162,"risk":25,"cat":"green"},{"name":"The Sovereign Of The Seas","lat":51.38952,"lon":0.07181,"postcode":"BR5 1DG","la":"Bromley","era":"other","nn":138,"risk":25,"cat":"green"},{"name":"The Swan","lat":51.37615,"lon":-0.01616,"postcode":"BR4 0NJ","la":"Bromley","era":"trad","nn":162,"risk":25,"cat":"green"},{"name":"The Wheatsheaf","lat":51.37683,"lon":-0.02115,"postcode":"BR4 0LU","la":"Bromley","era":"trad","nn":354,"risk":26,"cat":"green"},{"name":"The Woodman","lat":51.35923,"lon":0.06994,"postcode":"BR6 7BA","la":"Bromley","era":"other","nn":0,"risk":41,"cat":"amber"},{"name":"Tigers Head","lat":51.4095,"lon":0.06897,"postcode":"BR7 5PJ","la":"Bromley","era":"trad","nn":303,"risk":26,"cat":"green"},{"name":"Toby Carvery - Eden Park Hotel","lat":51.38964,"lon":-0.02689,"postcode":"BR3 3HQ","la":"Bromley","era":"other","nn":325,"risk":28,"cat":"green"},{"name":"Toby Carvery - The Crown","lat":51.39048,"lon":0.03455,"postcode":"BR2 9RJ","la":"Bromley","era":"trad","nn":322,"risk":26,"cat":"green"},{"name":"Two Doves","lat":51.37233,"lon":0.03962,"postcode":"BR2 8HD","la":"Bromley","era":"other","nn":141,"risk":30,"cat":"green"},{"name":"United Service Club","lat":51.4092,"lon":0.01003,"postcode":"BR1 1DG","la":"Bromley","era":"other","nn":63,"risk":24,"cat":"green"},{"name":"Vault And Vine","lat":51.38954,"lon":0.07438,"postcode":"BR5 1NA","la":"Bromley","era":"other","nn":69,"risk":24,"cat":"green"},{"name":"Victory Social Club","lat":51.38297,"lon":0.01618,"postcode":"BR2 7NG","la":"Bromley","era":"mod","nn":368,"risk":26,"cat":"green"},{"name":"Vu Vu Club","lat":51.40713,"lon":0.01647,"postcode":"BR1 1QU","la":"Bromley","era":"other","nn":41,"risk":24,"cat":"green"},{"name":"West Kent Golf Club - Bar","lat":51.3338,"lon":0.04067,"postcode":"BR6 7LD","la":"Bromley","era":"other","nn":943,"risk":48,"cat":"amber"},{"name":"West Wickham Bowling Club","lat":51.37322,"lon":-0.00946,"postcode":"BR4 0RX","la":"Bromley","era":"other","nn":259,"risk":25,"cat":"green"},{"name":"Westcombe Park Rugby Football Club -  Caterers","lat":51.36373,"lon":0.11469,"postcode":"BR6 9SX","la":"Bromley","era":"other","nn":240,"risk":45,"cat":"amber"},{"name":"White Hart","lat":51.37957,"lon":0.10258,"postcode":"BR6 0JY","la":"Bromley","era":"trad","nn":85,"risk":24,"cat":"green"},{"name":"White Horse","lat":51.40644,"lon":-0.03031,"postcode":"BR3 1AH","la":"Bromley","era":"trad","nn":109,"risk":24,"cat":"green"},{"name":"White Horse","lat":51.40884,"lon":0.02086,"postcode":"BR1 3JX","la":"Bromley","era":"trad","nn":0,"risk":24,"cat":"green"},{"name":"Wickham Park Sports Club","lat":51.37956,"lon":-0.00315,"postcode":"BR4 0AU","la":"Bromley","era":"other","nn":251,"risk":25,"cat":"green"},{"name":"Wickham Theatre Centre","lat":51.37099,"lon":-0.01054,"postcode":"BR4 9BA","la":"Bromley","era":"other","nn":259,"risk":25,"cat":"green"},{"name":"Ye George Inn","lat":51.40701,"lon":-0.02772,"postcode":"BR3 1AG","la":"Bromley","era":"trad","nn":92,"risk":24,"cat":"green"},{"name":"The Downham Tavern","lat":51.4278,"lon":0.01309,"postcode":"BR1 5HS","la":"Lewisham","era":"other","nn":942,"risk":50,"cat":"amber"},{"name":"Lullingstone Castle","lat":51.39524,"lon":0.17715,"postcode":"BR8 8BE","la":"Sevenoaks","era":"other","nn":64,"risk":48,"cat":"amber"},{"name":"The Cotton Mill","lat":51.39522,"lon":0.17623,"postcode":"BR8 8ET","la":"Sevenoaks","era":"trad","nn":64,"risk":48,"cat":"amber"},{"name":"The Lamb Inn","lat":51.40411,"lon":0.20104,"postcode":"BR8 7NN","la":"Sevenoaks","era":"trad","nn":102,"risk":48,"cat":"amber"},{"name":"The Red Lion","lat":51.40397,"lon":0.19958,"postcode":"BR8 7NF","la":"Sevenoaks","era":"trad","nn":102,"risk":48,"cat":"amber"}]