[{"name":"Blue Junction","lat":51.40164,"lon":-0.19674,"postcode":"SM4 5DA","la":"Merton","era":"other","nn":242,"risk":35,"cat":"amber"},{"name":"Central Ward Residents Club","lat":51.39888,"lon":-0.20884,"postcode":"SM4 4ED","la":"Merton","era":"other","nn":880,"risk":52,"cat":"amber"},{"name":"Ganleys Irish Bar","lat":51.40233,"lon":-0.19344,"postcode":"SM4 5HT","la":"Merton","era":"other","nn":242,"risk":47,"cat":"amber"},{"name":"Morden Brook","lat":51.39111,"lon":-0.22187,"postcode":"SM4 4SS","la":"Merton","era":"other","nn":969,"risk":55,"cat":"amber"},{"name":"The George Inn","lat":51.39161,"lon":-0.20388,"postcode":"SM4 5PJ","la":"Merton","era":"trad","nn":880,"risk":54,"cat":"amber"},{"name":"Banstead Village Club","lat":51.32185,"lon":-0.20342,"postcode":"SM7 2LJ","la":"Reigate and Banstead","era":"other","nn":191,"risk":48,"cat":"amber"},{"name":"Nork Park Social Club","lat":51.31967,"lon":-0.22519,"postcode":"SM7 1JB","la":"Reigate and Banstead","era":"mod","nn":1532,"risk":60,"cat":"amber"},{"name":"Old Walcountian Association","lat":51.32872,"lon":-0.1688,"postcode":"SM7 3HU","la":"Reigate and Banstead","era":"other","nn":553,"risk":48,"cat":"amber"},{"name":"The Mint","lat":51.31767,"lon":-0.19023,"postcode":"SM7 3DS","la":"Reigate and Banstead","era":"other","nn":939,"risk":53,"cat":"amber"},{"name":"The Woodman Public House","lat":51.32408,"lon":-0.17168,"postcode":"SM7 3NL","la":"Reigate and Banstead","era":"other","nn":126,"risk":45,"cat":"amber"},{"name":"The Woolpack Public House","lat":51.32273,"lon":-0.20105,"postcode":"SM7 2NZ","la":"Reigate and Banstead","era":"trad","nn":191,"risk":46,"cat":"amber"},{"name":"Woodmansterne Sports Club","lat":51.32365,"lon":-0.17336,"postcode":"SM7 3NH","la":"Reigate and Banstead","era":"other","nn":126,"risk":45,"cat":"amber"},{"name":"All Bar One","lat":51.36171,"lon":-0.19318,"postcode":"SM1 1DZ","la":"Sutton","era":"mod","nn":2,"risk":28,"cat":"green"},{"name":"Bedzed Pavilion Community Centre","lat":51.38314,"lon":-0.15657,"postcode":"SM6 7DF","la":"Sutton","era":"trad","nn":516,"risk":49,"cat":"amber"},{"name":"California (Ember Inns)","lat":51.34384,"lon":-0.19767,"postcode":"SM2 5SU","la":"Sutton","era":"trad","nn":896,"risk":54,"cat":"amber"},{"name":"Carshalton Darby And Joans Club","lat":51.37297,"lon":-0.16624,"postcode":"SM5 2DL","la":"Sutton","era":"other","nn":304,"risk":30,"cat":"green"},{"name":"Chiltern Church Club","lat":51.34684,"lon":-0.18569,"postcode":"SM2 5QY","la":"Sutton","era":"other","nn":896,"risk":54,"cat":"amber"},{"name":"Claret Wine Bar","lat":51.35892,"lon":-0.21692,"postcode":"SM3 8BL","la":"Sutton","era":"other","nn":81,"risk":33,"cat":"amber"},{"name":"Coach And Horses","lat":51.36519,"lon":-0.1612,"postcode":"SM5 3AG","la":"Sutton","era":"trad","nn":238,"risk":30,"cat":"green"},{"name":"Dukes Head Hotel","lat":51.3667,"lon":-0.15382,"postcode":"SM6 0AA","la":"Sutton","era":"trad","nn":217,"risk":29,"cat":"green"},{"name":"Ebb And Flow","lat":51.36164,"lon":-0.19261,"postcode":"SM1 1DT","la":"Sutton","era":"other","nn":0,"risk":28,"cat":"green"},{"name":"Gander Inn","lat":51.3714,"lon":-0.20912,"postcode":"SM1 2UE","la":"Sutton","era":"trad","nn":1040,"risk":58,"cat":"amber"},{"name":"Lord Nelson T/A Loco Loco, El Rodeo Mexicano, Burrito Bandits","lat":51.37995,"lon":-0.21866,"postcode":"SM3 9DR","la":"Sutton","era":"trad","nn":982,"risk":55,"cat":"amber"},{"name":"Moon On The Hill","lat":51.3617,"lon":-0.19316,"postcode":"SM1 1DZ","la":"Sutton","era":"other","nn":2,"risk":28,"cat":"green"},{"name":"Nonsuch Inn","lat":51.37239,"lon":-0.22597,"postcode":"SM3 9AA","la":"Sutton","era":"trad","nn":895,"risk":52,"cat":"amber"},{"name":"Old Bank","lat":51.36015,"lon":-0.19135,"postcode":"SM1 1HN","la":"Sutton","era":"other","nn":88,"risk":28,"cat":"green"},{"name":"O'Neills","lat":51.36068,"lon":-0.19229,"postcode":"SM1 1DJ","la":"Sutton","era":"other","nn":0,"risk":28,"cat":"green"},{"name":"Robin Hood","lat":51.3639,"lon":-0.19682,"postcode":"SM1 1SH","la":"Sutton","era":"other","nn":351,"risk":30,"cat":"green"},{"name":"Rose And Crown","lat":51.36853,"lon":-0.15489,"postcode":"SM6 7HX","la":"Sutton","era":"trad","nn":217,"risk":29,"cat":"green"},{"name":"Shinner And Sudtone","lat":51.36164,"lon":-0.19261,"postcode":"SM1 1DT","la":"Sutton","era":"trad","nn":0,"risk":28,"cat":"green"},{"name":"Slug & Lettuce / 88th Street / Value Mighty /Sin City","lat":51.36068,"lon":-0.19229,"postcode":"SM1 1DJ","la":"Sutton","era":"other","nn":0,"risk":28,"cat":"green"},{"name":"The Butterchurn","lat":51.36962,"lon":-0.18155,"postcode":"SM1 3AS","la":"Sutton","era":"other","nn":500,"risk":34,"cat":"amber"},{"name":"The Crown","lat":51.36786,"lon":-0.19525,"postcode":"SM1 1LD","la":"Sutton","era":"trad","nn":0,"risk":28,"cat":"green"},{"name":"The Greyhound","lat":51.36489,"lon":-0.16458,"postcode":"SM5 3PE","la":"Sutton","era":"trad","nn":238,"risk":30,"cat":"green"},{"name":"The Hope","lat":51.36737,"lon":-0.16716,"postcode":"SM5 2PR","la":"Sutton","era":"other","nn":116,"risk":29,"cat":"green"},{"name":"The Little Windsor","lat":51.36404,"lon":-0.18655,"postcode":"SM1 4BY","la":"Sutton","era":"other","nn":223,"risk":29,"cat":"green"},{"name":"The Lord Nelson","lat":51.36547,"lon":-0.18429,"postcode":"SM1 4QP","la":"Sutton","era":"trad","nn":223,"risk":29,"cat":"green"},{"name":"The Palmerston","lat":51.36856,"lon":-0.16241,"postcode":"SM5 2JY","la":"Sutton","era":"other","nn":175,"risk":29,"cat":"green"},{"name":"The Prince Of Wales","lat":51.36066,"lon":-0.21758,"postcode":"SM3 8QF","la":"Sutton","era":"trad","nn":151,"risk":34,"cat":"amber"},{"name":"The Racehorse Public House","lat":51.36633,"lon":-0.16735,"postcode":"SM5 2PT","la":"Sutton","era":"trad","nn":116,"risk":29,"cat":"green"},{"name":"The Railway","lat":51.35657,"lon":-0.21649,"postcode":"SM3 8SQ","la":"Sutton","era":"trad","nn":262,"risk":35,"cat":"amber"},{"name":"The Railway Tavern","lat":51.37024,"lon":-0.16651,"postcode":"SM5 2HG","la":"Sutton","era":"trad","nn":304,"risk":30,"cat":"green"},{"name":"The Red Lion","lat":51.37851,"lon":-0.15711,"postcode":"SM6 7AX","la":"Sutton","era":"trad","nn":516,"risk":49,"cat":"amber"},{"name":"The Star Wallington","lat":51.36132,"lon":-0.15007,"postcode":"SM6 0DE","la":"Sutton","era":"other","nn":127,"risk":29,"cat":"green"},{"name":"The Sun","lat":51.36744,"lon":-0.16418,"postcode":"SM5 2HU","la":"Sutton","era":"other","nn":175,"risk":29,"cat":"green"},{"name":"The Sutton Arms","lat":51.36183,"lon":-0.19203,"postcode":"SM1 1EZ","la":"Sutton","era":"trad","nn":46,"risk":28,"cat":"green"},{"name":"The Winning Post","lat":51.36786,"lon":-0.19525,"postcode":"SM1 1LD","la":"Sutton","era":"trad","nn":0,"risk":28,"cat":"green"},{"name":"The Woodcote Flying Club","lat":51.35815,"lon":-0.1492,"postcode":"SM6 0LT","la":"Sutton","era":"other","nn":240,"risk":47,"cat":"amber"},{"name":"Whispering Moon","lat":51.36031,"lon":-0.14924,"postcode":"SM6 8QF","la":"Sutton","era":"other","nn":127,"risk":29,"cat":"green"},{"name":"Windsor Castle","lat":51.36258,"lon":-0.16919,"postcode":"SM5 3PT","la":"Sutton","era":"other","nn":410,"risk":31,"cat":"amber"},{"name":"Ye Olde Red Lion","lat":51.35955,"lon":-0.21633,"postcode":"SM3 8QB","la":"Sutton","era":"trad","nn":81,"risk":33,"cat":"amber"}]