[{"name":"Arnie's","lat":52.68127,"lon":0.9395,"postcode":"NR19 2DJ","la":"Breckland","era":"other","nn":113,"risk":34,"cat":"amber"},{"name":"Attleborough Snooker Centre","lat":52.51458,"lon":1.01001,"postcode":"NR17 2BX","la":"Breckland","era":"other","nn":2679,"risk":75,"cat":"red"},{"name":"Banham Barrel","lat":52.44681,"lon":1.02564,"postcode":"NR16 2HE","la":"Breckland","era":"other","nn":100,"risk":54,"cat":"amber"},{"name":"Breckland Lodge (The Stag)","lat":52.49667,"lon":0.98355,"postcode":"NR17 1AY","la":"Breckland","era":"trad","nn":0,"risk":54,"cat":"amber"},{"name":"Cherry Tree Public House","lat":52.68278,"lon":0.94101,"postcode":"NR19 2EW","la":"Breckland","era":"other","nn":90,"risk":34,"cat":"amber"},{"name":"Darbys Freehouse","lat":52.71354,"lon":0.98939,"postcode":"NR20 4NY","la":"Breckland","era":"other","nn":315,"risk":56,"cat":"amber"},{"name":"DCs Bar","lat":52.68223,"lon":0.94004,"postcode":"NR19 2AL","la":"Breckland","era":"other","nn":90,"risk":34,"cat":"amber"},{"name":"Dereham Masonic Club","lat":52.68019,"lon":0.94241,"postcode":"NR19 1BX","la":"Breckland","era":"trad","nn":85,"risk":34,"cat":"amber"},{"name":"Gemini Public House","lat":52.68381,"lon":0.93551,"postcode":"NR19 2EA","la":"Breckland","era":"other","nn":255,"risk":35,"cat":"amber"},{"name":"Goymour Properties - Applewood Hall","lat":52.44591,"lon":1.02559,"postcode":"NR16 2HE","la":"Breckland","era":"other","nn":100,"risk":54,"cat":"amber"},{"name":"Gressenhall Social Club","lat":52.71287,"lon":0.91014,"postcode":"NR20 4DY","la":"Breckland","era":"mod","nn":2926,"risk":77,"cat":"red"},{"name":"Mattishall Sports & Social Club","lat":52.65134,"lon":1.03701,"postcode":"NR20 3JY","la":"Breckland","era":"mod","nn":831,"risk":59,"cat":"amber"},{"name":"Millwrights Arms","lat":52.66393,"lon":0.94075,"postcode":"NR19 1JW","la":"Breckland","era":"trad","nn":106,"risk":52,"cat":"amber"},{"name":"Shropham Village Social Club (Sayer's Bar)","lat":52.50138,"lon":0.92267,"postcode":"NR17 1DU","la":"Breckland","era":"mod","nn":3182,"risk":78,"cat":"red"},{"name":"The Angel","lat":52.70528,"lon":0.97764,"postcode":"NR20 4LX","la":"Breckland","era":"trad","nn":1213,"risk":65,"cat":"red"},{"name":"The Angel Inn","lat":52.46298,"lon":0.91679,"postcode":"NR16 2QU","la":"Breckland","era":"trad","nn":2768,"risk":76,"cat":"red"},{"name":"The Bell","lat":52.75489,"lon":0.89536,"postcode":"NR20 5DW","la":"Breckland","era":"other","nn":4177,"risk":85,"cat":"red"},{"name":"The Bull Inn","lat":52.67976,"lon":0.94136,"postcode":"NR19 1DZ","la":"Breckland","era":"trad","nn":85,"risk":34,"cat":"amber"},{"name":"The Coachmakers Arms","lat":52.67912,"lon":0.95697,"postcode":"NR20 3AU","la":"Breckland","era":"trad","nn":989,"risk":61,"cat":"red"},{"name":"The Crown","lat":52.53384,"lon":0.97695,"postcode":"NR17 1LE","la":"Breckland","era":"trad","nn":2853,"risk":76,"cat":"red"},{"name":"The Fox","lat":52.71844,"lon":1.06152,"postcode":"NR9 5AL","la":"Breckland","era":"trad","nn":4577,"risk":88,"cat":"red"},{"name":"The George Hotel","lat":52.68174,"lon":0.93389,"postcode":"NR19 2AZ","la":"Breckland","era":"trad","nn":255,"risk":35,"cat":"amber"},{"name":"The Greenstone","lat":52.67064,"lon":0.95196,"postcode":"NR19 1FS","la":"Breckland","era":"other","nn":691,"risk":59,"cat":"amber"},{"name":"The King's Head","lat":52.47246,"lon":1.0735,"postcode":"NR16 2AN","la":"Breckland","era":"trad","nn":4319,"risk":86,"cat":"red"},{"name":"The Railway Arms","lat":52.74303,"lon":0.95424,"postcode":"NR20 5HH","la":"Breckland","era":"trad","nn":4044,"risk":84,"cat":"red"},{"name":"The Red Lion","lat":52.43333,"lon":1.00149,"postcode":"NR16 2EP","la":"Breckland","era":"trad","nn":2150,"risk":71,"cat":"red"},{"name":"The Red Lion","lat":52.54084,"lon":0.88779,"postcode":"NR17 1DB","la":"Breckland","era":"trad","nn":2182,"risk":71,"cat":"red"},{"name":"The Royal Oak Bintree","lat":52.77316,"lon":0.99265,"postcode":"NR20 5AH","la":"Breckland","era":"trad","nn":1567,"risk":67,"cat":"red"},{"name":"The Swan","lat":52.65868,"lon":1.03473,"postcode":"NR20 3QB","la":"Breckland","era":"trad","nn":831,"risk":59,"cat":"amber"},{"name":"The Swan Inn","lat":52.43981,"lon":0.93175,"postcode":"NR16 2AD","la":"Breckland","era":"trad","nn":2768,"risk":76,"cat":"red"},{"name":"The Victoria Inn","lat":52.67467,"lon":1.06948,"postcode":"NR20 3HL","la":"Breckland","era":"trad","nn":2941,"risk":77,"cat":"red"},{"name":"The White Hart","lat":52.53161,"lon":0.93492,"postcode":"NR17 1TR","la":"Breckland","era":"trad","nn":2853,"risk":76,"cat":"red"},{"name":"The White Horse","lat":52.703,"lon":0.86988,"postcode":"NR19 2RD","la":"Breckland","era":"trad","nn":2926,"risk":77,"cat":"red"},{"name":"The White Lodge Attleborough","lat":52.49667,"lon":0.98355,"postcode":"NR17 1AY","la":"Breckland","era":"other","nn":0,"risk":54,"cat":"amber"},{"name":"Toftwood Social Centre","lat":52.66305,"lon":0.94013,"postcode":"NR19 1AH","la":"Breckland","era":"mod","nn":106,"risk":52,"cat":"amber"},{"name":"Woodside Snooker Centre","lat":52.66444,"lon":0.95245,"postcode":"NR19 1TE","la":"Breckland","era":"other","nn":691,"risk":44,"cat":"amber"},{"name":"Aylsham Ex Service & Social C","lat":52.7932,"lon":1.24998,"postcode":"NR11 6AA","la":"Broadland","era":"mod","nn":158,"risk":35,"cat":"amber"},{"name":"Black Boys Public House","lat":52.79505,"lon":1.25077,"postcode":"NR11 6EH","la":"Broadland","era":"other","nn":55,"risk":34,"cat":"amber"},{"name":"Black Lion Public House","lat":52.75283,"lon":1.29986,"postcode":"NR10 5HH","la":"Broadland","era":"trad","nn":2742,"risk":73,"cat":"red"},{"name":"Black Swan Public House","lat":52.69112,"lon":1.28249,"postcode":"NR10 3HJ","la":"Broadland","era":"trad","nn":2357,"risk":70,"cat":"red"},{"name":"Blue Boar Inn (Wet Sales)","lat":52.66105,"lon":1.32981,"postcode":"NR7 8RL","la":"Broadland","era":"trad","nn":1223,"risk":62,"cat":"red"},{"name":"County Arts Bowls Club","lat":52.63884,"lon":1.33415,"postcode":"NR7 9ND","la":"Broadland","era":"other","nn":584,"risk":38,"cat":"amber"},{"name":"Drayton Leisure Centre Club","lat":52.67632,"lon":1.22436,"postcode":"NR8 6DN","la":"Broadland","era":"other","nn":57,"risk":49,"cat":"amber"},{"name":"Earle Arms Inn","lat":52.80147,"lon":1.13318,"postcode":"NR11 6AD","la":"Broadland","era":"trad","nn":2915,"risk":74,"cat":"red"},{"name":"Fatso's","lat":52.6477,"lon":1.33193,"postcode":"NR7 9AW","la":"Broadland","era":"other","nn":430,"risk":39,"cat":"amber"},{"name":"Gordon Public House","lat":52.63415,"lon":1.33804,"postcode":"NR7 0DR","la":"Broadland","era":"other","nn":584,"risk":35,"cat":"amber"},{"name":"Kings Arms Public House","lat":52.76263,"lon":1.11116,"postcode":"NR10 4JJ","la":"Broadland","era":"trad","nn":547,"risk":55,"cat":"amber"},{"name":"Kings Head Coltishall","lat":52.7283,"lon":1.37026,"postcode":"NR12 7EA","la":"Broadland","era":"trad","nn":65,"risk":49,"cat":"amber"},{"name":"Kings Head Public House-WET SALES ONLY","lat":52.62281,"lon":1.49128,"postcode":"NR13 4AZ","la":"Broadland","era":"trad","nn":1606,"risk":65,"cat":"red"},{"name":"Lord Nelson Public House","lat":52.55948,"lon":1.56805,"postcode":"NR13 3TE","la":"Broadland","era":"trad","nn":164,"risk":50,"cat":"amber"},{"name":"Maids Head Public House","lat":52.65945,"lon":1.30147,"postcode":"NR6 7NH","la":"Broadland","era":"trad","nn":400,"risk":54,"cat":"amber"},{"name":"Marsham Arms Inn","lat":52.73421,"lon":1.21868,"postcode":"NR10 5NP","la":"Broadland","era":"trad","nn":3116,"risk":75,"cat":"red"},{"name":"Norfolk Broads Yacht Club","lat":52.70568,"lon":1.40823,"postcode":"NR12 8TS","la":"Broadland","era":"other","nn":906,"risk":55,"cat":"amber"},{"name":"Otter Public House","lat":52.68732,"lon":1.2119,"postcode":"NR8 6XE","la":"Broadland","era":"other","nn":969,"risk":58,"cat":"amber"},{"name":"Queens Head","lat":52.78177,"lon":1.0111,"postcode":"NR20 5AD","la":"Broadland","era":"trad","nn":1567,"risk":64,"cat":"red"},{"name":"Racecourse Castle Carvery","lat":52.66547,"lon":1.384,"postcode":"NR13 6PD","la":"Broadland","era":"other","nn":608,"risk":55,"cat":"amber"},{"name":"Recruiting Sergeant","lat":52.72658,"lon":1.35223,"postcode":"NR12 7EE","la":"Broadland","era":"other","nn":804,"risk":57,"cat":"amber"},{"name":"Red Lion (Drayton, Norwich)","lat":52.67637,"lon":1.22351,"postcode":"NR8 6PW","la":"Broadland","era":"trad","nn":57,"risk":49,"cat":"amber"},{"name":"Red Lion Public House","lat":52.60631,"lon":1.57652,"postcode":"NR13 3QB","la":"Broadland","era":"trad","nn":3694,"risk":79,"cat":"red"},{"name":"Reedham Ferry Inn","lat":52.55852,"lon":1.55042,"postcode":"NR13 3HA","la":"Broadland","era":"trad","nn":1196,"risk":62,"cat":"red"},{"name":"Reedham Vikings Social Club","lat":52.56026,"lon":1.5701,"postcode":"NR13 3TN","la":"Broadland","era":"other","nn":164,"risk":50,"cat":"amber"},{"name":"Rising Sun Public House","lat":52.72771,"lon":1.37028,"postcode":"NR12 7EA","la":"Broadland","era":"other","nn":65,"risk":49,"cat":"amber"},{"name":"Rose & Crown","lat":52.71161,"lon":1.31329,"postcode":"NR12 7NJ","la":"Broadland","era":"trad","nn":2278,"risk":69,"cat":"red"},{"name":"Roundwood Function & Conference Centre","lat":52.68315,"lon":1.17867,"postcode":"NR8 6HY","la":"Broadland","era":"other","nn":1333,"risk":63,"cat":"red"},{"name":"Rushcutters Arms","lat":52.62574,"lon":1.34264,"postcode":"NR7 0HE","la":"Broadland","era":"trad","nn":483,"risk":39,"cat":"amber"},{"name":"Shoulder Of Mutton Public House","lat":52.61737,"lon":1.46924,"postcode":"NR13 4NT","la":"Broadland","era":"other","nn":1606,"risk":65,"cat":"red"},{"name":"Silver Fox Public House (Wet Sales Only)","lat":52.68671,"lon":1.19756,"postcode":"NR8 6AD","la":"Broadland","era":"other","nn":969,"risk":58,"cat":"amber"},{"name":"Tamarind Indian Restaurant","lat":52.64547,"lon":1.44329,"postcode":"NR13 4AB","la":"Broadland","era":"other","nn":2469,"risk":71,"cat":"red"},{"name":"The Acle Bridge Inn","lat":52.64836,"lon":1.56819,"postcode":"NR13 3AS","la":"Broadland","era":"trad","nn":1719,"risk":66,"cat":"red"},{"name":"The Bell Inn","lat":52.77047,"lon":1.16338,"postcode":"NR10 4AE","la":"Broadland","era":"trad","nn":3278,"risk":76,"cat":"red"},{"name":"The Bull Hellesdon","lat":52.66468,"lon":1.26283,"postcode":"NR6 5QA","la":"Broadland","era":"trad","nn":1126,"risk":61,"cat":"red"},{"name":"The Chequers Hainford","lat":52.72731,"lon":1.29156,"postcode":"NR10 3AY","la":"Broadland","era":"other","nn":2278,"risk":69,"cat":"red"},{"name":"The Cock Inn","lat":52.67592,"lon":1.22491,"postcode":"NR8 6AE","la":"Broadland","era":"trad","nn":59,"risk":49,"cat":"amber"},{"name":"The Cottage Public House","lat":52.63823,"lon":1.34526,"postcode":"NR7 0JD","la":"Broadland","era":"other","nn":609,"risk":40,"cat":"amber"},{"name":"The Crown Reepham 2022 Ltd","lat":52.76696,"lon":1.115,"postcode":"NR10 4EJ","la":"Broadland","era":"trad","nn":547,"risk":55,"cat":"amber"},{"name":"The Dog Inn","lat":52.69396,"lon":1.24574,"postcode":"NR10 3DF","la":"Broadland","era":"trad","nn":2397,"risk":70,"cat":"red"},{"name":"The Feathers PH","lat":52.79374,"lon":1.24635,"postcode":"NR11 6EB","la":"Broadland","era":"other","nn":251,"risk":35,"cat":"amber"},{"name":"The Fox Public House","lat":52.74238,"lon":1.26296,"postcode":"NR10 5LY","la":"Broadland","era":"trad","nn":2553,"risk":71,"cat":"red"},{"name":"The Gas Social Club","lat":52.65018,"lon":1.32705,"postcode":"NR7 8SQ","la":"Broadland","era":"mod","nn":430,"risk":54,"cat":"amber"},{"name":"The Kings Head, The Acle Steak","lat":52.6392,"lon":1.54767,"postcode":"NR13 3DY","la":"Broadland","era":"trad","nn":1719,"risk":66,"cat":"red"},{"name":"The Longe Arms","lat":52.68813,"lon":1.3171,"postcode":"NR10 3PE","la":"Broadland","era":"trad","nn":2357,"risk":70,"cat":"red"},{"name":"THE MALTSTERS LTD","lat":52.67751,"lon":1.48884,"postcode":"NR13 6AB","la":"Broadland","era":"other","nn":3013,"risk":75,"cat":"red"},{"name":"The Plough Inn","lat":52.76925,"lon":1.25604,"postcode":"NR10 5PS","la":"Broadland","era":"trad","nn":2694,"risk":72,"cat":"red"},{"name":"The Porters Arms","lat":52.79586,"lon":1.25196,"postcode":"NR11 6ER","la":"Broadland","era":"trad","nn":121,"risk":34,"cat":"amber"},{"name":"The Ram Inn","lat":52.62528,"lon":1.42804,"postcode":"NR13 5LP","la":"Broadland","era":"trad","nn":1484,"risk":64,"cat":"red"},{"name":"The Red Lion Wet Sales Only","lat":52.72806,"lon":1.36391,"postcode":"NR12 7DW","la":"Broadland","era":"trad","nn":428,"risk":39,"cat":"amber"},{"name":"The Rivergarden","lat":52.62651,"lon":1.33558,"postcode":"NR7 0EQ","la":"Broadland","era":"other","nn":154,"risk":32,"cat":"amber"},{"name":"The Ship Public House","lat":52.55923,"lon":1.57244,"postcode":"NR13 3TQ","la":"Broadland","era":"trad","nn":195,"risk":50,"cat":"amber"},{"name":"The Sole And Heel","lat":52.6618,"lon":1.37731,"postcode":"NR13 6QH","la":"Broadland","era":"other","nn":608,"risk":55,"cat":"amber"},{"name":"The Woodman Old Catton Ltd","lat":52.65653,"lon":1.30493,"postcode":"NR6 7QA","la":"Broadland","era":"other","nn":400,"risk":51,"cat":"amber"},{"name":"Town House","lat":52.6266,"lon":1.3333,"postcode":"NR7 0EF","la":"Broadland","era":"other","nn":154,"risk":32,"cat":"amber"},{"name":"Unicorn Public House","lat":52.7946,"lon":1.25041,"postcode":"NR11 6AA","la":"Broadland","era":"other","nn":55,"risk":34,"cat":"amber"},{"name":"Whiffler Public House","lat":52.65516,"lon":1.2725,"postcode":"NR6 5JB","la":"Broadland","era":"other","nn":350,"risk":53,"cat":"amber"},{"name":"White Horse","lat":52.65899,"lon":1.54269,"postcode":"NR13 6BT","la":"Broadland","era":"trad","nn":2087,"risk":68,"cat":"red"},{"name":"Woodside Snooker Centre","lat":52.64331,"lon":1.3419,"postcode":"NR7 9HA","la":"Broadland","era":"other","nn":609,"risk":40,"cat":"amber"},{"name":"Wroxham Football Club","lat":52.70125,"lon":1.39663,"postcode":"NR12 8SJ","la":"Broadland","era":"other","nn":924,"risk":57,"cat":"amber"},{"name":"Adnams - Five Bells","lat":52.3816,"lon":1.67085,"postcode":"NR34 7JF","la":"East Suffolk","era":"other","nn":415,"risk":47,"cat":"amber"},{"name":"Beccles Golf Club","lat":52.45731,"lon":1.57113,"postcode":"NR34 9BX","la":"East Suffolk","era":"other","nn":117,"risk":25,"cat":"green"},{"name":"Beccles Indoor Bowls Club","lat":52.45663,"lon":1.57245,"postcode":"NR34 9RH","la":"East Suffolk","era":"other","nn":0,"risk":24,"cat":"green"},{"name":"Beccles Sea Cadets","lat":52.46385,"lon":1.56571,"postcode":"NR34 9BH","la":"East Suffolk","era":"other","nn":117,"risk":25,"cat":"green"},{"name":"Bell Inn","lat":52.44683,"lon":1.69348,"postcode":"NR33 8JR","la":"East Suffolk","era":"trad","nn":266,"risk":46,"cat":"amber"},{"name":"Blues & Bloater","lat":52.47028,"lon":1.74526,"postcode":"NR33 0PW","la":"East Suffolk","era":"other","nn":263,"risk":26,"cat":"green"},{"name":"Broadview","lat":52.47291,"lon":1.70984,"postcode":"NR33 9JT","la":"East Suffolk","era":"other","nn":0,"risk":24,"cat":"green"},{"name":"Bungay And District Royal British Legion Club Ltd","lat":52.45441,"lon":1.43663,"postcode":"NR35 1DB","la":"East Suffolk","era":"trad","nn":266,"risk":28,"cat":"green"},{"name":"Butchers Arms","lat":52.44886,"lon":1.56234,"postcode":"NR34 9YT","la":"East Suffolk","era":"trad","nn":628,"risk":48,"cat":"amber"},{"name":"Carlton Road Sports And Social Club","lat":52.46431,"lon":1.73481,"postcode":"NR33 0LZ","la":"East Suffolk","era":"mod","nn":198,"risk":25,"cat":"green"},{"name":"Caxton Arms","lat":52.46007,"lon":1.56399,"postcode":"NR34 9DY","la":"East Suffolk","era":"trad","nn":77,"risk":24,"cat":"green"},{"name":"Chipsters/The Harbour","lat":52.47217,"lon":1.74924,"postcode":"NR33 0AG","la":"East Suffolk","era":"other","nn":30,"risk":24,"cat":"green"},{"name":"Colville House","lat":52.4722,"lon":1.72093,"postcode":"NR33 9NB","la":"East Suffolk","era":"other","nn":0,"risk":24,"cat":"green"},{"name":"Crown Meadow","lat":52.4802,"lon":1.74762,"postcode":"NR32 2PA","la":"East Suffolk","era":"trad","nn":145,"risk":25,"cat":"green"},{"name":"Dukes Head","lat":52.51581,"lon":1.65147,"postcode":"NR32 5QR","la":"East Suffolk","era":"trad","nn":3259,"risk":69,"cat":"red"},{"name":"Factory Arms","lat":52.47991,"lon":1.7497,"postcode":"NR32 2JY","la":"East Suffolk","era":"trad","nn":145,"risk":25,"cat":"green"},{"name":"First & Last","lat":52.48343,"lon":1.7524,"postcode":"NR32 1SZ","la":"East Suffolk","era":"other","nn":106,"risk":25,"cat":"green"},{"name":"Green Dragon Public House","lat":52.45828,"lon":1.43488,"postcode":"NR35 1EF","la":"East Suffolk","era":"trad","nn":148,"risk":27,"cat":"green"},{"name":"Horse And Groom","lat":52.38192,"lon":1.66476,"postcode":"NR34 7HJ","la":"East Suffolk","era":"trad","nn":415,"risk":47,"cat":"amber"},{"name":"Iconic/Notleys","lat":52.47195,"lon":1.74898,"postcode":"NR33 0AL","la":"East Suffolk","era":"other","nn":30,"risk":24,"cat":"green"},{"name":"Joseph Conrad","lat":52.4739,"lon":1.75006,"postcode":"NR32 1BA","la":"East Suffolk","era":"other","nn":175,"risk":25,"cat":"green"},{"name":"Kitchen And  Bar","lat":52.45663,"lon":1.57245,"postcode":"NR34 9RH","la":"East Suffolk","era":"mod","nn":0,"risk":24,"cat":"green"},{"name":"Lady Of The Lake","lat":52.47291,"lon":1.70984,"postcode":"NR33 9JT","la":"East Suffolk","era":"other","nn":0,"risk":24,"cat":"green"},{"name":"Lake Lothing","lat":52.47647,"lon":1.73639,"postcode":"NR32 2EU","la":"East Suffolk","era":"other","nn":301,"risk":26,"cat":"green"},{"name":"Lifeboatmens Social Club","lat":52.47734,"lon":1.75776,"postcode":"NR32 1XF","la":"East Suffolk","era":"mod","nn":195,"risk":25,"cat":"green"},{"name":"Lord Nelson","lat":52.47624,"lon":1.7455,"postcode":"NR32 2AE","la":"East Suffolk","era":"trad","nn":305,"risk":26,"cat":"green"},{"name":"Lowestoft & Yarmouth RUFC","lat":52.50778,"lon":1.73658,"postcode":"NR32 5HE","la":"East Suffolk","era":"other","nn":1138,"risk":54,"cat":"amber"},{"name":"Lowestoft Ex Servicemans Club","lat":52.47762,"lon":1.75197,"postcode":"NR32 1NL","la":"East Suffolk","era":"other","nn":164,"risk":25,"cat":"green"},{"name":"Lowestoft Haven Marina Cruising Club","lat":52.4722,"lon":1.72093,"postcode":"NR33 9NB","la":"East Suffolk","era":"other","nn":0,"risk":24,"cat":"green"},{"name":"Lowestoft Masonic Hall - Bar","lat":52.46089,"lon":1.73025,"postcode":"NR33 7LJ","la":"East Suffolk","era":"trad","nn":357,"risk":26,"cat":"green"},{"name":"Lowestoft Telecom Social Club","lat":52.47546,"lon":1.74981,"postcode":"NR32 1QP","la":"East Suffolk","era":"mod","nn":175,"risk":25,"cat":"green"},{"name":"Norman Warrior","lat":52.48582,"lon":1.7327,"postcode":"NR32 2RB","la":"East Suffolk","era":"other","nn":860,"risk":47,"cat":"amber"},{"name":"Oddfellows Arms","lat":52.45157,"lon":1.73354,"postcode":"NR33 7AU","la":"East Suffolk","era":"trad","nn":308,"risk":28,"cat":"green"},{"name":"Ole Frank","lat":52.4849,"lon":1.71991,"postcode":"NR32 3DQ","la":"East Suffolk","era":"other","nn":872,"risk":50,"cat":"amber"},{"name":"Oxford Arms","lat":52.48509,"lon":1.75007,"postcode":"NR32 1TN","la":"East Suffolk","era":"trad","nn":244,"risk":25,"cat":"green"},{"name":"Pot Black Club","lat":52.46795,"lon":1.74592,"postcode":"NR33 0QJ","la":"East Suffolk","era":"other","nn":112,"risk":25,"cat":"green"},{"name":"Rookery Park Golf Club","lat":52.4571,"lon":1.67924,"postcode":"NR33 8HJ","la":"East Suffolk","era":"other","nn":456,"risk":47,"cat":"amber"},{"name":"Royal Falcon Hotel","lat":52.48372,"lon":1.75661,"postcode":"NR32 1HY","la":"East Suffolk","era":"trad","nn":205,"risk":25,"cat":"green"},{"name":"Sailors Home","lat":52.4128,"lon":1.72654,"postcode":"NR33 7SB","la":"East Suffolk","era":"other","nn":4337,"risk":77,"cat":"red"},{"name":"Sports Bar @ The Claremont","lat":52.4666,"lon":1.74421,"postcode":"NR33 0BS","la":"East Suffolk","era":"mod","nn":81,"risk":24,"cat":"green"},{"name":"The Angel Inn","lat":52.35564,"lon":1.61996,"postcode":"NR34 8RL","la":"East Suffolk","era":"trad","nn":3854,"risk":73,"cat":"red"},{"name":"The Bear And Bells","lat":52.45965,"lon":1.56309,"postcode":"NR34 9AP","la":"East Suffolk","era":"other","nn":77,"risk":24,"cat":"green"},{"name":"The Carlton Public House","lat":52.45658,"lon":1.73393,"postcode":"NR33 0LF","la":"East Suffolk","era":"other","nn":205,"risk":25,"cat":"green"},{"name":"The Chequers Inn","lat":52.45699,"lon":1.43886,"postcode":"NR35 1HD","la":"East Suffolk","era":"trad","nn":178,"risk":28,"cat":"green"},{"name":"The Club @ 2 London Road","lat":52.45442,"lon":1.56399,"postcode":"NR34 9TZ","la":"East Suffolk","era":"other","nn":581,"risk":28,"cat":"green"},{"name":"The Commodore","lat":52.47635,"lon":1.71089,"postcode":"NR32 3NE","la":"East Suffolk","era":"other","nn":107,"risk":25,"cat":"green"},{"name":"The Crown","lat":52.45556,"lon":1.68548,"postcode":"NR33 8HL","la":"East Suffolk","era":"trad","nn":456,"risk":47,"cat":"amber"},{"name":"The Drifter Public House","lat":52.46554,"lon":1.74316,"postcode":"NR33 0BE","la":"East Suffolk","era":"other","nn":137,"risk":25,"cat":"green"},{"name":"The Edge Of Town","lat":52.48483,"lon":1.7542,"postcode":"NR32 1SP","la":"East Suffolk","era":"other","nn":197,"risk":25,"cat":"green"},{"name":"The Fighting Cocks","lat":52.46393,"lon":1.73195,"postcode":"NR33 0NA","la":"East Suffolk","era":"other","nn":198,"risk":25,"cat":"green"},{"name":"The Flying Dutchman","lat":52.46877,"lon":1.70732,"postcode":"NR33 8QS","la":"East Suffolk","era":"other","nn":491,"risk":27,"cat":"green"},{"name":"The Fox Inn","lat":52.40915,"lon":1.57788,"postcode":"NR34 8DD","la":"East Suffolk","era":"trad","nn":4187,"risk":76,"cat":"red"},{"name":"The King Alfred","lat":52.46293,"lon":1.70262,"postcode":"NR33 8PB","la":"East Suffolk","era":"trad","nn":723,"risk":46,"cat":"amber"},{"name":"The Lowestoft Players Ltd","lat":52.47623,"lon":1.75553,"postcode":"NR32 1DH","la":"East Suffolk","era":"other","nn":184,"risk":25,"cat":"green"},{"name":"The Mariners Rest","lat":52.4789,"lon":1.73836,"postcode":"NR32 2HA","la":"East Suffolk","era":"other","nn":301,"risk":26,"cat":"green"},{"name":"The Mayfair","lat":52.45726,"lon":1.43627,"postcode":"NR35 1EE","la":"East Suffolk","era":"other","nn":53,"risk":27,"cat":"green"},{"name":"The Oak Tavern","lat":52.48294,"lon":1.75106,"postcode":"NR32 1SQ","la":"East Suffolk","era":"trad","nn":106,"risk":25,"cat":"green"},{"name":"The Old Red House","lat":52.44877,"lon":1.69578,"postcode":"NR33 8JP","la":"East Suffolk","era":"other","nn":266,"risk":46,"cat":"amber"},{"name":"The Plough","lat":52.51743,"lon":1.70901,"postcode":"NR32 5AN","la":"East Suffolk","era":"trad","nn":2047,"risk":61,"cat":"red"},{"name":"The Plough And Sail","lat":52.46726,"lon":1.74472,"postcode":"NR33 0BB","la":"East Suffolk","era":"trad","nn":81,"risk":24,"cat":"green"},{"name":"The Ship Inn","lat":52.45365,"lon":1.72628,"postcode":"NR33 7HW","la":"East Suffolk","era":"trad","nn":316,"risk":26,"cat":"green"},{"name":"The Three Horseshoes","lat":52.44759,"lon":1.62571,"postcode":"NR34 7PH","la":"East Suffolk","era":"trad","nn":3747,"risk":73,"cat":"red"},{"name":"The Village Maid","lat":52.53234,"lon":1.69125,"postcode":"NR32 5LP","la":"East Suffolk","era":"other","nn":2047,"risk":61,"cat":"red"},{"name":"The Waveney","lat":52.47291,"lon":1.70984,"postcode":"NR33 9JT","la":"East Suffolk","era":"other","nn":0,"risk":24,"cat":"green"},{"name":"The Welcome","lat":52.47773,"lon":1.75438,"postcode":"NR32 1HB","la":"East Suffolk","era":"other","nn":164,"risk":25,"cat":"green"},{"name":"The White Horse","lat":52.51611,"lon":1.74633,"postcode":"NR32 5HP","la":"East Suffolk","era":"trad","nn":1138,"risk":54,"cat":"amber"},{"name":"The Wolf Inn","lat":52.47605,"lon":1.7124,"postcode":"NR32 3LN","la":"East Suffolk","era":"trad","nn":107,"risk":25,"cat":"green"},{"name":"Three Tuns Hotel","lat":52.45679,"lon":1.43624,"postcode":"NR35 1AG","la":"East Suffolk","era":"other","nn":53,"risk":27,"cat":"green"},{"name":"Tramway Hotel","lat":52.45384,"lon":1.73093,"postcode":"NR33 7AA","la":"East Suffolk","era":"trad","nn":308,"risk":26,"cat":"green"},{"name":"Triangle Tavern","lat":52.48024,"lon":1.75508,"postcode":"NR32 1QA","la":"East Suffolk","era":"other","nn":283,"risk":26,"cat":"green"},{"name":"Trowel & Hammer","lat":52.45526,"lon":1.73604,"postcode":"NR33 0JS","la":"East Suffolk","era":"other","nn":205,"risk":25,"cat":"green"},{"name":"Uplands Community Centre","lat":52.45688,"lon":1.70719,"postcode":"NR33 8LJ","la":"East Suffolk","era":"other","nn":741,"risk":49,"cat":"amber"},{"name":"Volunteer","lat":52.47571,"lon":1.75248,"postcode":"NR32 1ET","la":"East Suffolk","era":"other","nn":183,"risk":25,"cat":"green"},{"name":"Waveney & Oulton Broad Yacht Club","lat":52.47363,"lon":1.70677,"postcode":"NR33 9JR","la":"East Suffolk","era":"other","nn":223,"risk":25,"cat":"green"},{"name":"Waveney Cue Club","lat":52.46417,"lon":1.56406,"postcode":"NR34 9BB","la":"East Suffolk","era":"other","nn":117,"risk":27,"cat":"green"},{"name":"Arcadian Club","lat":52.57394,"lon":1.72577,"postcode":"NR31 6SH","la":"Great Yarmouth","era":"other","nn":276,"risk":28,"cat":"green"},{"name":"Bar 37 - Art Space","lat":52.60396,"lon":1.72967,"postcode":"NR30 2PN","la":"Great Yarmouth","era":"mod","nn":28,"risk":26,"cat":"green"},{"name":"Bar One","lat":52.57452,"lon":1.7299,"postcode":"NR31 6DA","la":"Great Yarmouth","era":"mod","nn":83,"risk":27,"cat":"green"},{"name":"Belle Vue Inn","lat":52.57162,"lon":1.73249,"postcode":"NR31 6PJ","la":"Great Yarmouth","era":"trad","nn":291,"risk":28,"cat":"green"},{"name":"Blackfriars Tavern","lat":52.59919,"lon":1.72986,"postcode":"NR30 3BZ","la":"Great Yarmouth","era":"other","nn":182,"risk":27,"cat":"green"},{"name":"Broadland Sports Club","lat":52.66554,"lon":1.63191,"postcode":"NR29 3AE","la":"Great Yarmouth","era":"other","nn":1102,"risk":56,"cat":"amber"},{"name":"Buddha Club","lat":52.60363,"lon":1.73577,"postcode":"NR30 2EN","la":"Great Yarmouth","era":"other","nn":95,"risk":27,"cat":"green"},{"name":"Caister Bowls Club","lat":52.64951,"lon":1.7296,"postcode":"NR30 5ES","la":"Great Yarmouth","era":"other","nn":227,"risk":28,"cat":"green"},{"name":"California Tavern","lat":52.67144,"lon":1.72239,"postcode":"NR29 3QW","la":"Great Yarmouth","era":"other","nn":627,"risk":50,"cat":"amber"},{"name":"Club Oasis","lat":52.67423,"lon":1.71432,"postcode":"NR29 3QL","la":"Great Yarmouth","era":"other","nn":627,"risk":50,"cat":"amber"},{"name":"Coach and Horses Public House","lat":52.61391,"lon":1.72731,"postcode":"NR30 1DB","la":"Great Yarmouth","era":"trad","nn":166,"risk":27,"cat":"green"},{"name":"Conservative Club","lat":52.57695,"lon":1.72906,"postcode":"NR31 6PE","la":"Great Yarmouth","era":"other","nn":150,"risk":27,"cat":"green"},{"name":"Darrin Winter","lat":52.7148,"lon":1.69221,"postcode":"NR29 4BN","la":"Great Yarmouth","era":"other","nn":1603,"risk":60,"cat":"amber"},{"name":"David & Vanessa Staff","lat":52.60888,"lon":1.72593,"postcode":"NR30 1LY","la":"Great Yarmouth","era":"other","nn":181,"risk":27,"cat":"green"},{"name":"Dukes Head","lat":52.60745,"lon":1.72365,"postcode":"NR30 1HP","la":"Great Yarmouth","era":"trad","nn":107,"risk":27,"cat":"green"},{"name":"Eastern Beach Caravan Park","lat":52.6491,"lon":1.73289,"postcode":"NR30 5HH","la":"Great Yarmouth","era":"other","nn":227,"risk":28,"cat":"green"},{"name":"Fallen Angels","lat":52.60949,"lon":1.73646,"postcode":"NR30 2DJ","la":"Great Yarmouth","era":"trad","nn":73,"risk":26,"cat":"green"},{"name":"Feathers","lat":52.60785,"lon":1.72903,"postcode":"NR30 2BG","la":"Great Yarmouth","era":"other","nn":102,"risk":27,"cat":"green"},{"name":"Feathers Gorleston","lat":52.57853,"lon":1.72788,"postcode":"NR31 6RE","la":"Great Yarmouth","era":"other","nn":155,"risk":27,"cat":"green"},{"name":"Gabby","lat":52.60839,"lon":1.72337,"postcode":"NR30 1HR","la":"Great Yarmouth","era":"other","nn":0,"risk":26,"cat":"green"},{"name":"Galante Cafe Restaurant and Bar","lat":52.60406,"lon":1.73345,"postcode":"NR30 2JT","la":"Great Yarmouth","era":"other","nn":164,"risk":27,"cat":"green"},{"name":"Gate","lat":52.64908,"lon":1.72476,"postcode":"NR30 5EL","la":"Great Yarmouth","era":"other","nn":0,"risk":26,"cat":"green"},{"name":"Golfers Arms Pubs & Bars Ltd","lat":52.62068,"lon":1.73374,"postcode":"NR30 4LU","la":"Great Yarmouth","era":"trad","nn":369,"risk":29,"cat":"green"},{"name":"Gorleston Social Club","lat":52.58115,"lon":1.72902,"postcode":"NR31 6RQ","la":"Great Yarmouth","era":"mod","nn":92,"risk":27,"cat":"green"},{"name":"Great Yarmouth & Caister Golf","lat":52.63128,"lon":1.72462,"postcode":"NR30 5TD","la":"Great Yarmouth","era":"other","nn":1014,"risk":56,"cat":"amber"},{"name":"Hemsby Sports & Social Club","lat":52.6948,"lon":1.68658,"postcode":"NR29 4LE","la":"Great Yarmouth","era":"mod","nn":265,"risk":45,"cat":"amber"},{"name":"Kevill Arms","lat":52.57943,"lon":1.72431,"postcode":"NR31 6LS","la":"Great Yarmouth","era":"trad","nn":261,"risk":28,"cat":"green"},{"name":"Kings Arms","lat":52.6476,"lon":1.72495,"postcode":"NR30 5AQ","la":"Great Yarmouth","era":"trad","nn":165,"risk":27,"cat":"green"},{"name":"Kings Head","lat":52.66008,"lon":1.67119,"postcode":"NR29 3HY","la":"Great Yarmouth","era":"trad","nn":1987,"risk":62,"cat":"red"},{"name":"Lacon Arms","lat":52.6156,"lon":1.72558,"postcode":"NR30 1QJ","la":"Great Yarmouth","era":"trad","nn":120,"risk":27,"cat":"green"},{"name":"Lichfield Arms Public House","lat":52.60078,"lon":1.72119,"postcode":"NR31 0AB","la":"Great Yarmouth","era":"trad","nn":471,"risk":29,"cat":"green"},{"name":"Long Beach Caravan Park including Dolphin Club","lat":52.70189,"lon":1.70277,"postcode":"NR29 4JD","la":"Great Yarmouth","era":"other","nn":689,"risk":36,"cat":"amber"},{"name":"Long Johns Showbar","lat":52.60826,"lon":1.73796,"postcode":"NR30 2EH","la":"Great Yarmouth","era":"other","nn":0,"risk":26,"cat":"green"},{"name":"Marina Bar","lat":52.5413,"lon":1.7319,"postcode":"NR31 9BW","la":"Great Yarmouth","era":"other","nn":335,"risk":46,"cat":"amber"},{"name":"Mavvys","lat":52.60448,"lon":1.73589,"postcode":"NR30 2EN","la":"Great Yarmouth","era":"other","nn":27,"risk":26,"cat":"green"},{"name":"MB Funhouse","lat":52.69577,"lon":1.70427,"postcode":"NR29 4HS","la":"Great Yarmouth","era":"other","nn":208,"risk":27,"cat":"green"},{"name":"Merlin's 147 Snooker & Pool Cl","lat":52.60697,"lon":1.73546,"postcode":"NR30 2HG","la":"Great Yarmouth","era":"other","nn":113,"risk":27,"cat":"green"},{"name":"Oddfellows Arms Public House","lat":52.57369,"lon":1.72986,"postcode":"NR31 6DG","la":"Great Yarmouth","era":"trad","nn":92,"risk":27,"cat":"green"},{"name":"Oliver Twist","lat":52.60901,"lon":1.7301,"postcode":"NR30 2DX","la":"Great Yarmouth","era":"other","nn":148,"risk":27,"cat":"green"},{"name":"Pier Tavern","lat":52.60826,"lon":1.73796,"postcode":"NR30 2EH","la":"Great Yarmouth","era":"other","nn":0,"risk":26,"cat":"green"},{"name":"Prince Regent Public House","lat":52.60766,"lon":1.73423,"postcode":"NR30 2AJ","la":"Great Yarmouth","era":"trad","nn":113,"risk":27,"cat":"green"},{"name":"Pub On The Shrubs Ltd","lat":52.57967,"lon":1.71065,"postcode":"NR31 8ET","la":"Great Yarmouth","era":"other","nn":923,"risk":50,"cat":"amber"},{"name":"Rich Food","lat":52.58291,"lon":1.72896,"postcode":"NR31 6RR","la":"Great Yarmouth","era":"other","nn":0,"risk":26,"cat":"green"},{"name":"Rollesby Broads Sailing Club","lat":52.67746,"lon":1.64672,"postcode":"NR29 3LT","la":"Great Yarmouth","era":"other","nn":458,"risk":49,"cat":"amber"},{"name":"Rumbold Arms","lat":52.59582,"lon":1.72486,"postcode":"NR31 0JX","la":"Great Yarmouth","era":"trad","nn":505,"risk":29,"cat":"green"},{"name":"Seadell Club","lat":52.69405,"lon":1.7055,"postcode":"NR29 4JE","la":"Great Yarmouth","era":"other","nn":140,"risk":27,"cat":"green"},{"name":"Short Blue","lat":52.58291,"lon":1.72896,"postcode":"NR31 6RR","la":"Great Yarmouth","era":"other","nn":0,"risk":26,"cat":"green"},{"name":"Smudgers Bar","lat":52.61382,"lon":1.73551,"postcode":"NR30 1EY","la":"Great Yarmouth","era":"other","nn":461,"risk":29,"cat":"green"},{"name":"Spencers Sports Bar","lat":52.60692,"lon":1.72877,"postcode":"NR30 2AB","la":"Great Yarmouth","era":"other","nn":90,"risk":27,"cat":"green"},{"name":"Sportsmans Arms","lat":52.61547,"lon":1.72734,"postcode":"NR30 1BN","la":"Great Yarmouth","era":"trad","nn":120,"risk":27,"cat":"green"},{"name":"St Johns Head","lat":52.60805,"lon":1.72231,"postcode":"NR30 1JB","la":"Great Yarmouth","era":"trad","nn":81,"risk":26,"cat":"green"},{"name":"The Albion","lat":52.60664,"lon":1.7331,"postcode":"NR30 2HZ","la":"Great Yarmouth","era":"other","nn":137,"risk":27,"cat":"green"},{"name":"The Avenue Pub","lat":52.624,"lon":1.73367,"postcode":"NR30 4BW","la":"Great Yarmouth","era":"other","nn":369,"risk":49,"cat":"amber"},{"name":"The Bell","lat":52.69644,"lon":1.68943,"postcode":"NR29 4EU","la":"Great Yarmouth","era":"other","nn":265,"risk":45,"cat":"amber"},{"name":"The Bermuda Club","lat":52.69168,"lon":1.69744,"postcode":"NR29 4NN","la":"Great Yarmouth","era":"other","nn":572,"risk":30,"cat":"green"},{"name":"The Blue Oyster","lat":52.6042,"lon":1.72981,"postcode":"NR30 2PN","la":"Great Yarmouth","era":"other","nn":28,"risk":26,"cat":"green"},{"name":"The Boat House","lat":52.67611,"lon":1.65313,"postcode":"NR29 3LP","la":"Great Yarmouth","era":"other","nn":458,"risk":49,"cat":"amber"},{"name":"The Centurion","lat":52.66063,"lon":1.72055,"postcode":"NR30 5NJ","la":"Great Yarmouth","era":"other","nn":1209,"risk":57,"cat":"amber"},{"name":"The Cremorne Tavern","lat":52.60013,"lon":1.73207,"postcode":"NR30 3HJ","la":"Great Yarmouth","era":"other","nn":104,"risk":27,"cat":"green"},{"name":"The Dock Tavern","lat":52.57911,"lon":1.72997,"postcode":"NR31 6PY","la":"Great Yarmouth","era":"other","nn":155,"risk":27,"cat":"green"},{"name":"The Duke of Wellington","lat":52.60262,"lon":1.73522,"postcode":"NR30 3AA","la":"Great Yarmouth","era":"trad","nn":118,"risk":27,"cat":"green"},{"name":"The Farmers","lat":52.67486,"lon":1.68775,"postcode":"NR29 3RP","la":"Great Yarmouth","era":"other","nn":1793,"risk":61,"cat":"red"},{"name":"The Ferry Inn","lat":52.63826,"lon":1.59152,"postcode":"NR29 3EX","la":"Great Yarmouth","era":"trad","nn":1934,"risk":62,"cat":"red"},{"name":"The Fishermans Inn","lat":52.57856,"lon":1.65165,"postcode":"NR31 9PZ","la":"Great Yarmouth","era":"trad","nn":1157,"risk":57,"cat":"amber"},{"name":"The Gate","lat":52.64908,"lon":1.72476,"postcode":"NR30 5EL","la":"Great Yarmouth","era":"other","nn":0,"risk":26,"cat":"green"},{"name":"The Grayling","lat":52.60077,"lon":1.71422,"postcode":"NR31 0GB","la":"Great Yarmouth","era":"other","nn":471,"risk":29,"cat":"green"},{"name":"The Jube","lat":52.60895,"lon":1.73585,"postcode":"NR30 2DG","la":"Great Yarmouth","era":"other","nn":73,"risk":26,"cat":"green"},{"name":"The Kings Arms","lat":52.61247,"lon":1.72662,"postcode":"NR30 1BG","la":"Great Yarmouth","era":"trad","nn":166,"risk":27,"cat":"green"},{"name":"The Kings Arms","lat":52.6687,"lon":1.61641,"postcode":"NR29 3AG","la":"Great Yarmouth","era":"trad","nn":1102,"risk":56,"cat":"amber"},{"name":"The Kings Arms Public House","lat":52.70391,"lon":1.63511,"postcode":"NR29 4PL","la":"Great Yarmouth","era":"trad","nn":3043,"risk":70,"cat":"red"},{"name":"The Kings Head","lat":52.68927,"lon":1.71035,"postcode":"NR29 4JL","la":"Great Yarmouth","era":"trad","nn":340,"risk":28,"cat":"green"},{"name":"The Lacon Arms","lat":52.69446,"lon":1.70746,"postcode":"NR29 4JG","la":"Great Yarmouth","era":"trad","nn":140,"risk":27,"cat":"green"},{"name":"The Lady Haven","lat":52.60673,"lon":1.71788,"postcode":"NR31 0AA","la":"Great Yarmouth","era":"other","nn":208,"risk":27,"cat":"green"},{"name":"The Lion","lat":52.6098,"lon":1.73389,"postcode":"NR30 1DX","la":"Great Yarmouth","era":"trad","nn":162,"risk":27,"cat":"green"},{"name":"The Lion Inn Public House","lat":52.68879,"lon":1.55489,"postcode":"NR29 3AP","la":"Great Yarmouth","era":"trad","nn":2719,"risk":67,"cat":"red"},{"name":"The Lord Nelson","lat":52.58349,"lon":1.72473,"postcode":"NR31 8BS","la":"Great Yarmouth","era":"trad","nn":293,"risk":28,"cat":"green"},{"name":"The Marine Hotel & Public House","lat":52.60143,"lon":1.73567,"postcode":"NR30 3AH","la":"Great Yarmouth","era":"other","nn":136,"risk":27,"cat":"green"},{"name":"The New Entertainer","lat":52.57518,"lon":1.72931,"postcode":"NR31 6PG","la":"Great Yarmouth","era":"other","nn":83,"risk":27,"cat":"green"},{"name":"The Queens Head","lat":52.58715,"lon":1.66132,"postcode":"NR31 9QQ","la":"Great Yarmouth","era":"trad","nn":1157,"risk":57,"cat":"amber"},{"name":"The Recruit","lat":52.60142,"lon":1.73018,"postcode":"NR30 3HB","la":"Great Yarmouth","era":"other","nn":151,"risk":27,"cat":"green"},{"name":"The Red Herring","lat":52.60106,"lon":1.73233,"postcode":"NR30 3HQ","la":"Great Yarmouth","era":"other","nn":104,"risk":27,"cat":"green"},{"name":"The Ship","lat":52.64602,"lon":1.73238,"postcode":"NR30 5HA","la":"Great Yarmouth","era":"trad","nn":345,"risk":28,"cat":"green"},{"name":"The Sun Inn","lat":52.57408,"lon":1.69919,"postcode":"NR31 8PS","la":"Great Yarmouth","era":"trad","nn":993,"risk":53,"cat":"amber"},{"name":"The Tramways","lat":52.57721,"lon":1.72689,"postcode":"NR31 6SG","la":"Great Yarmouth","era":"trad","nn":150,"risk":27,"cat":"green"},{"name":"The Turnstone","lat":52.5395,"lon":1.72792,"postcode":"NR31 9BH","la":"Great Yarmouth","era":"other","nn":335,"risk":46,"cat":"amber"},{"name":"The White Hart","lat":52.53929,"lon":1.72188,"postcode":"NR31 9AH","la":"Great Yarmouth","era":"trad","nn":409,"risk":46,"cat":"amber"},{"name":"The William Adams","lat":52.58047,"lon":1.72823,"postcode":"NR31 6RG","la":"Great Yarmouth","era":"other","nn":92,"risk":27,"cat":"green"},{"name":"Theatre Tavern","lat":52.60727,"lon":1.72757,"postcode":"NR30 2BE","la":"Great Yarmouth","era":"other","nn":90,"risk":27,"cat":"green"},{"name":"Ti's Bar & Grill","lat":52.69028,"lon":1.70559,"postcode":"NR29 4NW","la":"Great Yarmouth","era":"mod","nn":340,"risk":28,"cat":"green"},{"name":"Tombstone Saloon","lat":52.60839,"lon":1.72337,"postcode":"NR30 1HR","la":"Great Yarmouth","era":"other","nn":0,"risk":26,"cat":"green"},{"name":"Tower Bar","lat":52.60463,"lon":1.73621,"postcode":"NR30 2EN","la":"Great Yarmouth","era":"other","nn":27,"risk":26,"cat":"green"},{"name":"Troll Cart","lat":52.60749,"lon":1.73042,"postcode":"NR30 2AF","la":"Great Yarmouth","era":"other","nn":102,"risk":27,"cat":"green"},{"name":"Uptown Bar","lat":52.60594,"lon":1.72802,"postcode":"NR30 2PA","la":"Great Yarmouth","era":"other","nn":120,"risk":27,"cat":"green"},{"name":"Windmill Tavern","lat":52.60489,"lon":1.71733,"postcode":"NR31 0DQ","la":"Great Yarmouth","era":"trad","nn":208,"risk":27,"cat":"green"},{"name":"The Jolly Farmers","lat":52.90935,"lon":0.75519,"postcode":"NR21 9JW","la":"King's Lynn and West Norfolk","era":"other","nn":2823,"risk":69,"cat":"red"},{"name":"The Ostrich Inn Ltd","lat":52.88507,"lon":0.76744,"postcode":"NR21 9PB","la":"King's Lynn and West Norfolk","era":"trad","nn":2823,"risk":69,"cat":"red"},{"name":"Alby Horse Shoes Inn","lat":52.84424,"lon":1.27658,"postcode":"NR11 7QE","la":"North Norfolk","era":"trad","nn":1763,"risk":63,"cat":"red"},{"name":"Banningham Crown","lat":52.81837,"lon":1.289,"postcode":"NR11 7DY","la":"North Norfolk","era":"trad","nn":0,"risk":48,"cat":"amber"},{"name":"Bernies Bar","lat":52.93617,"lon":1.27223,"postcode":"NR27 9PA","la":"North Norfolk","era":"other","nn":30,"risk":33,"cat":"amber"},{"name":"Bernies Members Club","lat":52.9361,"lon":1.27289,"postcode":"NR27 9PA","la":"North Norfolk","era":"other","nn":45,"risk":34,"cat":"amber"},{"name":"Black Swan","lat":52.82061,"lon":1.38749,"postcode":"NR28 9BX","la":"North Norfolk","era":"trad","nn":128,"risk":29,"cat":"green"},{"name":"Blue Boar Inn","lat":52.8083,"lon":0.90861,"postcode":"NR21 0DX","la":"North Norfolk","era":"trad","nn":0,"risk":48,"cat":"amber"},{"name":"Bluebell Public House","lat":52.82805,"lon":1.40265,"postcode":"NR28 0RA","la":"North Norfolk","era":"other","nn":887,"risk":54,"cat":"amber"},{"name":"Bowling Green Inn","lat":52.95085,"lon":0.85475,"postcode":"NR23 1JB","la":"North Norfolk","era":"trad","nn":166,"risk":32,"cat":"amber"},{"name":"Bradfield Cricket Club","lat":52.85531,"lon":1.37091,"postcode":"NR28 0QW","la":"North Norfolk","era":"other","nn":1507,"risk":61,"cat":"red"},{"name":"Broadside Clubhouse","lat":52.76812,"lon":1.52112,"postcode":"NR12 9PN","la":"North Norfolk","era":"other","nn":516,"risk":37,"cat":"amber"},{"name":"Cley Social Club","lat":52.95221,"lon":1.04447,"postcode":"NR25 7RJ","la":"North Norfolk","era":"mod","nn":169,"risk":34,"cat":"amber"},{"name":"Cliff Top Inn","lat":52.85689,"lon":1.47086,"postcode":"NR12 0JB","la":"North Norfolk","era":"trad","nn":2050,"risk":65,"cat":"red"},{"name":"Club KA","lat":52.82063,"lon":1.38543,"postcode":"NR28 9JX","la":"North Norfolk","era":"other","nn":0,"risk":28,"cat":"green"},{"name":"Cooks Taverns Ltd","lat":52.77156,"lon":1.51596,"postcode":"NR12 9AU","la":"North Norfolk","era":"other","nn":73,"risk":46,"cat":"amber"},{"name":"Cromer Social Club","lat":52.9298,"lon":1.29816,"postcode":"NR27 9EH","la":"North Norfolk","era":"mod","nn":126,"risk":32,"cat":"amber"},{"name":"Cross Keys","lat":52.77518,"lon":1.45602,"postcode":"NR28 9PS","la":"North Norfolk","era":"trad","nn":780,"risk":54,"cat":"amber"},{"name":"Crown Inn","lat":52.74044,"lon":1.53457,"postcode":"NR29 5AA","la":"North Norfolk","era":"trad","nn":2463,"risk":68,"cat":"red"},{"name":"Fakenham Conservative Club","lat":52.83003,"lon":0.85053,"postcode":"NR21 8AD","la":"North Norfolk","era":"other","nn":109,"risk":29,"cat":"green"},{"name":"First and Last Pubs Ltd","lat":52.86823,"lon":0.84568,"postcode":"NR21 0LH","la":"North Norfolk","era":"other","nn":2240,"risk":66,"cat":"red"},{"name":"Fishing Boat Public House","lat":52.93591,"lon":1.27122,"postcode":"NR27 9NX","la":"North Norfolk","era":"other","nn":46,"risk":34,"cat":"amber"},{"name":"Fishmonger's Tavern","lat":52.93977,"lon":1.21747,"postcode":"NR26 8AB","la":"North Norfolk","era":"other","nn":473,"risk":32,"cat":"amber"},{"name":"General Townshend Club Ltd","lat":52.82869,"lon":0.84936,"postcode":"NR21 9AW","la":"North Norfolk","era":"other","nn":0,"risk":28,"cat":"green"},{"name":"Golden Fleece","lat":52.95709,"lon":0.85165,"postcode":"NR23 1AH","la":"North Norfolk","era":"trad","nn":316,"risk":33,"cat":"amber"},{"name":"Great Snoring Social Club","lat":52.87465,"lon":0.88984,"postcode":"NR21 0HL","la":"North Norfolk","era":"mod","nn":2403,"risk":68,"cat":"red"},{"name":"Greyhound Inn","lat":52.75484,"lon":1.57026,"postcode":"NR12 0YA","la":"North Norfolk","era":"trad","nn":955,"risk":55,"cat":"amber"},{"name":"Haig Social Club","lat":52.87948,"lon":1.43463,"postcode":"NR11 8BE","la":"North Norfolk","era":"mod","nn":467,"risk":52,"cat":"amber"},{"name":"Hop Inn","lat":52.82166,"lon":1.38585,"postcode":"NR28 9BZ","la":"North Norfolk","era":"trad","nn":56,"risk":29,"cat":"green"},{"name":"Horse and Groom","lat":52.74566,"lon":1.40055,"postcode":"NR12 8AH","la":"North Norfolk","era":"trad","nn":2809,"risk":70,"cat":"red"},{"name":"Kelling Heath Holiday Park","lat":52.92976,"lon":1.15208,"postcode":"NR25 7HW","la":"North Norfolk","era":"other","nn":1682,"risk":63,"cat":"red"},{"name":"Kings Arms","lat":52.95435,"lon":1.01447,"postcode":"NR25 7NQ","la":"North Norfolk","era":"trad","nn":255,"risk":48,"cat":"amber"},{"name":"Kings Arms PH","lat":52.71038,"lon":1.53595,"postcode":"NR29 5QQ","la":"North Norfolk","era":"trad","nn":1712,"risk":63,"cat":"red"},{"name":"Kings Head Cromer","lat":52.93189,"lon":1.30063,"postcode":"NR27 9HG","la":"North Norfolk","era":"trad","nn":135,"risk":32,"cat":"amber"},{"name":"Kings Head Hotel","lat":52.71381,"lon":1.40916,"postcode":"NR12 8UR","la":"North Norfolk","era":"trad","nn":906,"risk":55,"cat":"amber"},{"name":"Kings Head Public House","lat":52.90737,"lon":1.06505,"postcode":"NR25 7AR","la":"North Norfolk","era":"trad","nn":1554,"risk":62,"cat":"red"},{"name":"Langham Bluebell","lat":52.93083,"lon":0.98822,"postcode":"NR25 7BX","la":"North Norfolk","era":"other","nn":2678,"risk":70,"cat":"red"},{"name":"MADRA Sports & Social Club","lat":52.85404,"lon":1.42214,"postcode":"NR28 0RZ","la":"North Norfolk","era":"mod","nn":1957,"risk":64,"cat":"red"},{"name":"Melton Constable Country Club","lat":52.85641,"lon":1.03574,"postcode":"NR24 2DA","la":"North Norfolk","era":"other","nn":2068,"risk":65,"cat":"red"},{"name":"Nelson Head Inn","lat":52.74701,"lon":1.64396,"postcode":"NR29 4AD","la":"North Norfolk","era":"trad","nn":4830,"risk":85,"cat":"red"},{"name":"New Inn","lat":52.70092,"lon":1.46633,"postcode":"NR12 8PF","la":"North Norfolk","era":"trad","nn":602,"risk":52,"cat":"amber"},{"name":"North Walsham Community Centre","lat":52.82067,"lon":1.3896,"postcode":"NR28 9DE","la":"North Norfolk","era":"other","nn":123,"risk":29,"cat":"green"},{"name":"North Walsham Rugby Football Club","lat":52.76867,"lon":1.38317,"postcode":"NR10 5BU","la":"North Norfolk","era":"other","nn":1861,"risk":64,"cat":"red"},{"name":"Norwich Wanderers Cricket Club","lat":52.73786,"lon":1.47396,"postcode":"NR12 8AR","la":"North Norfolk","era":"other","nn":572,"risk":52,"cat":"amber"},{"name":"Ollies Restaurant","lat":52.95428,"lon":0.85237,"postcode":"NR23 1AE","la":"North Norfolk","era":"other","nn":98,"risk":31,"cat":"amber"},{"name":"Orchard Gardens","lat":52.82585,"lon":1.38996,"postcode":"NR28 0DB","la":"North Norfolk","era":"other","nn":485,"risk":32,"cat":"amber"},{"name":"Ordnance Arms","lat":52.80338,"lon":0.94845,"postcode":"NR20 5PF","la":"North Norfolk","era":"trad","nn":2733,"risk":70,"cat":"red"},{"name":"Overstrand Conservative Club","lat":52.91793,"lon":1.34234,"postcode":"NR27 0PW","la":"North Norfolk","era":"other","nn":92,"risk":49,"cat":"amber"},{"name":"Poachers Pocket","lat":52.84497,"lon":1.49417,"postcode":"NR12 0LS","la":"North Norfolk","era":"other","nn":2050,"risk":65,"cat":"red"},{"name":"Pot Black Club","lat":52.82869,"lon":0.84936,"postcode":"NR21 9AW","la":"North Norfolk","era":"other","nn":0,"risk":28,"cat":"green"},{"name":"Red Hart","lat":52.91562,"lon":1.16263,"postcode":"NR25 6AD","la":"North Norfolk","era":"trad","nn":866,"risk":54,"cat":"amber"},{"name":"Red Lion Hotel","lat":52.93137,"lon":1.30245,"postcode":"NR27 9HD","la":"North Norfolk","era":"trad","nn":91,"risk":31,"cat":"amber"},{"name":"Red Lion Lounge","lat":52.83026,"lon":0.8483,"postcode":"NR21 9DN","la":"North Norfolk","era":"other","nn":130,"risk":29,"cat":"green"},{"name":"Reefs Bar","lat":52.78791,"lon":1.60064,"postcode":"NR12 0AL","la":"North Norfolk","era":"other","nn":3976,"risk":79,"cat":"red"},{"name":"Roman Camp Inn","lat":52.91871,"lon":1.25018,"postcode":"NR11 8QD","la":"North Norfolk","era":"trad","nn":2271,"risk":67,"cat":"red"},{"name":"Rossis Leisure Ltd","lat":52.81657,"lon":1.36599,"postcode":"NR28 0JQ","la":"North Norfolk","era":"other","nn":1382,"risk":60,"cat":"amber"},{"name":"Sandy Lane Club","lat":52.81837,"lon":1.289,"postcode":"NR11 7DY","la":"North Norfolk","era":"other","nn":0,"risk":48,"cat":"amber"},{"name":"Saracens Head Inn","lat":52.84435,"lon":1.22235,"postcode":"NR11 7LZ","la":"North Norfolk","era":"trad","nn":2003,"risk":65,"cat":"red"},{"name":"Southrepps Social Club","lat":52.86643,"lon":1.35808,"postcode":"NR11 8UL","la":"North Norfolk","era":"mod","nn":1499,"risk":61,"cat":"red"},{"name":"Stiffkey Red Lion","lat":52.95098,"lon":0.92874,"postcode":"NR23 1AJ","la":"North Norfolk","era":"trad","nn":3897,"risk":78,"cat":"red"},{"name":"Swan Hotel","lat":52.70563,"lon":1.46194,"postcode":"NR12 8AA","la":"North Norfolk","era":"trad","nn":602,"risk":52,"cat":"amber"},{"name":"The Albion","lat":52.93057,"lon":1.30222,"postcode":"NR27 9ES","la":"North Norfolk","era":"other","nn":91,"risk":31,"cat":"amber"},{"name":"The Anchor Inn","lat":52.95489,"lon":0.98654,"postcode":"NR25 7AA","la":"North Norfolk","era":"trad","nn":1872,"risk":64,"cat":"red"},{"name":"The Bell","lat":52.82605,"lon":0.84129,"postcode":"NR21 7LG","la":"North Norfolk","era":"other","nn":562,"risk":32,"cat":"amber"},{"name":"The Bull Inn","lat":52.8942,"lon":0.87456,"postcode":"NR22 6BP","la":"North Norfolk","era":"trad","nn":2403,"risk":68,"cat":"red"},{"name":"The Butchers Arms","lat":52.80006,"lon":1.4792,"postcode":"NR12 9JG","la":"North Norfolk","era":"trad","nn":3176,"risk":73,"cat":"red"},{"name":"The Carpenters Arms","lat":52.91976,"lon":0.88549,"postcode":"NR23 1PF","la":"North Norfolk","era":"trad","nn":2935,"risk":71,"cat":"red"},{"name":"The Chequers Inn","lat":52.91722,"lon":0.94805,"postcode":"NR21 0AL","la":"North Norfolk","era":"trad","nn":3089,"risk":72,"cat":"red"},{"name":"The Crown","lat":52.94506,"lon":1.21318,"postcode":"NR26 8BQ","la":"North Norfolk","era":"trad","nn":56,"risk":29,"cat":"green"},{"name":"The Crown at Trunch","lat":52.86218,"lon":1.3963,"postcode":"NR28 0AH","la":"North Norfolk","era":"trad","nn":78,"risk":49,"cat":"amber"},{"name":"The Crown Smallburgh","lat":52.76829,"lon":1.45383,"postcode":"NR12 9AD","la":"North Norfolk","era":"trad","nn":780,"risk":54,"cat":"amber"},{"name":"The Dog Inn","lat":52.7021,"lon":1.51454,"postcode":"NR29 5NY","la":"North Norfolk","era":"trad","nn":1712,"risk":63,"cat":"red"},{"name":"The Dukes Head","lat":52.82766,"lon":1.13525,"postcode":"NR11 6QG","la":"North Norfolk","era":"trad","nn":2915,"risk":71,"cat":"red"},{"name":"The Dun Cow","lat":52.95123,"lon":1.08541,"postcode":"NR25 7XA","la":"North Norfolk","era":"other","nn":2670,"risk":69,"cat":"red"},{"name":"The Feathers Hotel","lat":52.90581,"lon":1.08927,"postcode":"NR25 6BW","la":"North Norfolk","era":"other","nn":86,"risk":49,"cat":"amber"},{"name":"The Foundry Arms","lat":52.90428,"lon":1.33802,"postcode":"NR27 0AA","la":"North Norfolk","era":"other","nn":1477,"risk":61,"cat":"red"},{"name":"The George and Dragon","lat":52.9533,"lon":1.04273,"postcode":"NR25 7RN","la":"North Norfolk","era":"trad","nn":169,"risk":47,"cat":"amber"},{"name":"The Globe","lat":52.95343,"lon":0.85199,"postcode":"NR23 1EU","la":"North Norfolk","era":"other","nn":98,"risk":31,"cat":"amber"},{"name":"The Goat Inn","lat":52.76986,"lon":1.33506,"postcode":"NR10 5DH","la":"North Norfolk","era":"trad","nn":1832,"risk":64,"cat":"red"},{"name":"The Grebe","lat":52.77198,"lon":1.51512,"postcode":"NR12 9BB","la":"North Norfolk","era":"other","nn":73,"risk":46,"cat":"amber"},{"name":"The Harnser","lat":52.76669,"lon":1.53023,"postcode":"NR12 9QA","la":"North Norfolk","era":"other","nn":633,"risk":53,"cat":"amber"},{"name":"The Hill House Inn","lat":52.82488,"lon":1.53217,"postcode":"NR12 0PW","la":"North Norfolk","era":"other","nn":2889,"risk":71,"cat":"red"},{"name":"The Hunny Bell Public House","lat":52.87366,"lon":1.07566,"postcode":"NR24 2AA","la":"North Norfolk","era":"other","nn":2121,"risk":66,"cat":"red"},{"name":"The Ingham Swan","lat":52.77919,"lon":1.5433,"postcode":"NR12 9AB","la":"North Norfolk","era":"trad","nn":1645,"risk":62,"cat":"red"},{"name":"The Jolly Farmers","lat":52.77724,"lon":1.35941,"postcode":"NR10 5DW","la":"North Norfolk","era":"other","nn":1832,"risk":64,"cat":"red"},{"name":"The Kings Arms Hotel","lat":52.82063,"lon":1.38543,"postcode":"NR28 9JX","la":"North Norfolk","era":"trad","nn":0,"risk":28,"cat":"green"},{"name":"The Kings Head","lat":52.90561,"lon":1.08804,"postcode":"NR25 6BN","la":"North Norfolk","era":"trad","nn":86,"risk":49,"cat":"amber"},{"name":"The Limes","lat":52.82868,"lon":0.84842,"postcode":"NR21 9AZ","la":"North Norfolk","era":"other","nn":63,"risk":29,"cat":"green"},{"name":"The Lobster","lat":52.94477,"lon":1.21241,"postcode":"NR26 8JP","la":"North Norfolk","era":"other","nn":59,"risk":29,"cat":"green"},{"name":"The Morley Club","lat":52.94038,"lon":1.21048,"postcode":"NR26 8RS","la":"North Norfolk","era":"other","nn":78,"risk":29,"cat":"green"},{"name":"The Norada Grill and Tavern","lat":52.71035,"lon":1.58105,"postcode":"NR29 5JD","la":"North Norfolk","era":"other","nn":2976,"risk":72,"cat":"red"},{"name":"The Peasants Tavern","lat":52.8219,"lon":1.38511,"postcode":"NR28 9BZ","la":"North Norfolk","era":"other","nn":56,"risk":29,"cat":"green"},{"name":"The Pigs","lat":52.86592,"lon":1.11569,"postcode":"NR24 2RL","la":"North Norfolk","era":"other","nn":2822,"risk":71,"cat":"red"},{"name":"The Pleasure Boat","lat":52.74625,"lon":1.56986,"postcode":"NR12 0YW","la":"North Norfolk","era":"other","nn":955,"risk":55,"cat":"amber"},{"name":"The Rampant Horse Inn","lat":52.83093,"lon":0.84989,"postcode":"NR21 8BS","la":"North Norfolk","era":"trad","nn":109,"risk":29,"cat":"green"},{"name":"The Robin Hood","lat":52.94316,"lon":1.21063,"postcode":"NR26 8RE","la":"North Norfolk","era":"other","nn":94,"risk":29,"cat":"green"},{"name":"The Royal British Legion","lat":52.95276,"lon":1.02123,"postcode":"NR25 7NU","la":"North Norfolk","era":"trad","nn":306,"risk":48,"cat":"amber"},{"name":"The Running Horse","lat":52.84922,"lon":0.85673,"postcode":"NR21 8SX","la":"North Norfolk","era":"trad","nn":2084,"risk":65,"cat":"red"},{"name":"The Sheringham Trawler","lat":52.94397,"lon":1.21101,"postcode":"NR26 8DT","la":"North Norfolk","era":"other","nn":94,"risk":29,"cat":"green"},{"name":"The Ship","lat":52.94308,"lon":1.14017,"postcode":"NR25 7SZ","la":"North Norfolk","era":"trad","nn":1682,"risk":63,"cat":"red"},{"name":"The Ship Inn","lat":52.87669,"lon":1.43983,"postcode":"NR11 8BQ","la":"North Norfolk","era":"trad","nn":467,"risk":52,"cat":"amber"},{"name":"The Spread Eagle","lat":52.84,"lon":1.25129,"postcode":"NR11 7QA","la":"North Norfolk","era":"trad","nn":1763,"risk":63,"cat":"red"},{"name":"The Star Inn","lat":52.79966,"lon":1.5425,"postcode":"NR12 0DN","la":"North Norfolk","era":"trad","nn":2276,"risk":67,"cat":"red"},{"name":"The Three Horseshoes","lat":52.85541,"lon":1.06649,"postcode":"NR24 2HY","la":"North Norfolk","era":"trad","nn":2068,"risk":65,"cat":"red"},{"name":"The Three Swallows","lat":52.94623,"lon":1.04643,"postcode":"NR25 7TT","la":"North Norfolk","era":"other","nn":609,"risk":38,"cat":"amber"},{"name":"The Vernon Arms","lat":52.87943,"lon":1.35217,"postcode":"NR11 8NP","la":"North Norfolk","era":"trad","nn":1499,"risk":61,"cat":"red"},{"name":"The Village Inn","lat":52.93886,"lon":1.24463,"postcode":"NR27 9QP","la":"North Norfolk","era":"trad","nn":0,"risk":48,"cat":"amber"},{"name":"The Walpole Arms","lat":52.82986,"lon":1.18887,"postcode":"NR11 7AR","la":"North Norfolk","era":"trad","nn":2767,"risk":70,"cat":"red"},{"name":"The Wheatsheaf","lat":52.91147,"lon":1.18333,"postcode":"NR25 6NX","la":"North Norfolk","era":"trad","nn":1271,"risk":60,"cat":"amber"},{"name":"The White Lady","lat":52.78237,"lon":1.4123,"postcode":"NR28 9RW","la":"North Norfolk","era":"other","nn":2482,"risk":68,"cat":"red"},{"name":"The White Swan","lat":52.82157,"lon":1.38854,"postcode":"NR28 9DA","la":"North Norfolk","era":"trad","nn":123,"risk":29,"cat":"green"},{"name":"The Wiveton Bell","lat":52.94414,"lon":1.03802,"postcode":"NR25 7TL","la":"North Norfolk","era":"other","nn":609,"risk":50,"cat":"amber"},{"name":"Trimingham House Caravan Site","lat":52.71421,"lon":0.99393,"postcode":"NR11 8DX","la":"North Norfolk","era":"mod","nn":315,"risk":50,"cat":"amber"},{"name":"Trunch Social Club","lat":52.86253,"lon":1.39529,"postcode":"NR28 0PS","la":"North Norfolk","era":"mod","nn":78,"risk":49,"cat":"amber"},{"name":"Val and Dave's Kitchen","lat":52.94102,"lon":1.21,"postcode":"NR26 8RG","la":"North Norfolk","era":"mod","nn":78,"risk":29,"cat":"green"},{"name":"Wayford Bridge Inn","lat":52.77092,"lon":1.47971,"postcode":"NR12 9LL","la":"North Norfolk","era":"trad","nn":1662,"risk":62,"cat":"red"},{"name":"Wells Town Football Club","lat":52.96876,"lon":0.84935,"postcode":"NR23 1DR","la":"North Norfolk","era":"other","nn":1307,"risk":60,"cat":"amber"},{"name":"Wensum Vale Ltd","lat":52.8083,"lon":0.90861,"postcode":"NR21 0DX","la":"North Norfolk","era":"other","nn":0,"risk":48,"cat":"amber"},{"name":"West Runton Social Club","lat":52.93886,"lon":1.24463,"postcode":"NR27 9QP","la":"North Norfolk","era":"mod","nn":0,"risk":48,"cat":"amber"},{"name":"White Horse","lat":52.73603,"lon":1.46602,"postcode":"NR12 8AD","la":"North Norfolk","era":"trad","nn":572,"risk":52,"cat":"amber"},{"name":"White Horse Bar & Restaurant","lat":52.93613,"lon":1.2718,"postcode":"NR27 9NX","la":"North Norfolk","era":"other","nn":30,"risk":33,"cat":"amber"},{"name":"White Horse Hotel","lat":52.9548,"lon":1.01819,"postcode":"NR25 7AL","la":"North Norfolk","era":"trad","nn":255,"risk":48,"cat":"amber"},{"name":"White Horse Inn","lat":52.93071,"lon":1.29704,"postcode":"NR27 9DS","la":"North Norfolk","era":"trad","nn":126,"risk":32,"cat":"amber"},{"name":"White Horse PH","lat":52.91721,"lon":1.34302,"postcode":"NR27 0AB","la":"North Norfolk","era":"trad","nn":92,"risk":49,"cat":"amber"},{"name":"Windham Arms","lat":52.94455,"lon":1.21322,"postcode":"NR26 8BA","la":"North Norfolk","era":"trad","nn":56,"risk":29,"cat":"green"},{"name":"Womens Institute Hall","lat":52.95202,"lon":0.8532,"postcode":"NR23 1EQ","la":"North Norfolk","era":"other","nn":166,"risk":32,"cat":"amber"},{"name":"Woodlands Caravan Park","lat":52.92077,"lon":1.17232,"postcode":"NR26 8TU","la":"North Norfolk","era":"other","nn":866,"risk":54,"cat":"amber"},{"name":"11th & Social","lat":52.63003,"lon":1.29903,"postcode":"NR3 1RB","la":"Norwich","era":"mod","nn":0,"risk":23,"cat":"green"},{"name":"9 Bar","lat":52.6293,"lon":1.30091,"postcode":"NR1 1BG","la":"Norwich","era":"other","nn":0,"risk":23,"cat":"green"},{"name":"Alexandra Tavern","lat":52.63249,"lon":1.27535,"postcode":"NR2 3BB","la":"Norwich","era":"other","nn":87,"risk":24,"cat":"green"},{"name":"Anatoli Social Club","lat":52.63883,"lon":1.24041,"postcode":"NR5 8TX","la":"Norwich","era":"mod","nn":387,"risk":46,"cat":"amber"},{"name":"Angel Gardens / Devil's Kitchen","lat":52.64371,"lon":1.2921,"postcode":"NR3 3HT","la":"Norwich","era":"other","nn":198,"risk":24,"cat":"green"},{"name":"Arboretum","lat":52.63132,"lon":1.28811,"postcode":"NR2 4PG","la":"Norwich","era":"other","nn":0,"risk":23,"cat":"green"},{"name":"Arkwrights Social Club","lat":52.61982,"lon":1.29869,"postcode":"NR1 3JB","la":"Norwich","era":"mod","nn":109,"risk":24,"cat":"green"},{"name":"Bar 19","lat":52.63003,"lon":1.29903,"postcode":"NR3 1RB","la":"Norwich","era":"mod","nn":0,"risk":23,"cat":"green"},{"name":"Bar And Beyond / Daddy's Dim Sum","lat":52.62969,"lon":1.30069,"postcode":"NR1 1LG","la":"Norwich","era":"mod","nn":46,"risk":23,"cat":"green"},{"name":"Barcadia","lat":52.62958,"lon":1.29941,"postcode":"NR1 1LB","la":"Norwich","era":"other","nn":16,"risk":23,"cat":"green"},{"name":"Be At One","lat":52.62981,"lon":1.29787,"postcode":"NR2 4SF","la":"Norwich","era":"other","nn":45,"risk":23,"cat":"green"},{"name":"Bedfords Bar","lat":52.62994,"lon":1.29466,"postcode":"NR2 1SL","la":"Norwich","era":"other","nn":52,"risk":23,"cat":"green"},{"name":"Beehive Public House","lat":52.61792,"lon":1.26767,"postcode":"NR4 7PJ","la":"Norwich","era":"other","nn":0,"risk":23,"cat":"green"},{"name":"Bier Draak","lat":52.6285,"lon":1.29919,"postcode":"NR1 1PD","la":"Norwich","era":"other","nn":0,"risk":23,"cat":"green"},{"name":"Blue's NR3 @ The Rosebery","lat":52.64433,"lon":1.29613,"postcode":"NR3 3AB","la":"Norwich","era":"other","nn":0,"risk":23,"cat":"green"},{"name":"Bond","lat":52.63045,"lon":1.29907,"postcode":"NR3 1RE","la":"Norwich","era":"other","nn":47,"risk":23,"cat":"green"},{"name":"Boom Battle Bar Norwich","lat":52.62726,"lon":1.29646,"postcode":"NR1 3DD","la":"Norwich","era":"mod","nn":71,"risk":24,"cat":"green"},{"name":"Brewdog (Biff's Kitchen)","lat":52.63022,"lon":1.29793,"postcode":"NR2 4SG","la":"Norwich","era":"mod","nn":0,"risk":23,"cat":"green"},{"name":"Brix N Bones","lat":52.62986,"lon":1.29693,"postcode":"NR2 1JT","la":"Norwich","era":"other","nn":0,"risk":23,"cat":"green"},{"name":"Bun X @ Micawbers Tavern","lat":52.63038,"lon":1.28757,"postcode":"NR2 1DZ","la":"Norwich","era":"other","nn":87,"risk":24,"cat":"green"},{"name":"Butchers Bhoy","lat":52.6294,"lon":1.29337,"postcode":"NR2 1AT","la":"Norwich","era":"other","nn":42,"risk":23,"cat":"green"},{"name":"Cactus Cafe Bar","lat":52.63803,"lon":1.29663,"postcode":"NR3 1JD","la":"Norwich","era":"other","nn":0,"risk":23,"cat":"green"},{"name":"Cafe Bar Marzano","lat":52.6278,"lon":1.29097,"postcode":"NR2 1BH","la":"Norwich","era":"mod","nn":135,"risk":24,"cat":"green"},{"name":"Canary Kitchen @ The Fat Cat And Canary","lat":52.62546,"lon":1.32166,"postcode":"NR1 1TR","la":"Norwich","era":"mod","nn":0,"risk":23,"cat":"green"},{"name":"Canary Social Club","lat":52.62633,"lon":1.31384,"postcode":"NR1 1RT","la":"Norwich","era":"mod","nn":192,"risk":24,"cat":"green"},{"name":"Chambers Cocktail Company","lat":52.6325,"lon":1.29741,"postcode":"NR3 1HY","la":"Norwich","era":"other","nn":0,"risk":23,"cat":"green"},{"name":"Clarkes Snooker Club","lat":52.63948,"lon":1.28339,"postcode":"NR2 4TN","la":"Norwich","era":"other","nn":390,"risk":26,"cat":"green"},{"name":"Clockwork Barbers","lat":52.63061,"lon":1.29108,"postcode":"NR2 1ER","la":"Norwich","era":"other","nn":96,"risk":24,"cat":"green"},{"name":"Coach & Horses","lat":52.62683,"lon":1.31111,"postcode":"NR1 1BA","la":"Norwich","era":"trad","nn":192,"risk":24,"cat":"green"},{"name":"Coach \\\\& Horses","lat":52.62858,"lon":1.28898,"postcode":"NR2 1NR","la":"Norwich","era":"trad","nn":106,"risk":24,"cat":"green"},{"name":"Coachmakers Arms","lat":52.62353,"lon":1.28917,"postcode":"NR1 3SP","la":"Norwich","era":"trad","nn":0,"risk":23,"cat":"green"},{"name":"Compleat Angler","lat":52.62863,"lon":1.3047,"postcode":"NR1 1NS","la":"Norwich","era":"other","nn":126,"risk":24,"cat":"green"},{"name":"Copacubana","lat":52.63003,"lon":1.29903,"postcode":"NR3 1RB","la":"Norwich","era":"other","nn":0,"risk":23,"cat":"green"},{"name":"County Hall - Staff Sports And Social Club Bar","lat":52.61541,"lon":1.30765,"postcode":"NR1 2DH","la":"Norwich","era":"mod","nn":733,"risk":28,"cat":"green"},{"name":"Duke Of Wellington","lat":52.64237,"lon":1.29403,"postcode":"NR3 1EG","la":"Norwich","era":"trad","nn":198,"risk":24,"cat":"green"},{"name":"Eagle Tavern","lat":52.62012,"lon":1.28333,"postcode":"NR2 2HN","la":"Norwich","era":"trad","nn":250,"risk":25,"cat":"green"},{"name":"East Anglia Tennis And Squash Club","lat":52.61506,"lon":1.27986,"postcode":"NR2 2NQ","la":"Norwich","era":"other","nn":399,"risk":26,"cat":"green"},{"name":"Eaton Cottage","lat":52.62161,"lon":1.27611,"postcode":"NR2 2DQ","la":"Norwich","era":"other","nn":176,"risk":24,"cat":"green"},{"name":"Eats Empire @ The Beehive","lat":52.61792,"lon":1.26767,"postcode":"NR4 7PJ","la":"Norwich","era":"other","nn":0,"risk":23,"cat":"green"},{"name":"Epic Studios","lat":52.63803,"lon":1.29663,"postcode":"NR3 1JD","la":"Norwich","era":"mod","nn":0,"risk":23,"cat":"green"},{"name":"Exchange Street Buildings","lat":52.63024,"lon":1.29392,"postcode":"NR2 1DP","la":"Norwich","era":"other","nn":21,"risk":23,"cat":"green"},{"name":"FAB Bar And Kitchen","lat":52.66978,"lon":1.27726,"postcode":"NR6 6EP","la":"Norwich","era":"mod","nn":1126,"risk":53,"cat":"amber"},{"name":"Fetch","lat":52.62872,"lon":1.30272,"postcode":"NR1 1DG","la":"Norwich","era":"other","nn":0,"risk":23,"cat":"green"},{"name":"First Draft Bar & Kitchen","lat":52.62933,"lon":1.28994,"postcode":"NR2 1JN","la":"Norwich","era":"mod","nn":99,"risk":24,"cat":"green"},{"name":"Fiveways Public House","lat":52.62959,"lon":1.24986,"postcode":"NR5 8AZ","la":"Norwich","era":"other","nn":986,"risk":50,"cat":"amber"},{"name":"Fluke","lat":52.62915,"lon":1.30175,"postcode":"NR1 1BL","la":"Norwich","era":"other","nn":33,"risk":23,"cat":"green"},{"name":"Gardeners Arms & Murderers Cafe Bar","lat":52.62663,"lon":1.29589,"postcode":"NR1 3LB","la":"Norwich","era":"trad","nn":12,"risk":23,"cat":"green"},{"name":"Gibraltar Gardens","lat":52.64049,"lon":1.27784,"postcode":"NR2 4LZ","la":"Norwich","era":"other","nn":367,"risk":26,"cat":"green"},{"name":"Golden Star","lat":52.633,"lon":1.29263,"postcode":"NR3 1DD","la":"Norwich","era":"other","nn":110,"risk":24,"cat":"green"},{"name":"Gonzo's Tea Room","lat":52.62986,"lon":1.29693,"postcode":"NR2 1JT","la":"Norwich","era":"other","nn":0,"risk":23,"cat":"green"},{"name":"Gyre \\\\& Gimble","lat":52.63061,"lon":1.29252,"postcode":"NR2 4AL","la":"Norwich","era":"other","nn":2,"risk":23,"cat":"green"},{"name":"Hop Rocket","lat":52.62317,"lon":1.27653,"postcode":"NR2 2RS","la":"Norwich","era":"other","nn":142,"risk":24,"cat":"green"},{"name":"Joy's","lat":52.64179,"lon":1.29714,"postcode":"NR3 4QN","la":"Norwich","era":"other","nn":102,"risk":24,"cat":"green"},{"name":"Jubilee Public House","lat":52.62931,"lon":1.31134,"postcode":"NR1 4BL","la":"Norwich","era":"other","nn":214,"risk":25,"cat":"green"},{"name":"Karma Kafe","lat":52.62989,"lon":1.29542,"postcode":"NR2 1AG","la":"Norwich","era":"other","nn":0,"risk":23,"cat":"green"},{"name":"Kings Head Public House","lat":52.63484,"lon":1.29636,"postcode":"NR3 1JE","la":"Norwich","era":"trad","nn":169,"risk":24,"cat":"green"},{"name":"Lace","lat":52.62872,"lon":1.30272,"postcode":"NR1 1DG","la":"Norwich","era":"other","nn":0,"risk":23,"cat":"green"},{"name":"Lamb Inn (K-Town, Chik Box, Locked And Loaded)","lat":52.62748,"lon":1.29344,"postcode":"NR2 1QD","la":"Norwich","era":"trad","nn":86,"risk":24,"cat":"green"},{"name":"Last Pub Standing","lat":52.6285,"lon":1.29919,"postcode":"NR1 1PD","la":"Norwich","era":"other","nn":0,"risk":23,"cat":"green"},{"name":"Lolake Qube Limited","lat":52.62871,"lon":1.30284,"postcode":"NR1 1DG","la":"Norwich","era":"other","nn":0,"risk":23,"cat":"green"},{"name":"Lollards Pit Public House","lat":52.63062,"lon":1.30841,"postcode":"NR1 1SR","la":"Norwich","era":"other","nn":235,"risk":25,"cat":"green"},{"name":"Louis Marchesi","lat":52.63142,"lon":1.2987,"postcode":"NR3 1HF","la":"Norwich","era":"other","nn":108,"risk":24,"cat":"green"},{"name":"Maddermarket Theatre","lat":52.6302,"lon":1.29256,"postcode":"NR2 1DR","la":"Norwich","era":"other","nn":45,"risk":23,"cat":"green"},{"name":"Marlborough Arms","lat":52.63965,"lon":1.29975,"postcode":"NR3 4PB","la":"Norwich","era":"trad","nn":206,"risk":24,"cat":"green"},{"name":"Marsh Harrier Public House","lat":52.59955,"lon":1.27576,"postcode":"NR4 6DX","la":"Norwich","era":"other","nn":1251,"risk":54,"cat":"amber"},{"name":"Mecca Bingo","lat":52.64788,"lon":1.28235,"postcode":"NR3 2RE","la":"Norwich","era":"other","nn":0,"risk":23,"cat":"green"},{"name":"Medina Bar","lat":52.6293,"lon":1.30091,"postcode":"NR1 1BG","la":"Norwich","era":"other","nn":0,"risk":23,"cat":"green"},{"name":"Mischief Tavern","lat":52.63304,"lon":1.29665,"postcode":"NR3 1HZ","la":"Norwich","era":"other","nn":75,"risk":24,"cat":"green"},{"name":"Mojo's","lat":52.6293,"lon":1.30218,"postcode":"NR1 1LT","la":"Norwich","era":"other","nn":0,"risk":23,"cat":"green"},{"name":"Mr Postles Apothecary","lat":52.62998,"lon":1.29859,"postcode":"NR3 1HA","la":"Norwich","era":"other","nn":30,"risk":23,"cat":"green"},{"name":"Norfolk And Norwich Indoor Bowling Club","lat":52.61476,"lon":1.25978,"postcode":"NR4 7QH","la":"Norwich","era":"other","nn":638,"risk":30,"cat":"green"},{"name":"Norkie Public House","lat":52.63747,"lon":1.21695,"postcode":"NR5 9HA","la":"Norwich","era":"other","nn":609,"risk":47,"cat":"amber"},{"name":"Norwich Arts Centre","lat":52.63132,"lon":1.28811,"postcode":"NR2 4PG","la":"Norwich","era":"other","nn":0,"risk":23,"cat":"green"},{"name":"Norwich Masonic Association","lat":52.62948,"lon":1.28849,"postcode":"NR2 1JR","la":"Norwich","era":"trad","nn":99,"risk":24,"cat":"green"},{"name":"Norwich Playhouse Bar","lat":52.63271,"lon":1.29419,"postcode":"NR3 1AB","la":"Norwich","era":"mod","nn":110,"risk":24,"cat":"green"},{"name":"Norwich Puppet Theatre","lat":52.63502,"lon":1.30128,"postcode":"NR3 1TN","la":"Norwich","era":"other","nn":183,"risk":24,"cat":"green"},{"name":"Norwich Social Club","lat":52.63719,"lon":1.29683,"postcode":"NR3 1LN","la":"Norwich","era":"mod","nn":95,"risk":24,"cat":"green"},{"name":"Norwich VR Bar","lat":52.63565,"lon":1.28865,"postcode":"NR3 3BP","la":"Norwich","era":"other","nn":129,"risk":24,"cat":"green"},{"name":"Pear Tree Inn","lat":52.62437,"lon":1.27724,"postcode":"NR2 2PE","la":"Norwich","era":"trad","nn":91,"risk":24,"cat":"green"},{"name":"Platinum Lace","lat":52.62948,"lon":1.29276,"postcode":"NR2 1DE","la":"Norwich","era":"other","nn":0,"risk":23,"cat":"green"},{"name":"Pogue Mahon's","lat":52.6293,"lon":1.30218,"postcode":"NR1 1LT","la":"Norwich","era":"other","nn":0,"risk":23,"cat":"green"},{"name":"Popworld","lat":52.62871,"lon":1.30284,"postcode":"NR1 1DG","la":"Norwich","era":"other","nn":0,"risk":23,"cat":"green"},{"name":"Prima Donna Bridal Shop","lat":52.62601,"lon":1.29583,"postcode":"NR1 3LA","la":"Norwich","era":"other","nn":69,"risk":24,"cat":"green"},{"name":"Prince Of Denmark Pub","lat":52.64512,"lon":1.30186,"postcode":"NR3 4JQ","la":"Norwich","era":"trad","nn":280,"risk":25,"cat":"green"},{"name":"Pure Gold","lat":52.62951,"lon":1.30154,"postcode":"NR1 1LL","la":"Norwich","era":"other","nn":43,"risk":23,"cat":"green"},{"name":"Queen Of Iceni","lat":52.62514,"lon":1.30497,"postcode":"NR1 1WX","la":"Norwich","era":"trad","nn":54,"risk":23,"cat":"green"},{"name":"Red Lion","lat":52.60821,"lon":1.25055,"postcode":"NR4 7LD","la":"Norwich","era":"trad","nn":959,"risk":50,"cat":"amber"},{"name":"Retro Replay Arcade, Gaming Lounge \\\\& Bar","lat":52.62667,"lon":1.29606,"postcode":"NR1 3DD","la":"Norwich","era":"mod","nn":12,"risk":23,"cat":"green"},{"name":"Revolucion De Cuba","lat":52.63022,"lon":1.29793,"postcode":"NR2 4SG","la":"Norwich","era":"other","nn":0,"risk":23,"cat":"green"},{"name":"Revolution","lat":52.63048,"lon":1.29828,"postcode":"NR2 4SQ","la":"Norwich","era":"other","nn":37,"risk":23,"cat":"green"},{"name":"Rose Inn","lat":52.62077,"lon":1.30013,"postcode":"NR1 3AE","la":"Norwich","era":"trad","nn":87,"risk":24,"cat":"green"},{"name":"Rose Tavern","lat":52.62377,"lon":1.28214,"postcode":"NR2 2AT","la":"Norwich","era":"trad","nn":210,"risk":25,"cat":"green"},{"name":"Rumsey Wells","lat":52.6306,"lon":1.29319,"postcode":"NR2 4AF","la":"Norwich","era":"other","nn":43,"risk":23,"cat":"green"},{"name":"Scholars (Red And Blue Bars, The LCR)","lat":52.62238,"lon":1.24138,"postcode":"NR4 7TJ","la":"Norwich","era":"other","nn":986,"risk":50,"cat":"amber"},{"name":"Space Studio Bars","lat":52.62947,"lon":1.2949,"postcode":"NR2 1HZ","la":"Norwich","era":"mod","nn":54,"risk":23,"cat":"green"},{"name":"St Andrews Brew House","lat":52.63067,"lon":1.29471,"postcode":"NR2 4TP","la":"Norwich","era":"other","nn":72,"risk":24,"cat":"green"},{"name":"Sugar And Spice","lat":52.6293,"lon":1.30091,"postcode":"NR1 1BG","la":"Norwich","era":"other","nn":0,"risk":23,"cat":"green"},{"name":"Temple Bar","lat":52.62874,"lon":1.2843,"postcode":"NR2 2RA","la":"Norwich","era":"other","nn":0,"risk":23,"cat":"green"},{"name":"Temple Bar Kitchen","lat":52.62874,"lon":1.2843,"postcode":"NR2 2RA","la":"Norwich","era":"mod","nn":0,"risk":23,"cat":"green"},{"name":"Ten Bells","lat":52.63117,"lon":1.28797,"postcode":"NR2 4AR","la":"Norwich","era":"other","nn":0,"risk":23,"cat":"green"},{"name":"TGI Fridays","lat":52.62523,"lon":1.30418,"postcode":"NR1 1WX","la":"Norwich","era":"other","nn":54,"risk":23,"cat":"green"},{"name":"The Adam And Eve Public House","lat":52.63384,"lon":1.30317,"postcode":"NR3 1RZ","la":"Norwich","era":"other","nn":183,"risk":24,"cat":"green"},{"name":"The Artichoke","lat":52.63923,"lon":1.29678,"postcode":"NR3 4LW","la":"Norwich","era":"other","nn":128,"risk":24,"cat":"green"},{"name":"The Belgian Monk","lat":52.62981,"lon":1.29196,"postcode":"NR2 1DS","la":"Norwich","era":"trad","nn":0,"risk":23,"cat":"green"},{"name":"The Bell Hotel","lat":52.62724,"lon":1.29514,"postcode":"NR1 3QB","la":"Norwich","era":"other","nn":84,"risk":24,"cat":"green"},{"name":"The Belle Vue","lat":52.63322,"lon":1.27489,"postcode":"NR2 3BL","la":"Norwich","era":"other","nn":87,"risk":24,"cat":"green"},{"name":"The Black Horse","lat":52.63059,"lon":1.27848,"postcode":"NR2 3DE","la":"Norwich","era":"trad","nn":74,"risk":24,"cat":"green"},{"name":"The Boundary","lat":52.65548,"lon":1.27765,"postcode":"NR3 2SA","la":"Norwich","era":"other","nn":350,"risk":30,"cat":"green"},{"name":"The Brickmakers","lat":52.651,"lon":1.30927,"postcode":"NR3 4DY","la":"Norwich","era":"other","nn":681,"risk":45,"cat":"amber"},{"name":"The Castle Public House","lat":52.63454,"lon":1.31205,"postcode":"NR1 4EY","la":"Norwich","era":"other","nn":447,"risk":26,"cat":"green"},{"name":"The Catherine Wheel","lat":52.63841,"lon":1.29173,"postcode":"NR3 3BG","la":"Norwich","era":"other","nn":333,"risk":25,"cat":"green"},{"name":"The Champion Pub","lat":52.62413,"lon":1.2898,"postcode":"NR2 1SE","la":"Norwich","era":"other","nn":79,"risk":24,"cat":"green"},{"name":"The Cherry Tree","lat":52.64112,"lon":1.2361,"postcode":"NR5 8TD","la":"South Norfolk","era":"other","nn":387,"risk":37,"cat":"amber"},{"name":"The City Club","lat":52.63337,"lon":1.29569,"postcode":"NR3 1BN","la":"Norwich","era":"other","nn":75,"risk":24,"cat":"green"},{"name":"The Corkscrew","lat":52.6311,"lon":1.28807,"postcode":"NR2 4AR","la":"Norwich","era":"other","nn":10,"risk":23,"cat":"green"},{"name":"The Cottage","lat":52.63748,"lon":1.30267,"postcode":"NR3 4TB","la":"Norwich","era":"other","nn":204,"risk":24,"cat":"green"},{"name":"The Drawing Rooms","lat":52.62981,"lon":1.29196,"postcode":"NR2 1DS","la":"Norwich","era":"mod","nn":0,"risk":23,"cat":"green"},{"name":"The Earlham","lat":52.63095,"lon":1.27939,"postcode":"NR2 3AD","la":"Norwich","era":"other","nn":74,"risk":24,"cat":"green"},{"name":"The Farmhouse","lat":52.62191,"lon":1.2623,"postcode":"NR4 7EH","la":"Norwich","era":"other","nn":574,"risk":27,"cat":"green"},{"name":"The Fat Cat","lat":52.63513,"lon":1.27561,"postcode":"NR2 4NA","la":"Norwich","era":"other","nn":215,"risk":25,"cat":"green"},{"name":"The Fat Cat And Canary Public House","lat":52.62546,"lon":1.32166,"postcode":"NR1 1TR","la":"Norwich","era":"other","nn":0,"risk":23,"cat":"green"},{"name":"The Fat Cat Brewery Tap / Motherchip","lat":52.6433,"lon":1.29899,"postcode":"NR3 4LF","la":"Norwich","era":"mod","nn":146,"risk":24,"cat":"green"},{"name":"The FDC","lat":52.64202,"lon":1.22197,"postcode":"NR5 9ED","la":"Norwich","era":"other","nn":609,"risk":45,"cat":"amber"},{"name":"The Freemasons Arms","lat":52.62079,"lon":1.29885,"postcode":"NR1 3HQ","la":"Norwich","era":"trad","nn":0,"risk":23,"cat":"green"},{"name":"The Garden House","lat":52.62713,"lon":1.27504,"postcode":"NR2 3HD","la":"Norwich","era":"other","nn":296,"risk":25,"cat":"green"},{"name":"The Garnet","lat":52.62817,"lon":1.29287,"postcode":"NR2 1RD","la":"Norwich","era":"other","nn":86,"risk":24,"cat":"green"},{"name":"The Georgian Townhouse","lat":52.62735,"lon":1.28194,"postcode":"NR2 2RB","la":"Norwich","era":"other","nn":222,"risk":25,"cat":"green"},{"name":"The Glass House","lat":52.6327,"lon":1.29787,"postcode":"NR3 1LA","la":"Norwich","era":"other","nn":38,"risk":23,"cat":"green"},{"name":"The Grill House Restaurant - Inn","lat":52.62353,"lon":1.28917,"postcode":"NR1 3SP","la":"Norwich","era":"other","nn":0,"risk":23,"cat":"green"},{"name":"The Kings Arms","lat":52.62079,"lon":1.29885,"postcode":"NR1 3HQ","la":"Norwich","era":"trad","nn":0,"risk":23,"cat":"green"},{"name":"The Leopard Public House / Leopied","lat":52.63764,"lon":1.29939,"postcode":"NR3 1NQ","la":"Norwich","era":"mod","nn":173,"risk":24,"cat":"green"},{"name":"The Loft","lat":52.62867,"lon":1.30252,"postcode":"NR1 1PT","la":"Norwich","era":"other","nn":15,"risk":23,"cat":"green"},{"name":"The Malt And Mardle","lat":52.63809,"lon":1.29694,"postcode":"NR3 1NF","la":"Norwich","era":"other","nn":22,"risk":23,"cat":"green"},{"name":"The Nelson","lat":52.63739,"lon":1.27596,"postcode":"NR2 4DR","la":"Norwich","era":"trad","nn":253,"risk":25,"cat":"green"},{"name":"The Norfolk Club","lat":52.63003,"lon":1.29903,"postcode":"NR3 1RB","la":"Norwich","era":"other","nn":0,"risk":23,"cat":"green"},{"name":"The Oak Tree (88th Street, Value Mighty, Sin City Burger)","lat":52.61168,"lon":1.28185,"postcode":"NR4 6LA","la":"Norwich","era":"trad","nn":399,"risk":31,"cat":"amber"},{"name":"The Plough Inn","lat":52.63117,"lon":1.28797,"postcode":"NR2 4AR","la":"Norwich","era":"trad","nn":0,"risk":23,"cat":"green"},{"name":"The Red Lion Bishopgate","lat":52.63237,"lon":1.30648,"postcode":"NR1 4AA","la":"Norwich","era":"trad","nn":235,"risk":25,"cat":"green"},{"name":"The Reindeer","lat":52.63202,"lon":1.28441,"postcode":"NR2 4AY","la":"Norwich","era":"other","nn":258,"risk":25,"cat":"green"},{"name":"The Ribs Of Beef","lat":52.6325,"lon":1.29741,"postcode":"NR3 1HY","la":"Norwich","era":"other","nn":0,"risk":23,"cat":"green"},{"name":"The Robin Hood PH","lat":52.63719,"lon":1.30565,"postcode":"NR3 1NX","la":"Norwich","era":"other","nn":204,"risk":24,"cat":"green"},{"name":"The Rosebery","lat":52.64433,"lon":1.29613,"postcode":"NR3 3AB","la":"Norwich","era":"other","nn":0,"risk":23,"cat":"green"},{"name":"The Shoemakers","lat":52.60728,"lon":1.28922,"postcode":"NR4 6EF","la":"Norwich","era":"other","nn":698,"risk":48,"cat":"amber"},{"name":"The Stanley","lat":52.64091,"lon":1.29677,"postcode":"NR3 4LG","la":"Norwich","era":"other","nn":102,"risk":24,"cat":"green"},{"name":"The Steam Packet","lat":52.62838,"lon":1.29909,"postcode":"NR1 3DT","la":"Norwich","era":"other","nn":15,"risk":23,"cat":"green"},{"name":"The Strangers Club","lat":52.6319,"lon":1.29705,"postcode":"NR3 1HG","la":"Norwich","era":"other","nn":71,"risk":24,"cat":"green"},{"name":"The Strangers Tavern","lat":52.63062,"lon":1.29251,"postcode":"NR2 4AL","la":"Norwich","era":"other","nn":2,"risk":23,"cat":"green"},{"name":"The Vine Thai Cuisine","lat":52.62948,"lon":1.29276,"postcode":"NR2 1DE","la":"Norwich","era":"other","nn":0,"risk":23,"cat":"green"},{"name":"The Wallow","lat":52.63033,"lon":1.29364,"postcode":"NR2 1AX","la":"Norwich","era":"other","nn":21,"risk":23,"cat":"green"},{"name":"The Walnut Tree Shades","lat":52.6286,"lon":1.29417,"postcode":"NR2 1NG","la":"Norwich","era":"other","nn":58,"risk":23,"cat":"green"},{"name":"The Waterfront","lat":52.62385,"lon":1.3024,"postcode":"NR1 1QH","la":"Norwich","era":"other","nn":195,"risk":24,"cat":"green"},{"name":"The Weavers Arms","lat":52.63397,"lon":1.29344,"postcode":"NR3 1DJ","la":"Norwich","era":"trad","nn":120,"risk":24,"cat":"green"},{"name":"The Whalebone","lat":52.64381,"lon":1.29699,"postcode":"NR3 4BA","la":"Norwich","era":"other","nn":83,"risk":24,"cat":"green"},{"name":"The Windmill","lat":52.64788,"lon":1.28235,"postcode":"NR3 2RE","la":"Norwich","era":"trad","nn":0,"risk":23,"cat":"green"},{"name":"The York","lat":52.62197,"lon":1.28117,"postcode":"NR2 2AS","la":"Norwich","era":"other","nn":140,"risk":24,"cat":"green"},{"name":"Tipsy Jar","lat":52.63049,"lon":1.29736,"postcode":"NR2 4SN","la":"Norwich","era":"other","nn":49,"risk":23,"cat":"green"},{"name":"Trafford Arms","lat":52.62079,"lon":1.29119,"postcode":"NR1 3RL","la":"Norwich","era":"trad","nn":109,"risk":24,"cat":"green"},{"name":"Unthank Arms","lat":52.62097,"lon":1.2799,"postcode":"NR2 2DR","la":"Norwich","era":"trad","nn":140,"risk":24,"cat":"green"},{"name":"Victoria Bowling Club","lat":52.61984,"lon":1.2908,"postcode":"NR1 2QW","la":"Norwich","era":"trad","nn":109,"risk":24,"cat":"green"},{"name":"VIP Karaoke Bar","lat":52.62961,"lon":1.29964,"postcode":"NR1 1LB","la":"Norwich","era":"other","nn":16,"risk":23,"cat":"green"},{"name":"Warwick Arms","lat":52.62452,"lon":1.27593,"postcode":"NR2 3LD","la":"Norwich","era":"trad","nn":91,"risk":24,"cat":"green"},{"name":"West End Retreat","lat":52.63482,"lon":1.27875,"postcode":"NR2 4QY","la":"Norwich","era":"other","nn":215,"risk":25,"cat":"green"},{"name":"White Lion","lat":52.63461,"lon":1.28947,"postcode":"NR3 3AQ","la":"Norwich","era":"trad","nn":129,"risk":24,"cat":"green"},{"name":"Wig & Pen Public House","lat":52.63349,"lon":1.30023,"postcode":"NR3 1RN","la":"Norwich","era":"other","nn":182,"risk":24,"cat":"green"},{"name":"Wildman","lat":52.62989,"lon":1.29542,"postcode":"NR2 1AG","la":"Norwich","era":"other","nn":0,"risk":23,"cat":"green"},{"name":"William IV Public House","lat":52.63035,"lon":1.31401,"postcode":"NR1 4AU","la":"Norwich","era":"other","nn":214,"risk":25,"cat":"green"},{"name":"Woolpack Inn","lat":52.62606,"lon":1.29686,"postcode":"NR1 3EH","la":"Norwich","era":"trad","nn":70,"risk":24,"cat":"green"},{"name":"Yalm Bar","lat":52.62812,"lon":1.2945,"postcode":"NR2 1NQ","la":"Norwich","era":"other","nn":58,"risk":23,"cat":"green"},{"name":"Animal Inns Ltd @ The Wildebeest Arms","lat":52.57118,"lon":1.29593,"postcode":"NR14 8QJ","la":"South Norfolk","era":"trad","nn":1954,"risk":66,"cat":"red"},{"name":"Barmaster Bars","lat":52.61394,"lon":1.12076,"postcode":"NR18 0RU","la":"South Norfolk","era":"other","nn":3588,"risk":77,"cat":"red"},{"name":"Beauchamp Arms","lat":52.58674,"lon":1.46798,"postcode":"NR14 6DH","la":"South Norfolk","era":"trad","nn":3406,"risk":76,"cat":"red"},{"name":"Bird In Hand","lat":52.54078,"lon":1.19354,"postcode":"NR16 1BJ","la":"South Norfolk","era":"other","nn":1418,"risk":62,"cat":"red"},{"name":"Coldham Hall","lat":52.61202,"lon":1.42567,"postcode":"NR14 7AN","la":"South Norfolk","era":"other","nn":0,"risk":47,"cat":"amber"},{"name":"Coldham Hall Sailing Club","lat":52.61202,"lon":1.42567,"postcode":"NR14 7AN","la":"South Norfolk","era":"other","nn":0,"risk":47,"cat":"amber"},{"name":"Cross Keys","lat":52.56992,"lon":1.11294,"postcode":"NR18 0AX","la":"South Norfolk","era":"trad","nn":109,"risk":31,"cat":"amber"},{"name":"Crusaders Rugby Union Club","lat":52.61194,"lon":1.18047,"postcode":"NR9 3NP","la":"South Norfolk","era":"other","nn":926,"risk":54,"cat":"amber"},{"name":"East Coast Bars","lat":52.58013,"lon":0.99737,"postcode":"NR9 4LF","la":"South Norfolk","era":"other","nn":870,"risk":56,"cat":"amber"},{"name":"Fox \\\\& Hounds (GM) Ltd","lat":52.46701,"lon":1.19096,"postcode":"NR15 2HE","la":"South Norfolk","era":"trad","nn":3819,"risk":79,"cat":"red"},{"name":"George And Dragon","lat":52.55548,"lon":1.43145,"postcode":"NR14 6AL","la":"South Norfolk","era":"trad","nn":3676,"risk":78,"cat":"red"},{"name":"Hethersett Sports & Social Club","lat":52.59914,"lon":1.18213,"postcode":"NR9 3DB","la":"South Norfolk","era":"mod","nn":207,"risk":36,"cat":"amber"},{"name":"Hilltops Sports & Social Club","lat":52.58234,"lon":1.25496,"postcode":"NR14 8DU","la":"South Norfolk","era":"mod","nn":2224,"risk":68,"cat":"red"},{"name":"Jubilee Youth Club","lat":52.60348,"lon":1.18013,"postcode":"NR9 3JJ","la":"South Norfolk","era":"other","nn":502,"risk":36,"cat":"amber"},{"name":"Kings Head","lat":52.5369,"lon":1.48076,"postcode":"NR14 6EZ","la":"South Norfolk","era":"trad","nn":201,"risk":36,"cat":"amber"},{"name":"Kings Head","lat":52.53089,"lon":1.18029,"postcode":"NR16 1EL","la":"South Norfolk","era":"trad","nn":1418,"risk":62,"cat":"red"},{"name":"Mulbarton Sports And Social Club","lat":52.56046,"lon":1.23734,"postcode":"NR14 8AE","la":"South Norfolk","era":"mod","nn":0,"risk":47,"cat":"amber"},{"name":"Netherton Steakhouse","lat":52.48861,"lon":1.2348,"postcode":"NR15 2XG","la":"South Norfolk","era":"other","nn":39,"risk":50,"cat":"amber"},{"name":"Norfolk Snowsports Club","lat":52.61659,"lon":1.32161,"postcode":"NR14 8TW","la":"South Norfolk","era":"other","nn":533,"risk":36,"cat":"amber"},{"name":"Old Ram","lat":52.42546,"lon":1.20317,"postcode":"NR15 2DE","la":"South Norfolk","era":"trad","nn":1911,"risk":66,"cat":"red"},{"name":"Queens Head","lat":52.45081,"lon":1.4155,"postcode":"NR35 2TS","la":"South Norfolk","era":"trad","nn":1486,"risk":63,"cat":"red"},{"name":"Queens Head Public House","lat":52.59745,"lon":1.18084,"postcode":"NR9 3DD","la":"South Norfolk","era":"trad","nn":170,"risk":36,"cat":"amber"},{"name":"Rothbury Community Hall","lat":52.57477,"lon":1.11327,"postcode":"NR18 0LD","la":"South Norfolk","era":"other","nn":328,"risk":32,"cat":"amber"},{"name":"Scout And Guide Headquarters","lat":52.52594,"lon":1.28669,"postcode":"NR15 1TD","la":"South Norfolk","era":"other","nn":0,"risk":50,"cat":"amber"},{"name":"Scout Hut","lat":52.56046,"lon":1.23734,"postcode":"NR14 8AE","la":"South Norfolk","era":"other","nn":0,"risk":47,"cat":"amber"},{"name":"Silfield Village Pitch And Putt","lat":52.55168,"lon":1.1326,"postcode":"NR18 9NL","la":"South Norfolk","era":"other","nn":2355,"risk":69,"cat":"red"},{"name":"Siveinns Hamlet","lat":52.51732,"lon":1.22558,"postcode":"NR15 2AF","la":"South Norfolk","era":"trad","nn":3216,"risk":75,"cat":"red"},{"name":"Snug Thurlton Ltd","lat":52.53028,"lon":1.55707,"postcode":"NR14 6RJ","la":"South Norfolk","era":"other","nn":3172,"risk":74,"cat":"red"},{"name":"The Angel Inn Loddon Ltd","lat":52.53387,"lon":1.48213,"postcode":"NR14 6ET","la":"South Norfolk","era":"trad","nn":154,"risk":36,"cat":"amber"},{"name":"The Bell Inn","lat":52.62415,"lon":1.07035,"postcode":"NR9 4AA","la":"South Norfolk","era":"trad","nn":3588,"risk":77,"cat":"red"},{"name":"The Boars","lat":52.53353,"lon":1.09009,"postcode":"NR18 9LL","la":"South Norfolk","era":"other","nn":3457,"risk":76,"cat":"red"},{"name":"The Buck Inn","lat":52.55601,"lon":1.05478,"postcode":"NR18 9AA","la":"South Norfolk","era":"trad","nn":2657,"risk":71,"cat":"red"},{"name":"The Bush Public House","lat":52.66188,"lon":1.21365,"postcode":"NR8 5DD","la":"South Norfolk","era":"other","nn":323,"risk":50,"cat":"amber"},{"name":"The Cherry Tree Public House","lat":52.57951,"lon":1.06187,"postcode":"NR18 9QA","la":"South Norfolk","era":"other","nn":2657,"risk":71,"cat":"red"},{"name":"The Copper Beech","lat":52.65369,"lon":1.18086,"postcode":"NR5 0JT","la":"South Norfolk","era":"other","nn":1986,"risk":66,"cat":"red"},{"name":"The Crown","lat":52.64793,"lon":1.23394,"postcode":"NR5 0EU","la":"South Norfolk","era":"trad","nn":770,"risk":55,"cat":"amber"},{"name":"The Feathers","lat":52.57318,"lon":1.10919,"postcode":"NR18 0PN","la":"South Norfolk","era":"other","nn":0,"risk":30,"cat":"green"},{"name":"The Ferry House","lat":52.61398,"lon":1.41375,"postcode":"NR14 7AR","la":"South Norfolk","era":"other","nn":834,"risk":53,"cat":"amber"},{"name":"The Green Dragon","lat":52.57082,"lon":1.10985,"postcode":"NR18 0PH","la":"South Norfolk","era":"trad","nn":123,"risk":31,"cat":"amber"},{"name":"The Harte Of Costessey","lat":52.65907,"lon":1.21243,"postcode":"NR8 5BS","la":"South Norfolk","era":"trad","nn":228,"risk":49,"cat":"amber"},{"name":"The Jolly Farmers","lat":52.50149,"lon":1.15015,"postcode":"NR16 1LG","la":"South Norfolk","era":"other","nn":3853,"risk":79,"cat":"red"},{"name":"The Kings Head","lat":52.63451,"lon":1.18318,"postcode":"NR9 3LS","la":"South Norfolk","era":"trad","nn":2139,"risk":67,"cat":"red"},{"name":"The Kings Head","lat":52.4953,"lon":1.37841,"postcode":"NR35 2LR","la":"South Norfolk","era":"trad","nn":3189,"risk":75,"cat":"red"},{"name":"The Kings Head","lat":52.59616,"lon":1.17948,"postcode":"NR9 3DD","la":"South Norfolk","era":"trad","nn":170,"risk":36,"cat":"amber"},{"name":"The Kings Head Inn","lat":52.54267,"lon":1.36801,"postcode":"NR15 1AB","la":"South Norfolk","era":"trad","nn":403,"risk":53,"cat":"amber"},{"name":"The Locks Inn Community Pub Ltd","lat":52.46366,"lon":1.51712,"postcode":"NR34 0HW","la":"South Norfolk","era":"trad","nn":966,"risk":57,"cat":"amber"},{"name":"The Loddon Swan Ltd","lat":52.53511,"lon":1.48113,"postcode":"NR14 6LX","la":"South Norfolk","era":"trad","nn":154,"risk":36,"cat":"amber"},{"name":"The Norfolk Lurcher","lat":52.64582,"lon":1.10989,"postcode":"NR9 5DG","la":"South Norfolk","era":"other","nn":3595,"risk":77,"cat":"red"},{"name":"The Old Feathers","lat":52.59342,"lon":1.35229,"postcode":"NR14 7QB","la":"South Norfolk","era":"other","nn":1925,"risk":66,"cat":"red"},{"name":"The Queens Head","lat":52.48896,"lon":1.23487,"postcode":"NR15 2XG","la":"South Norfolk","era":"trad","nn":39,"risk":50,"cat":"amber"},{"name":"The Queens Head Ltd","lat":52.57004,"lon":1.11455,"postcode":"NR18 0AR","la":"South Norfolk","era":"trad","nn":109,"risk":31,"cat":"amber"},{"name":"The Railway Tavern","lat":52.57794,"lon":1.33956,"postcode":"NR14 7AB","la":"South Norfolk","era":"trad","nn":661,"risk":54,"cat":"amber"},{"name":"The Robert Kett Pub","lat":52.57973,"lon":1.12604,"postcode":"NR18 0HH","la":"South Norfolk","era":"other","nn":816,"risk":55,"cat":"amber"},{"name":"The Royal Oak","lat":52.57251,"lon":1.34356,"postcode":"NR14 7JT","la":"South Norfolk","era":"trad","nn":661,"risk":52,"cat":"amber"},{"name":"The Saxon Club","lat":52.52594,"lon":1.28669,"postcode":"NR15 1TD","la":"South Norfolk","era":"other","nn":0,"risk":50,"cat":"amber"},{"name":"The Sugar Beat Eating House","lat":52.55908,"lon":1.27498,"postcode":"NR14 8PU","la":"South Norfolk","era":"other","nn":1954,"risk":66,"cat":"red"},{"name":"The Swan Motel","lat":52.46972,"lon":1.55055,"postcode":"NR34 0LD","la":"South Norfolk","era":"trad","nn":1104,"risk":60,"cat":"amber"},{"name":"The Village Inn","lat":52.61593,"lon":1.19251,"postcode":"NR9 3AD","la":"South Norfolk","era":"trad","nn":926,"risk":56,"cat":"amber"},{"name":"The Waveney Inn","lat":52.48221,"lon":1.66894,"postcode":"NR34 0DE","la":"South Norfolk","era":"trad","nn":2735,"risk":71,"cat":"red"},{"name":"The White Hart","lat":52.57063,"lon":1.11164,"postcode":"NR18 0AJ","la":"South Norfolk","era":"trad","nn":96,"risk":30,"cat":"green"},{"name":"The White Hart Hotel","lat":52.57948,"lon":0.98454,"postcode":"NR9 4AF","la":"South Norfolk","era":"trad","nn":870,"risk":56,"cat":"amber"},{"name":"The White Horse","lat":52.53978,"lon":1.47929,"postcode":"NR14 6ND","la":"South Norfolk","era":"trad","nn":335,"risk":37,"cat":"amber"},{"name":"The White Horse Inn","lat":52.61253,"lon":1.31742,"postcode":"NR14 8ST","la":"South Norfolk","era":"trad","nn":533,"risk":51,"cat":"amber"},{"name":"Three Horseshoes Public House","lat":52.48776,"lon":1.31151,"postcode":"NR15 2NS","la":"South Norfolk","era":"trad","nn":4566,"risk":84,"cat":"red"},{"name":"Waters Edge","lat":52.6048,"lon":1.38295,"postcode":"NR14 7ED","la":"South Norfolk","era":"other","nn":2317,"risk":68,"cat":"red"},{"name":"West End Cue Club","lat":52.65882,"lon":1.20907,"postcode":"NR8 5AG","la":"South Norfolk","era":"other","nn":228,"risk":49,"cat":"amber"},{"name":"Wheatacre White Lion","lat":52.48519,"lon":1.62667,"postcode":"NR34 0AT","la":"South Norfolk","era":"trad","nn":2881,"risk":72,"cat":"red"},{"name":"Wheel Of Fortune (Alpington) Limited","lat":52.56603,"lon":1.3782,"postcode":"NR14 7NL","la":"South Norfolk","era":"other","nn":2001,"risk":66,"cat":"red"},{"name":"Wherry Inn","lat":52.47231,"lon":1.51832,"postcode":"NR34 0LB","la":"South Norfolk","era":"trad","nn":966,"risk":57,"cat":"amber"},{"name":"White Lion Public House","lat":52.5422,"lon":1.37392,"postcode":"NR15 1JW","la":"South Norfolk","era":"trad","nn":403,"risk":53,"cat":"amber"},{"name":"Wingtask 1995 Ltd","lat":52.51576,"lon":1.41143,"postcode":"NR15 1EL","la":"South Norfolk","era":"other","nn":3189,"risk":75,"cat":"red"},{"name":"Worlds End Public House","lat":52.56655,"lon":1.23478,"postcode":"NR14 8JT","la":"South Norfolk","era":"other","nn":699,"risk":52,"cat":"amber"},{"name":"Wymondham Dell Bowls Club","lat":52.57323,"lon":1.12047,"postcode":"NR18 0NT","la":"South Norfolk","era":"other","nn":516,"risk":33,"cat":"amber"},{"name":"Wymondham Ex- Servicemens Club","lat":52.5689,"lon":1.11231,"postcode":"NR18 0AT","la":"South Norfolk","era":"other","nn":121,"risk":31,"cat":"amber"},{"name":"Wymondham Masonic Hall","lat":52.56966,"lon":1.11061,"postcode":"NR18 0BG","la":"South Norfolk","era":"trad","nn":128,"risk":31,"cat":"amber"},{"name":"Wymondham Snooker Club","lat":52.57318,"lon":1.10919,"postcode":"NR18 0PN","la":"South Norfolk","era":"other","nn":0,"risk":30,"cat":"green"},{"name":"Wymondham Town Football Club","lat":52.57117,"lon":1.11275,"postcode":"NR18 0QB","la":"South Norfolk","era":"other","nn":96,"risk":30,"cat":"green"},{"name":"Zaks Poringland Diner","lat":52.56681,"lon":1.34862,"postcode":"NR14 7RP","la":"South Norfolk","era":"other","nn":720,"risk":55,"cat":"amber"}]