[{"name":"Gardeners Arms","lat":51.41503,"lon":0.45913,"postcode":"ME3 7AS","la":"Gravesham","era":"trad","nn":458,"risk":50,"cat":"amber"},{"name":"Rochester & Cobham Golf Club Bar","lat":51.16966,"lon":0.7583,"postcode":"ME2 3UL","la":"Gravesham","era":"other","nn":0,"risk":44,"cat":"amber"},{"name":"Rochester & Cobham Park Golf Club","lat":51.16966,"lon":0.7583,"postcode":"ME2 3UL","la":"Gravesham","era":"other","nn":0,"risk":44,"cat":"amber"},{"name":"Sir John Falstaff","lat":51.41091,"lon":0.45918,"postcode":"ME3 7NZ","la":"Gravesham","era":"other","nn":458,"risk":50,"cat":"amber"},{"name":"The Three Crutches","lat":51.39916,"lon":0.45271,"postcode":"ME2 3UG","la":"Gravesham","era":"other","nn":693,"risk":51,"cat":"amber"},{"name":"27 Hart Street","lat":51.27072,"lon":0.52502,"postcode":"ME15 6NA","la":"Maidstone","era":"trad","nn":31,"risk":26,"cat":"green"},{"name":"Ashes Sports Bar","lat":51.27434,"lon":0.52175,"postcode":"ME14 1HP","la":"Maidstone","era":"other","nn":21,"risk":26,"cat":"green"},{"name":"Ballin Maidstone","lat":51.27322,"lon":0.52223,"postcode":"ME14 1SD","la":"Maidstone","era":"other","nn":11,"risk":26,"cat":"green"},{"name":"Brickmakers Arms","lat":51.28193,"lon":0.52115,"postcode":"ME14 2SZ","la":"Maidstone","era":"trad","nn":153,"risk":27,"cat":"green"},{"name":"Bull Inn","lat":51.22938,"lon":0.51263,"postcode":"ME17 4AW","la":"Maidstone","era":"trad","nn":1086,"risk":56,"cat":"amber"},{"name":"Century Club","lat":51.27156,"lon":0.52442,"postcode":"ME15 6LX","la":"Maidstone","era":"other","nn":101,"risk":27,"cat":"green"},{"name":"Civil Service Sports And Social Club","lat":51.28122,"lon":0.531,"postcode":"ME14 5AU","la":"Maidstone","era":"mod","nn":594,"risk":30,"cat":"green"},{"name":"Coach House","lat":51.27539,"lon":0.53051,"postcode":"ME14 1HA","la":"Maidstone","era":"trad","nn":251,"risk":28,"cat":"green"},{"name":"Drakes Cork And Cask/Edi's Diner","lat":51.27426,"lon":0.51938,"postcode":"ME14 1JP","la":"Maidstone","era":"other","nn":126,"risk":27,"cat":"green"},{"name":"Duke Of Edinburgh","lat":51.26758,"lon":0.4821,"postcode":"ME16 9LQ","la":"Maidstone","era":"trad","nn":493,"risk":35,"cat":"amber"},{"name":"Duke Of Marlborough","lat":51.27618,"lon":0.52494,"postcode":"ME14 1ED","la":"Maidstone","era":"trad","nn":0,"risk":26,"cat":"green"},{"name":"East Farleigh Club","lat":51.25219,"lon":0.48226,"postcode":"ME15 0JL","la":"Maidstone","era":"other","nn":316,"risk":48,"cat":"amber"},{"name":"First And Last Maidstone Limited","lat":51.26864,"lon":0.50919,"postcode":"ME16 8BH","la":"Maidstone","era":"other","nn":206,"risk":28,"cat":"green"},{"name":"Fish On The Green","lat":51.27328,"lon":0.58138,"postcode":"ME14 4EJ","la":"Maidstone","era":"other","nn":6,"risk":44,"cat":"amber"},{"name":"Hare And Hounds","lat":51.27952,"lon":0.52102,"postcode":"ME14 2UY","la":"Maidstone","era":"trad","nn":123,"risk":27,"cat":"green"},{"name":"Harrietsham Social Club","lat":51.24295,"lon":0.67371,"postcode":"ME17 1HX","la":"Maidstone","era":"mod","nn":4,"risk":46,"cat":"amber"},{"name":"Hook And Hatchet","lat":51.29405,"lon":0.64313,"postcode":"ME17 1QT","la":"Maidstone","era":"other","nn":3804,"risk":75,"cat":"red"},{"name":"Kings Arms","lat":51.30179,"lon":0.54244,"postcode":"ME14 3DR","la":"Maidstone","era":"trad","nn":1427,"risk":59,"cat":"amber"},{"name":"Kings Head","lat":51.20977,"lon":0.67981,"postcode":"ME17 2AN","la":"Maidstone","era":"trad","nn":1806,"risk":61,"cat":"red"},{"name":"Lenham Social Club","lat":51.23372,"lon":0.712,"postcode":"ME17 2QB","la":"Maidstone","era":"mod","nn":581,"risk":35,"cat":"amber"},{"name":"Loose Bowls Club","lat":51.25196,"lon":0.52633,"postcode":"ME15 9UA","la":"Maidstone","era":"other","nn":107,"risk":44,"cat":"amber"},{"name":"Maidstone Bowls Club","lat":51.27817,"lon":0.51138,"postcode":"ME16 0SD","la":"Maidstone","era":"other","nn":238,"risk":28,"cat":"green"},{"name":"Maidstone Snooker Club","lat":51.27719,"lon":0.51448,"postcode":"ME16 0SQ","la":"Maidstone","era":"other","nn":242,"risk":28,"cat":"green"},{"name":"Maidstone Squash Club","lat":51.27621,"lon":0.52329,"postcode":"ME14 1EB","la":"Maidstone","era":"other","nn":66,"risk":27,"cat":"green"},{"name":"Maidstone Working Men's Club & Institute","lat":51.27712,"lon":0.52352,"postcode":"ME14 1RU","la":"Maidstone","era":"trad","nn":103,"risk":27,"cat":"green"},{"name":"Merkur Cashino","lat":51.27593,"lon":0.52245,"postcode":"ME14 1RJ","la":"Maidstone","era":"other","nn":66,"risk":27,"cat":"green"},{"name":"Miller & Carter","lat":51.27998,"lon":0.51941,"postcode":"ME14 2RF","la":"Maidstone","era":"trad","nn":123,"risk":27,"cat":"green"},{"name":"Mote Cricket Club / Maidstone Rugby Club","lat":51.26775,"lon":0.53495,"postcode":"ME15 7RN","la":"Maidstone","era":"other","nn":552,"risk":30,"cat":"green"},{"name":"Musket Brewery, Unit 10","lat":51.22261,"lon":0.52388,"postcode":"ME17 4AG","la":"Maidstone","era":"other","nn":0,"risk":46,"cat":"amber"},{"name":"Newnham Court Inn","lat":51.28451,"lon":0.55132,"postcode":"ME14 5LH","la":"Maidstone","era":"trad","nn":674,"risk":51,"cat":"amber"},{"name":"Ovation","lat":51.273,"lon":0.52348,"postcode":"ME15 6JG","la":"Maidstone","era":"other","nn":69,"risk":27,"cat":"green"},{"name":"Pepper Box Inn","lat":51.22017,"lon":0.65989,"postcode":"ME17 1LP","la":"Maidstone","era":"trad","nn":1806,"risk":61,"cat":"red"},{"name":"Percival's Rest","lat":51.24297,"lon":0.67367,"postcode":"ME17 1HX","la":"Maidstone","era":"other","nn":4,"risk":46,"cat":"amber"},{"name":"Rage Out","lat":51.27329,"lon":0.52235,"postcode":"ME14 1SD","la":"Maidstone","era":"other","nn":11,"risk":26,"cat":"green"},{"name":"Rifle Volunteers","lat":51.27575,"lon":0.52695,"postcode":"ME14 1EU","la":"Maidstone","era":"other","nn":148,"risk":27,"cat":"green"},{"name":"Sir Thomas Wyatt Public House","lat":51.28725,"lon":0.49092,"postcode":"ME16 0HG","la":"Maidstone","era":"other","nn":440,"risk":49,"cat":"amber"},{"name":"Society Rooms","lat":51.27726,"lon":0.5217,"postcode":"ME14 1RF","la":"Maidstone","era":"mod","nn":128,"risk":27,"cat":"green"},{"name":"Stone Street Club","lat":51.27245,"lon":0.52499,"postcode":"ME15 6JN","la":"Maidstone","era":"other","nn":107,"risk":27,"cat":"green"},{"name":"Stones In The Community","lat":51.26338,"lon":0.52577,"postcode":"ME15 6TL","la":"Maidstone","era":"other","nn":403,"risk":29,"cat":"green"},{"name":"Teston Working Mens Club","lat":51.25457,"lon":0.43897,"postcode":"ME18 5AG","la":"Maidstone","era":"trad","nn":154,"risk":47,"cat":"amber"},{"name":"The Armoury","lat":51.22261,"lon":0.52388,"postcode":"ME17 4AG","la":"Maidstone","era":"other","nn":0,"risk":46,"cat":"amber"},{"name":"The Bell","lat":51.33111,"lon":0.57619,"postcode":"ME7 3JY","la":"Maidstone","era":"other","nn":871,"risk":52,"cat":"amber"},{"name":"The Boathouse","lat":51.22236,"lon":0.41738,"postcode":"ME18 6HG","la":"Maidstone","era":"other","nn":1271,"risk":58,"cat":"amber"},{"name":"The Brenchley","lat":51.27348,"lon":0.52285,"postcode":"ME14 1SA","la":"Maidstone","era":"other","nn":40,"risk":26,"cat":"green"},{"name":"The Bull","lat":51.26321,"lon":0.47021,"postcode":"ME16 9HB","la":"Maidstone","era":"trad","nn":293,"risk":46,"cat":"amber"},{"name":"The Bull Inn","lat":51.25308,"lon":0.48658,"postcode":"ME15 0HD","la":"Maidstone","era":"trad","nn":316,"risk":46,"cat":"amber"},{"name":"The Bull Public House","lat":51.2893,"lon":0.53772,"postcode":"ME14 2DH","la":"Maidstone","era":"trad","nn":467,"risk":49,"cat":"amber"},{"name":"The Cellars Alehouse","lat":51.27215,"lon":0.51515,"postcode":"ME16 0DZ","la":"Maidstone","era":"other","nn":257,"risk":28,"cat":"green"},{"name":"The Chequers Inn","lat":51.20763,"lon":0.41759,"postcode":"ME18 6BP","la":"Maidstone","era":"trad","nn":1637,"risk":60,"cat":"amber"},{"name":"The Cherry Tree","lat":51.26788,"lon":0.48917,"postcode":"ME16 8NJ","la":"Maidstone","era":"other","nn":493,"risk":47,"cat":"amber"},{"name":"The Chiltern Hundreds","lat":51.28603,"lon":0.54194,"postcode":"ME14 2DG","la":"Maidstone","era":"other","nn":467,"risk":34,"cat":"amber"},{"name":"The Cock Horse","lat":51.29551,"lon":0.57011,"postcode":"ME14 3JT","la":"Maidstone","era":"trad","nn":1790,"risk":61,"cat":"red"},{"name":"The Cock Inn","lat":51.22918,"lon":0.54352,"postcode":"ME17 4JD","la":"Maidstone","era":"trad","nn":1550,"risk":60,"cat":"amber"},{"name":"The Dog And Bear Hotel","lat":51.23738,"lon":0.71796,"postcode":"ME17 2PG","la":"Maidstone","era":"other","nn":0,"risk":44,"cat":"amber"},{"name":"The Druids Arms","lat":51.27505,"lon":0.52172,"postcode":"ME14 1PP","la":"Maidstone","era":"trad","nn":77,"risk":27,"cat":"green"},{"name":"The Eagle","lat":51.27711,"lon":0.52555,"postcode":"ME14 1RZ","la":"Maidstone","era":"trad","nn":112,"risk":27,"cat":"green"},{"name":"The Flower Pot","lat":51.2819,"lon":0.51895,"postcode":"ME14 2RJ","la":"Maidstone","era":"other","nn":153,"risk":27,"cat":"green"},{"name":"The George Inn","lat":51.24893,"lon":0.61192,"postcode":"ME17 1RN","la":"Maidstone","era":"trad","nn":1710,"risk":61,"cat":"red"},{"name":"The Good Intent","lat":51.24577,"lon":0.46482,"postcode":"ME15 0NN","la":"Maidstone","era":"other","nn":786,"risk":52,"cat":"amber"},{"name":"The Harrow Inn","lat":51.33089,"lon":0.56366,"postcode":"ME7 3NL","la":"Maidstone","era":"trad","nn":871,"risk":52,"cat":"amber"},{"name":"The Hop Pole Inn","lat":51.23114,"lon":0.40569,"postcode":"ME18 5HH","la":"Maidstone","era":"trad","nn":1271,"risk":58,"cat":"amber"},{"name":"The Kings Head","lat":51.21344,"lon":0.59122,"postcode":"ME17 3AP","la":"Maidstone","era":"trad","nn":203,"risk":48,"cat":"amber"},{"name":"The Malta Inn","lat":51.29552,"lon":0.50963,"postcode":"ME14 3AS","la":"Maidstone","era":"trad","nn":446,"risk":47,"cat":"amber"},{"name":"The Muggleton Inn","lat":51.27386,"lon":0.52254,"postcode":"ME14 1HJ","la":"Maidstone","era":"trad","nn":48,"risk":26,"cat":"green"},{"name":"The Oak On The Green","lat":51.2733,"lon":0.58146,"postcode":"ME14 4EJ","la":"Maidstone","era":"trad","nn":6,"risk":44,"cat":"amber"},{"name":"The Old House At Home","lat":51.27368,"lon":0.52094,"postcode":"ME14 1LN","la":"Maidstone","era":"mod","nn":92,"risk":27,"cat":"green"},{"name":"The Orchard","lat":51.25973,"lon":0.56991,"postcode":"ME15 8SE","la":"Maidstone","era":"other","nn":992,"risk":53,"cat":"amber"},{"name":"The Papermakers Arms","lat":51.2669,"lon":0.52714,"postcode":"ME15 6HJ","la":"Maidstone","era":"trad","nn":403,"risk":29,"cat":"green"},{"name":"The Potting Shed","lat":51.23484,"lon":0.58462,"postcode":"ME17 3LZ","la":"Maidstone","era":"other","nn":2424,"risk":66,"cat":"red"},{"name":"The Queen's Head","lat":51.21362,"lon":0.59413,"postcode":"ME17 3AG","la":"Maidstone","era":"trad","nn":203,"risk":48,"cat":"amber"},{"name":"The Railway","lat":51.25003,"lon":0.42059,"postcode":"ME18 5EB","la":"Tonbridge and Malling","era":"trad","nn":690,"risk":53,"cat":"amber"},{"name":"The Red Lion","lat":51.23738,"lon":0.71796,"postcode":"ME17 2PG","la":"Maidstone","era":"trad","nn":0,"risk":44,"cat":"amber"},{"name":"The Redstart Inn Ltd","lat":51.2657,"lon":0.47159,"postcode":"ME16 9HF","la":"Maidstone","era":"trad","nn":293,"risk":46,"cat":"amber"},{"name":"The Ringlestone Inn","lat":51.27051,"lon":0.68933,"postcode":"ME17 1NX","la":"Maidstone","era":"trad","nn":3251,"risk":71,"cat":"red"},{"name":"The Rose Inn","lat":51.26848,"lon":0.56712,"postcode":"ME14 4BS","la":"Maidstone","era":"trad","nn":992,"risk":53,"cat":"amber"},{"name":"The Royal Papermill","lat":51.26372,"lon":0.51361,"postcode":"ME15 6QS","la":"Maidstone","era":"trad","nn":148,"risk":27,"cat":"green"},{"name":"The Running Horse","lat":51.29454,"lon":0.51584,"postcode":"ME14 3AG","la":"Maidstone","era":"trad","nn":446,"risk":47,"cat":"amber"},{"name":"The Style And Winch","lat":51.27618,"lon":0.52494,"postcode":"ME14 1ED","la":"Maidstone","era":"other","nn":0,"risk":26,"cat":"green"},{"name":"The Swan Public House","lat":51.25109,"lon":0.52701,"postcode":"ME15 9UJ","la":"Maidstone","era":"trad","nn":107,"risk":44,"cat":"amber"},{"name":"The Teston Club","lat":51.25446,"lon":0.44118,"postcode":"ME18 5AQ","la":"Maidstone","era":"other","nn":154,"risk":47,"cat":"amber"},{"name":"The Tickled Trout","lat":51.24678,"lon":0.45364,"postcode":"ME15 0PE","la":"Maidstone","era":"other","nn":786,"risk":52,"cat":"amber"},{"name":"The Walnut Tree","lat":51.26852,"lon":0.49967,"postcode":"ME16 8SR","la":"Maidstone","era":"other","nn":663,"risk":36,"cat":"amber"},{"name":"The Walnut Tree","lat":51.24412,"lon":0.52311,"postcode":"ME15 9UX","la":"Maidstone","era":"other","nn":821,"risk":49,"cat":"amber"},{"name":"The Walnut Tree Inn","lat":51.25013,"lon":0.49722,"postcode":"ME15 0HJ","la":"Maidstone","era":"trad","nn":810,"risk":52,"cat":"amber"},{"name":"The White Horse","lat":51.27345,"lon":0.5121,"postcode":"ME16 8QL","la":"Maidstone","era":"trad","nn":257,"risk":28,"cat":"green"},{"name":"The White Horse","lat":51.27424,"lon":0.57868,"postcode":"ME14 4DL","la":"Maidstone","era":"trad","nn":216,"risk":45,"cat":"amber"},{"name":"The Windmill","lat":51.26157,"lon":0.62591,"postcode":"ME17 1TR","la":"Maidstone","era":"trad","nn":1710,"risk":61,"cat":"red"},{"name":"The Wishful Thinker","lat":51.22697,"lon":0.70466,"postcode":"ME17 2HY","la":"Maidstone","era":"other","nn":908,"risk":53,"cat":"amber"},{"name":"The Yew Tree Inn","lat":51.29827,"lon":0.51903,"postcode":"ME14 3DB","la":"Maidstone","era":"trad","nn":470,"risk":47,"cat":"amber"},{"name":"The Zoo","lat":51.27439,"lon":0.52204,"postcode":"ME14 1HP","la":"Maidstone","era":"other","nn":21,"risk":26,"cat":"green"},{"name":"Thyme 2 Dine Catering","lat":51.26288,"lon":0.51526,"postcode":"ME15 6LF","la":"Maidstone","era":"other","nn":148,"risk":27,"cat":"green"},{"name":"Tovil Scout Group","lat":51.24852,"lon":0.55527,"postcode":"ME15 8HE","la":"Maidstone","era":"other","nn":1610,"risk":60,"cat":"amber"},{"name":"Welcome Gym","lat":51.27706,"lon":0.50845,"postcode":"ME16 0DT","la":"Maidstone","era":"other","nn":238,"risk":28,"cat":"green"},{"name":"Westborough Working Mens Club","lat":51.27049,"lon":0.50924,"postcode":"ME16 8SE","la":"Maidstone","era":"trad","nn":206,"risk":28,"cat":"green"},{"name":"Ye Olde Thirsty Pig","lat":51.27049,"lon":0.5248,"postcode":"ME15 6LP","la":"Maidstone","era":"other","nn":31,"risk":26,"cat":"green"},{"name":"10:50 From Victoria","lat":51.39678,"lon":0.49534,"postcode":"ME2 4SJ","la":"Medway","era":"trad","nn":254,"risk":28,"cat":"green"},{"name":"Anchorians Club","lat":51.36955,"lon":0.56195,"postcode":"ME7 3AN","la":"Medway","era":"trad","nn":240,"risk":33,"cat":"amber"},{"name":"Aquabars","lat":51.39218,"lon":0.56737,"postcode":"ME7 2QX","la":"Medway","era":"other","nn":321,"risk":33,"cat":"amber"},{"name":"Bas Bar","lat":51.39924,"lon":0.49533,"postcode":"ME2 3DS","la":"Medway","era":"other","nn":120,"risk":27,"cat":"green"},{"name":"Bodega 51","lat":51.39039,"lon":0.50359,"postcode":"ME1 1LN","la":"Medway","era":"other","nn":18,"risk":26,"cat":"green"},{"name":"Cannon Public House","lat":51.39072,"lon":0.53091,"postcode":"ME7 5AS","la":"Medway","era":"other","nn":910,"risk":50,"cat":"amber"},{"name":"Carpenters Arms","lat":51.37898,"lon":0.50755,"postcode":"ME1 2EF","la":"Medway","era":"trad","nn":32,"risk":26,"cat":"green"},{"name":"Casino Cabaret Rooms","lat":51.38807,"lon":0.50684,"postcode":"ME1 1PD","la":"Medway","era":"mod","nn":102,"risk":27,"cat":"green"},{"name":"Cliffe Mens Social Club","lat":51.45227,"lon":0.49414,"postcode":"ME3 7SS","la":"Medway","era":"mod","nn":1039,"risk":56,"cat":"amber"},{"name":"Cliffe Woods Social Club","lat":51.43422,"lon":0.49684,"postcode":"ME3 8HX","la":"Medway","era":"mod","nn":2016,"risk":63,"cat":"red"},{"name":"Coach And Horses","lat":51.39691,"lon":0.48475,"postcode":"ME2 3PA","la":"Medway","era":"trad","nn":634,"risk":30,"cat":"green"},{"name":"Coopers Arms P.H.","lat":51.38788,"lon":0.50158,"postcode":"ME1 1TL","la":"Medway","era":"trad","nn":233,"risk":28,"cat":"green"},{"name":"Cricketers","lat":51.36313,"lon":0.608,"postcode":"ME8 7JH","la":"Medway","era":"other","nn":39,"risk":26,"cat":"green"},{"name":"Cuxton Social Club","lat":51.37476,"lon":0.45108,"postcode":"ME2 1EZ","la":"Medway","era":"mod","nn":522,"risk":50,"cat":"amber"},{"name":"Eagle Tavern","lat":51.38773,"lon":0.50548,"postcode":"ME1 1JT","la":"Medway","era":"trad","nn":48,"risk":26,"cat":"green"},{"name":"Fenn Bell Inn","lat":51.45169,"lon":0.58911,"postcode":"ME3 8RF","la":"Medway","era":"trad","nn":1946,"risk":62,"cat":"red"},{"name":"Five Bells","lat":51.42043,"lon":0.56348,"postcode":"ME3 9BE","la":"Medway","era":"other","nn":142,"risk":32,"cat":"amber"},{"name":"Fleur De Lis","lat":51.38362,"lon":0.54997,"postcode":"ME7 4RR","la":"Medway","era":"other","nn":367,"risk":29,"cat":"green"},{"name":"General At Sea","lat":51.37217,"lon":0.51641,"postcode":"ME4 6QT","la":"Medway","era":"other","nn":2,"risk":26,"cat":"green"},{"name":"Gillingham Labour Club","lat":51.3735,"lon":0.5824,"postcode":"ME8 6JU","la":"Medway","era":"other","nn":671,"risk":51,"cat":"amber"},{"name":"Hastings Arms","lat":51.38929,"lon":0.57625,"postcode":"ME7 2YD","la":"Medway","era":"trad","nn":184,"risk":32,"cat":"amber"},{"name":"Haven All Hallows Box Bar","lat":51.47492,"lon":0.64096,"postcode":"ME3 9QD","la":"Medway","era":"other","nn":372,"risk":49,"cat":"amber"},{"name":"Holcombe Sports Club","lat":51.35929,"lon":0.50227,"postcode":"ME1 2TQ","la":"Medway","era":"other","nn":920,"risk":52,"cat":"amber"},{"name":"Homeward Bound PH","lat":51.35028,"lon":0.44576,"postcode":"ME2 1BY","la":"Medway","era":"other","nn":172,"risk":30,"cat":"green"},{"name":"Hoo Ness Yacht Club","lat":51.41266,"lon":0.56581,"postcode":"ME3 9LB","la":"Medway","era":"other","nn":681,"risk":36,"cat":"amber"},{"name":"Hoo Village Institute","lat":51.41985,"lon":0.56166,"postcode":"ME3 9AA","la":"Medway","era":"other","nn":142,"risk":32,"cat":"amber"},{"name":"JD Wetherspoon - The Railway Inn","lat":51.36586,"lon":0.6118,"postcode":"ME8 7SF","la":"Medway","era":"trad","nn":288,"risk":28,"cat":"green"},{"name":"Jolly Knight/Ye Arrow","lat":51.39016,"lon":0.50315,"postcode":"ME1 1LD","la":"Medway","era":"other","nn":34,"risk":26,"cat":"green"},{"name":"Jordans Pool & Snooker Lounge","lat":51.36413,"lon":0.60717,"postcode":"ME8 7HW","la":"Medway","era":"mod","nn":108,"risk":27,"cat":"green"},{"name":"Kings Arms","lat":51.40629,"lon":0.52492,"postcode":"ME2 4XG","la":"Medway","era":"trad","nn":82,"risk":32,"cat":"amber"},{"name":"Kings Head Hotel \\\\& Bar","lat":51.38986,"lon":0.50351,"postcode":"ME1 1LD","la":"Medway","era":"trad","nn":42,"risk":26,"cat":"green"},{"name":"Lordswood Sports & Social Club","lat":51.34036,"lon":0.54578,"postcode":"ME5 8YE","la":"Medway","era":"mod","nn":1281,"risk":58,"cat":"amber"},{"name":"Lux Lounge","lat":51.39108,"lon":0.50233,"postcode":"ME1 1PT","la":"Medway","era":"mod","nn":37,"risk":26,"cat":"green"},{"name":"Mackland Arms","lat":51.36792,"lon":0.6143,"postcode":"ME8 7PS","la":"Medway","era":"trad","nn":288,"risk":28,"cat":"green"},{"name":"Nag's Head PH","lat":51.38388,"lon":0.51169,"postcode":"ME1 1HS","la":"Medway","era":"trad","nn":131,"risk":27,"cat":"green"},{"name":"Newtown Social Club","lat":51.35634,"lon":0.44404,"postcode":"ME2 1BA","la":"Medway","era":"mod","nn":685,"risk":48,"cat":"amber"},{"name":"Parkwood Community Association","lat":51.34787,"lon":0.59644,"postcode":"ME8 9PN","la":"Medway","era":"other","nn":992,"risk":53,"cat":"amber"},{"name":"Pier Hotel","lat":51.41227,"lon":0.5305,"postcode":"ME2 4XA","la":"Medway","era":"other","nn":735,"risk":49,"cat":"amber"},{"name":"Plough & Chequers PH","lat":51.3904,"lon":0.57428,"postcode":"ME7 2TY","la":"Medway","era":"trad","nn":184,"risk":32,"cat":"amber"},{"name":"Prince Of Wales / 88th Street / Value Mighty/Sin City Burger","lat":51.38288,"lon":0.52368,"postcode":"ME4 4HU","la":"Medway","era":"trad","nn":141,"risk":27,"cat":"green"},{"name":"Prince Park Pub","lat":51.3539,"lon":0.53504,"postcode":"ME5 7PQ","la":"Medway","era":"trad","nn":832,"risk":52,"cat":"amber"},{"name":"Rainham Arms","lat":51.36501,"lon":0.62145,"postcode":"ME8 8NP","la":"Medway","era":"trad","nn":477,"risk":29,"cat":"green"},{"name":"Six Bells","lat":51.46134,"lon":0.49782,"postcode":"ME3 7QD","la":"Medway","era":"other","nn":1039,"risk":56,"cat":"amber"},{"name":"Southern Belle PH","lat":51.38687,"lon":0.54889,"postcode":"ME7 1AJ","la":"Medway","era":"other","nn":3,"risk":26,"cat":"green"},{"name":"Spyglass And Kettle","lat":51.35285,"lon":0.58106,"postcode":"ME8 0PG","la":"Medway","era":"other","nn":280,"risk":46,"cat":"amber"},{"name":"Strand Social & Sports Club","lat":51.39174,"lon":0.5628,"postcode":"ME7 1TD","la":"Medway","era":"mod","nn":321,"risk":33,"cat":"amber"},{"name":"Strood Yacht Club","lat":51.38976,"lon":0.48971,"postcode":"ME2 2AH","la":"Medway","era":"other","nn":733,"risk":31,"cat":"amber"},{"name":"Sturdee Social And Bowling Club","lat":51.37977,"lon":0.56311,"postcode":"ME7 2HN","la":"Medway","era":"mod","nn":905,"risk":52,"cat":"amber"},{"name":"Tap 'N' Tin Public House","lat":51.38198,"lon":0.52225,"postcode":"ME4 4JT","la":"Medway","era":"other","nn":141,"risk":27,"cat":"green"},{"name":"The Angel PH","lat":51.37339,"lon":0.62055,"postcode":"ME8 7UH","la":"Medway","era":"trad","nn":622,"risk":35,"cat":"amber"},{"name":"The Bell Inn","lat":51.37896,"lon":0.50709,"postcode":"ME1 2EF","la":"Medway","era":"trad","nn":32,"risk":26,"cat":"green"},{"name":"The Boat House","lat":51.39654,"lon":0.50266,"postcode":"ME2 4DR","la":"Medway","era":"other","nn":204,"risk":27,"cat":"green"},{"name":"The Bounty Pub","lat":51.39506,"lon":0.46023,"postcode":"ME2 2XH","la":"Medway","era":"other","nn":693,"risk":51,"cat":"amber"},{"name":"The Brittania","lat":51.38686,"lon":0.54893,"postcode":"ME7 1AJ","la":"Medway","era":"other","nn":3,"risk":26,"cat":"green"},{"name":"The Chequers Inn","lat":51.41861,"lon":0.56354,"postcode":"ME3 9AL","la":"Medway","era":"trad","nn":190,"risk":32,"cat":"amber"},{"name":"The City Wall Wine Bar","lat":51.38799,"lon":0.50494,"postcode":"ME1 1JT","la":"Medway","era":"other","nn":34,"risk":26,"cat":"green"},{"name":"The Crafty Fox","lat":51.41216,"lon":0.51231,"postcode":"ME3 8AG","la":"Medway","era":"other","nn":121,"risk":44,"cat":"amber"},{"name":"The Crown","lat":51.39129,"lon":0.50194,"postcode":"ME1 1PT","la":"Medway","era":"trad","nn":37,"risk":26,"cat":"green"},{"name":"The Dead Pigeon","lat":51.38309,"lon":0.51594,"postcode":"ME1 1DJ","la":"Medway","era":"other","nn":181,"risk":27,"cat":"green"},{"name":"The Dewdrop","lat":51.37105,"lon":0.59124,"postcode":"ME8 6TU","la":"Medway","era":"other","nn":671,"risk":51,"cat":"amber"},{"name":"The Five Bells","lat":51.34878,"lon":0.44636,"postcode":"ME2 1BZ","la":"Medway","era":"other","nn":172,"risk":30,"cat":"green"},{"name":"The Flippin Frog Ltd","lat":51.38333,"lon":0.51335,"postcode":"ME1 1BT","la":"Medway","era":"other","nn":131,"risk":27,"cat":"green"},{"name":"The Flying Saucer","lat":51.35227,"lon":0.57077,"postcode":"ME7 3RH","la":"Medway","era":"other","nn":718,"risk":49,"cat":"amber"},{"name":"The General At Sea","lat":51.37219,"lon":0.51642,"postcode":"ME4 6QT","la":"Medway","era":"other","nn":2,"risk":26,"cat":"green"},{"name":"The George","lat":51.3685,"lon":0.50929,"postcode":"ME1 2BH","la":"Medway","era":"trad","nn":511,"risk":35,"cat":"amber"},{"name":"The George Vaults","lat":51.39044,"lon":0.50335,"postcode":"ME1 1LN","la":"Medway","era":"trad","nn":18,"risk":26,"cat":"green"},{"name":"The Golden Lion","lat":51.38665,"lon":0.50697,"postcode":"ME1 1EL","la":"Medway","era":"trad","nn":84,"risk":27,"cat":"green"},{"name":"The Granville Arms PH","lat":51.38447,"lon":0.50365,"postcode":"ME1 1RL","la":"Medway","era":"trad","nn":146,"risk":27,"cat":"green"},{"name":"The Greedy Banker","lat":51.36345,"lon":0.60826,"postcode":"ME8 7HS","la":"Medway","era":"other","nn":36,"risk":26,"cat":"green"},{"name":"The Hogarth Inn","lat":51.45684,"lon":0.71347,"postcode":"ME3 0BJ","la":"Medway","era":"trad","nn":2965,"risk":69,"cat":"red"},{"name":"The Huffkin Of Hoo","lat":51.47738,"lon":0.6446,"postcode":"ME3 9QD","la":"Medway","era":"other","nn":372,"risk":49,"cat":"amber"},{"name":"The Hungry Fox","lat":51.34332,"lon":0.57349,"postcode":"ME7 3PE","la":"Medway","era":"trad","nn":1013,"risk":56,"cat":"amber"},{"name":"The Huntsman","lat":51.36669,"lon":0.51605,"postcode":"ME1 2RA","la":"Medway","era":"other","nn":511,"risk":35,"cat":"amber"},{"name":"The Jolly Caulkers Pub","lat":51.38155,"lon":0.52807,"postcode":"ME4 4BJ","la":"Medway","era":"other","nn":110,"risk":29,"cat":"green"},{"name":"The Man Of Kent Ale House","lat":51.38374,"lon":0.5054,"postcode":"ME1 1YN","la":"Medway","era":"other","nn":146,"risk":27,"cat":"green"},{"name":"The Nags Head","lat":51.45255,"lon":0.63464,"postcode":"ME3 9RA","la":"Medway","era":"trad","nn":2526,"risk":66,"cat":"red"},{"name":"The Napier Arms","lat":51.38577,"lon":0.54135,"postcode":"ME7 5ES","la":"Medway","era":"trad","nn":152,"risk":27,"cat":"green"},{"name":"The Oak","lat":51.33866,"lon":0.52753,"postcode":"ME5 9NT","la":"Medway","era":"trad","nn":1281,"risk":58,"cat":"amber"},{"name":"The Old Ash Tree","lat":51.37318,"lon":0.55237,"postcode":"ME5 7EN","la":"Medway","era":"other","nn":662,"risk":33,"cat":"amber"},{"name":"The Poachers Pocket","lat":51.35155,"lon":0.52365,"postcode":"ME5 0NB","la":"Medway","era":"other","nn":832,"risk":52,"cat":"amber"},{"name":"The Prince Of Ales","lat":51.36287,"lon":0.61092,"postcode":"ME8 8AN","la":"Medway","era":"trad","nn":161,"risk":27,"cat":"green"},{"name":"The Prince Of Wales","lat":51.39378,"lon":0.49807,"postcode":"ME2 4AB","la":"Medway","era":"trad","nn":341,"risk":28,"cat":"green"},{"name":"The Red Dog","lat":51.4485,"lon":0.56149,"postcode":"ME3 8SF","la":"Medway","era":"other","nn":1946,"risk":62,"cat":"red"},{"name":"The Richard Cobden","lat":51.37441,"lon":0.5395,"postcode":"ME4 5BP","la":"Medway","era":"other","nn":903,"risk":50,"cat":"amber"},{"name":"The Rising Sun","lat":51.38368,"lon":0.50783,"postcode":"ME1 2BU","la":"Medway","era":"other","nn":169,"risk":27,"cat":"green"},{"name":"The Rose Inn","lat":51.36166,"lon":0.61716,"postcode":"ME8 8DR","la":"Medway","era":"trad","nn":454,"risk":29,"cat":"green"},{"name":"The Sans Pareil","lat":51.40582,"lon":0.5073,"postcode":"ME2 4JS","la":"Medway","era":"other","nn":521,"risk":35,"cat":"amber"},{"name":"The Scruffy Duck","lat":51.38973,"lon":0.5462,"postcode":"ME7 1LD","la":"Medway","era":"other","nn":368,"risk":29,"cat":"green"},{"name":"The Ship","lat":51.40378,"lon":0.50054,"postcode":"ME2 4RA","la":"Medway","era":"trad","nn":521,"risk":30,"cat":"green"},{"name":"The Ship \\\\& Trades","lat":51.40242,"lon":0.53626,"postcode":"ME4 3ER","la":"Medway","era":"trad","nn":823,"risk":49,"cat":"amber"},{"name":"The Sportsman","lat":51.39883,"lon":0.49373,"postcode":"ME2 3BJ","la":"Medway","era":"other","nn":120,"risk":27,"cat":"green"},{"name":"The Stag PH","lat":51.4111,"lon":0.51272,"postcode":"ME2 4LA","la":"Medway","era":"trad","nn":121,"risk":44,"cat":"amber"},{"name":"The Star","lat":51.37169,"lon":0.56159,"postcode":"ME7 2AA","la":"Medway","era":"other","nn":240,"risk":33,"cat":"amber"},{"name":"The Steam Packet Public House","lat":51.39667,"lon":0.49973,"postcode":"ME2 4BG","la":"Medway","era":"other","nn":204,"risk":27,"cat":"green"},{"name":"The Stone Horse","lat":51.41472,"lon":0.4895,"postcode":"ME3 8EN","la":"Medway","era":"trad","nn":1437,"risk":59,"cat":"amber"},{"name":"The Three Mariners","lat":51.3788,"lon":0.6045,"postcode":"ME8 7TN","la":"Medway","era":"other","nn":1261,"risk":57,"cat":"amber"},{"name":"The Wheatsheaf","lat":51.3675,"lon":0.5483,"postcode":"ME5 7PU","la":"Medway","era":"trad","nn":691,"risk":36,"cat":"amber"},{"name":"The White Hart","lat":51.37335,"lon":0.45826,"postcode":"ME2 1AD","la":"Medway","era":"trad","nn":522,"risk":50,"cat":"amber"},{"name":"The Whod Ha Thot It","lat":51.37897,"lon":0.50125,"postcode":"ME1 3DN","la":"Medway","era":"other","nn":405,"risk":29,"cat":"green"},{"name":"Three Sheets To The Wind Ltd","lat":51.38598,"lon":0.50754,"postcode":"ME1 1EH","la":"Medway","era":"other","nn":84,"risk":27,"cat":"green"},{"name":"Tiger Moth","lat":51.35216,"lon":0.509,"postcode":"ME5 9UJ","la":"Medway","era":"other","nn":920,"risk":52,"cat":"amber"},{"name":"Tudor Rose","lat":51.40625,"lon":0.5261,"postcode":"ME2 4XG","la":"Medway","era":"other","nn":82,"risk":32,"cat":"amber"},{"name":"Two Brewers Public House","lat":51.38818,"lon":0.50533,"postcode":"ME1 1JS","la":"Medway","era":"other","nn":34,"risk":26,"cat":"green"},{"name":"Walnut Tree Club","lat":51.39551,"lon":0.54841,"postcode":"ME7 1NL","la":"Medway","era":"other","nn":661,"risk":36,"cat":"amber"},{"name":"Weston Arms","lat":51.40019,"lon":0.49222,"postcode":"ME2 3AQ","la":"Medway","era":"trad","nn":184,"risk":27,"cat":"green"},{"name":"White Horse","lat":51.3634,"lon":0.60877,"postcode":"ME8 8AA","la":"Medway","era":"trad","nn":36,"risk":26,"cat":"green"},{"name":"White Lion","lat":51.38085,"lon":0.5292,"postcode":"ME4 4BN","la":"Medway","era":"trad","nn":110,"risk":29,"cat":"green"},{"name":"Wigmore & District Smallholders Club","lat":51.35326,"lon":0.58505,"postcode":"ME8 0JG","la":"Medway","era":"other","nn":280,"risk":33,"cat":"amber"},{"name":"Will Adams","lat":51.38668,"lon":0.54297,"postcode":"ME7 5EG","la":"Medway","era":"other","nn":152,"risk":27,"cat":"green"},{"name":"Woodland Tavern","lat":51.38476,"lon":0.54424,"postcode":"ME7 5TS","la":"Medway","era":"other","nn":230,"risk":28,"cat":"green"},{"name":"Abbey Hotel","lat":51.43247,"lon":0.7981,"postcode":"ME12 2DA","la":"Swale","era":"trad","nn":342,"risk":47,"cat":"amber"},{"name":"Albion Bar","lat":51.44203,"lon":0.75118,"postcode":"ME12 1RN","la":"Swale","era":"other","nn":157,"risk":28,"cat":"green"},{"name":"Albion Taverna","lat":51.31878,"lon":0.89086,"postcode":"ME13 7DH","la":"Swale","era":"other","nn":244,"risk":26,"cat":"green"},{"name":"Ays The Little Boozer","lat":51.44026,"lon":0.77029,"postcode":"ME12 2AL","la":"Swale","era":"other","nn":41,"risk":25,"cat":"green"},{"name":"Baltic House Wine Bar","lat":51.32078,"lon":0.89663,"postcode":"ME13 7BS","la":"Swale","era":"mod","nn":42,"risk":25,"cat":"green"},{"name":"Bar And Restaurant Muswell Manor","lat":51.38721,"lon":0.93516,"postcode":"ME12 4RJ","la":"Swale","era":"mod","nn":1139,"risk":55,"cat":"amber"},{"name":"Beauty Of Bath","lat":51.33441,"lon":0.71953,"postcode":"ME10 1LH","la":"Swale","era":"other","nn":556,"risk":34,"cat":"amber"},{"name":"Belle And Lion","lat":51.44066,"lon":0.7611,"postcode":"ME12 1NL","la":"Swale","era":"trad","nn":93,"risk":25,"cat":"green"},{"name":"Bobbing Apple","lat":51.35128,"lon":0.70702,"postcode":"ME9 8RZ","la":"Swale","era":"other","nn":541,"risk":28,"cat":"green"},{"name":"Boughton Under Blean Bowling Club","lat":51.29468,"lon":0.93305,"postcode":"ME13 9NA","la":"Swale","era":"other","nn":1171,"risk":55,"cat":"amber"},{"name":"Bunters","lat":51.34118,"lon":0.73336,"postcode":"ME10 3DU","la":"Swale","era":"other","nn":67,"risk":25,"cat":"green"},{"name":"Castle Inn","lat":51.40677,"lon":0.85837,"postcode":"ME12 4DE","la":"Swale","era":"trad","nn":1287,"risk":56,"cat":"amber"},{"name":"Charisma Cocktail Bar","lat":51.42165,"lon":0.81217,"postcode":"ME12 3QD","la":"Swale","era":"other","nn":11,"risk":30,"cat":"green"},{"name":"Corrigan's","lat":51.39793,"lon":0.91841,"postcode":"ME12 4RE","la":"Swale","era":"other","nn":352,"risk":27,"cat":"green"},{"name":"Donna's Ale House","lat":51.34074,"lon":0.73256,"postcode":"ME10 1AB","la":"Swale","era":"other","nn":16,"risk":25,"cat":"green"},{"name":"Dover Castle","lat":51.32679,"lon":0.80385,"postcode":"ME9 9QS","la":"Swale","era":"other","nn":335,"risk":47,"cat":"amber"},{"name":"Elmhurst Leisure Park Ltd","lat":51.41744,"lon":0.87149,"postcode":"ME12 4ER","la":"Swale","era":"trad","nn":241,"risk":29,"cat":"green"},{"name":"Faversham Club","lat":51.31421,"lon":0.89186,"postcode":"ME13 8NX","la":"Swale","era":"other","nn":56,"risk":25,"cat":"green"},{"name":"Faversham Recreation Bowling Club","lat":51.31148,"lon":0.89436,"postcode":"ME13 8ES","la":"Swale","era":"other","nn":118,"risk":25,"cat":"green"},{"name":"Faversham Rugby Union Football Club","lat":51.3112,"lon":0.896,"postcode":"ME13 8HA","la":"Swale","era":"other","nn":118,"risk":25,"cat":"green"},{"name":"Ferry House Inn","lat":51.35994,"lon":0.90403,"postcode":"ME12 4BQ","la":"Swale","era":"other","nn":2757,"risk":66,"cat":"red"},{"name":"Fountain Of Ale","lat":51.34203,"lon":0.73492,"postcode":"ME10 3ED","la":"Swale","era":"other","nn":100,"risk":25,"cat":"green"},{"name":"Fruiterers Arms","lat":51.31925,"lon":0.74932,"postcode":"ME9 0PP","la":"Swale","era":"trad","nn":480,"risk":46,"cat":"amber"},{"name":"Furlongs Ale House","lat":51.31471,"lon":0.89184,"postcode":"ME13 8NS","la":"Swale","era":"other","nn":56,"risk":25,"cat":"green"},{"name":"Gore Court Cricket Club","lat":51.34684,"lon":0.70383,"postcode":"ME10 1YT","la":"Swale","era":"other","nn":0,"risk":25,"cat":"green"},{"name":"Green Farmhouse","lat":51.37337,"lon":0.6667,"postcode":"ME9 7DS","la":"Swale","era":"other","nn":220,"risk":46,"cat":"amber"},{"name":"Harps Inn","lat":51.42012,"lon":0.80034,"postcode":"ME12 3NR","la":"Swale","era":"trad","nn":778,"risk":35,"cat":"amber"},{"name":"Heights Of Alma","lat":51.43936,"lon":0.77229,"postcode":"ME12 2AX","la":"Swale","era":"other","nn":172,"risk":26,"cat":"green"},{"name":"Icon Catering Ltd","lat":51.33849,"lon":0.66784,"postcode":"ME9 7PX","la":"Swale","era":"other","nn":1490,"risk":58,"cat":"amber"},{"name":"Langs Bar & Cocktail Lounge","lat":51.34138,"lon":0.73591,"postcode":"ME10 3DW","la":"Swale","era":"mod","nn":100,"risk":25,"cat":"green"},{"name":"Leading Light","lat":51.31377,"lon":0.89138,"postcode":"ME13 8NZ","la":"Swale","era":"other","nn":40,"risk":25,"cat":"green"},{"name":"Life Nightclub","lat":51.33999,"lon":0.73681,"postcode":"ME10 4PB","la":"Swale","era":"other","nn":0,"risk":25,"cat":"green"},{"name":"Millers Bar","lat":51.35093,"lon":0.73245,"postcode":"ME10 2AT","la":"Swale","era":"trad","nn":121,"risk":26,"cat":"green"},{"name":"Milstead Cricket Club","lat":51.30258,"lon":0.73444,"postcode":"ME9 0RT","la":"Swale","era":"other","nn":91,"risk":45,"cat":"amber"},{"name":"Milton Regis Bowling Club","lat":51.35202,"lon":0.73255,"postcode":"ME10 2PS","la":"Swale","era":"other","nn":121,"risk":26,"cat":"green"},{"name":"Milton Regis Conservative Club","lat":51.34644,"lon":0.73046,"postcode":"ME10 2JZ","la":"Swale","era":"other","nn":150,"risk":26,"cat":"green"},{"name":"Minster Working Men's Club","lat":51.42242,"lon":0.81094,"postcode":"ME12 2HW","la":"Swale","era":"trad","nn":112,"risk":30,"cat":"green"},{"name":"Neptune Snooker Club","lat":51.44062,"lon":0.77012,"postcode":"ME12 2AW","la":"Swale","era":"other","nn":41,"risk":25,"cat":"green"},{"name":"Old Wine Vaults","lat":51.31427,"lon":0.89106,"postcode":"ME13 8PA","la":"Swale","era":"other","nn":56,"risk":25,"cat":"green"},{"name":"Palm Club - Bar","lat":51.41678,"lon":0.87762,"postcode":"ME12 4ET","la":"Swale","era":"other","nn":262,"risk":26,"cat":"green"},{"name":"Paradise Club","lat":51.39596,"lon":0.91443,"postcode":"ME12 4LN","la":"Swale","era":"other","nn":352,"risk":27,"cat":"green"},{"name":"Phoenix Tavern","lat":51.31831,"lon":0.89429,"postcode":"ME13 7BH","la":"Swale","era":"other","nn":244,"risk":26,"cat":"green"},{"name":"Priory Club","lat":51.396,"lon":0.92428,"postcode":"ME12 4QR","la":"Swale","era":"other","nn":100,"risk":25,"cat":"green"},{"name":"Queenborough Bowls Club","lat":51.41427,"lon":0.75406,"postcode":"ME11 5DL","la":"Swale","era":"trad","nn":79,"risk":25,"cat":"green"},{"name":"Queenborough Yacht Club","lat":51.41698,"lon":0.74182,"postcode":"ME11 5AA","la":"Swale","era":"trad","nn":0,"risk":25,"cat":"green"},{"name":"Queens Head","lat":51.43615,"lon":0.76667,"postcode":"ME12 1UP","la":"Swale","era":"trad","nn":159,"risk":26,"cat":"green"},{"name":"Railway Hotel","lat":51.31359,"lon":0.89087,"postcode":"ME13 8PE","la":"Swale","era":"trad","nn":40,"risk":25,"cat":"green"},{"name":"Red Lion","lat":51.33999,"lon":0.73681,"postcode":"ME10 4PB","la":"Swale","era":"trad","nn":0,"risk":25,"cat":"green"},{"name":"Retreat Club","lat":51.41509,"lon":0.87499,"postcode":"ME12 4ES","la":"Swale","era":"other","nn":262,"risk":26,"cat":"green"},{"name":"Rodmersham Cricket Club","lat":51.31625,"lon":0.74435,"postcode":"ME9 0PR","la":"Swale","era":"other","nn":0,"risk":42,"cat":"amber"},{"name":"Rose And Crown","lat":51.39664,"lon":0.92327,"postcode":"ME12 4RD","la":"Swale","era":"trad","nn":100,"risk":25,"cat":"green"},{"name":"Rose And Crown","lat":51.25968,"lon":0.92442,"postcode":"ME13 9RY","la":"Swale","era":"trad","nn":1273,"risk":56,"cat":"amber"},{"name":"Rushenden Club","lat":51.40837,"lon":0.74348,"postcode":"ME11 5JZ","la":"Swale","era":"other","nn":900,"risk":33,"cat":"amber"},{"name":"Saddlebrook Clubhouse","lat":51.40075,"lon":0.90914,"postcode":"ME12 4LT","la":"Swale","era":"other","nn":238,"risk":29,"cat":"green"},{"name":"Sheerness East Working Men's Club","lat":51.42103,"lon":0.77334,"postcode":"ME12 3BZ","la":"Swale","era":"trad","nn":288,"risk":32,"cat":"amber"},{"name":"Sheppey Club","lat":51.39883,"lon":0.91066,"postcode":"ME12 4LX","la":"Swale","era":"other","nn":238,"risk":26,"cat":"green"},{"name":"Sheppey Hall Bar","lat":51.41427,"lon":0.75521,"postcode":"ME11 5DL","la":"Swale","era":"other","nn":79,"risk":28,"cat":"green"},{"name":"Sheppey Little Theatre","lat":51.43999,"lon":0.76686,"postcode":"ME12 2NX","la":"Swale","era":"other","nn":236,"risk":26,"cat":"green"},{"name":"Sheppey Rugby Football Club","lat":51.40968,"lon":0.79414,"postcode":"ME12 3RT","la":"Swale","era":"other","nn":1238,"risk":56,"cat":"amber"},{"name":"Sheppey Sports Club","lat":51.42039,"lon":0.76723,"postcode":"ME12 3DF","la":"Swale","era":"other","nn":429,"risk":33,"cat":"amber"},{"name":"Ship On Shore","lat":51.44,"lon":0.78222,"postcode":"ME12 2BX","la":"Swale","era":"trad","nn":692,"risk":35,"cat":"amber"},{"name":"Sittingbourne Rugby Club","lat":51.34684,"lon":0.70383,"postcode":"ME10 1YT","la":"Swale","era":"other","nn":0,"risk":25,"cat":"green"},{"name":"Sophie Barnes T/a The Crown Public House","lat":51.37682,"lon":0.6485,"postcode":"ME9 7EU","la":"Swale","era":"trad","nn":666,"risk":49,"cat":"amber"},{"name":"Southbank Club","lat":51.39441,"lon":0.92348,"postcode":"ME12 4QP","la":"Swale","era":"other","nn":186,"risk":28,"cat":"green"},{"name":"St Georges Bowls Club","lat":51.43156,"lon":0.75705,"postcode":"ME12 1QT","la":"Swale","era":"trad","nn":741,"risk":30,"cat":"green"},{"name":"Sunnymead Club","lat":51.41531,"lon":0.87089,"postcode":"ME12 4EW","la":"Swale","era":"other","nn":0,"risk":27,"cat":"green"},{"name":"Swale Indoor Bowls Centre (Bar)","lat":51.3514,"lon":0.72877,"postcode":"ME10 2BJ","la":"Swale","era":"other","nn":261,"risk":26,"cat":"green"},{"name":"Swale Marina Club House","lat":51.34668,"lon":0.8134,"postcode":"ME9 9HN","la":"Swale","era":"other","nn":2309,"risk":63,"cat":"red"},{"name":"The Admiral's Arm / West Street Tapas","lat":51.41629,"lon":0.74076,"postcode":"ME11 5AD","la":"Swale","era":"mod","nn":107,"risk":28,"cat":"green"},{"name":"The Alma","lat":51.2948,"lon":0.85696,"postcode":"ME13 0DU","la":"Swale","era":"other","nn":2990,"risk":68,"cat":"red"},{"name":"The Anchor","lat":51.3204,"lon":0.89661,"postcode":"ME13 7BP","la":"Swale","era":"trad","nn":42,"risk":25,"cat":"green"},{"name":"The Appleyard","lat":51.33694,"lon":0.73564,"postcode":"ME10 4DE","la":"Swale","era":"mod","nn":329,"risk":27,"cat":"green"},{"name":"The Appleyard Sports Ground","lat":51.33109,"lon":0.72834,"postcode":"ME10 1QN","la":"Swale","era":"mod","nn":371,"risk":30,"cat":"green"},{"name":"The Bayview","lat":51.39675,"lon":0.90015,"postcode":"ME12 4AQ","la":"Swale","era":"other","nn":765,"risk":35,"cat":"amber"},{"name":"The Bear Inn","lat":51.31598,"lon":0.89093,"postcode":"ME13 7AG","la":"Swale","era":"trad","nn":69,"risk":25,"cat":"green"},{"name":"The Billet","lat":51.34472,"lon":0.71022,"postcode":"ME10 1QA","la":"Swale","era":"other","nn":503,"risk":28,"cat":"green"},{"name":"The Black Lion","lat":51.31454,"lon":0.78634,"postcode":"ME9 0RJ","la":"Swale","era":"trad","nn":1726,"risk":59,"cat":"amber"},{"name":"The Bull Inn","lat":51.31614,"lon":0.8852,"postcode":"ME13 7JL","la":"Swale","era":"trad","nn":94,"risk":25,"cat":"green"},{"name":"The Bull Inn","lat":51.3519,"lon":0.66756,"postcode":"ME9 7JP","la":"Swale","era":"trad","nn":1490,"risk":58,"cat":"amber"},{"name":"The Carpenters Arms","lat":51.27497,"lon":0.81307,"postcode":"ME13 0AZ","la":"Swale","era":"trad","nn":2687,"risk":66,"cat":"red"},{"name":"The Castle Inn","lat":51.32939,"lon":0.87935,"postcode":"ME13 0PY","la":"Swale","era":"trad","nn":158,"risk":46,"cat":"amber"},{"name":"The Castle Tavern","lat":51.43727,"lon":0.76516,"postcode":"ME12 1UN","la":"Swale","era":"other","nn":29,"risk":25,"cat":"green"},{"name":"The Chequers Inn","lat":51.28216,"lon":0.77619,"postcode":"ME9 0BG","la":"Swale","era":"trad","nn":2687,"risk":66,"cat":"red"},{"name":"The Club @ Rodmersham","lat":51.31625,"lon":0.74435,"postcode":"ME9 0PR","la":"Swale","era":"other","nn":0,"risk":42,"cat":"amber"},{"name":"The Dickens Inn","lat":51.41531,"lon":0.87089,"postcode":"ME12 4EW","la":"Swale","era":"trad","nn":0,"risk":27,"cat":"green"},{"name":"The Dove Inn","lat":51.31526,"lon":0.98591,"postcode":"ME13 9HB","la":"Swale","era":"trad","nn":1840,"risk":60,"cat":"amber"},{"name":"The Five Bridges","lat":51.41069,"lon":0.75783,"postcode":"ME11 5AR","la":"Swale","era":"other","nn":437,"risk":45,"cat":"amber"},{"name":"The Flying Dutchman","lat":51.41698,"lon":0.74182,"postcode":"ME11 5AA","la":"Swale","era":"other","nn":0,"risk":25,"cat":"green"},{"name":"The Four Horseshoes","lat":51.32066,"lon":0.93948,"postcode":"ME13 9DE","la":"Swale","era":"trad","nn":2061,"risk":62,"cat":"red"},{"name":"The George","lat":51.33964,"lon":0.73755,"postcode":"ME10 4AW","la":"Swale","era":"trad","nn":65,"risk":25,"cat":"green"},{"name":"The George Inn And New Territories","lat":51.32778,"lon":0.7993,"postcode":"ME9 9QH","la":"Swale","era":"trad","nn":335,"risk":47,"cat":"amber"},{"name":"The Goat Inn","lat":51.44106,"lon":0.75993,"postcode":"ME12 1NJ","la":"Swale","era":"trad","nn":93,"risk":25,"cat":"green"},{"name":"The Golden Hope","lat":51.33988,"lon":0.73152,"postcode":"ME10 1DR","la":"Swale","era":"other","nn":108,"risk":25,"cat":"green"},{"name":"The Gore Court Arms","lat":51.33439,"lon":0.72754,"postcode":"ME10 1EP","la":"Swale","era":"trad","nn":371,"risk":27,"cat":"green"},{"name":"The Gunpowder Mill","lat":51.30587,"lon":0.90064,"postcode":"ME13 8XE","la":"Swale","era":"trad","nn":674,"risk":32,"cat":"amber"},{"name":"The Heritage","lat":51.42204,"lon":0.77816,"postcode":"ME12 3JE","la":"Swale","era":"other","nn":67,"risk":30,"cat":"green"},{"name":"The Highlanders","lat":51.42166,"lon":0.81201,"postcode":"ME12 3QD","la":"Swale","era":"other","nn":11,"risk":30,"cat":"green"},{"name":"The Jenny Wren","lat":51.35024,"lon":0.71688,"postcode":"ME10 5AB","la":"Swale","era":"other","nn":695,"risk":30,"cat":"green"},{"name":"The Limes","lat":51.31279,"lon":0.88997,"postcode":"ME13 8PG","la":"Swale","era":"other","nn":109,"risk":25,"cat":"green"},{"name":"The Long Hop","lat":51.34551,"lon":0.70244,"postcode":"ME10 1YU","la":"Swale","era":"other","nn":176,"risk":28,"cat":"green"},{"name":"The Market Inn","lat":51.31438,"lon":0.89598,"postcode":"ME13 8AT","la":"Swale","era":"trad","nn":128,"risk":26,"cat":"green"},{"name":"The Maypole Inn","lat":51.33462,"lon":0.7018,"postcode":"ME9 8JN","la":"Swale","era":"trad","nn":1212,"risk":56,"cat":"amber"},{"name":"The New Inn","lat":51.33942,"lon":0.75245,"postcode":"ME10 3LB","la":"Swale","era":"trad","nn":718,"risk":47,"cat":"amber"},{"name":"The Oak Grove","lat":51.38285,"lon":0.66333,"postcode":"ME9 7HA","la":"Swale","era":"trad","nn":1039,"risk":54,"cat":"amber"},{"name":"The Paper Mill","lat":51.34517,"lon":0.72972,"postcode":"ME10 2JN","la":"Swale","era":"trad","nn":150,"risk":26,"cat":"green"},{"name":"The Park Tavern","lat":51.33768,"lon":0.72999,"postcode":"ME10 1DZ","la":"Swale","era":"other","nn":267,"risk":27,"cat":"green"},{"name":"The Pilot's Rest","lat":51.43706,"lon":0.76491,"postcode":"ME12 1UJ","la":"Swale","era":"other","nn":29,"risk":25,"cat":"green"},{"name":"The Playa","lat":51.43291,"lon":0.80298,"postcode":"ME12 2NL","la":"Swale","era":"other","nn":342,"risk":47,"cat":"amber"},{"name":"The Plough Inn","lat":51.31586,"lon":0.81886,"postcode":"ME9 9JJ","la":"Swale","era":"trad","nn":1601,"risk":58,"cat":"amber"},{"name":"The Plough Inn","lat":51.24216,"lon":0.79852,"postcode":"ME13 0HY","la":"Swale","era":"trad","nn":3161,"risk":69,"cat":"red"},{"name":"The Queens Head Pub","lat":51.29657,"lon":0.94962,"postcode":"ME13 9BH","la":"Swale","era":"trad","nn":30,"risk":42,"cat":"amber"},{"name":"The Red Lion","lat":51.30844,"lon":0.96179,"postcode":"ME13 9TU","la":"Swale","era":"trad","nn":869,"risk":51,"cat":"amber"},{"name":"The Red Lion","lat":51.25079,"lon":0.87859,"postcode":"ME13 0NX","la":"Swale","era":"trad","nn":3290,"risk":70,"cat":"red"},{"name":"The Red Lion","lat":51.44192,"lon":0.74893,"postcode":"ME12 1RW","la":"Swale","era":"trad","nn":157,"risk":31,"cat":"amber"},{"name":"The Red Lion","lat":51.30321,"lon":0.73527,"postcode":"ME9 0RT","la":"Swale","era":"trad","nn":91,"risk":45,"cat":"amber"},{"name":"The Rendezvous Bar","lat":51.4378,"lon":0.76434,"postcode":"ME12 1UQ","la":"Swale","era":"other","nn":82,"risk":25,"cat":"green"},{"name":"The Rose & Crown","lat":51.34527,"lon":0.64178,"postcode":"ME9 7SS","la":"Swale","era":"trad","nn":1936,"risk":61,"cat":"red"},{"name":"The Royal Hotel","lat":51.44025,"lon":0.76312,"postcode":"ME12 1AB","la":"Swale","era":"trad","nn":147,"risk":26,"cat":"green"},{"name":"The Shipwrights Arms","lat":51.3358,"lon":0.89497,"postcode":"ME13 7TU","la":"Swale","era":"trad","nn":1254,"risk":56,"cat":"amber"},{"name":"The Shisha Bar","lat":51.42197,"lon":0.77721,"postcode":"ME12 3JD","la":"Swale","era":"other","nn":67,"risk":30,"cat":"green"},{"name":"The Stumble Inn","lat":51.34636,"lon":0.72768,"postcode":"ME10 2LG","la":"Swale","era":"trad","nn":193,"risk":26,"cat":"green"},{"name":"The Sun Inn","lat":51.31595,"lon":0.88994,"postcode":"ME13 7JE","la":"Swale","era":"trad","nn":69,"risk":25,"cat":"green"},{"name":"The Sun Inn","lat":51.30991,"lon":0.69528,"postcode":"ME9 8EY","la":"Swale","era":"trad","nn":2785,"risk":67,"cat":"red"},{"name":"The Three Hats","lat":51.3492,"lon":0.73217,"postcode":"ME10 2AR","la":"Swale","era":"other","nn":193,"risk":26,"cat":"green"},{"name":"The Three Horseshoes","lat":51.30266,"lon":0.95337,"postcode":"ME13 9UA","la":"Swale","era":"trad","nn":697,"risk":35,"cat":"amber"},{"name":"The Three Mariners","lat":51.33078,"lon":0.87882,"postcode":"ME13 0QA","la":"Swale","era":"other","nn":158,"risk":46,"cat":"amber"},{"name":"The Three Sisters","lat":51.37038,"lon":0.62811,"postcode":"ME8 8QR","la":"Swale","era":"other","nn":622,"risk":34,"cat":"amber"},{"name":"The Three Tuns","lat":51.31536,"lon":0.88467,"postcode":"ME13 7JP","la":"Swale","era":"other","nn":94,"risk":25,"cat":"green"},{"name":"The Three Tuns","lat":51.37433,"lon":0.66948,"postcode":"ME9 7DY","la":"Swale","era":"other","nn":220,"risk":46,"cat":"amber"},{"name":"The United Masonic Club","lat":51.43668,"lon":0.7639,"postcode":"ME12 1QX","la":"Swale","era":"trad","nn":82,"risk":25,"cat":"green"},{"name":"The Vineyard","lat":51.3407,"lon":0.73279,"postcode":"ME10 1AW","la":"Swale","era":"mod","nn":16,"risk":25,"cat":"green"},{"name":"The Walnut Tree","lat":51.41334,"lon":0.88542,"postcode":"ME12 4HA","la":"Swale","era":"other","nn":662,"risk":47,"cat":"amber"},{"name":"The White Horse","lat":51.34409,"lon":0.72839,"postcode":"ME10 2JX","la":"Swale","era":"trad","nn":151,"risk":26,"cat":"green"},{"name":"The White Horse","lat":51.29683,"lon":0.94972,"postcode":"ME13 9AL","la":"Swale","era":"trad","nn":30,"risk":42,"cat":"amber"},{"name":"The White Lion","lat":51.27109,"lon":0.92304,"postcode":"ME13 9RQ","la":"Swale","era":"trad","nn":1273,"risk":56,"cat":"amber"},{"name":"The Woolpack","lat":51.37853,"lon":0.72984,"postcode":"ME9 8SH","la":"Swale","era":"trad","nn":2953,"risk":68,"cat":"red"},{"name":"The Yellow Stocks Ltd","lat":51.33971,"lon":0.73859,"postcode":"ME10 4PD","la":"Swale","era":"other","nn":73,"risk":25,"cat":"green"},{"name":"The Ypres Tavern","lat":51.3408,"lon":0.73203,"postcode":"ME10 1AP","la":"Swale","era":"other","nn":37,"risk":25,"cat":"green"},{"name":"Upchurch River Valley Golf Course","lat":51.37178,"lon":0.64332,"postcode":"ME9 7AY","la":"Swale","era":"other","nn":666,"risk":49,"cat":"amber"},{"name":"Vibe Community - Faversham Pavilion Youth","lat":51.31329,"lon":0.89538,"postcode":"ME13 8EU","la":"Swale","era":"trad","nn":128,"risk":26,"cat":"green"},{"name":"Woodcombe Sports And Social Club","lat":51.34579,"lon":0.7541,"postcode":"ME10 3RT","la":"Swale","era":"mod","nn":718,"risk":50,"cat":"amber"},{"name":"Addington Cricket Club","lat":51.30508,"lon":0.37047,"postcode":"ME19 5BQ","la":"Tonbridge and Malling","era":"other","nn":346,"risk":48,"cat":"amber"},{"name":"Aylesford RFC","lat":51.29933,"lon":0.47951,"postcode":"ME20 7DS","la":"Tonbridge and Malling","era":"other","nn":321,"risk":35,"cat":"amber"},{"name":"Aylesford Village Club","lat":51.30429,"lon":0.48322,"postcode":"ME20 7BS","la":"Tonbridge and Malling","era":"other","nn":192,"risk":34,"cat":"amber"},{"name":"Bricklayers Arms","lat":51.31055,"lon":0.44857,"postcode":"ME20 6SA","la":"Tonbridge and Malling","era":"trad","nn":686,"risk":53,"cat":"amber"},{"name":"Ditton Bowls Club","lat":51.29183,"lon":0.45593,"postcode":"ME20 6AJ","la":"Tonbridge and Malling","era":"other","nn":1178,"risk":59,"cat":"amber"},{"name":"Duke Of Wellington","lat":51.31367,"lon":0.39594,"postcode":"ME19 5LS","la":"Tonbridge and Malling","era":"trad","nn":1048,"risk":58,"cat":"amber"},{"name":"Fields At Aylesford","lat":51.29078,"lon":0.48806,"postcode":"ME16 0ZP","la":"Tonbridge and Malling","era":"other","nn":440,"risk":51,"cat":"amber"},{"name":"Freemasons Arms","lat":51.31943,"lon":0.43657,"postcode":"ME6 5JR","la":"Tonbridge and Malling","era":"trad","nn":0,"risk":48,"cat":"amber"},{"name":"Ham Hill Working Mens Club","lat":51.31943,"lon":0.43657,"postcode":"ME6 5JR","la":"Tonbridge and Malling","era":"trad","nn":0,"risk":48,"cat":"amber"},{"name":"Joiners Arms","lat":51.29444,"lon":0.40852,"postcode":"ME19 6LU","la":"Tonbridge and Malling","era":"trad","nn":62,"risk":28,"cat":"green"},{"name":"King & Queen Public House","lat":51.2889,"lon":0.43965,"postcode":"ME19 6DD","la":"Tonbridge and Malling","era":"trad","nn":722,"risk":53,"cat":"amber"},{"name":"Kings Hill Cricket Club","lat":51.27142,"lon":0.41605,"postcode":"ME19 4GZ","la":"Tonbridge and Malling","era":"trad","nn":877,"risk":54,"cat":"amber"},{"name":"Kings Hill Golf Club","lat":51.26892,"lon":0.40409,"postcode":"ME19 4GF","la":"Tonbridge and Malling","era":"trad","nn":454,"risk":48,"cat":"amber"},{"name":"Larkfield And New Hythe Sports And Social Club","lat":51.30652,"lon":0.4411,"postcode":"ME20 6PU","la":"Tonbridge and Malling","era":"mod","nn":686,"risk":50,"cat":"amber"},{"name":"Leybourne Cricket Club","lat":51.30274,"lon":0.42411,"postcode":"ME19 5HD","la":"Tonbridge and Malling","era":"other","nn":164,"risk":46,"cat":"amber"},{"name":"Lower Bell","lat":51.32012,"lon":0.50585,"postcode":"ME20 7EZ","la":"Tonbridge and Malling","era":"other","nn":1652,"risk":62,"cat":"red"},{"name":"Maidstone (West Malling) Premier Inn","lat":51.30683,"lon":0.42427,"postcode":"ME19 5TR","la":"Tonbridge and Malling","era":"trad","nn":456,"risk":48,"cat":"amber"},{"name":"Malling Abbey Masonic Club","lat":51.29518,"lon":0.40871,"postcode":"ME19 6QR","la":"Tonbridge and Malling","era":"trad","nn":52,"risk":28,"cat":"green"},{"name":"Malling Town Club","lat":51.29435,"lon":0.40965,"postcode":"ME19 6LP","la":"Tonbridge and Malling","era":"other","nn":50,"risk":28,"cat":"green"},{"name":"Monks Head","lat":51.29995,"lon":0.44231,"postcode":"ME20 6PN","la":"Tonbridge and Malling","era":"trad","nn":736,"risk":50,"cat":"amber"},{"name":"Offham Cricket Club","lat":51.29199,"lon":0.37833,"postcode":"ME19 5NY","la":"Tonbridge and Malling","era":"other","nn":302,"risk":50,"cat":"amber"},{"name":"Old Rectory","lat":51.30127,"lon":0.42441,"postcode":"ME19 5PU","la":"Tonbridge and Malling","era":"other","nn":164,"risk":46,"cat":"amber"},{"name":"Olympia Boxing CIC","lat":51.29397,"lon":0.43316,"postcode":"ME19 6SD","la":"Tonbridge and Malling","era":"other","nn":722,"risk":50,"cat":"amber"},{"name":"Pleasures In Kent","lat":51.26423,"lon":0.43189,"postcode":"ME18 5LD","la":"Tonbridge and Malling","era":"other","nn":328,"risk":50,"cat":"amber"},{"name":"Polar Bear Enterprise Ltd","lat":51.2669,"lon":0.42989,"postcode":"ME18 5BJ","la":"Tonbridge and Malling","era":"other","nn":328,"risk":50,"cat":"amber"},{"name":"Scared Crow","lat":51.29364,"lon":0.40488,"postcode":"ME19 6RB","la":"Tonbridge and Malling","era":"other","nn":263,"risk":30,"cat":"green"},{"name":"Snodland Working Mens Club","lat":51.33492,"lon":0.44457,"postcode":"ME6 5PD","la":"Tonbridge and Malling","era":"trad","nn":558,"risk":52,"cat":"amber"},{"name":"St Peter \\\\& St Paul's Community Hub","lat":51.30219,"lon":0.4789,"postcode":"ME20 7QR","la":"Tonbridge and Malling","era":"mod","nn":195,"risk":34,"cat":"amber"},{"name":"The Angel Inn","lat":51.30702,"lon":0.37436,"postcode":"ME19 5BB","la":"Tonbridge and Malling","era":"trad","nn":346,"risk":48,"cat":"amber"},{"name":"The Bull Inn","lat":51.29541,"lon":0.40935,"postcode":"ME19 6QH","la":"Tonbridge and Malling","era":"trad","nn":52,"risk":28,"cat":"green"},{"name":"The Butchers Block","lat":51.33172,"lon":0.47673,"postcode":"ME1 3SB","la":"Tonbridge and Malling","era":"other","nn":196,"risk":49,"cat":"amber"},{"name":"The Farm House","lat":51.29389,"lon":0.40864,"postcode":"ME19 6NA","la":"Tonbridge and Malling","era":"other","nn":62,"risk":28,"cat":"green"},{"name":"The George","lat":51.31616,"lon":0.35291,"postcode":"ME19 5DR","la":"Tonbridge and Malling","era":"trad","nn":1638,"risk":62,"cat":"red"},{"name":"The Kings Arms","lat":51.29129,"lon":0.37414,"postcode":"ME19 5NR","la":"Tonbridge and Malling","era":"trad","nn":302,"risk":50,"cat":"amber"},{"name":"The Little Gem","lat":51.30351,"lon":0.48075,"postcode":"ME20 7AX","la":"Tonbridge and Malling","era":"other","nn":192,"risk":34,"cat":"amber"},{"name":"The Medway Inn","lat":51.34752,"lon":0.45811,"postcode":"ME1 3XB","la":"Tonbridge and Malling","era":"trad","nn":523,"risk":36,"cat":"amber"},{"name":"The Monks Head","lat":51.33087,"lon":0.43982,"postcode":"ME6 5DH","la":"Tonbridge and Malling","era":"trad","nn":558,"risk":49,"cat":"amber"},{"name":"The Moody Mare","lat":51.26679,"lon":0.36103,"postcode":"ME18 5QY","la":"Tonbridge and Malling","era":"other","nn":2068,"risk":65,"cat":"red"},{"name":"The Nevill Bull","lat":51.31842,"lon":0.40896,"postcode":"ME19 5JW","la":"Tonbridge and Malling","era":"trad","nn":1048,"risk":58,"cat":"amber"},{"name":"The Red Bull","lat":51.31925,"lon":0.48212,"postcode":"ME20 7HX","la":"Tonbridge and Malling","era":"trad","nn":1435,"risk":60,"cat":"amber"},{"name":"The Robin Hood","lat":51.34136,"lon":0.4832,"postcode":"ME5 9RJ","la":"Tonbridge and Malling","era":"other","nn":1001,"risk":57,"cat":"amber"},{"name":"The Spitfire","lat":51.27256,"lon":0.40113,"postcode":"ME19 4AU","la":"Tonbridge and Malling","era":"other","nn":454,"risk":51,"cat":"amber"},{"name":"The Swan","lat":51.2948,"lon":0.40958,"postcode":"ME19 6JU","la":"Tonbridge and Malling","era":"trad","nn":50,"risk":28,"cat":"green"},{"name":"The Swan On The Green","lat":51.24885,"lon":0.35319,"postcode":"ME18 5JW","la":"Tonbridge and Malling","era":"trad","nn":1754,"risk":63,"cat":"red"},{"name":"The Watermans Arms","lat":51.35222,"lon":0.45846,"postcode":"ME1 3TY","la":"Tonbridge and Malling","era":"trad","nn":523,"risk":36,"cat":"amber"},{"name":"The Wheatsheaf","lat":51.30101,"lon":0.40471,"postcode":"ME19 5AT","la":"Tonbridge and Malling","era":"trad","nn":701,"risk":33,"cat":"amber"},{"name":"The Windmill","lat":51.33274,"lon":0.47903,"postcode":"ME1 3RJ","la":"Tonbridge and Malling","era":"trad","nn":196,"risk":49,"cat":"amber"},{"name":"Townsend Hook Bowls Club","lat":51.33251,"lon":0.43032,"postcode":"ME6 5DP","la":"Tonbridge and Malling","era":"other","nn":685,"risk":53,"cat":"amber"},{"name":"Wateringbury Working Mens Club","lat":51.25615,"lon":0.42219,"postcode":"ME18 5NU","la":"Tonbridge and Malling","era":"trad","nn":690,"risk":53,"cat":"amber"},{"name":"West Malling Golf Club (Kent) Limited","lat":51.30188,"lon":0.36708,"postcode":"ME19 5AR","la":"Tonbridge and Malling","era":"other","nn":427,"risk":48,"cat":"amber"}]