[{"name":"Warbank Social Club","lat":51.34086,"lon":-0.00225,"postcode":"CR0 0AY","la":"Croydon","era":"mod","nn":2106,"risk":64,"cat":"red"},{"name":"Addington Palace","lat":51.35529,"lon":-0.04421,"postcode":"CR0 5BB","la":"Croydon","era":"other","nn":1620,"risk":60,"cat":"amber"},{"name":"Alma Tavern","lat":51.37958,"lon":-0.08197,"postcode":"CR0 6PU","la":"Croydon","era":"other","nn":280,"risk":28,"cat":"green"},{"name":"Art And Craft CR0 1RJ","lat":51.37297,"lon":-0.1011,"postcode":"CR0 1RJ","la":"Croydon","era":"mod","nn":0,"risk":26,"cat":"green"},{"name":"Bishops Wine Bar","lat":51.37546,"lon":-0.10039,"postcode":"CR0 1UZ","la":"Croydon","era":"trad","nn":192,"risk":28,"cat":"green"},{"name":"Boxpark Bar Beatbox","lat":51.37464,"lon":-0.09513,"postcode":"CR0 1LD","la":"Croydon","era":"mod","nn":0,"risk":26,"cat":"green"},{"name":"Claret & Ale","lat":51.37995,"lon":-0.07349,"postcode":"CR0 7AA","la":"Croydon","era":"other","nn":590,"risk":33,"cat":"amber"},{"name":"Coulsdon Victoria Social Club","lat":51.32108,"lon":-0.13701,"postcode":"CR5 2NN","la":"Croydon","era":"other","nn":156,"risk":45,"cat":"amber"},{"name":"CR1","lat":51.3669,"lon":-0.09878,"postcode":"CR0 1BE","la":"Croydon","era":"other","nn":192,"risk":28,"cat":"green"},{"name":"Crown And Pepper","lat":51.36905,"lon":-0.0999,"postcode":"CR0 1NF","la":"Croydon","era":"trad","nn":103,"risk":27,"cat":"green"},{"name":"Crown And Sceptre","lat":51.35951,"lon":-0.09638,"postcode":"CR2 6RB","la":"Croydon","era":"trad","nn":328,"risk":31,"cat":"amber"},{"name":"Dice Bar & Club","lat":51.37253,"lon":-0.10063,"postcode":"CR0 1YB","la":"Croydon","era":"mod","nn":59,"risk":27,"cat":"green"},{"name":"Dog And Bull","lat":51.37286,"lon":-0.10161,"postcode":"CR0 1RG","la":"Croydon","era":"trad","nn":19,"risk":26,"cat":"green"},{"name":"Fanbox","lat":51.37464,"lon":-0.09513,"postcode":"CR0 1LD","la":"Croydon","era":"other","nn":0,"risk":26,"cat":"green"},{"name":"Frames Sports Bar","lat":51.31958,"lon":-0.13951,"postcode":"CR5 2NF","la":"Croydon","era":"trad","nn":144,"risk":45,"cat":"amber"},{"name":"Golden Beer Ark Micropub","lat":51.34394,"lon":-0.06141,"postcode":"CR2 8LB","la":"Croydon","era":"other","nn":48,"risk":44,"cat":"amber"},{"name":"Green Dragon/Cluck&Run/Non Nyam/Seoul Chicken/Flip The Bird","lat":51.37164,"lon":-0.10083,"postcode":"CR0 1NA","la":"Croydon","era":"trad","nn":28,"risk":27,"cat":"green"},{"name":"Jus Jam Club","lat":51.37367,"lon":-0.09787,"postcode":"CR0 1YD","la":"Croydon","era":"other","nn":72,"risk":27,"cat":"green"},{"name":"Market Tavern, 88th, VM, SC, KT, CB, LL","lat":51.37189,"lon":-0.10075,"postcode":"CR0 1RG","la":"Croydon","era":"other","nn":28,"risk":27,"cat":"green"},{"name":"MemoryBox","lat":51.37118,"lon":-0.10066,"postcode":"CR0 1NA","la":"Croydon","era":"other","nn":52,"risk":27,"cat":"green"},{"name":"Mr Fox","lat":51.37297,"lon":-0.1011,"postcode":"CR0 1RJ","la":"Croydon","era":"trad","nn":0,"risk":26,"cat":"green"},{"name":"Mynd Spirit","lat":51.36983,"lon":-0.07498,"postcode":"CR0 5DB","la":"Croydon","era":"other","nn":860,"risk":52,"cat":"amber"},{"name":"Pawsons Arms","lat":51.39308,"lon":-0.09606,"postcode":"CR0 2QA","la":"Croydon","era":"trad","nn":569,"risk":33,"cat":"amber"},{"name":"Porter & Sorter","lat":51.376,"lon":-0.09188,"postcode":"CR0 6BT","la":"Croydon","era":"other","nn":271,"risk":28,"cat":"green"},{"name":"Railway Telegraph","lat":51.39781,"lon":-0.1016,"postcode":"CR7 7JJ","la":"Croydon","era":"trad","nn":587,"risk":48,"cat":"amber"},{"name":"Riff Raffs","lat":51.37365,"lon":-0.09891,"postcode":"CR0 1PB","la":"Croydon","era":"other","nn":59,"risk":27,"cat":"green"},{"name":"The Apple Tree","lat":51.36979,"lon":-0.03069,"postcode":"CR0 8NG","la":"Croydon","era":"other","nn":1021,"risk":56,"cat":"amber"},{"name":"The Bedford Tavern","lat":51.37875,"lon":-0.09503,"postcode":"CR0 2EF","la":"Croydon","era":"other","nn":235,"risk":28,"cat":"green"},{"name":"The Builders Arms","lat":51.37951,"lon":-0.086,"postcode":"CR0 6TP","la":"Croydon","era":"trad","nn":234,"risk":28,"cat":"green"},{"name":"The Bulls Head","lat":51.36966,"lon":-0.10102,"postcode":"CR0 1SX","la":"Croydon","era":"trad","nn":70,"risk":27,"cat":"green"},{"name":"The Cricketers","lat":51.37525,"lon":-0.08382,"postcode":"CR0 6SG","la":"Croydon","era":"other","nn":458,"risk":30,"cat":"green"},{"name":"The Croham Arms","lat":51.36233,"lon":-0.09499,"postcode":"CR2 7PB","la":"Croydon","era":"trad","nn":130,"risk":27,"cat":"green"},{"name":"The Cronx Tap","lat":51.37141,"lon":-0.1,"postcode":"CR0 1QE","la":"Croydon","era":"mod","nn":52,"risk":27,"cat":"green"},{"name":"The Crown Inn","lat":51.37364,"lon":-0.05403,"postcode":"CR0 8BA","la":"Croydon","era":"trad","nn":1515,"risk":59,"cat":"amber"},{"name":"The Fox Public House","lat":51.29597,"lon":-0.10888,"postcode":"CR3 5QS","la":"Croydon","era":"trad","nn":732,"risk":51,"cat":"amber"},{"name":"The Foxley Hatch","lat":51.33928,"lon":-0.11767,"postcode":"CR8 2LE","la":"Croydon","era":"trad","nn":141,"risk":32,"cat":"amber"},{"name":"The George","lat":51.37415,"lon":-0.09861,"postcode":"CR0 1LA","la":"Croydon","era":"trad","nn":59,"risk":27,"cat":"green"},{"name":"The Golden Lion","lat":51.38672,"lon":-0.11628,"postcode":"CR0 3QB","la":"Croydon","era":"trad","nn":1572,"risk":60,"cat":"amber"},{"name":"The Granaries","lat":51.37289,"lon":-0.10188,"postcode":"CR0 1SL","la":"Croydon","era":"other","nn":19,"risk":26,"cat":"green"},{"name":"The Hare And Hounds","lat":51.37157,"lon":-0.11698,"postcode":"CR0 4NU","la":"Croydon","era":"trad","nn":1025,"risk":56,"cat":"amber"},{"name":"The Jolly Farmer","lat":51.33806,"lon":-0.11625,"postcode":"CR8 2HA","la":"Croydon","era":"other","nn":64,"risk":32,"cat":"amber"},{"name":"The Oval Tavern","lat":51.37813,"lon":-0.08854,"postcode":"CR0 6BR","la":"Croydon","era":"other","nn":234,"risk":28,"cat":"green"},{"name":"The Pear Tree Purley","lat":51.33957,"lon":-0.11569,"postcode":"CR8 2LN","la":"Croydon","era":"other","nn":117,"risk":32,"cat":"amber"},{"name":"The Pembroke, 88th Street, Value Mighty, Sin City Burger","lat":51.32086,"lon":-0.13923,"postcode":"CR5 2RA","la":"Croydon","era":"other","nn":144,"risk":45,"cat":"amber"},{"name":"The Prince George","lat":51.39787,"lon":-0.09313,"postcode":"CR7 8LE","la":"Croydon","era":"trad","nn":526,"risk":35,"cat":"amber"},{"name":"The Purley Arms","lat":51.35126,"lon":-0.09887,"postcode":"CR2 6ER","la":"Croydon","era":"trad","nn":934,"risk":53,"cat":"amber"},{"name":"The Randall Tavern","lat":51.3558,"lon":-0.02089,"postcode":"CR0 9DX","la":"Croydon","era":"other","nn":918,"risk":53,"cat":"amber"},{"name":"The Royal Standard","lat":51.3698,"lon":-0.10201,"postcode":"CR0 1SS","la":"Croydon","era":"trad","nn":70,"risk":27,"cat":"green"},{"name":"The Sir Julian Huxley","lat":51.34366,"lon":-0.06193,"postcode":"CR2 8LB","la":"Croydon","era":"other","nn":48,"risk":44,"cat":"amber"},{"name":"The Surrey Cricketers","lat":51.36819,"lon":-0.10062,"postcode":"CR0 1DJ","la":"Croydon","era":"other","nn":108,"risk":27,"cat":"green"},{"name":"The Tudor Rose","lat":51.30627,"lon":-0.11973,"postcode":"CR5 1EB","la":"Croydon","era":"other","nn":1210,"risk":57,"cat":"amber"},{"name":"The Two Brewers P.H.","lat":51.38807,"lon":-0.08987,"postcode":"CR0 2DW","la":"Croydon","era":"other","nn":704,"risk":36,"cat":"amber"},{"name":"The Village Club","lat":51.34451,"lon":-0.0612,"postcode":"CR2 8LH","la":"Croydon","era":"other","nn":65,"risk":44,"cat":"amber"},{"name":"Trickle","lat":51.3767,"lon":-0.09581,"postcode":"CR0 9XF","la":"Croydon","era":"other","nn":234,"risk":28,"cat":"green"},{"name":"Wattenden Arms","lat":51.30779,"lon":-0.10249,"postcode":"CR8 5EU","la":"Croydon","era":"trad","nn":1210,"risk":57,"cat":"amber"},{"name":"Whelans","lat":51.36277,"lon":-0.09672,"postcode":"CR2 6PW","la":"Croydon","era":"other","nn":130,"risk":27,"cat":"green"},{"name":"Whispers Bar","lat":51.33851,"lon":-0.11568,"postcode":"CR8 2AF","la":"Croydon","era":"other","nn":64,"risk":32,"cat":"amber"},{"name":"Miller & Carter","lat":51.39518,"lon":-0.14523,"postcode":"CR4 1HT","la":"Merton","era":"trad","nn":892,"risk":52,"cat":"amber"},{"name":"Mitcham Golf Club","lat":51.39301,"lon":-0.15761,"postcode":"CR4 4HN","la":"Merton","era":"other","nn":337,"risk":36,"cat":"amber"},{"name":"Purkins Wine Bar","lat":51.4169,"lon":-0.15246,"postcode":"CR4 2AF","la":"Merton","era":"other","nn":691,"risk":33,"cat":"amber"},{"name":"The Crown of Mitcham","lat":51.39012,"lon":-0.15907,"postcode":"CR4 4HJ","la":"Merton","era":"trad","nn":337,"risk":36,"cat":"amber"},{"name":"The Gardeners Arms","lat":51.4102,"lon":-0.16173,"postcode":"CR4 2JA","la":"Merton","era":"trad","nn":376,"risk":36,"cat":"amber"},{"name":"The Ravensbury Arms","lat":51.39766,"lon":-0.1579,"postcode":"CR4 4JA","la":"Merton","era":"trad","nn":518,"risk":34,"cat":"amber"},{"name":"The Windmill","lat":51.40298,"lon":-0.16158,"postcode":"CR4 4HA","la":"Merton","era":"trad","nn":466,"risk":36,"cat":"amber"},{"name":"White Lion of Mortimer","lat":51.407,"lon":-0.1635,"postcode":"CR4 2JD","la":"Merton","era":"trad","nn":376,"risk":48,"cat":"amber"},{"name":"Chipstead Football Club","lat":51.29036,"lon":-0.17265,"postcode":"CR5 3SF","la":"Reigate and Banstead","era":"other","nn":0,"risk":29,"cat":"green"},{"name":"Chipstead Hardcourt Tennis Club","lat":51.30095,"lon":-0.1667,"postcode":"CR5 3QN","la":"Reigate and Banstead","era":"other","nn":350,"risk":32,"cat":"amber"},{"name":"Chipstead Rugby Football Club","lat":51.29659,"lon":-0.16828,"postcode":"CR5 3SB","la":"Reigate and Banstead","era":"other","nn":125,"risk":28,"cat":"green"},{"name":"Chipstead, Coulsdon And Walcountians Cricket Club","lat":51.29036,"lon":-0.17265,"postcode":"CR5 3SF","la":"Reigate and Banstead","era":"other","nn":0,"risk":29,"cat":"green"},{"name":"Midday Sun Hungry Horse","lat":51.31125,"lon":-0.16942,"postcode":"CR5 3NA","la":"Reigate and Banstead","era":"trad","nn":1049,"risk":57,"cat":"amber"},{"name":"Netherne Community Amateur Sports Club","lat":51.30437,"lon":-0.14373,"postcode":"CR5 1NB","la":"Croydon","era":"other","nn":1642,"risk":60,"cat":"amber"},{"name":"Ramblers Rest Public House","lat":51.30221,"lon":-0.17371,"postcode":"CR5 3NP","la":"Reigate and Banstead","era":"trad","nn":507,"risk":33,"cat":"amber"},{"name":"The Chipstead Players","lat":51.29795,"lon":-0.16823,"postcode":"CR5 3QU","la":"Reigate and Banstead","era":"other","nn":34,"risk":27,"cat":"green"},{"name":"The Well House Inn","lat":51.28261,"lon":-0.19687,"postcode":"CR5 3SQ","la":"Reigate and Banstead","era":"other","nn":1603,"risk":61,"cat":"red"},{"name":"The White Hart","lat":51.29769,"lon":-0.16797,"postcode":"CR5 3QW","la":"Reigate and Banstead","era":"trad","nn":34,"risk":27,"cat":"green"},{"name":"Harvest Home Pub","lat":51.37205,"lon":-0.13173,"postcode":"CR0 4TG","la":"Sutton","era":"trad","nn":498,"risk":51,"cat":"amber"},{"name":"Jack And Jill","lat":51.32682,"lon":-0.15436,"postcode":"CR5 2QJ","la":"Sutton","era":"other","nn":1025,"risk":58,"cat":"amber"},{"name":"The Plough","lat":51.36758,"lon":-0.13223,"postcode":"CR0 4QR","la":"Sutton","era":"trad","nn":498,"risk":51,"cat":"amber"},{"name":"Blacksmiths Arms Ph","lat":51.28707,"lon":-0.08863,"postcode":"CR3 5UE","la":"Tandridge","era":"trad","nn":52,"risk":28,"cat":"green"},{"name":"Botley Hill Farmhouse","lat":51.28123,"lon":0.00171,"postcode":"CR6 9QH","la":"Tandridge","era":"other","nn":1409,"risk":60,"cat":"amber"},{"name":"Caterham Arms Bar","lat":51.28782,"lon":-0.09803,"postcode":"CR3 5NF","la":"Tandridge","era":"trad","nn":453,"risk":33,"cat":"amber"},{"name":"Caterham Club","lat":51.28343,"lon":-0.07804,"postcode":"CR3 6QB","la":"Tandridge","era":"other","nn":160,"risk":28,"cat":"green"},{"name":"Croydon Post Office","lat":51.31718,"lon":-0.06103,"postcode":"CR6 9RU","la":"Tandridge","era":"other","nn":173,"risk":31,"cat":"amber"},{"name":"Farleigh Rovers Football Club","lat":51.31869,"lon":-0.04045,"postcode":"CR6 9EY","la":"Tandridge","era":"other","nn":334,"risk":47,"cat":"amber"},{"name":"Greenacres Sports & Social Club","lat":51.31272,"lon":-0.06001,"postcode":"CR6 9RE","la":"Tandridge","era":"mod","nn":281,"risk":29,"cat":"green"},{"name":"Harrow Inn","lat":51.31692,"lon":-0.04433,"postcode":"CR6 9EL","la":"Tandridge","era":"trad","nn":334,"risk":35,"cat":"amber"},{"name":"John Fisher Sports Club","lat":51.31504,"lon":-0.06161,"postcode":"CR6 9RD","la":"Tandridge","era":"other","nn":107,"risk":28,"cat":"green"},{"name":"The Boundary on the Green","lat":51.29058,"lon":-0.10282,"postcode":"CR3 5XL","la":"Tandridge","era":"other","nn":453,"risk":35,"cat":"amber"},{"name":"The Bull Inn","lat":51.31397,"lon":-0.03212,"postcode":"CR6 9PB","la":"Tandridge","era":"trad","nn":782,"risk":50,"cat":"amber"},{"name":"The Crown and Pepper","lat":51.28134,"lon":-0.07554,"postcode":"CR3 6RA","la":"Tandridge","era":"trad","nn":132,"risk":46,"cat":"amber"},{"name":"The Harrow Inn","lat":51.27102,"lon":-0.09818,"postcode":"CR3 6AJ","la":"Tandridge","era":"trad","nn":1853,"risk":63,"cat":"red"},{"name":"The Horseshoe","lat":51.30936,"lon":-0.05227,"postcode":"CR6 9EG","la":"Tandridge","era":"trad","nn":0,"risk":30,"cat":"green"},{"name":"The King and Queen","lat":51.28667,"lon":-0.08901,"postcode":"CR3 5UA","la":"Tandridge","era":"trad","nn":52,"risk":28,"cat":"green"},{"name":"Townend Social Club","lat":51.28914,"lon":-0.0887,"postcode":"CR3 5UJ","la":"Tandridge","era":"mod","nn":231,"risk":29,"cat":"green"},{"name":"Warlingham Rugby Football Club Bar","lat":51.31587,"lon":-0.06237,"postcode":"CR6 9RB","la":"Tandridge","era":"other","nn":107,"risk":31,"cat":"amber"},{"name":"Warlingham Sports Club","lat":51.31268,"lon":-0.05507,"postcode":"CR6 9PR","la":"Tandridge","era":"other","nn":343,"risk":30,"cat":"green"},{"name":"White Lion","lat":51.30936,"lon":-0.05227,"postcode":"CR6 9EG","la":"Tandridge","era":"trad","nn":0,"risk":30,"cat":"green"},{"name":"Whyteleafe Sports Centre","lat":51.30509,"lon":-0.08087,"postcode":"CR3 0AR","la":"Tandridge","era":"other","nn":474,"risk":51,"cat":"amber"},{"name":"Whyteleafe Tavern","lat":51.30932,"lon":-0.0801,"postcode":"CR3 0EE","la":"Tandridge","era":"other","nn":474,"risk":51,"cat":"amber"},{"name":"William Garland","lat":51.28221,"lon":-0.07684,"postcode":"CR3 6QA","la":"Tandridge","era":"other","nn":132,"risk":31,"cat":"amber"},{"name":"Woldingham Golf Club","lat":51.29796,"lon":-0.05088,"postcode":"CR3 7HA","la":"Tandridge","era":"other","nn":1272,"risk":59,"cat":"amber"},{"name":"Woldingham Social Club Bar","lat":51.28289,"lon":-0.03218,"postcode":"CR3 7BE","la":"Tandridge","era":"mod","nn":2121,"risk":65,"cat":"red"}]