[{"name":"Am Politician","lat":57.08232,"lon":-7.30831,"postcode":"HS8 5JL","la":"Na h-Eileanan Siar","era":"other","nn":43423,"risk":87,"cat":"red"},{"name":"Congreve House","lat":57.47133,"lon":-7.37164,"postcode":"HS7 5LA","la":"Na h-Eileanan Siar","era":"other","nn":10481,"risk":87,"cat":"red"},{"name":"Criterion Bar","lat":58.20816,"lon":-6.38921,"postcode":"HS1 2XF","la":"Na h-Eileanan Siar","era":"other","nn":33,"risk":30,"cat":"green"},{"name":"Lewis & Harris Rangers Sports & Social Club","lat":58.20656,"lon":-6.38066,"postcode":"HS1 2RB","la":"Na h-Eileanan Siar","era":"mod","nn":485,"risk":33,"cat":"amber"},{"name":"Masonic Hall","lat":58.21067,"lon":-6.38797,"postcode":"HS1 2DS","la":"Na h-Eileanan Siar","era":"trad","nn":235,"risk":31,"cat":"amber"},{"name":"Mc'Neils","lat":58.20855,"lon":-6.38804,"postcode":"HS1 2DA","la":"Na h-Eileanan Siar","era":"other","nn":81,"risk":30,"cat":"green"},{"name":"Ness F C Social Club","lat":58.48924,"lon":-6.2425,"postcode":"HS2 0XB","la":"Na h-Eileanan Siar","era":"mod","nn":31680,"risk":87,"cat":"red"},{"name":"Stornoway Golf Club","lat":58.21592,"lon":-6.39579,"postcode":"HS2 0XP","la":"Na h-Eileanan Siar","era":"other","nn":742,"risk":35,"cat":"amber"},{"name":"The Crown Hotel (Stornoway) Ltd","lat":58.20826,"lon":-6.39011,"postcode":"HS1 2BD","la":"Na h-Eileanan Siar","era":"trad","nn":38,"risk":30,"cat":"green"},{"name":"The New Lewis","lat":58.20832,"lon":-6.39119,"postcode":"HS1 2XP","la":"Na h-Eileanan Siar","era":"other","nn":64,"risk":30,"cat":"green"},{"name":"The Star Inn","lat":58.20801,"lon":-6.38969,"postcode":"HS1 2BE","la":"Na h-Eileanan Siar","era":"trad","nn":33,"risk":30,"cat":"green"},{"name":"Westford Inn Ltd","lat":57.56533,"lon":-7.38453,"postcode":"HS6 5EP","la":"Na h-Eileanan Siar","era":"trad","nn":10481,"risk":87,"cat":"red"}]