[{"name":"B Road Hunting Club Limited, The Stag","lat":51.2212,"lon":0.87903,"postcode":"TN25 4BB","la":"Ashford","era":"trad","nn":3061,"risk":74,"cat":"red"},{"name":"Beaver Inn","lat":51.1364,"lon":0.86454,"postcode":"TN23 7SP","la":"Ashford","era":"trad","nn":554,"risk":51,"cat":"amber"},{"name":"Blue Anchor Public House","lat":51.12459,"lon":0.97028,"postcode":"TN25 6QQ","la":"Ashford","era":"trad","nn":2615,"risk":71,"cat":"red"},{"name":"Bonny Cravat","lat":51.0813,"lon":0.77179,"postcode":"TN26 3QQ","la":"Ashford","era":"other","nn":35,"risk":50,"cat":"amber"},{"name":"Chequers Inn","lat":51.14944,"lon":0.68706,"postcode":"TN27 8QA","la":"Ashford","era":"trad","nn":91,"risk":51,"cat":"amber"},{"name":"Dukes Head","lat":51.06509,"lon":0.85516,"postcode":"TN26 2HE","la":"Ashford","era":"trad","nn":1468,"risk":63,"cat":"red"},{"name":"Dur Bar","lat":51.15013,"lon":0.87022,"postcode":"TN24 8TN","la":"Ashford","era":"other","nn":50,"risk":30,"cat":"green"},{"name":"Five Bells","lat":51.13819,"lon":1.00084,"postcode":"TN25 5LP","la":"Ashford","era":"other","nn":1941,"risk":66,"cat":"red"},{"name":"Flying Horse Inn","lat":51.18929,"lon":0.89287,"postcode":"TN25 4HH","la":"Ashford","era":"trad","nn":1963,"risk":66,"cat":"red"},{"name":"George Hotel","lat":51.14951,"lon":0.87227,"postcode":"TN24 8TB","la":"Ashford","era":"trad","nn":138,"risk":31,"cat":"amber"},{"name":"Honest Miller","lat":51.16354,"lon":0.95759,"postcode":"TN25 5PG","la":"Ashford","era":"trad","nn":2579,"risk":71,"cat":"red"},{"name":"Hooden Smokehouse and Cellar","lat":51.14417,"lon":0.90532,"postcode":"TN24 0NY","la":"Ashford","era":"mod","nn":1767,"risk":65,"cat":"red"},{"name":"J D Wetherspoon County Hotel","lat":51.14929,"lon":0.87532,"postcode":"TN24 8TD","la":"Ashford","era":"other","nn":90,"risk":31,"cat":"amber"},{"name":"Kings Head","lat":51.10797,"lon":0.81416,"postcode":"TN26 1LQ","la":"Ashford","era":"trad","nn":0,"risk":50,"cat":"amber"},{"name":"Old Dairy Tap Room","lat":51.07086,"lon":0.68556,"postcode":"TN30 6HE","la":"Ashford","era":"mod","nn":280,"risk":34,"cat":"amber"},{"name":"Phoenix","lat":51.14811,"lon":0.87158,"postcode":"TN23 1QP","la":"Ashford","era":"other","nn":0,"risk":30,"cat":"green"},{"name":"Red Lion","lat":51.11516,"lon":0.643,"postcode":"TN27 8AH","la":"Ashford","era":"trad","nn":2395,"risk":69,"cat":"red"},{"name":"Rose Inn","lat":51.17181,"lon":0.88486,"postcode":"TN24 9AJ","la":"Ashford","era":"trad","nn":162,"risk":51,"cat":"amber"},{"name":"Rural Inns Ltd","lat":51.10797,"lon":0.81416,"postcode":"TN26 1LQ","la":"Ashford","era":"trad","nn":0,"risk":50,"cat":"amber"},{"name":"Singleton Barn","lat":51.13961,"lon":0.84087,"postcode":"TN23 4TY","la":"Ashford","era":"other","nn":778,"risk":55,"cat":"amber"},{"name":"Six Bells","lat":51.0812,"lon":0.77225,"postcode":"TN26 3QQ","la":"Ashford","era":"other","nn":35,"risk":50,"cat":"amber"},{"name":"Smoking Drum in The Phoenix","lat":51.14811,"lon":0.87158,"postcode":"TN23 1QP","la":"Ashford","era":"trad","nn":0,"risk":30,"cat":"green"},{"name":"The Alfred Arms","lat":51.1375,"lon":0.88234,"postcode":"TN24 0PE","la":"Ashford","era":"trad","nn":483,"risk":51,"cat":"amber"},{"name":"The Black Horse","lat":51.1234,"lon":1.01562,"postcode":"TN25 6AP","la":"Ashford","era":"trad","nn":1939,"risk":66,"cat":"red"},{"name":"The Charing Bar Company Limited","lat":51.20965,"lon":0.79398,"postcode":"TN27 0HU","la":"Ashford","era":"mod","nn":2378,"risk":69,"cat":"red"},{"name":"The Crown","lat":51.08462,"lon":0.69159,"postcode":"TN30 6DJ","la":"Ashford","era":"trad","nn":1587,"risk":64,"cat":"red"},{"name":"The Dering Arms","lat":51.15754,"lon":0.74671,"postcode":"TN27 0RR","la":"Ashford","era":"trad","nn":1571,"risk":64,"cat":"red"},{"name":"The Ewe and Lamb","lat":51.04151,"lon":0.64256,"postcode":"TN17 4NP","la":"Ashford","era":"other","nn":1501,"risk":63,"cat":"red"},{"name":"The Flying Horse","lat":51.14868,"lon":0.68657,"postcode":"TN27 8QD","la":"Ashford","era":"trad","nn":91,"risk":51,"cat":"amber"},{"name":"The George Community Pub","lat":51.12904,"lon":0.75513,"postcode":"TN26 3AG","la":"Ashford","era":"trad","nn":3223,"risk":75,"cat":"red"},{"name":"The Kennington","lat":51.172,"lon":0.88717,"postcode":"TN24 9HX","la":"Ashford","era":"other","nn":162,"risk":51,"cat":"amber"},{"name":"The Kings Head Wye","lat":51.18332,"lon":0.93702,"postcode":"TN25 5BN","la":"Ashford","era":"trad","nn":77,"risk":51,"cat":"amber"},{"name":"The Locomotive","lat":51.13965,"lon":0.87054,"postcode":"TN23 7SF","la":"Ashford","era":"other","nn":375,"risk":33,"cat":"amber"},{"name":"The Print House","lat":51.06627,"lon":0.68127,"postcode":"TN30 6JR","la":"Ashford","era":"other","nn":353,"risk":35,"cat":"amber"},{"name":"The Red Lion Inn","lat":51.20958,"lon":0.75984,"postcode":"TN27 0AU","la":"Ashford","era":"trad","nn":2378,"risk":69,"cat":"red"},{"name":"The Riverside Inn","lat":51.13885,"lon":0.87577,"postcode":"TN23 7TG","la":"Ashford","era":"trad","nn":375,"risk":38,"cat":"amber"},{"name":"The Sawyers","lat":51.18266,"lon":0.93666,"postcode":"TN25 5DP","la":"Ashford","era":"other","nn":77,"risk":51,"cat":"amber"},{"name":"The Star Public House","lat":51.05231,"lon":0.62969,"postcode":"TN17 4LN","la":"Ashford","era":"other","nn":1501,"risk":63,"cat":"red"},{"name":"The Swan","lat":51.14831,"lon":0.87177,"postcode":"TN23 1QN","la":"Ashford","era":"trad","nn":26,"risk":30,"cat":"green"},{"name":"The Swan and Dog","lat":51.14435,"lon":0.83267,"postcode":"TN23 3AN","la":"Ashford","era":"trad","nn":778,"risk":55,"cat":"amber"},{"name":"The Taproom","lat":51.1476,"lon":0.8704,"postcode":"TN23 1DQ","la":"Ashford","era":"mod","nn":100,"risk":31,"cat":"amber"},{"name":"The Wheel Inn","lat":51.19153,"lon":0.84606,"postcode":"TN25 4LQ","la":"Ashford","era":"trad","nn":2126,"risk":67,"cat":"red"},{"name":"The Woolpack Inn","lat":51.05794,"lon":0.83749,"postcode":"TN26 2LL","la":"Ashford","era":"trad","nn":1468,"risk":63,"cat":"red"},{"name":"Valerie's Wine Bar Ltd","lat":51.14885,"lon":0.87424,"postcode":"TN24 8TH","la":"Ashford","era":"mod","nn":90,"risk":31,"cat":"amber"},{"name":"Vine Inn","lat":51.06797,"lon":0.68554,"postcode":"TN30 6AU","la":"Ashford","era":"trad","nn":87,"risk":33,"cat":"amber"},{"name":"Wagon and Horses","lat":51.22586,"lon":0.83571,"postcode":"TN27 0NR","la":"Ashford","era":"trad","nn":3061,"risk":74,"cat":"red"},{"name":"Walnut Tree","lat":51.09157,"lon":0.94434,"postcode":"TN25 7DT","la":"Ashford","era":"other","nn":3112,"risk":74,"cat":"red"},{"name":"White Hart","lat":51.01552,"lon":0.61376,"postcode":"TN18 5PN","la":"Ashford","era":"trad","nn":3523,"risk":77,"cat":"red"},{"name":"White Horse Inn","lat":51.07331,"lon":0.91057,"postcode":"TN25 7JX","la":"Ashford","era":"trad","nn":3112,"risk":74,"cat":"red"},{"name":"White Lion","lat":51.06779,"lon":0.68675,"postcode":"TN30 6BD","la":"Ashford","era":"trad","nn":87,"risk":33,"cat":"amber"},{"name":"Woolpack Beefeater","lat":51.18478,"lon":0.81753,"postcode":"TN26 1AP","la":"Ashford","era":"trad","nn":2126,"risk":67,"cat":"red"},{"name":"Woolpack Hotel","lat":51.06875,"lon":0.68775,"postcode":"TN30 6AP","la":"Ashford","era":"trad","nn":128,"risk":33,"cat":"amber"},{"name":"Ye Olde Golden Magpie Ltd","lat":51.15,"lon":0.86953,"postcode":"TN23 1JJ","la":"Ashford","era":"other","nn":50,"risk":30,"cat":"green"},{"name":"Biggin Hill Social And Sports Club","lat":51.31025,"lon":0.03562,"postcode":"TN16 3BA","la":"Bromley","era":"mod","nn":162,"risk":42,"cat":"amber"},{"name":"Black Horse","lat":51.31147,"lon":0.03434,"postcode":"TN16 3AY","la":"Bromley","era":"trad","nn":162,"risk":42,"cat":"amber"},{"name":"The Aperfield Inn","lat":51.30175,"lon":0.05196,"postcode":"TN16 2HN","la":"Bromley","era":"trad","nn":1430,"risk":56,"cat":"amber"},{"name":"The Flying Machine","lat":51.31118,"lon":0.02619,"postcode":"TN16 3XY","la":"Bromley","era":"other","nn":567,"risk":45,"cat":"amber"},{"name":"Bailiff's Sergeant","lat":51.00966,"lon":0.97694,"postcode":"TN29 0SA","la":"Folkestone and Hythe","era":"other","nn":126,"risk":46,"cat":"amber"},{"name":"Cinque Ports Arms","lat":50.9848,"lon":0.93777,"postcode":"TN28 8BU","la":"Folkestone and Hythe","era":"trad","nn":50,"risk":43,"cat":"amber"},{"name":"Dukes Head","lat":51.10566,"lon":0.99782,"postcode":"TN25 6EG","la":"Folkestone and Hythe","era":"trad","nn":944,"risk":52,"cat":"amber"},{"name":"George Hotel","lat":50.95121,"lon":0.90562,"postcode":"TN29 9AJ","la":"Folkestone and Hythe","era":"trad","nn":161,"risk":29,"cat":"green"},{"name":"Heron Park Venue Limited","lat":50.93207,"lon":0.9076,"postcode":"TN29 9JH","la":"Folkestone and Hythe","era":"other","nn":1670,"risk":60,"cat":"amber"},{"name":"Hoy Club House","lat":50.97866,"lon":0.95954,"postcode":"TN28 8PB","la":"Folkestone and Hythe","era":"other","nn":1125,"risk":56,"cat":"amber"},{"name":"Levin Club","lat":51.01075,"lon":0.97643,"postcode":"TN29 0RZ","la":"Folkestone and Hythe","era":"other","nn":126,"risk":46,"cat":"amber"},{"name":"Lydd Town Football Club","lat":50.94522,"lon":0.89611,"postcode":"TN29 9JH","la":"Folkestone and Hythe","era":"other","nn":627,"risk":47,"cat":"amber"},{"name":"Lydd War Memorial Institute Club","lat":50.95247,"lon":0.90869,"postcode":"TN29 9EB","la":"Folkestone and Hythe","era":"other","nn":204,"risk":32,"cat":"amber"},{"name":"Red Lion","lat":51.02191,"lon":0.83657,"postcode":"TN29 9UQ","la":"Folkestone and Hythe","era":"trad","nn":4008,"risk":76,"cat":"red"},{"name":"Romney Marsh Masonic Club","lat":51.02907,"lon":0.99774,"postcode":"TN29 0LD","la":"Folkestone and Hythe","era":"trad","nn":445,"risk":34,"cat":"amber"},{"name":"Romney Sands Holiday Village","lat":50.95909,"lon":0.96033,"postcode":"TN28 8RN","la":"Folkestone and Hythe","era":"other","nn":1074,"risk":55,"cat":"amber"},{"name":"Rose & Crown","lat":50.9895,"lon":0.89255,"postcode":"TN29 9SQ","la":"Folkestone and Hythe","era":"trad","nn":3208,"risk":70,"cat":"red"},{"name":"Royal Oak","lat":50.94921,"lon":0.90244,"postcode":"TN29 9AX","la":"Folkestone and Hythe","era":"trad","nn":315,"risk":30,"cat":"green"},{"name":"Sellindge Sports & Social Club","lat":51.10618,"lon":1.01131,"postcode":"TN25 6HB","la":"Folkestone and Hythe","era":"mod","nn":944,"risk":52,"cat":"amber"},{"name":"Shepherd & Crook Inn","lat":51.04904,"lon":0.99682,"postcode":"TN29 0JJ","la":"Folkestone and Hythe","era":"trad","nn":2019,"risk":62,"cat":"red"},{"name":"Smugglers Alehouse","lat":50.98506,"lon":0.93836,"postcode":"TN28 8BU","la":"Folkestone and Hythe","era":"other","nn":50,"risk":31,"cat":"amber"},{"name":"The Britannia","lat":50.91382,"lon":0.97347,"postcode":"TN29 9ND","la":"Folkestone and Hythe","era":"trad","nn":5043,"risk":83,"cat":"red"},{"name":"The City of London","lat":51.02514,"lon":0.99655,"postcode":"TN29 0NL","la":"Folkestone and Hythe","era":"other","nn":25,"risk":31,"cat":"amber"},{"name":"The Dolphin Hotel","lat":50.95072,"lon":0.90778,"postcode":"TN29 9DQ","la":"Folkestone and Hythe","era":"other","nn":161,"risk":32,"cat":"amber"},{"name":"The Hidden Treasure Micro Pub","lat":51.02427,"lon":0.99522,"postcode":"TN29 0NU","la":"Folkestone and Hythe","era":"other","nn":125,"risk":31,"cat":"amber"},{"name":"The Jolly Fisherman Pub","lat":50.96868,"lon":0.96216,"postcode":"TN28 8ST","la":"Folkestone and Hythe","era":"other","nn":1074,"risk":55,"cat":"amber"},{"name":"The Neptune","lat":51.04239,"lon":1.0237,"postcode":"TN29 0TS","la":"Folkestone and Hythe","era":"other","nn":2019,"risk":62,"cat":"red"},{"name":"The Plough New Romney /Gourmet Catering","lat":50.99114,"lon":0.94801,"postcode":"TN28 8UF","la":"Folkestone and Hythe","era":"trad","nn":224,"risk":32,"cat":"amber"},{"name":"The Royal British Legion","lat":51.02493,"lon":0.99667,"postcode":"TN29 0TG","la":"Folkestone and Hythe","era":"trad","nn":25,"risk":31,"cat":"amber"},{"name":"The Ship Hotel","lat":50.98705,"lon":0.94356,"postcode":"TN28 8AZ","la":"Folkestone and Hythe","era":"trad","nn":426,"risk":31,"cat":"amber"},{"name":"Timber Batts Inn","lat":51.17235,"lon":1.01723,"postcode":"TN25 5JQ","la":"Folkestone and Hythe","era":"trad","nn":2591,"risk":66,"cat":"red"},{"name":"Warren Inn","lat":50.99236,"lon":0.95055,"postcode":"TN28 8UF","la":"Folkestone and Hythe","era":"trad","nn":224,"risk":44,"cat":"amber"},{"name":"180 Sports Bar","lat":50.85583,"lon":0.58145,"postcode":"TN34 1PU","la":"Hastings","era":"other","nn":49,"risk":26,"cat":"green"},{"name":"Anchor Inn","lat":50.85611,"lon":0.58966,"postcode":"TN34 3EG","la":"Hastings","era":"trad","nn":0,"risk":25,"cat":"green"},{"name":"Ashburnham Arms Public House","lat":50.86726,"lon":0.60259,"postcode":"TN35 5JH","la":"Hastings","era":"trad","nn":133,"risk":31,"cat":"amber"},{"name":"Blackbox","lat":50.85611,"lon":0.58966,"postcode":"TN34 3EG","la":"Hastings","era":"other","nn":0,"risk":25,"cat":"green"},{"name":"Bo Peep Public House","lat":50.85145,"lon":0.54009,"postcode":"TN38 0AA","la":"Hastings","era":"other","nn":281,"risk":30,"cat":"green"},{"name":"Brewing Brothers @ The Imperial","lat":50.86102,"lon":0.58467,"postcode":"TN34 1RL","la":"Hastings","era":"other","nn":125,"risk":26,"cat":"green"},{"name":"Carlisle Public House","lat":50.85489,"lon":0.58168,"postcode":"TN34 1PE","la":"Hastings","era":"other","nn":106,"risk":26,"cat":"green"},{"name":"Cinque Ports Arms","lat":50.85745,"lon":0.59346,"postcode":"TN34 3BE","la":"Hastings","era":"trad","nn":28,"risk":26,"cat":"green"},{"name":"Clarence","lat":50.85625,"lon":0.57974,"postcode":"TN34 1NA","la":"Hastings","era":"other","nn":71,"risk":26,"cat":"green"},{"name":"Clive Vale Social Club","lat":50.86837,"lon":0.60868,"postcode":"TN35 5JE","la":"Hastings","era":"mod","nn":442,"risk":34,"cat":"amber"},{"name":"Clown","lat":50.85646,"lon":0.58198,"postcode":"TN34 1QU","la":"Hastings","era":"other","nn":79,"risk":26,"cat":"green"},{"name":"Club XS","lat":50.85502,"lon":0.57583,"postcode":"TN34 1LN","la":"Hastings","era":"other","nn":45,"risk":26,"cat":"green"},{"name":"Comet Pub","lat":50.85534,"lon":0.52956,"postcode":"TN38 8BU","la":"Hastings","era":"other","nn":339,"risk":45,"cat":"amber"},{"name":"Cutter Hotel","lat":50.85577,"lon":0.58927,"postcode":"TN34 3AL","la":"Hastings","era":"other","nn":0,"risk":25,"cat":"green"},{"name":"Dolphin Deliciousness","lat":50.85627,"lon":0.59365,"postcode":"TN34 3DW","la":"Hastings","era":"other","nn":0,"risk":25,"cat":"green"},{"name":"Dolphin Inn","lat":50.85627,"lon":0.59365,"postcode":"TN34 3DW","la":"Hastings","era":"trad","nn":0,"risk":25,"cat":"green"},{"name":"Dragon Bar","lat":50.85627,"lon":0.58932,"postcode":"TN34 3EE","la":"Hastings","era":"trad","nn":0,"risk":25,"cat":"green"},{"name":"Dripping Well","lat":50.85514,"lon":0.57521,"postcode":"TN34 1LG","la":"Hastings","era":"other","nn":45,"risk":26,"cat":"green"},{"name":"Duke of Wellington Public House","lat":50.85791,"lon":0.59208,"postcode":"TN34 3ER","la":"Hastings","era":"trad","nn":10,"risk":26,"cat":"green"},{"name":"East Hastings Sea Angling Associatio","lat":50.85544,"lon":0.59122,"postcode":"TN34 3FJ","la":"Hastings","era":"other","nn":91,"risk":26,"cat":"green"},{"name":"Eel & Bear","lat":50.85807,"lon":0.58183,"postcode":"TN34 1SJ","la":"Hastings","era":"other","nn":24,"risk":26,"cat":"green"},{"name":"Fagins","lat":50.85627,"lon":0.58932,"postcode":"TN34 3EE","la":"Hastings","era":"other","nn":0,"risk":25,"cat":"green"},{"name":"First In Last Out","lat":50.85892,"lon":0.59331,"postcode":"TN34 3EY","la":"Hastings","era":"other","nn":119,"risk":26,"cat":"green"},{"name":"Harrow, The","lat":50.89017,"lon":0.55576,"postcode":"TN37 7PX","la":"Hastings","era":"other","nn":512,"risk":47,"cat":"amber"},{"name":"Hastings & Bexhill Rugby Club","lat":50.87772,"lon":0.57074,"postcode":"TN34 2PB","la":"Hastings","era":"other","nn":1131,"risk":56,"cat":"amber"},{"name":"Hastings & St Leonards Angling Assoc","lat":50.85546,"lon":0.58825,"postcode":"TN34 3AG","la":"Hastings","era":"other","nn":17,"risk":26,"cat":"green"},{"name":"Hastings & St Leonards Sailing Club","lat":50.85144,"lon":0.55868,"postcode":"TN38 0DP","la":"Hastings","era":"other","nn":114,"risk":26,"cat":"green"},{"name":"Hastings Arms","lat":50.85624,"lon":0.59041,"postcode":"TN34 3EG","la":"Hastings","era":"trad","nn":54,"risk":26,"cat":"green"},{"name":"Hastings Motorboat And Yacht Club","lat":50.85601,"lon":0.59429,"postcode":"TN34 3DW","la":"Hastings","era":"other","nn":53,"risk":26,"cat":"green"},{"name":"Hastings United Football Club","lat":50.87398,"lon":0.58573,"postcode":"TN34 2AX","la":"Hastings","era":"other","nn":976,"risk":52,"cat":"amber"},{"name":"Horse & Groom","lat":50.852,"lon":0.557,"postcode":"TN38 0EB","la":"Hastings","era":"trad","nn":77,"risk":26,"cat":"green"},{"name":"J D Wetherspoon","lat":50.85655,"lon":0.5786,"postcode":"TN34 1BE","la":"Hastings","era":"other","nn":55,"risk":26,"cat":"green"},{"name":"Jenny Lind","lat":50.85674,"lon":0.59065,"postcode":"TN34 3EW","la":"Hastings","era":"other","nn":45,"risk":26,"cat":"green"},{"name":"La Delizia","lat":50.85577,"lon":0.58927,"postcode":"TN34 3AL","la":"Hastings","era":"other","nn":0,"risk":25,"cat":"green"},{"name":"London Trader","lat":50.85622,"lon":0.59166,"postcode":"TN34 3AR","la":"Hastings","era":"other","nn":87,"risk":26,"cat":"green"},{"name":"MODA","lat":50.85609,"lon":0.58088,"postcode":"TN34 1QP","la":"Hastings","era":"other","nn":49,"risk":26,"cat":"green"},{"name":"Mount Pleasant Public House","lat":50.86572,"lon":0.59048,"postcode":"TN34 3SN","la":"Hastings","era":"other","nn":550,"risk":29,"cat":"green"},{"name":"Nags Head","lat":50.85235,"lon":0.55794,"postcode":"TN38 0ER","la":"Hastings","era":"trad","nn":77,"risk":26,"cat":"green"},{"name":"North Star Inn","lat":50.86347,"lon":0.55974,"postcode":"TN37 6SD","la":"Hastings","era":"trad","nn":171,"risk":27,"cat":"green"},{"name":"Old England","lat":50.85285,"lon":0.56032,"postcode":"TN37 6AJ","la":"Hastings","era":"other","nn":50,"risk":26,"cat":"green"},{"name":"Old Hastings Club","lat":50.85795,"lon":0.59221,"postcode":"TN34 3ER","la":"Hastings","era":"other","nn":10,"risk":26,"cat":"green"},{"name":"Old King John","lat":50.8744,"lon":0.61164,"postcode":"TN35 5DL","la":"Hastings","era":"trad","nn":702,"risk":48,"cat":"amber"},{"name":"Orchard Road","lat":50.85726,"lon":0.5788,"postcode":"TN34 1NJ","la":"Hastings","era":"other","nn":0,"risk":25,"cat":"green"},{"name":"Paddy McGintys","lat":50.87418,"lon":0.55257,"postcode":"TN37 7AJ","la":"Hastings","era":"other","nn":353,"risk":28,"cat":"green"},{"name":"Pissaro's Cafe Bar","lat":50.85811,"lon":0.58149,"postcode":"TN34 1SA","la":"Hastings","era":"other","nn":24,"risk":26,"cat":"green"},{"name":"Porters Wine Bar","lat":50.85695,"lon":0.5912,"postcode":"TN34 3EN","la":"Hastings","era":"other","nn":45,"risk":26,"cat":"green"},{"name":"Queens Bar Hastings","lat":50.85522,"lon":0.57796,"postcode":"TN34 1HL","la":"Hastings","era":"other","nn":0,"risk":25,"cat":"green"},{"name":"Railway Hotel","lat":50.85468,"lon":0.56043,"postcode":"TN37 6EA","la":"Hastings","era":"trad","nn":149,"risk":27,"cat":"green"},{"name":"Royal Albert","lat":50.87709,"lon":0.55055,"postcode":"TN37 7AP","la":"Hastings","era":"trad","nn":353,"risk":28,"cat":"green"},{"name":"Royal Standard","lat":50.85731,"lon":0.59314,"postcode":"TN34 3AY","la":"Hastings","era":"trad","nn":28,"risk":26,"cat":"green"},{"name":"Seed","lat":50.85571,"lon":0.58809,"postcode":"TN34 3EA","la":"Hastings","era":"other","nn":0,"risk":25,"cat":"green"},{"name":"Silverhill Club","lat":50.86687,"lon":0.55454,"postcode":"TN38 0TA","la":"Hastings","era":"other","nn":350,"risk":28,"cat":"green"},{"name":"St Mary in the Castle","lat":50.85544,"lon":0.58441,"postcode":"TN34 3AF","la":"Hastings","era":"other","nn":201,"risk":27,"cat":"green"},{"name":"St Marys Social Club","lat":50.86845,"lon":0.60238,"postcode":"TN35 5LA","la":"Hastings","era":"mod","nn":133,"risk":29,"cat":"green"},{"name":"Stag Inn","lat":50.85832,"lon":0.59471,"postcode":"TN34 3BJ","la":"Hastings","era":"trad","nn":119,"risk":26,"cat":"green"},{"name":"The Albion","lat":50.85553,"lon":0.58804,"postcode":"TN34 3AQ","la":"Hastings","era":"other","nn":17,"risk":26,"cat":"green"},{"name":"The Bull Inn","lat":50.84637,"lon":0.51077,"postcode":"TN38 8AY","la":"Hastings","era":"trad","nn":1420,"risk":58,"cat":"amber"},{"name":"The Conquerors March","lat":50.88339,"lon":0.58715,"postcode":"TN35 4BW","la":"Hastings","era":"other","nn":1051,"risk":55,"cat":"amber"},{"name":"The Crown","lat":50.85733,"lon":0.59381,"postcode":"TN34 3BN","la":"Hastings","era":"trad","nn":28,"risk":26,"cat":"green"},{"name":"The Duke","lat":50.8706,"lon":0.55659,"postcode":"TN37 7DN","la":"Hastings","era":"trad","nn":150,"risk":27,"cat":"green"},{"name":"The Forbidden Fruit","lat":50.8519,"lon":0.56107,"postcode":"TN37 6DN","la":"Hastings","era":"other","nn":31,"risk":26,"cat":"green"},{"name":"The Fountain Pub","lat":50.85994,"lon":0.58419,"postcode":"TN34 1RL","la":"Hastings","era":"other","nn":81,"risk":26,"cat":"green"},{"name":"The Havelock","lat":50.85606,"lon":0.57858,"postcode":"TN34 1BP","la":"Hastings","era":"other","nn":48,"risk":26,"cat":"green"},{"name":"The Hollington Oak","lat":50.87253,"lon":0.54115,"postcode":"TN38 9LB","la":"Hastings","era":"trad","nn":465,"risk":34,"cat":"amber"},{"name":"The Marina Fountain","lat":50.85115,"lon":0.54406,"postcode":"TN38 0BY","la":"Hastings","era":"other","nn":281,"risk":30,"cat":"green"},{"name":"The Pig","lat":50.85438,"lon":0.57543,"postcode":"TN34 1JL","la":"Hastings","era":"other","nn":77,"risk":26,"cat":"green"},{"name":"The Piper","lat":50.85245,"lon":0.5611,"postcode":"TN37 6NH","la":"Hastings","era":"other","nn":38,"risk":26,"cat":"green"},{"name":"The Plough Inn","lat":50.86084,"lon":0.58924,"postcode":"TN34 3JJ","la":"Hastings","era":"trad","nn":321,"risk":28,"cat":"green"},{"name":"The Prince Albert","lat":50.85875,"lon":0.58245,"postcode":"TN34 1SS","la":"Hastings","era":"trad","nn":87,"risk":26,"cat":"green"},{"name":"The Regency Rooms","lat":50.85098,"lon":0.55252,"postcode":"TN38 0BE","la":"Hastings","era":"mod","nn":334,"risk":28,"cat":"green"},{"name":"The Royal St Leonards","lat":50.85546,"lon":0.56216,"postcode":"TN37 6HP","la":"Hastings","era":"trad","nn":149,"risk":27,"cat":"green"},{"name":"The Seadog","lat":50.85726,"lon":0.5788,"postcode":"TN34 1NJ","la":"Hastings","era":"other","nn":0,"risk":25,"cat":"green"},{"name":"The St Leonard","lat":50.85312,"lon":0.55974,"postcode":"TN37 6AN","la":"Hastings","era":"other","nn":50,"risk":26,"cat":"green"},{"name":"The Three Legs Brewing Company","lat":50.85214,"lon":0.56085,"postcode":"TN37 6NH","la":"Hastings","era":"other","nn":31,"risk":26,"cat":"green"},{"name":"The Tiki Bar","lat":50.85238,"lon":0.57247,"postcode":"TN34 1JY","la":"Hastings","era":"other","nn":303,"risk":28,"cat":"green"},{"name":"The Tower","lat":50.86287,"lon":0.55749,"postcode":"TN37 6NB","la":"Hastings","era":"other","nn":171,"risk":27,"cat":"green"},{"name":"The Welcome (St Leonards) LTD","lat":50.86939,"lon":0.55752,"postcode":"TN37 7DA","la":"Hastings","era":"other","nn":150,"risk":27,"cat":"green"},{"name":"Tilekiln Community Centre","lat":50.87635,"lon":0.53846,"postcode":"TN38 9PA","la":"Hastings","era":"other","nn":465,"risk":46,"cat":"amber"},{"name":"Tin Tins","lat":50.85522,"lon":0.57796,"postcode":"TN34 1HL","la":"Hastings","era":"other","nn":0,"risk":25,"cat":"green"},{"name":"Twelve Hundred Postcards","lat":50.85926,"lon":0.58375,"postcode":"TN34 1RL","la":"Hastings","era":"other","nn":81,"risk":26,"cat":"green"},{"name":"West St Leonards Community Centre","lat":50.85235,"lon":0.52865,"postcode":"TN38 8BL","la":"Hastings","era":"other","nn":339,"risk":45,"cat":"amber"},{"name":"Whistle Trago","lat":50.85571,"lon":0.58809,"postcode":"TN34 3EA","la":"Hastings","era":"other","nn":0,"risk":25,"cat":"green"},{"name":"Windmill","lat":50.88681,"lon":0.55078,"postcode":"TN37 7DB","la":"Hastings","era":"trad","nn":512,"risk":47,"cat":"amber"},{"name":"Yates","lat":50.85577,"lon":0.57908,"postcode":"TN34 1HY","la":"Hastings","era":"other","nn":48,"risk":26,"cat":"green"},{"name":"Ye Olde Pump House","lat":50.85627,"lon":0.58932,"postcode":"TN34 3EE","la":"Hastings","era":"other","nn":0,"risk":25,"cat":"green"},{"name":"Headcorn Bowls Club","lat":51.17715,"lon":0.61396,"postcode":"TN27 9RN","la":"Maidstone","era":"trad","nn":1078,"risk":56,"cat":"amber"},{"name":"Headcorn Cricket And Tennis Club","lat":51.17506,"lon":0.63819,"postcode":"TN27 9LE","la":"Maidstone","era":"trad","nn":473,"risk":49,"cat":"amber"},{"name":"Headcorn Football Club","lat":51.17088,"lon":0.63695,"postcode":"TN27 9LY","la":"Maidstone","era":"trad","nn":473,"risk":49,"cat":"amber"},{"name":"Headcorn Seniors Lunch Club","lat":51.1667,"lon":0.61947,"postcode":"TN27 9NR","la":"Maidstone","era":"trad","nn":207,"risk":45,"cat":"amber"},{"name":"K Bar Limited","lat":51.17041,"lon":0.54904,"postcode":"TN12 0QY","la":"Maidstone","era":"mod","nn":1276,"risk":58,"cat":"amber"},{"name":"Kings Head","lat":51.15911,"lon":0.55223,"postcode":"TN12 0AR","la":"Maidstone","era":"trad","nn":1276,"risk":58,"cat":"amber"},{"name":"Marden Cricket And Hockey Club","lat":51.17754,"lon":0.50386,"postcode":"TN12 9AG","la":"Maidstone","era":"other","nn":664,"risk":48,"cat":"amber"},{"name":"Marden Village Club","lat":51.17284,"lon":0.49778,"postcode":"TN12 9DT","la":"Maidstone","era":"other","nn":163,"risk":45,"cat":"amber"},{"name":"Stile Bridge Inn","lat":51.20161,"lon":0.51652,"postcode":"TN12 9BH","la":"Maidstone","era":"trad","nn":2391,"risk":65,"cat":"red"},{"name":"The George And Dragon","lat":51.16793,"lon":0.6226,"postcode":"TN27 9NL","la":"Maidstone","era":"trad","nn":146,"risk":45,"cat":"amber"},{"name":"The Hawkenbury","lat":51.17628,"lon":0.581,"postcode":"TN12 0DZ","la":"Maidstone","era":"other","nn":2300,"risk":65,"cat":"red"},{"name":"The Lord Raglan Public House","lat":51.19275,"lon":0.55438,"postcode":"TN12 0DE","la":"Maidstone","era":"other","nn":2512,"risk":66,"cat":"red"},{"name":"The Unicorn","lat":51.17394,"lon":0.49625,"postcode":"TN12 9DR","la":"Maidstone","era":"other","nn":163,"risk":45,"cat":"amber"},{"name":"White Horse","lat":51.16841,"lon":0.62066,"postcode":"TN27 9NN","la":"Maidstone","era":"trad","nn":146,"risk":45,"cat":"amber"},{"name":"Battle Organic Cider","lat":50.91729,"lon":0.4837,"postcode":"TN33 0EA","la":"Rother","era":"other","nn":25,"risk":32,"cat":"amber"},{"name":"Battle Tap","lat":50.9172,"lon":0.48403,"postcode":"TN33 0EN","la":"Rother","era":"mod","nn":25,"risk":32,"cat":"amber"},{"name":"Beauport Park Holiday Village","lat":50.8943,"lon":0.55039,"postcode":"TN37 7PP","la":"Hastings","era":"other","nn":594,"risk":47,"cat":"amber"},{"name":"Black Horse Inn","lat":50.90017,"lon":0.5216,"postcode":"TN33 0SH","la":"Rother","era":"trad","nn":2121,"risk":66,"cat":"red"},{"name":"Brickmakers Ale House","lat":50.84006,"lon":0.47743,"postcode":"TN40 1EE","la":"Rother","era":"other","nn":75,"risk":30,"cat":"green"},{"name":"Castle Inn","lat":51.00015,"lon":0.54056,"postcode":"TN32 5UE","la":"Rother","era":"trad","nn":3680,"risk":77,"cat":"red"},{"name":"Coghurst Hall","lat":50.89507,"lon":0.59868,"postcode":"TN35 4NP","la":"Rother","era":"other","nn":1530,"risk":62,"cat":"red"},{"name":"Cooden Beach Social Club","lat":50.83674,"lon":0.43179,"postcode":"TN39 3BD","la":"Rother","era":"mod","nn":730,"risk":52,"cat":"amber"},{"name":"Highwood Golf Club","lat":50.85612,"lon":0.45047,"postcode":"TN39 4LJ","la":"Rother","era":"other","nn":412,"risk":52,"cat":"amber"},{"name":"Pub 31","lat":50.9158,"lon":0.72336,"postcode":"TN36 4ND","la":"Rother","era":"other","nn":157,"risk":35,"cat":"amber"},{"name":"R.A.F.A Albatross Club","lat":50.8374,"lon":0.47458,"postcode":"TN40 1JS","la":"Rother","era":"other","nn":198,"risk":30,"cat":"green"},{"name":"Robin Hood Inn","lat":50.91533,"lon":0.66126,"postcode":"TN36 4BD","la":"Rother","era":"trad","nn":3198,"risk":74,"cat":"red"},{"name":"Royal George","lat":51.01729,"lon":0.47092,"postcode":"TN19 7PN","la":"Rother","era":"trad","nn":3241,"risk":74,"cat":"red"},{"name":"Royal Sovereign","lat":50.84073,"lon":0.47758,"postcode":"TN40 1EE","la":"Rother","era":"trad","nn":75,"risk":30,"cat":"green"},{"name":"Rye Bay Club House","lat":50.91265,"lon":0.72174,"postcode":"TN36 4ND","la":"Rother","era":"other","nn":368,"risk":37,"cat":"amber"},{"name":"Rye Harbour Sailing Club","lat":50.93897,"lon":0.7634,"postcode":"TN31 7TU","la":"Rother","era":"other","nn":192,"risk":50,"cat":"amber"},{"name":"Rye Harbour Social Club","lat":50.93818,"lon":0.76096,"postcode":"TN31 7TT","la":"Rother","era":"mod","nn":192,"risk":50,"cat":"amber"},{"name":"Salehurst Halt","lat":50.99077,"lon":0.49013,"postcode":"TN32 5PH","la":"Rother","era":"other","nn":3241,"risk":74,"cat":"red"},{"name":"Sidley Working Men's Club","lat":50.85298,"lon":0.47524,"postcode":"TN40 2DD","la":"Rother","era":"trad","nn":370,"risk":52,"cat":"amber"},{"name":"Swan Inn","lat":50.94975,"lon":0.3706,"postcode":"TN21 9LB","la":"Rother","era":"trad","nn":4293,"risk":82,"cat":"red"},{"name":"The BBQ Project, The Bull Inn","lat":50.91686,"lon":0.48402,"postcode":"TN33 0EA","la":"Rother","era":"trad","nn":38,"risk":32,"cat":"amber"},{"name":"The Bear Inn","lat":50.99718,"lon":0.38403,"postcode":"TN19 7ET","la":"Rother","era":"trad","nn":5356,"risk":87,"cat":"red"},{"name":"The Camber Castle","lat":50.93511,"lon":0.79932,"postcode":"TN31 7RS","la":"Rother","era":"other","nn":560,"risk":53,"cat":"amber"},{"name":"The Harp","lat":50.83917,"lon":0.47421,"postcode":"TN40 1AH","la":"Rother","era":"other","nn":198,"risk":30,"cat":"green"},{"name":"The Kings Head","lat":50.91745,"lon":0.48449,"postcode":"TN33 0EG","la":"Rother","era":"trad","nn":42,"risk":32,"cat":"amber"},{"name":"The Kings Head","lat":50.9425,"lon":0.64631,"postcode":"TN31 6BG","la":"Rother","era":"trad","nn":3198,"risk":74,"cat":"red"},{"name":"The New Inn","lat":50.85591,"lon":0.47275,"postcode":"TN39 5AE","la":"Rother","era":"trad","nn":370,"risk":52,"cat":"amber"},{"name":"The Owl","lat":50.93535,"lon":0.79134,"postcode":"TN31 7RE","la":"Rother","era":"other","nn":560,"risk":53,"cat":"amber"},{"name":"The Picture Playhouse","lat":50.84031,"lon":0.47105,"postcode":"TN40 1DY","la":"Rother","era":"other","nn":102,"risk":30,"cat":"green"},{"name":"The Plough Inn","lat":50.87828,"lon":0.49894,"postcode":"TN33 9AW","la":"Rother","era":"trad","nn":2781,"risk":71,"cat":"red"},{"name":"The Railway Pub and Carvery","lat":50.91146,"lon":0.49292,"postcode":"TN33 0DE","la":"Rother","era":"trad","nn":866,"risk":38,"cat":"amber"},{"name":"The Rose And Crown","lat":50.85718,"lon":0.45609,"postcode":"TN39 5HH","la":"Rother","era":"trad","nn":412,"risk":52,"cat":"amber"},{"name":"The Royal British Legion","lat":50.84325,"lon":0.4331,"postcode":"TN39 4SZ","la":"Rother","era":"trad","nn":231,"risk":48,"cat":"amber"},{"name":"The Ship Inn","lat":50.91839,"lon":0.7245,"postcode":"TN36 4LH","la":"Rother","era":"trad","nn":299,"risk":36,"cat":"amber"},{"name":"The Sportsman","lat":50.83914,"lon":0.47023,"postcode":"TN39 3JD","la":"Rother","era":"other","nn":143,"risk":30,"cat":"green"},{"name":"The Town House","lat":50.84106,"lon":0.47023,"postcode":"TN39 3JR","la":"Rother","era":"other","nn":86,"risk":30,"cat":"green"},{"name":"Town Square Social Club","lat":50.84183,"lon":0.47041,"postcode":"TN39 3JU","la":"Rother","era":"mod","nn":86,"risk":30,"cat":"green"},{"name":"Union Inn","lat":50.95087,"lon":0.7345,"postcode":"TN31 7JY","la":"Rother","era":"trad","nn":2330,"risk":68,"cat":"red"},{"name":"Wheatsheaf Inn","lat":50.84532,"lon":0.43333,"postcode":"TN39 4LR","la":"Rother","era":"trad","nn":231,"risk":48,"cat":"amber"},{"name":"White Hart Inn","lat":50.89661,"lon":0.44831,"postcode":"TN33 9DJ","la":"Rother","era":"trad","nn":1955,"risk":65,"cat":"red"},{"name":"White Hart Pub Ltd","lat":50.94297,"lon":0.43093,"postcode":"TN33 9QH","la":"Rother","era":"trad","nn":4293,"risk":82,"cat":"red"},{"name":"Winchelsea Sands Holiday Park","lat":50.91605,"lon":0.72116,"postcode":"TN36 4NB","la":"Rother","era":"other","nn":157,"risk":35,"cat":"amber"},{"name":"Bouchon Bar A Vins And Tasting Room","lat":51.26704,"lon":0.07336,"postcode":"TN16 1AX","la":"Sevenoaks","era":"mod","nn":89,"risk":28,"cat":"green"},{"name":"Bough Beech Sailing Club","lat":51.20855,"lon":0.14895,"postcode":"TN8 7AN","la":"Sevenoaks","era":"other","nn":2016,"risk":64,"cat":"red"},{"name":"Brunch In Westerham","lat":51.26674,"lon":0.07218,"postcode":"TN16 1AZ","la":"Sevenoaks","era":"other","nn":50,"risk":27,"cat":"green"},{"name":"Bullfinch","lat":51.2874,"lon":0.16784,"postcode":"TN13 2DR","la":"Sevenoaks","era":"trad","nn":376,"risk":47,"cat":"amber"},{"name":"Castle Inn Hospitality","lat":51.18592,"lon":0.14556,"postcode":"TN8 7AH","la":"Sevenoaks","era":"trad","nn":2314,"risk":66,"cat":"red"},{"name":"Chafford Arms","lat":51.14208,"lon":0.18023,"postcode":"TN3 0SA","la":"Sevenoaks","era":"trad","nn":2041,"risk":64,"cat":"red"},{"name":"Dunton Green Social Club","lat":51.29639,"lon":0.16497,"postcode":"TN13 2TA","la":"Sevenoaks","era":"mod","nn":300,"risk":34,"cat":"amber"},{"name":"Five Bells","lat":51.28923,"lon":0.22054,"postcode":"TN15 0AU","la":"Sevenoaks","era":"other","nn":1468,"risk":60,"cat":"amber"},{"name":"Fleur De Lis","lat":51.19594,"lon":0.21204,"postcode":"TN11 8RL","la":"Sevenoaks","era":"other","nn":36,"risk":47,"cat":"amber"},{"name":"George And Dragon","lat":51.28463,"lon":0.1536,"postcode":"TN13 2RW","la":"Sevenoaks","era":"trad","nn":709,"risk":52,"cat":"amber"},{"name":"Halfway House","lat":51.27913,"lon":0.17739,"postcode":"TN13 2JD","la":"Sevenoaks","era":"other","nn":1134,"risk":58,"cat":"amber"},{"name":"House In The Basement","lat":51.27007,"lon":0.19199,"postcode":"TN13 1ZZ","la":"Sevenoaks","era":"mod","nn":122,"risk":28,"cat":"green"},{"name":"Kemsing Lunch Club, Age UK Sevenoaks Tonbridge","lat":51.30604,"lon":0.23007,"postcode":"TN15 6NA","la":"Sevenoaks","era":"trad","nn":40,"risk":47,"cat":"amber"},{"name":"Kentish Horse","lat":51.16513,"lon":0.10884,"postcode":"TN8 5NT","la":"Sevenoaks","era":"trad","nn":2048,"risk":64,"cat":"red"},{"name":"King Henry VIII Inn","lat":51.1835,"lon":0.11096,"postcode":"TN8 7NH","la":"Sevenoaks","era":"trad","nn":2048,"risk":64,"cat":"red"},{"name":"Kings Arms","lat":51.3333,"lon":0.18009,"postcode":"TN14 7SJ","la":"Sevenoaks","era":"trad","nn":488,"risk":51,"cat":"amber"},{"name":"No. 17","lat":51.26693,"lon":0.07154,"postcode":"TN16 1AN","la":"Sevenoaks","era":"other","nn":50,"risk":27,"cat":"green"},{"name":"Nomads Football Club","lat":51.20885,"lon":0.07587,"postcode":"TN8 6LP","la":"Sevenoaks","era":"other","nn":1403,"risk":59,"cat":"amber"},{"name":"Otford Lunch Club","lat":51.3131,"lon":0.18643,"postcode":"TN14 5PQ","la":"Sevenoaks","era":"other","nn":101,"risk":45,"cat":"amber"},{"name":"Perfect Cuisine","lat":51.27703,"lon":0.1969,"postcode":"TN13 3UX","la":"Sevenoaks","era":"other","nn":585,"risk":31,"cat":"amber"},{"name":"Portobello Pizzaria","lat":51.34061,"lon":0.26713,"postcode":"TN15 6JB","la":"Sevenoaks","era":"other","nn":0,"risk":45,"cat":"amber"},{"name":"Rose And Crown","lat":51.30024,"lon":0.16056,"postcode":"TN13 2TH","la":"Sevenoaks","era":"trad","nn":527,"risk":48,"cat":"amber"},{"name":"Royal British Legion","lat":51.19832,"lon":0.06478,"postcode":"TN8 5AB","la":"Sevenoaks","era":"trad","nn":253,"risk":34,"cat":"amber"},{"name":"Sevenoaks Town Football Club","lat":51.29,"lon":0.19946,"postcode":"TN14 5BX","la":"Sevenoaks","era":"trad","nn":702,"risk":52,"cat":"amber"},{"name":"Stanhope Arms","lat":51.26922,"lon":0.0892,"postcode":"TN16 1HZ","la":"Sevenoaks","era":"trad","nn":343,"risk":47,"cat":"amber"},{"name":"Sundridge And Brasted Social Club","lat":51.27818,"lon":0.12363,"postcode":"TN14 6ET","la":"Sevenoaks","era":"mod","nn":264,"risk":46,"cat":"amber"},{"name":"The Anchor","lat":51.27148,"lon":0.19139,"postcode":"TN13 1AS","la":"Sevenoaks","era":"trad","nn":67,"risk":28,"cat":"green"},{"name":"The Bell","lat":51.30568,"lon":0.23014,"postcode":"TN15 6NB","la":"Sevenoaks","era":"other","nn":40,"risk":47,"cat":"amber"},{"name":"The Bottle House Inn","lat":51.15868,"lon":0.16594,"postcode":"TN11 8ET","la":"Sevenoaks","era":"other","nn":1914,"risk":63,"cat":"red"},{"name":"The Bull","lat":51.31285,"lon":0.18783,"postcode":"TN14 5PG","la":"Sevenoaks","era":"trad","nn":79,"risk":45,"cat":"amber"},{"name":"The Chequers","lat":51.27248,"lon":0.18995,"postcode":"TN13 1LD","la":"Sevenoaks","era":"other","nn":150,"risk":28,"cat":"green"},{"name":"The Chequers Inn","lat":51.30551,"lon":0.25365,"postcode":"TN15 6NP","la":"Sevenoaks","era":"trad","nn":1448,"risk":60,"cat":"amber"},{"name":"The Cock Inn","lat":51.24661,"lon":0.12825,"postcode":"TN14 6JN","la":"Sevenoaks","era":"trad","nn":1576,"risk":61,"cat":"red"},{"name":"The Crown","lat":51.33757,"lon":0.17844,"postcode":"TN14 7TJ","la":"Sevenoaks","era":"trad","nn":488,"risk":51,"cat":"amber"},{"name":"The Dukes Head","lat":51.29395,"lon":0.16678,"postcode":"TN13 2UR","la":"Sevenoaks","era":"trad","nn":300,"risk":32,"cat":"amber"},{"name":"The Fountain, Cowden","lat":51.14413,"lon":0.09299,"postcode":"TN8 7JG","la":"Sevenoaks","era":"other","nn":2583,"risk":68,"cat":"red"},{"name":"The Four Elms Inn","lat":51.2152,"lon":0.10028,"postcode":"TN8 6NE","la":"Sevenoaks","era":"trad","nn":975,"risk":54,"cat":"amber"},{"name":"The Gamecock","lat":51.34352,"lon":0.26015,"postcode":"TN15 6EL","la":"Sevenoaks","era":"other","nn":582,"risk":49,"cat":"amber"},{"name":"The Greyhound","lat":51.20322,"lon":0.17661,"postcode":"TN11 8LG","la":"Sevenoaks","era":"trad","nn":680,"risk":52,"cat":"amber"},{"name":"The Harrow Inn","lat":51.3158,"lon":0.1244,"postcode":"TN14 7JT","la":"Sevenoaks","era":"trad","nn":61,"risk":48,"cat":"amber"},{"name":"The Kings Head","lat":51.27892,"lon":0.15812,"postcode":"TN13 2PT","la":"Sevenoaks","era":"trad","nn":709,"risk":52,"cat":"amber"},{"name":"The Leicester Arms","lat":51.1725,"lon":0.18229,"postcode":"TN11 8BT","la":"Sevenoaks","era":"trad","nn":1914,"risk":63,"cat":"red"},{"name":"The Little Brown Jug","lat":51.19751,"lon":0.17312,"postcode":"TN11 8JJ","la":"Sevenoaks","era":"other","nn":680,"risk":52,"cat":"amber"},{"name":"The Miners Arms","lat":51.29076,"lon":0.16835,"postcode":"TN13 2UF","la":"Sevenoaks","era":"trad","nn":371,"risk":35,"cat":"amber"},{"name":"The Oak Tavern And Tap House","lat":51.27204,"lon":0.19243,"postcode":"TN13 1UP","la":"Sevenoaks","era":"other","nn":57,"risk":28,"cat":"green"},{"name":"The Old Eden","lat":51.1938,"lon":0.06613,"postcode":"TN8 5AX","la":"Sevenoaks","era":"other","nn":0,"risk":32,"cat":"amber"},{"name":"The Old Eden","lat":51.1938,"lon":0.06613,"postcode":"TN8 5AX","la":"Sevenoaks","era":"other","nn":0,"risk":32,"cat":"amber"},{"name":"The Pheasant Plucker","lat":51.25446,"lon":0.14712,"postcode":"TN14 6BU","la":"Sevenoaks","era":"other","nn":1576,"risk":61,"cat":"red"},{"name":"The Portobello Inn","lat":51.34061,"lon":0.26713,"postcode":"TN15 6JB","la":"Sevenoaks","era":"trad","nn":0,"risk":45,"cat":"amber"},{"name":"The Restoration","lat":51.27116,"lon":0.19222,"postcode":"TN13 1UW","la":"Sevenoaks","era":"other","nn":67,"risk":28,"cat":"green"},{"name":"The Rifleman","lat":51.2851,"lon":0.19309,"postcode":"TN13 3LZ","la":"Sevenoaks","era":"other","nn":702,"risk":50,"cat":"amber"},{"name":"The Rising Sun","lat":51.31719,"lon":0.24445,"postcode":"TN15 6XD","la":"Sevenoaks","era":"other","nn":1448,"risk":60,"cat":"amber"},{"name":"The Rose And Crown Pub","lat":51.32946,"lon":0.13602,"postcode":"TN14 7EA","la":"Sevenoaks","era":"trad","nn":1720,"risk":62,"cat":"red"},{"name":"The Royal British Legion","lat":51.19587,"lon":0.21255,"postcode":"TN11 8RL","la":"Sevenoaks","era":"trad","nn":36,"risk":47,"cat":"amber"},{"name":"The Royal Oak","lat":51.36306,"lon":0.29715,"postcode":"TN15 7HT","la":"Sevenoaks","era":"trad","nn":278,"risk":34,"cat":"amber"},{"name":"The Royal Oak","lat":51.23564,"lon":0.06427,"postcode":"TN8 6RD","la":"Sevenoaks","era":"trad","nn":2201,"risk":65,"cat":"red"},{"name":"The Sennockian","lat":51.27255,"lon":0.19248,"postcode":"TN13 1UX","la":"Sevenoaks","era":"other","nn":57,"risk":28,"cat":"green"},{"name":"The Three Horse Shoes","lat":51.31567,"lon":0.12355,"postcode":"TN14 7LD","la":"Sevenoaks","era":"trad","nn":61,"risk":48,"cat":"amber"},{"name":"The Wheatsheaf","lat":51.20899,"lon":0.11017,"postcode":"TN8 7NU","la":"Sevenoaks","era":"trad","nn":975,"risk":54,"cat":"amber"},{"name":"The White Hart","lat":51.25495,"lon":0.1987,"postcode":"TN13 1SG","la":"Sevenoaks","era":"trad","nn":1745,"risk":62,"cat":"red"},{"name":"The White Swan","lat":51.36069,"lon":0.29586,"postcode":"TN15 7HJ","la":"Sevenoaks","era":"trad","nn":278,"risk":34,"cat":"amber"},{"name":"The Windmill","lat":51.23735,"lon":0.18784,"postcode":"TN14 6PN","la":"Sevenoaks","era":"trad","nn":2098,"risk":64,"cat":"red"},{"name":"The Woodman","lat":51.31312,"lon":0.18887,"postcode":"TN14 5PQ","la":"Sevenoaks","era":"other","nn":79,"risk":45,"cat":"amber"},{"name":"Westerham Golf Club","lat":51.26767,"lon":0.08493,"postcode":"TN16 1LJ","la":"Sevenoaks","era":"other","nn":343,"risk":30,"cat":"green"},{"name":"Westerham Mens Club","lat":51.26783,"lon":0.07103,"postcode":"TN16 1AF","la":"Sevenoaks","era":"other","nn":106,"risk":28,"cat":"green"},{"name":"Westerham Sports Association","lat":51.26935,"lon":0.07596,"postcode":"TN16 1DD","la":"Sevenoaks","era":"other","nn":314,"risk":29,"cat":"green"},{"name":"White Hart","lat":51.2751,"lon":0.11474,"postcode":"TN16 1JE","la":"Sevenoaks","era":"trad","nn":707,"risk":50,"cat":"amber"},{"name":"White Horse Inn","lat":51.27793,"lon":0.1274,"postcode":"TN14 6EQ","la":"Sevenoaks","era":"trad","nn":264,"risk":46,"cat":"amber"},{"name":"Ye Old Crown Hotel","lat":51.19605,"lon":0.06494,"postcode":"TN8 5AR","la":"Sevenoaks","era":"trad","nn":253,"risk":34,"cat":"amber"},{"name":"Park Wood Golf Course","lat":51.28891,"lon":0.0506,"postcode":"TN16 2EG","la":"Tandridge","era":"other","nn":1430,"risk":60,"cat":"amber"},{"name":"Tatsfield Playing Field","lat":51.28901,"lon":0.01771,"postcode":"TN16 2JT","la":"Tandridge","era":"other","nn":647,"risk":49,"cat":"amber"},{"name":"Tatsfield Village Club","lat":51.29287,"lon":0.02467,"postcode":"TN16 2AG","la":"Tandridge","era":"other","nn":67,"risk":45,"cat":"amber"},{"name":"Ye Old Ship","lat":51.29347,"lon":0.02468,"postcode":"TN16 2AG","la":"Tandridge","era":"trad","nn":67,"risk":45,"cat":"amber"},{"name":"Angel (Tonbridge) Indoor Bowls Association Ltd","lat":51.19176,"lon":0.27778,"postcode":"TN9 1QH","la":"Tonbridge and Malling","era":"trad","nn":292,"risk":30,"cat":"green"},{"name":"Antonio Cardoso Barrocas","lat":51.1965,"lon":0.27498,"postcode":"TN9 1AS","la":"Tonbridge and Malling","era":"other","nn":0,"risk":28,"cat":"green"},{"name":"Black Horse","lat":51.33304,"lon":0.30435,"postcode":"TN15 7PR","la":"Tonbridge and Malling","era":"trad","nn":614,"risk":52,"cat":"amber"},{"name":"Black Horse","lat":51.29059,"lon":0.30966,"postcode":"TN15 8HF","la":"Tonbridge and Malling","era":"trad","nn":325,"risk":50,"cat":"amber"},{"name":"Brookers Oast","lat":51.19722,"lon":0.39512,"postcode":"TN12 6PY","la":"Maidstone","era":"other","nn":1506,"risk":59,"cat":"amber"},{"name":"Bush, Blackbird And Thrush","lat":51.22413,"lon":0.3812,"postcode":"TN12 5LN","la":"Tonbridge and Malling","era":"other","nn":1856,"risk":63,"cat":"red"},{"name":"George And Dragon","lat":51.20195,"lon":0.27746,"postcode":"TN10 3DN","la":"Tonbridge and Malling","era":"trad","nn":279,"risk":30,"cat":"green"},{"name":"George And Dragon","lat":51.30845,"lon":0.30996,"postcode":"TN15 7AA","la":"Tonbridge and Malling","era":"trad","nn":33,"risk":31,"cat":"amber"},{"name":"Hadlow College Bar - The Tipsy Tow","lat":51.22415,"lon":0.33101,"postcode":"TN11 0AL","la":"Tonbridge and Malling","era":"mod","nn":557,"risk":52,"cat":"amber"},{"name":"Hadlow Cricket Club","lat":51.23436,"lon":0.34324,"postcode":"TN11 0JE","la":"Tonbridge and Malling","era":"other","nn":1041,"risk":58,"cat":"amber"},{"name":"Humphrey Bean","lat":51.19506,"lon":0.27426,"postcode":"TN9 1AP","la":"Tonbridge and Malling","era":"other","nn":168,"risk":29,"cat":"green"},{"name":"Lee Catering Limited","lat":51.30639,"lon":0.31085,"postcode":"TN15 7AJ","la":"Tonbridge and Malling","era":"other","nn":0,"risk":30,"cat":"green"},{"name":"Man Of Kent","lat":51.20847,"lon":0.37198,"postcode":"TN12 5JS","la":"Tonbridge and Malling","era":"other","nn":1856,"risk":63,"cat":"red"},{"name":"Man Of Kent","lat":51.19663,"lon":0.27653,"postcode":"TN9 1HG","la":"Tonbridge and Malling","era":"other","nn":109,"risk":29,"cat":"green"},{"name":"Medway School Of Dancing","lat":51.19724,"lon":0.2751,"postcode":"TN9 1BB","la":"Tonbridge and Malling","era":"other","nn":82,"risk":28,"cat":"green"},{"name":"Punch And Judy","lat":51.18941,"lon":0.27122,"postcode":"TN9 2AB","la":"Tonbridge and Malling","era":"other","nn":225,"risk":29,"cat":"green"},{"name":"Robin Hood Freehouse","lat":51.29244,"lon":0.30605,"postcode":"TN15 8BT","la":"Tonbridge and Malling","era":"other","nn":325,"risk":50,"cat":"amber"},{"name":"Rose And Crown","lat":51.22916,"lon":0.33082,"postcode":"TN11 0EX","la":"Tonbridge and Malling","era":"trad","nn":557,"risk":52,"cat":"amber"},{"name":"Rose And Crown","lat":51.30827,"lon":0.31034,"postcode":"TN15 7AE","la":"Tonbridge and Malling","era":"trad","nn":33,"risk":31,"cat":"amber"},{"name":"The Bar At Wrotham Masonic Hall","lat":51.30639,"lon":0.31085,"postcode":"TN15 7AJ","la":"Tonbridge and Malling","era":"other","nn":0,"risk":30,"cat":"green"},{"name":"The Bell Inn","lat":51.21034,"lon":0.34159,"postcode":"TN11 0BD","la":"Tonbridge and Malling","era":"trad","nn":1703,"risk":62,"cat":"red"},{"name":"The Blue Anchor Pub","lat":51.28997,"lon":0.32431,"postcode":"TN15 8ND","la":"Tonbridge and Malling","era":"trad","nn":1022,"risk":57,"cat":"amber"},{"name":"The Bull Hotel","lat":51.30868,"lon":0.31252,"postcode":"TN15 7RF","la":"Tonbridge and Malling","era":"trad","nn":158,"risk":31,"cat":"amber"},{"name":"The Cardinals Error","lat":51.18639,"lon":0.28541,"postcode":"TN9 2EP","la":"Tonbridge and Malling","era":"other","nn":550,"risk":34,"cat":"amber"},{"name":"The Carpenter's Arms","lat":51.21301,"lon":0.31449,"postcode":"TN11 0AD","la":"Tonbridge and Malling","era":"trad","nn":1690,"risk":62,"cat":"red"},{"name":"The Chaser Inn","lat":51.24636,"lon":0.27901,"postcode":"TN11 9PE","la":"Tonbridge and Malling","era":"trad","nn":1946,"risk":64,"cat":"red"},{"name":"The Flying Dutchman","lat":51.21338,"lon":0.24949,"postcode":"TN11 9EN","la":"Tonbridge and Malling","era":"other","nn":453,"risk":51,"cat":"amber"},{"name":"The Foresters Arms","lat":51.18845,"lon":0.26838,"postcode":"TN9 2RT","la":"Tonbridge and Malling","era":"trad","nn":225,"risk":29,"cat":"green"},{"name":"The George And Dragon","lat":51.28677,"lon":0.28595,"postcode":"TN15 9HH","la":"Tonbridge and Malling","era":"trad","nn":110,"risk":49,"cat":"amber"},{"name":"The Half Moon","lat":51.21572,"lon":0.24416,"postcode":"TN11 9HJ","la":"Tonbridge and Malling","era":"other","nn":453,"risk":51,"cat":"amber"},{"name":"The Ightham Club","lat":51.28626,"lon":0.28459,"postcode":"TN15 9HA","la":"Tonbridge and Malling","era":"other","nn":110,"risk":46,"cat":"amber"},{"name":"The Ivy House","lat":51.19953,"lon":0.27637,"postcode":"TN9 1BW","la":"Tonbridge and Malling","era":"other","nn":270,"risk":30,"cat":"green"},{"name":"The Kentish Rifleman","lat":51.24833,"lon":0.3072,"postcode":"TN11 9RU","la":"Tonbridge and Malling","era":"other","nn":1173,"risk":58,"cat":"amber"},{"name":"The Moat","lat":51.30505,"lon":0.33192,"postcode":"TN15 7RR","la":"Tonbridge and Malling","era":"other","nn":1086,"risk":58,"cat":"amber"},{"name":"The Nelson Arms","lat":51.19285,"lon":0.26462,"postcode":"TN9 1UP","la":"Tonbridge and Malling","era":"trad","nn":470,"risk":31,"cat":"amber"},{"name":"The New Drum","lat":51.18789,"lon":0.27492,"postcode":"TN9 2AU","la":"Tonbridge and Malling","era":"other","nn":256,"risk":30,"cat":"green"},{"name":"The New Telegraph Club Ltd","lat":51.19017,"lon":0.27443,"postcode":"TN9 2AS","la":"Tonbridge and Malling","era":"other","nn":240,"risk":29,"cat":"green"},{"name":"The Old House","lat":51.27897,"lon":0.27644,"postcode":"TN15 9EH","la":"Tonbridge and Malling","era":"other","nn":989,"risk":55,"cat":"amber"},{"name":"The Papermakers Arms","lat":51.25789,"lon":0.30005,"postcode":"TN15 0QJ","la":"Tonbridge and Malling","era":"trad","nn":1173,"risk":58,"cat":"amber"},{"name":"The Plough","lat":51.27739,"lon":0.30461,"postcode":"TN15 8PS","la":"Tonbridge and Malling","era":"trad","nn":1509,"risk":61,"cat":"red"},{"name":"The Plough","lat":51.26676,"lon":0.27399,"postcode":"TN15 0NL","la":"Tonbridge and Malling","era":"trad","nn":1368,"risk":60,"cat":"amber"},{"name":"The Plough And Barn At Leigh","lat":51.20069,"lon":0.24315,"postcode":"TN11 9AJ","la":"Tonbridge and Malling","era":"trad","nn":1479,"risk":61,"cat":"red"},{"name":"The Royal Oak","lat":51.20526,"lon":0.27678,"postcode":"TN10 3ED","la":"Tonbridge and Malling","era":"trad","nn":372,"risk":30,"cat":"green"},{"name":"The Royal Oak Beefeater","lat":51.29784,"lon":0.34247,"postcode":"TN15 7RX","la":"Tonbridge and Malling","era":"trad","nn":723,"risk":53,"cat":"amber"},{"name":"Thriftwood Holiday Park","lat":51.33331,"lon":0.29552,"postcode":"TN15 7PB","la":"Tonbridge and Malling","era":"other","nn":614,"risk":52,"cat":"amber"},{"name":"Tonbridge Angels Football Club","lat":51.21092,"lon":0.26982,"postcode":"TN10 3JF","la":"Tonbridge and Malling","era":"trad","nn":0,"risk":45,"cat":"amber"},{"name":"Tonbridge Constitutional Club","lat":51.19229,"lon":0.27131,"postcode":"TN9 1TS","la":"Tonbridge and Malling","era":"other","nn":320,"risk":30,"cat":"green"},{"name":"Tonbridge Cricket Club","lat":51.21092,"lon":0.26982,"postcode":"TN10 3JF","la":"Tonbridge and Malling","era":"other","nn":0,"risk":45,"cat":"amber"},{"name":"Tonbridge Juddians Rugby Club","lat":51.198,"lon":0.27323,"postcode":"TN9 1HR","la":"Tonbridge and Malling","era":"other","nn":155,"risk":29,"cat":"green"},{"name":"Tonbridge Town Sailing Club","lat":51.18218,"lon":0.23584,"postcode":"TN11 9BA","la":"Tunbridge Wells","era":"other","nn":1423,"risk":61,"cat":"red"},{"name":"Vauxhall Inn","lat":51.18219,"lon":0.28123,"postcode":"TN11 0NA","la":"Tonbridge and Malling","era":"trad","nn":550,"risk":49,"cat":"amber"},{"name":"Wrotham Health Golf Club Ltd (Bar)","lat":51.2921,"lon":0.34736,"postcode":"TN15 8QZ","la":"Tonbridge and Malling","era":"other","nn":723,"risk":53,"cat":"amber"},{"name":"Ye Olde Chequers Inn (Bar)","lat":51.1965,"lon":0.27498,"postcode":"TN9 1AS","la":"Tonbridge and Malling","era":"trad","nn":0,"risk":28,"cat":"green"},{"name":"Bayham & Lamberhurst Bowls","lat":51.09793,"lon":0.36276,"postcode":"TN3 8LJ","la":"Tunbridge Wells","era":"other","nn":32,"risk":49,"cat":"amber"},{"name":"Bell And Jorrocks","lat":51.14208,"lon":0.59433,"postcode":"TN17 2EJ","la":"Tunbridge Wells","era":"other","nn":2612,"risk":70,"cat":"red"},{"name":"Black Horse P H","lat":51.14303,"lon":0.32052,"postcode":"TN2 4NY","la":"Tunbridge Wells","era":"trad","nn":92,"risk":47,"cat":"amber"},{"name":"Black Horse P H","lat":51.13791,"lon":0.26983,"postcode":"TN1 2RF","la":"Tunbridge Wells","era":"trad","nn":400,"risk":32,"cat":"amber"},{"name":"Camden Arms Hotel","lat":51.1427,"lon":0.32174,"postcode":"TN2 4PH","la":"Tunbridge Wells","era":"trad","nn":92,"risk":47,"cat":"amber"},{"name":"Cassidy's","lat":51.12798,"lon":0.26093,"postcode":"TN1 1XJ","la":"Tunbridge Wells","era":"other","nn":165,"risk":30,"cat":"green"},{"name":"Constitutional Club TW","lat":51.13622,"lon":0.27837,"postcode":"TN2 3PX","la":"Tunbridge Wells","era":"other","nn":619,"risk":33,"cat":"amber"},{"name":"Cramp Institute","lat":51.09606,"lon":0.53265,"postcode":"TN17 3EJ","la":"Tunbridge Wells","era":"trad","nn":193,"risk":48,"cat":"amber"},{"name":"Cranbrook RFC","lat":51.10243,"lon":0.53252,"postcode":"TN17 2PN","la":"Tunbridge Wells","era":"other","nn":669,"risk":51,"cat":"amber"},{"name":"Cross Keys Pub","lat":51.14928,"lon":0.26213,"postcode":"TN4 9XD","la":"Tunbridge Wells","era":"trad","nn":228,"risk":33,"cat":"amber"},{"name":"Duke Of York","lat":51.12627,"lon":0.25832,"postcode":"TN2 5TD","la":"Tunbridge Wells","era":"trad","nn":47,"risk":29,"cat":"green"},{"name":"Foresters Arms P H","lat":51.17856,"lon":0.385,"postcode":"TN12 6DX","la":"Tunbridge Wells","era":"trad","nn":483,"risk":50,"cat":"amber"},{"name":"Goudhurst Club","lat":51.11302,"lon":0.45817,"postcode":"TN17 1AD","la":"Tunbridge Wells","era":"other","nn":947,"risk":56,"cat":"amber"},{"name":"Goudhurst Inn","lat":51.11363,"lon":0.47171,"postcode":"TN17 1DX","la":"Tunbridge Wells","era":"trad","nn":947,"risk":56,"cat":"amber"},{"name":"Grove Bowling Club","lat":51.12796,"lon":0.26616,"postcode":"TN1 1SR","la":"Tunbridge Wells","era":"other","nn":191,"risk":30,"cat":"green"},{"name":"Grove Tavern P H","lat":51.12685,"lon":0.26315,"postcode":"TN1 1YR","la":"Tunbridge Wells","era":"other","nn":29,"risk":29,"cat":"green"},{"name":"Horsmonden Social Club","lat":51.13925,"lon":0.4306,"postcode":"TN12 8JS","la":"Tunbridge Wells","era":"mod","nn":117,"risk":50,"cat":"amber"},{"name":"John Brunt PH","lat":51.18018,"lon":0.39143,"postcode":"TN12 6HB","la":"Tunbridge Wells","era":"other","nn":483,"risk":50,"cat":"amber"},{"name":"King William IV T/as North And South Leisure","lat":51.14089,"lon":0.32892,"postcode":"TN2 4JS","la":"Tunbridge Wells","era":"trad","nn":540,"risk":50,"cat":"amber"},{"name":"Lamberhurst Golf Club","lat":51.10548,"lon":0.40052,"postcode":"TN3 8DT","la":"Tunbridge Wells","era":"other","nn":796,"risk":54,"cat":"amber"},{"name":"Larkins Alehouse Ltd","lat":51.09666,"lon":0.53524,"postcode":"TN17 3EB","la":"Tunbridge Wells","era":"mod","nn":193,"risk":48,"cat":"amber"},{"name":"Lemons Bar","lat":51.12625,"lon":0.25763,"postcode":"TN2 5TN","la":"Tunbridge Wells","era":"other","nn":6,"risk":29,"cat":"green"},{"name":"Maffei Home Of Havana","lat":51.13646,"lon":0.26216,"postcode":"TN1 2AY","la":"Tunbridge Wells","era":"other","nn":33,"risk":29,"cat":"green"},{"name":"Paddock Wood Club","lat":51.18442,"lon":0.38806,"postcode":"TN12 6DJ","la":"Tunbridge Wells","era":"other","nn":527,"risk":50,"cat":"amber"},{"name":"Prince Of Wales","lat":51.13468,"lon":0.26702,"postcode":"TN1 2PS","la":"Tunbridge Wells","era":"trad","nn":125,"risk":30,"cat":"green"},{"name":"Royal British Legion","lat":51.04747,"lon":0.50899,"postcode":"TN18 4AG","la":"Tunbridge Wells","era":"trad","nn":96,"risk":35,"cat":"amber"},{"name":"Saint Johns Yard","lat":51.14158,"lon":0.26041,"postcode":"TN4 9PE","la":"Tunbridge Wells","era":"other","nn":583,"risk":33,"cat":"amber"},{"name":"Sissinghurst Cricket Club","lat":51.10918,"lon":0.55928,"postcode":"TN17 2JB","la":"Tunbridge Wells","era":"other","nn":184,"risk":50,"cat":"amber"},{"name":"Southborough Men's Club And Social Institute","lat":51.15575,"lon":0.25781,"postcode":"TN4 0EX","la":"Tunbridge Wells","era":"mod","nn":637,"risk":38,"cat":"amber"},{"name":"Squash Rackets Club (TW)","lat":51.12973,"lon":0.2608,"postcode":"TN1 1DL","la":"Tunbridge Wells","era":"other","nn":138,"risk":30,"cat":"green"},{"name":"St Georges Club","lat":51.06834,"lon":0.57698,"postcode":"TN17 4DB","la":"Tunbridge Wells","era":"trad","nn":1709,"risk":63,"cat":"red"},{"name":"Sussex Arms","lat":51.12572,"lon":0.25783,"postcode":"TN2 5TE","la":"Tunbridge Wells","era":"trad","nn":10,"risk":29,"cat":"green"},{"name":"The Allotment Pub","lat":51.14079,"lon":0.27329,"postcode":"TN1 2HH","la":"Tunbridge Wells","era":"other","nn":400,"risk":32,"cat":"amber"},{"name":"The Bedford","lat":51.12909,"lon":0.2625,"postcode":"TN1 1UX","la":"Tunbridge Wells","era":"other","nn":130,"risk":30,"cat":"green"},{"name":"The Brick Works","lat":51.1497,"lon":0.2753,"postcode":"TN4 9BQ","la":"Tunbridge Wells","era":"mod","nn":664,"risk":39,"cat":"amber"},{"name":"The Bull","lat":51.11886,"lon":0.26016,"postcode":"TN2 5LH","la":"Tunbridge Wells","era":"trad","nn":544,"risk":33,"cat":"amber"},{"name":"The Castle Inn","lat":51.15554,"lon":0.4164,"postcode":"TN12 7BN","la":"Tunbridge Wells","era":"trad","nn":1313,"risk":61,"cat":"red"},{"name":"The Chequers","lat":51.10035,"lon":0.39258,"postcode":"TN3 8DB","la":"Tunbridge Wells","era":"other","nn":796,"risk":54,"cat":"amber"},{"name":"The Claremont Pub And Garden","lat":51.12924,"lon":0.26435,"postcode":"TN1 1RZ","la":"Tunbridge Wells","era":"other","nn":130,"risk":30,"cat":"green"},{"name":"The Compasses P H","lat":51.12705,"lon":0.26343,"postcode":"TN1 1YP","la":"Tunbridge Wells","era":"other","nn":29,"risk":29,"cat":"green"},{"name":"The Crown Inn","lat":51.11837,"lon":0.18498,"postcode":"TN3 9QH","la":"Tunbridge Wells","era":"trad","nn":1925,"risk":65,"cat":"red"},{"name":"The Eight Bells","lat":51.03992,"lon":0.50373,"postcode":"TN18 4NX","la":"Tunbridge Wells","era":"other","nn":915,"risk":40,"cat":"amber"},{"name":"The Elephants Head","lat":51.09812,"lon":0.36308,"postcode":"TN3 8LJ","la":"Tunbridge Wells","era":"trad","nn":32,"risk":49,"cat":"amber"},{"name":"The George & Dragon At Tudeley","lat":51.18033,"lon":0.33865,"postcode":"TN11 0PW","la":"Tunbridge Wells","era":"trad","nn":1722,"risk":63,"cat":"red"},{"name":"The George And Dragon","lat":51.15066,"lon":0.22028,"postcode":"TN3 0NN","la":"Tunbridge Wells","era":"trad","nn":1809,"risk":64,"cat":"red"},{"name":"The Glasshouse","lat":51.13533,"lon":0.26085,"postcode":"TN4 8AA","la":"Tunbridge Wells","era":"other","nn":137,"risk":30,"cat":"green"},{"name":"The Great House","lat":51.05969,"lon":0.50452,"postcode":"TN18 5EJ","la":"Tunbridge Wells","era":"other","nn":1394,"risk":61,"cat":"red"},{"name":"The Guinea","lat":51.13358,"lon":0.26668,"postcode":"TN1 2UJ","la":"Tunbridge Wells","era":"other","nn":125,"risk":30,"cat":"green"},{"name":"The Gun And Spitroast","lat":51.13869,"lon":0.42919,"postcode":"TN12 8HT","la":"Tunbridge Wells","era":"other","nn":117,"risk":50,"cat":"amber"},{"name":"The Halfway House","lat":51.14701,"lon":0.40339,"postcode":"TN12 7AX","la":"Tunbridge Wells","era":"other","nn":1313,"risk":61,"cat":"red"},{"name":"The Hare","lat":51.1311,"lon":0.20367,"postcode":"TN3 0JA","la":"Tunbridge Wells","era":"other","nn":1835,"risk":64,"cat":"red"},{"name":"The Hawkenbury","lat":51.12259,"lon":0.2777,"postcode":"TN2 5BT","la":"Tunbridge Wells","era":"other","nn":778,"risk":52,"cat":"amber"},{"name":"The Imperial","lat":51.16143,"lon":0.25667,"postcode":"TN4 0PB","la":"Tunbridge Wells","era":"other","nn":637,"risk":53,"cat":"amber"},{"name":"The Kentish Hare","lat":51.16938,"lon":0.23649,"postcode":"TN3 0XB","la":"Tunbridge Wells","era":"other","nn":1423,"risk":61,"cat":"red"},{"name":"The Knoxbridge","lat":51.13844,"lon":0.55631,"postcode":"TN17 2BT","la":"Tunbridge Wells","era":"other","nn":2316,"risk":68,"cat":"red"},{"name":"The Milk House","lat":51.10892,"lon":0.56188,"postcode":"TN17 2JG","la":"Tunbridge Wells","era":"other","nn":184,"risk":50,"cat":"amber"},{"name":"The Mount Edgcumbe","lat":51.13102,"lon":0.25558,"postcode":"TN4 8BX","la":"Tunbridge Wells","era":"other","nn":392,"risk":32,"cat":"amber"},{"name":"The Oak","lat":51.13536,"lon":0.22908,"postcode":"TN4 8RX","la":"Tunbridge Wells","era":"trad","nn":757,"risk":54,"cat":"amber"},{"name":"The Opera House","lat":51.13382,"lon":0.26397,"postcode":"TN1 1RT","la":"Tunbridge Wells","era":"other","nn":191,"risk":30,"cat":"green"},{"name":"The Pantiles Tap","lat":51.12575,"lon":0.25796,"postcode":"TN2 5TE","la":"Tunbridge Wells","era":"mod","nn":10,"risk":29,"cat":"green"},{"name":"The Peacock Inn","lat":51.11011,"lon":0.49418,"postcode":"TN17 2PB","la":"Tunbridge Wells","era":"trad","nn":1617,"risk":63,"cat":"red"},{"name":"The Poacher And Partridge","lat":51.18759,"lon":0.31683,"postcode":"TN11 0PH","la":"Tunbridge Wells","era":"other","nn":1722,"risk":63,"cat":"red"},{"name":"The Queens Inn","lat":51.04722,"lon":0.51173,"postcode":"TN18 4EY","la":"Tunbridge Wells","era":"trad","nn":102,"risk":35,"cat":"amber"},{"name":"The Ragged Trousers","lat":51.1263,"lon":0.25765,"postcode":"TN2 5TN","la":"Tunbridge Wells","era":"other","nn":6,"risk":29,"cat":"green"},{"name":"The Robin Hood","lat":51.14539,"lon":0.2819,"postcode":"TN2 3TD","la":"Tunbridge Wells","era":"other","nn":664,"risk":51,"cat":"amber"},{"name":"The Rose And Crown","lat":51.13618,"lon":0.26228,"postcode":"TN1 2AY","la":"Tunbridge Wells","era":"trad","nn":33,"risk":29,"cat":"green"},{"name":"The Royal Oak","lat":51.13107,"lon":0.27302,"postcode":"TN2 4SY","la":"Tunbridge Wells","era":"trad","nn":523,"risk":33,"cat":"amber"},{"name":"The Royal Oak","lat":51.04716,"lon":0.51027,"postcode":"TN18 4EP","la":"Tunbridge Wells","era":"trad","nn":96,"risk":35,"cat":"amber"},{"name":"The Star","lat":51.1535,"lon":0.37256,"postcode":"TN12 7JR","la":"Tunbridge Wells","era":"other","nn":2268,"risk":67,"cat":"red"},{"name":"The Three Chimneys","lat":51.1207,"lon":0.60984,"postcode":"TN27 8LW","la":"Tunbridge Wells","era":"other","nn":2395,"risk":68,"cat":"red"},{"name":"Toad Rock Retreat","lat":51.13467,"lon":0.23987,"postcode":"TN4 8NX","la":"Tunbridge Wells","era":"other","nn":757,"risk":54,"cat":"amber"},{"name":"Tunbridge Wells Lawn Tennis Club","lat":51.12154,"lon":0.26667,"postcode":"TN2 5ES","la":"Tunbridge Wells","era":"other","nn":544,"risk":33,"cat":"amber"},{"name":"Tunbridge Wells Sports Ground Ltd","lat":51.14723,"lon":0.2619,"postcode":"TN4 9UY","la":"Tunbridge Wells","era":"other","nn":228,"risk":33,"cat":"amber"},{"name":"Woodcock Inn","lat":51.05298,"lon":0.5769,"postcode":"TN17 4HT","la":"Tunbridge Wells","era":"trad","nn":1709,"risk":63,"cat":"red"},{"name":"Alma Arms","lat":50.96699,"lon":0.10103,"postcode":"TN22 5AJ","la":"Wealden","era":"trad","nn":679,"risk":48,"cat":"amber"},{"name":"Crowborough And District Social Club","lat":51.05803,"lon":0.16216,"postcode":"TN6 1DL","la":"Wealden","era":"mod","nn":80,"risk":57,"cat":"amber"},{"name":"Crowborough Athletic F.C","lat":51.04261,"lon":0.16692,"postcode":"TN6 3FY","la":"Wealden","era":"other","nn":563,"risk":62,"cat":"red"},{"name":"Crowborough Constitiutional Club","lat":51.06075,"lon":0.16129,"postcode":"TN6 2TP","la":"Wealden","era":"other","nn":230,"risk":58,"cat":"amber"},{"name":"George Inn","lat":51.09758,"lon":0.26998,"postcode":"TN3 9DU","la":"Wealden","era":"trad","nn":2464,"risk":78,"cat":"red"},{"name":"Greenviews Caravan Park","lat":50.97458,"lon":0.2735,"postcode":"TN21 8RT","la":"Wealden","era":"other","nn":1207,"risk":70,"cat":"red"},{"name":"High Spririts","lat":51.05875,"lon":0.16211,"postcode":"TN6 1DL","la":"Wealden","era":"other","nn":80,"risk":57,"cat":"amber"},{"name":"Highlands Inn","lat":50.96083,"lon":0.09978,"postcode":"TN22 5SP","la":"Wealden","era":"trad","nn":690,"risk":63,"cat":"red"},{"name":"Kings Arms","lat":50.8855,"lon":0.42672,"postcode":"TN33 9JB","la":"Wealden","era":"trad","nn":1955,"risk":75,"cat":"red"},{"name":"Mark Cross Inn","lat":51.05825,"lon":0.25726,"postcode":"TN6 3NP","la":"Wealden","era":"trad","nn":4462,"risk":92,"cat":"red"},{"name":"Nutley Social Club","lat":51.03339,"lon":0.05445,"postcode":"TN22 3NE","la":"Wealden","era":"mod","nn":2999,"risk":82,"cat":"red"},{"name":"Pig and Butcher,","lat":51.03924,"lon":0.17292,"postcode":"TN22 3AN","la":"Wealden","era":"other","nn":563,"risk":60,"cat":"amber"},{"name":"Piltdown Man","lat":50.98107,"lon":0.04923,"postcode":"TN22 3XL","la":"Wealden","era":"other","nn":1739,"risk":73,"cat":"red"},{"name":"Red Lion","lat":50.8696,"lon":0.40419,"postcode":"TN33 9EW","la":"Wealden","era":"trad","nn":2371,"risk":78,"cat":"red"},{"name":"Runt In Tun","lat":50.95471,"lon":0.25041,"postcode":"TN21 0DJ","la":"Wealden","era":"other","nn":2682,"risk":80,"cat":"red"},{"name":"Soiree Lounge Bar","lat":50.97328,"lon":0.09697,"postcode":"TN22 1RJ","la":"Wealden","era":"mod","nn":79,"risk":57,"cat":"amber"},{"name":"The Chequers","lat":50.99706,"lon":0.08814,"postcode":"TN22 2EH","la":"Wealden","era":"other","nn":2556,"risk":79,"cat":"red"},{"name":"The Dorset Arms","lat":51.10106,"lon":0.13514,"postcode":"TN7 4BD","la":"Wealden","era":"trad","nn":2635,"risk":80,"cat":"red"},{"name":"The Foresters Arms","lat":51.01994,"lon":0.09163,"postcode":"TN22 3BP","la":"Wealden","era":"trad","nn":2556,"risk":79,"cat":"red"},{"name":"The Gallipot Inn","lat":51.0957,"lon":0.09838,"postcode":"TN7 4AJ","la":"Wealden","era":"trad","nn":2635,"risk":80,"cat":"red"},{"name":"The Griffin Inn","lat":50.99367,"lon":0.03452,"postcode":"TN22 3SS","la":"Wealden","era":"trad","nn":1739,"risk":73,"cat":"red"},{"name":"The Half Moon Inn","lat":50.96606,"lon":0.28419,"postcode":"TN21 9BS","la":"Wealden","era":"trad","nn":1207,"risk":70,"cat":"red"},{"name":"The Halfway House","lat":50.92765,"lon":0.07288,"postcode":"TN22 5UG","la":"Wealden","era":"other","nn":1025,"risk":68,"cat":"red"},{"name":"The Laughing Fish","lat":50.93531,"lon":0.06475,"postcode":"TN22 5XB","la":"Wealden","era":"other","nn":1025,"risk":68,"cat":"red"},{"name":"The Wheatsheaf","lat":51.04335,"lon":0.18181,"postcode":"TN6 2NF","la":"Wealden","era":"trad","nn":771,"risk":64,"cat":"red"},{"name":"The White Hart","lat":50.98946,"lon":0.12834,"postcode":"TN22 4DP","la":"Wealden","era":"trad","nn":2839,"risk":81,"cat":"red"},{"name":"Uckfield Cinque Ports Club","lat":50.97259,"lon":0.09718,"postcode":"TN22 1AU","la":"Wealden","era":"other","nn":79,"risk":57,"cat":"amber"}]