[{"name":"Barneby Inn","lat":52.2055,"lon":-2.5735,"postcode":"HR7 4TF","la":"Herefordshire, County of","era":"trad","nn":3930,"risk":75,"cat":"red"},{"name":"Barons Cross Inn and Campsite","lat":52.22254,"lon":-2.7614,"postcode":"HR6 8RS","la":"Herefordshire, County of","era":"trad","nn":1483,"risk":58,"cat":"amber"},{"name":"Bateman Arms","lat":52.25181,"lon":-2.88,"postcode":"HR6 9LX","la":"Herefordshire, County of","era":"trad","nn":735,"risk":50,"cat":"amber"},{"name":"Beer in Hand","lat":52.05709,"lon":-2.72241,"postcode":"HR4 0AP","la":"Herefordshire, County of","era":"other","nn":0,"risk":25,"cat":"green"},{"name":"Bells Inn","lat":52.15969,"lon":-2.97554,"postcode":"HR3 6LF","la":"Herefordshire, County of","era":"trad","nn":3030,"risk":69,"cat":"red"},{"name":"Black Lion","lat":52.05351,"lon":-2.71904,"postcode":"HR4 9DG","la":"Herefordshire, County of","era":"trad","nn":29,"risk":25,"cat":"green"},{"name":"Black Swan","lat":51.97707,"lon":-2.75494,"postcode":"HR2 8DJ","la":"Herefordshire, County of","era":"trad","nn":1463,"risk":58,"cat":"amber"},{"name":"Brewers Arms","lat":52.05175,"lon":-2.7029,"postcode":"HR1 2RU","la":"Herefordshire, County of","era":"trad","nn":265,"risk":27,"cat":"green"},{"name":"Britannia Inn","lat":52.05863,"lon":-2.73291,"postcode":"HR4 0HH","la":"Herefordshire, County of","era":"trad","nn":195,"risk":27,"cat":"green"},{"name":"Brockhampton Cricket Club","lat":51.98271,"lon":-2.58437,"postcode":"HR1 4TQ","la":"Herefordshire, County of","era":"other","nn":3433,"risk":72,"cat":"red"},{"name":"Bunch Of Carrots","lat":52.03986,"lon":-2.65652,"postcode":"HR1 4JR","la":"Herefordshire, County of","era":"other","nn":2060,"risk":62,"cat":"red"},{"name":"Carpenters Arms","lat":51.91954,"lon":-2.96043,"postcode":"HR2 0DX","la":"Herefordshire, County of","era":"trad","nn":2440,"risk":65,"cat":"red"},{"name":"Cock Of Tupsley","lat":52.05636,"lon":-2.68206,"postcode":"HR1 1UX","la":"Herefordshire, County of","era":"other","nn":591,"risk":47,"cat":"amber"},{"name":"Cornewall Arms","lat":51.93803,"lon":-2.97958,"postcode":"HR2 0PD","la":"Herefordshire, County of","era":"trad","nn":1346,"risk":57,"cat":"amber"},{"name":"Cottage Of Content","lat":51.97607,"lon":-2.63832,"postcode":"HR2 6NG","la":"Herefordshire, County of","era":"other","nn":2386,"risk":64,"cat":"red"},{"name":"Credenhill Sports & Social Club","lat":52.08366,"lon":-2.80877,"postcode":"HR4 7EY","la":"Herefordshire, County of","era":"mod","nn":2872,"risk":68,"cat":"red"},{"name":"Cross Keys Inn","lat":51.86724,"lon":-2.6302,"postcode":"HR9 6JB","la":"Herefordshire, County of","era":"trad","nn":919,"risk":52,"cat":"amber"},{"name":"Cross Keys Inn","lat":52.0947,"lon":-2.65403,"postcode":"HR1 3NN","la":"Herefordshire, County of","era":"trad","nn":2412,"risk":65,"cat":"red"},{"name":"Crown & Anchor","lat":52.06612,"lon":-2.66213,"postcode":"HR1 4AB","la":"Herefordshire, County of","era":"trad","nn":1742,"risk":60,"cat":"amber"},{"name":"Crown Inn","lat":51.95007,"lon":-2.98162,"postcode":"HR2 0LT","la":"Herefordshire, County of","era":"trad","nn":1346,"risk":57,"cat":"amber"},{"name":"Crown Inn","lat":52.01829,"lon":-2.56788,"postcode":"HR1 4QP","la":"Herefordshire, County of","era":"trad","nn":816,"risk":51,"cat":"amber"},{"name":"Crown Inn","lat":52.18587,"lon":-2.85484,"postcode":"HR4 8HL","la":"Herefordshire, County of","era":"trad","nn":3213,"risk":70,"cat":"red"},{"name":"Doyle\u2019s Sports Bar Limited","lat":52.05793,"lon":-2.71125,"postcode":"HR1 2BP","la":"Herefordshire, County of","era":"mod","nn":0,"risk":25,"cat":"green"},{"name":"Duke Of York","lat":52.26783,"lon":-2.65618,"postcode":"HR6 0HW","la":"Herefordshire, County of","era":"trad","nn":4118,"risk":77,"cat":"red"},{"name":"Duke's Head","lat":52.22722,"lon":-2.73776,"postcode":"HR6 8LR","la":"Herefordshire, County of","era":"trad","nn":0,"risk":25,"cat":"green"},{"name":"Englands Gate Inn","lat":52.15765,"lon":-2.669,"postcode":"HR1 3HU","la":"Herefordshire, County of","era":"trad","nn":5658,"risk":83,"cat":"red"},{"name":"Fountain Inn","lat":51.94698,"lon":-2.7593,"postcode":"HR2 8EP","la":"Herefordshire, County of","era":"trad","nn":2631,"risk":66,"cat":"red"},{"name":"Full Pitcher","lat":52.02976,"lon":-2.43358,"postcode":"HR8 2EN","la":"Herefordshire, County of","era":"other","nn":930,"risk":37,"cat":"amber"},{"name":"Garway Moon Inn","lat":51.90079,"lon":-2.78242,"postcode":"HR2 8RQ","la":"Herefordshire, County of","era":"trad","nn":5376,"risk":83,"cat":"red"},{"name":"Golden Cross Inn","lat":52.10717,"lon":-2.68293,"postcode":"HR1 3AZ","la":"Herefordshire, County of","era":"trad","nn":2412,"risk":65,"cat":"red"},{"name":"Golden Fleece","lat":52.05531,"lon":-2.71207,"postcode":"HR1 2JB","la":"Herefordshire, County of","era":"trad","nn":82,"risk":26,"cat":"green"},{"name":"Golden Lion","lat":52.06657,"lon":-2.72411,"postcode":"HR4 9NF","la":"Herefordshire, County of","era":"trad","nn":444,"risk":28,"cat":"green"},{"name":"Gordon Bennetts","lat":52.05624,"lon":-2.71448,"postcode":"HR1 2LE","la":"Herefordshire, County of","era":"other","nn":149,"risk":26,"cat":"green"},{"name":"Great Western Railway Staff Association","lat":52.05585,"lon":-2.72398,"postcode":"HR4 0AZ","la":"Herefordshire, County of","era":"trad","nn":175,"risk":27,"cat":"green"},{"name":"Hereford Amateur Operatic Society","lat":52.0592,"lon":-2.7302,"postcode":"HR4 0DH","la":"Herefordshire, County of","era":"mod","nn":0,"risk":25,"cat":"green"},{"name":"Hereford Bowling Club","lat":52.05684,"lon":-2.71774,"postcode":"HR4 0BA","la":"Herefordshire, County of","era":"other","nn":0,"risk":25,"cat":"green"},{"name":"Hereford City Sports Club","lat":52.06747,"lon":-2.73104,"postcode":"HR4 9NG","la":"Herefordshire, County of","era":"other","nn":57,"risk":26,"cat":"green"},{"name":"Hereford Football Club","lat":52.06034,"lon":-2.71715,"postcode":"HR4 9JU","la":"Herefordshire, County of","era":"other","nn":72,"risk":26,"cat":"green"},{"name":"Hereford Military Club","lat":52.05528,"lon":-2.72121,"postcode":"HR4 0AS","la":"Herefordshire, County of","era":"other","nn":185,"risk":27,"cat":"green"},{"name":"Hereford Richmond Place Club","lat":52.05854,"lon":-2.72032,"postcode":"HR4 9JP","la":"Herefordshire, County of","era":"other","nn":216,"risk":27,"cat":"green"},{"name":"Hereford Rowing Club","lat":52.05284,"lon":-2.72112,"postcode":"HR4 0BE","la":"Herefordshire, County of","era":"other","nn":161,"risk":26,"cat":"green"},{"name":"Hereford Welsh Social Club Ltd","lat":52.048,"lon":-2.7176,"postcode":"HR2 6BL","la":"Herefordshire, County of","era":"mod","nn":359,"risk":28,"cat":"green"},{"name":"Hereford Whitecross Club","lat":52.06019,"lon":-2.73769,"postcode":"HR4 0LX","la":"Herefordshire, County of","era":"trad","nn":269,"risk":27,"cat":"green"},{"name":"Hogarths","lat":52.05793,"lon":-2.71125,"postcode":"HR1 2BP","la":"Herefordshire, County of","era":"other","nn":0,"risk":25,"cat":"green"},{"name":"Horse and Groom","lat":52.05709,"lon":-2.72241,"postcode":"HR4 0AP","la":"Herefordshire, County of","era":"trad","nn":0,"risk":25,"cat":"green"},{"name":"IPL Sports Bar","lat":52.22679,"lon":-2.7406,"postcode":"HR6 8EP","la":"Herefordshire, County of","era":"other","nn":2,"risk":25,"cat":"green"},{"name":"Jacqueline's","lat":51.91566,"lon":-2.58238,"postcode":"HR9 7ED","la":"Herefordshire, County of","era":"other","nn":16,"risk":25,"cat":"green"},{"name":"Kaz's","lat":52.22674,"lon":-2.74073,"postcode":"HR6 8EP","la":"Herefordshire, County of","era":"other","nn":9,"risk":25,"cat":"green"},{"name":"Kings Arms","lat":52.18966,"lon":-2.50766,"postcode":"HR7 4AE","la":"Herefordshire, County of","era":"trad","nn":0,"risk":30,"cat":"green"},{"name":"Kings Fee","lat":52.05793,"lon":-2.71125,"postcode":"HR1 2BP","la":"Herefordshire, County of","era":"trad","nn":0,"risk":25,"cat":"green"},{"name":"Kings Head","lat":52.21184,"lon":-2.63362,"postcode":"HR6 0RX","la":"Herefordshire, County of","era":"trad","nn":4157,"risk":77,"cat":"red"},{"name":"Kington Golf Club - 1284 Catering","lat":52.21283,"lon":-3.03592,"postcode":"HR5 3RE","la":"Herefordshire, County of","era":"trad","nn":1016,"risk":55,"cat":"amber"},{"name":"Kinnersley Arms","lat":52.13335,"lon":-2.96415,"postcode":"HR3 6QA","la":"Herefordshire, County of","era":"trad","nn":3030,"risk":69,"cat":"red"},{"name":"Kyrle Pope Court Social Club","lat":52.05114,"lon":-2.68041,"postcode":"HR1 1XZ","la":"Herefordshire, County of","era":"mod","nn":591,"risk":49,"cat":"amber"},{"name":"Lakeside Bar and Restaurant","lat":52.25284,"lon":-2.89067,"postcode":"HR6 9NQ","la":"Herefordshire, County of","era":"mod","nn":735,"risk":50,"cat":"amber"},{"name":"Leominster Sports & Social Club Ltd","lat":52.22476,"lon":-2.73879,"postcode":"HR6 8JQ","la":"Herefordshire, County of","era":"mod","nn":200,"risk":27,"cat":"green"},{"name":"Lichfield Vaults","lat":52.05555,"lon":-2.71633,"postcode":"HR1 2LR","la":"Herefordshire, County of","era":"other","nn":62,"risk":26,"cat":"green"},{"name":"Long Bar","lat":52.05793,"lon":-2.71125,"postcode":"HR1 2BP","la":"Herefordshire, County of","era":"other","nn":0,"risk":25,"cat":"green"},{"name":"Lupa","lat":52.05684,"lon":-2.71774,"postcode":"HR4 0BA","la":"Herefordshire, County of","era":"other","nn":0,"risk":25,"cat":"green"},{"name":"Masonic Hall Co. Ltd - Catering for All Occasions","lat":52.05723,"lon":-2.7102,"postcode":"HR1 2EU","la":"Herefordshire, County of","era":"other","nn":106,"risk":26,"cat":"green"},{"name":"Merkur Cashino","lat":52.05657,"lon":-2.7195,"postcode":"HR4 0AB","la":"Herefordshire, County of","era":"other","nn":93,"risk":26,"cat":"green"},{"name":"MFA Bowl","lat":52.0616,"lon":-2.71036,"postcode":"HR1 1BB","la":"Herefordshire, County of","era":"other","nn":281,"risk":27,"cat":"green"},{"name":"Monument","lat":52.06157,"lon":-2.74091,"postcode":"HR4 0LT","la":"Herefordshire, County of","era":"other","nn":269,"risk":27,"cat":"green"},{"name":"Moody Cow","lat":51.93793,"lon":-2.52754,"postcode":"HR9 7TT","la":"Herefordshire, County of","era":"other","nn":2466,"risk":65,"cat":"red"},{"name":"Moon Inn","lat":52.03313,"lon":-2.62584,"postcode":"HR1 4LW","la":"Herefordshire, County of","era":"trad","nn":2228,"risk":63,"cat":"red"},{"name":"Motley Hog Brewery","lat":51.91575,"lon":-2.58028,"postcode":"HR9 7AP","la":"Herefordshire, County of","era":"other","nn":21,"risk":25,"cat":"green"},{"name":"Nags Head Inn","lat":52.05441,"lon":-2.96439,"postcode":"HR2 0SJ","la":"Herefordshire, County of","era":"trad","nn":3119,"risk":70,"cat":"red"},{"name":"New Harp Inn","lat":51.96041,"lon":-2.66213,"postcode":"HR2 6QH","la":"Herefordshire, County of","era":"trad","nn":2386,"risk":64,"cat":"red"},{"name":"New Inn","lat":52.00713,"lon":-2.61563,"postcode":"HR1 4PE","la":"Herefordshire, County of","era":"trad","nn":49,"risk":46,"cat":"amber"},{"name":"New Inn","lat":52.21796,"lon":-2.8939,"postcode":"HR6 9DZ","la":"Herefordshire, County of","era":"trad","nn":48,"risk":46,"cat":"amber"},{"name":"Novello\u2019s Poolbar and Sports Loft","lat":52.05605,"lon":-2.71844,"postcode":"HR4 0BX","la":"Herefordshire, County of","era":"mod","nn":0,"risk":25,"cat":"green"},{"name":"Orles Barn Hotel","lat":51.91517,"lon":-2.60232,"postcode":"HR9 6AE","la":"Herefordshire, County of","era":"other","nn":988,"risk":52,"cat":"amber"},{"name":"Pandy Inn","lat":52.06914,"lon":-3.00322,"postcode":"HR3 6AN","la":"Herefordshire, County of","era":"trad","nn":3119,"risk":70,"cat":"red"},{"name":"Plough Inn","lat":51.91824,"lon":-2.57995,"postcode":"HR9 7AS","la":"Herefordshire, County of","era":"trad","nn":278,"risk":27,"cat":"green"},{"name":"Plough Inn","lat":52.14935,"lon":-2.55125,"postcode":"HR7 4HG","la":"Herefordshire, County of","era":"trad","nn":3572,"risk":73,"cat":"red"},{"name":"Premier Inn/Thyme Bar & Grill","lat":52.0599,"lon":-2.71638,"postcode":"HR4 9HS","la":"Herefordshire, County of","era":"other","nn":72,"risk":26,"cat":"green"},{"name":"Prince of Wales Inn","lat":52.03719,"lon":-2.42205,"postcode":"HR8 1DL","la":"Herefordshire, County of","era":"trad","nn":77,"risk":26,"cat":"green"},{"name":"Queens Arms","lat":52.05537,"lon":-2.71719,"postcode":"HR4 9AP","la":"Herefordshire, County of","era":"trad","nn":62,"risk":26,"cat":"green"},{"name":"Rankin Club (Conservative Club)","lat":52.22722,"lon":-2.73776,"postcode":"HR6 8LR","la":"Herefordshire, County of","era":"other","nn":0,"risk":25,"cat":"green"},{"name":"Red Kite Rising","lat":52.21292,"lon":-2.80562,"postcode":"HR6 9DE","la":"Herefordshire, County of","era":"other","nn":3197,"risk":70,"cat":"red"},{"name":"Red Lion","lat":52.04524,"lon":-2.84932,"postcode":"HR2 9PH","la":"Herefordshire, County of","era":"trad","nn":979,"risk":52,"cat":"amber"},{"name":"Retreat","lat":52.03637,"lon":-2.42232,"postcode":"HR8 1DS","la":"Herefordshire, County of","era":"other","nn":79,"risk":26,"cat":"green"},{"name":"Rose & Crown","lat":52.05631,"lon":-2.6959,"postcode":"HR1 1RG","la":"Herefordshire, County of","era":"trad","nn":698,"risk":30,"cat":"green"},{"name":"Rose And Lion Inn","lat":52.18843,"lon":-2.50989,"postcode":"HR7 4AJ","la":"Herefordshire, County of","era":"trad","nn":204,"risk":32,"cat":"amber"},{"name":"Ross Masonic Club","lat":51.91381,"lon":-2.58808,"postcode":"HR9 5JA","la":"Herefordshire, County of","era":"trad","nn":178,"risk":27,"cat":"green"},{"name":"Ross Rugby Football Club","lat":51.9233,"lon":-2.59069,"postcode":"HR9 7GQ","la":"Herefordshire, County of","era":"other","nn":926,"risk":49,"cat":"amber"},{"name":"Ross-on-Wye Premier Inn","lat":51.92578,"lon":-2.57326,"postcode":"HR9 7QJ","la":"Herefordshire, County of","era":"trad","nn":955,"risk":52,"cat":"amber"},{"name":"Royal Arms","lat":51.87056,"lon":-2.69112,"postcode":"HR9 6EZ","la":"Herefordshire, County of","era":"trad","nn":3748,"risk":74,"cat":"red"},{"name":"Rubix","lat":52.05705,"lon":-2.71269,"postcode":"HR1 2BT","la":"Herefordshire, County of","era":"other","nn":0,"risk":25,"cat":"green"},{"name":"Rushall Social Club","lat":52.01266,"lon":-2.52285,"postcode":"HR8 2PE","la":"Herefordshire, County of","era":"mod","nn":1984,"risk":62,"cat":"red"},{"name":"Saracens Head","lat":52.05121,"lon":-2.7182,"postcode":"HR2 7RD","la":"Herefordshire, County of","era":"trad","nn":251,"risk":27,"cat":"green"},{"name":"Saracens Head Inn","lat":51.84092,"lon":-2.63862,"postcode":"HR9 6JL","la":"Herefordshire, County of","era":"trad","nn":0,"risk":43,"cat":"amber"},{"name":"Saxtys","lat":52.05774,"lon":-2.71639,"postcode":"HR4 9EA","la":"Herefordshire, County of","era":"other","nn":0,"risk":25,"cat":"green"},{"name":"Secret Garden","lat":52.07928,"lon":-2.71792,"postcode":"HR1 1LH","la":"Herefordshire, County of","era":"other","nn":574,"risk":49,"cat":"amber"},{"name":"Seven Stars Inn","lat":52.0356,"lon":-2.7996,"postcode":"HR2 9SL","la":"Herefordshire, County of","era":"trad","nn":2963,"risk":69,"cat":"red"},{"name":"Shooters Bar Leominster Ltd","lat":52.2279,"lon":-2.74048,"postcode":"HR6 8DE","la":"Herefordshire, County of","era":"mod","nn":124,"risk":26,"cat":"green"},{"name":"Starting Gate Premier Inn","lat":52.07495,"lon":-2.72249,"postcode":"HR4 9RS","la":"Herefordshire, County of","era":"trad","nn":574,"risk":47,"cat":"amber"},{"name":"Talbot Hotel","lat":52.22678,"lon":-2.74062,"postcode":"HR6 8EP","la":"Herefordshire, County of","era":"trad","nn":2,"risk":25,"cat":"green"},{"name":"Talbot Hotel","lat":52.03532,"lon":-2.42343,"postcode":"HR8 2DX","la":"Herefordshire, County of","era":"trad","nn":68,"risk":26,"cat":"green"},{"name":"Temple Bar Inn","lat":51.95269,"lon":-2.89185,"postcode":"HR2 0EU","la":"Herefordshire, County of","era":"other","nn":101,"risk":46,"cat":"amber"},{"name":"The Alma Inn","lat":51.92615,"lon":-2.49706,"postcode":"HR9 7RY","la":"Herefordshire, County of","era":"trad","nn":1866,"risk":61,"cat":"red"},{"name":"The Angel Inn","lat":52.24702,"lon":-2.80732,"postcode":"HR6 9QS","la":"Herefordshire, County of","era":"trad","nn":582,"risk":49,"cat":"amber"},{"name":"The Axe And Cleaver","lat":51.9645,"lon":-2.71117,"postcode":"HR2 8HU","la":"Herefordshire, County of","era":"other","nn":2020,"risk":62,"cat":"red"},{"name":"The Balance Inn","lat":52.26269,"lon":-2.75361,"postcode":"HR6 0EB","la":"Herefordshire, County of","era":"trad","nn":2604,"risk":66,"cat":"red"},{"name":"The Barrels","lat":52.05439,"lon":-2.71049,"postcode":"HR1 2JQ","la":"Herefordshire, County of","era":"other","nn":148,"risk":26,"cat":"green"},{"name":"The Bay Horse Inn","lat":52.0678,"lon":-2.76426,"postcode":"HR4 0SD","la":"Herefordshire, County of","era":"trad","nn":1405,"risk":58,"cat":"amber"},{"name":"The Bell Inn","lat":52.22642,"lon":-2.73571,"postcode":"HR6 8AE","la":"Herefordshire, County of","era":"trad","nn":0,"risk":25,"cat":"green"},{"name":"The Bell Inn","lat":52.08791,"lon":-2.44611,"postcode":"HR8 1PX","la":"Herefordshire, County of","era":"trad","nn":3411,"risk":72,"cat":"red"},{"name":"The Bell Inn","lat":52.10293,"lon":-2.78078,"postcode":"HR4 8LE","la":"Herefordshire, County of","era":"trad","nn":2872,"risk":68,"cat":"red"},{"name":"The Bell Yarpole","lat":52.27936,"lon":-2.7805,"postcode":"HR6 0BD","la":"Herefordshire, County of","era":"other","nn":2604,"risk":66,"cat":"red"},{"name":"The Boat Inn","lat":52.11889,"lon":-3.06882,"postcode":"HR3 6EH","la":"Herefordshire, County of","era":"trad","nn":2729,"risk":67,"cat":"red"},{"name":"The Brewery Inn Ltd","lat":52.03677,"lon":-2.42619,"postcode":"HR8 2AG","la":"Herefordshire, County of","era":"trad","nn":238,"risk":27,"cat":"green"},{"name":"The Bridge Inn","lat":51.92766,"lon":-2.85806,"postcode":"HR2 0BY","la":"Herefordshire, County of","era":"trad","nn":1523,"risk":58,"cat":"amber"},{"name":"The Broadleys","lat":52.04284,"lon":-2.71974,"postcode":"HR2 7RP","la":"Herefordshire, County of","era":"other","nn":593,"risk":34,"cat":"amber"},{"name":"The Bull Ring Inn","lat":52.01608,"lon":-2.84271,"postcode":"HR2 9HE","la":"Herefordshire, County of","era":"trad","nn":2369,"risk":64,"cat":"red"},{"name":"The Bull's Head","lat":52.01416,"lon":-3.04438,"postcode":"HR2 0PN","la":"Herefordshire, County of","era":"trad","nn":6730,"risk":83,"cat":"red"},{"name":"The Bush Inn","lat":52.15871,"lon":-2.80495,"postcode":"HR4 8EH","la":"Herefordshire, County of","era":"trad","nn":4549,"risk":80,"cat":"red"},{"name":"The Butchers Arms","lat":52.02095,"lon":-2.55677,"postcode":"HR1 4RF","la":"Herefordshire, County of","era":"trad","nn":816,"risk":51,"cat":"amber"},{"name":"The Castle Inn","lat":52.31617,"lon":-2.85975,"postcode":"HR6 9UN","la":"Herefordshire, County of","era":"trad","nn":104,"risk":46,"cat":"amber"},{"name":"The Castlefields","lat":52.10139,"lon":-3.03297,"postcode":"HR3 5HB","la":"Herefordshire, County of","era":"other","nn":1732,"risk":60,"cat":"amber"},{"name":"The Chequers Inn","lat":52.22642,"lon":-2.73571,"postcode":"HR6 8AE","la":"Herefordshire, County of","era":"trad","nn":0,"risk":25,"cat":"green"},{"name":"The Comet Inn","lat":52.03739,"lon":-2.84282,"postcode":"HR2 9NJ","la":"Herefordshire, County of","era":"trad","nn":979,"risk":52,"cat":"amber"},{"name":"The Commercial","lat":52.05914,"lon":-2.70942,"postcode":"HR1 2BG","la":"Herefordshire, County of","era":"other","nn":184,"risk":27,"cat":"green"},{"name":"The Corners Inn","lat":52.24916,"lon":-2.81511,"postcode":"HR6 9RY","la":"Herefordshire, County of","era":"trad","nn":582,"risk":49,"cat":"amber"},{"name":"The Cross Inn","lat":52.22281,"lon":-2.85047,"postcode":"HR6 9BW","la":"Herefordshire, County of","era":"trad","nn":184,"risk":47,"cat":"amber"},{"name":"The Crown and Sceptre","lat":51.91451,"lon":-2.58405,"postcode":"HR9 5NX","la":"Herefordshire, County of","era":"trad","nn":105,"risk":26,"cat":"green"},{"name":"The Dog Inn","lat":51.95325,"lon":-2.89301,"postcode":"HR2 0EX","la":"Herefordshire, County of","era":"trad","nn":101,"risk":46,"cat":"amber"},{"name":"The Drop Inn","lat":51.91557,"lon":-2.58037,"postcode":"HR9 7AG","la":"Herefordshire, County of","era":"trad","nn":21,"risk":25,"cat":"green"},{"name":"The Eagle","lat":51.91553,"lon":-2.5825,"postcode":"HR9 7EA","la":"Herefordshire, County of","era":"trad","nn":16,"risk":25,"cat":"green"},{"name":"The Farmers Arms","lat":52.0588,"lon":-2.42225,"postcode":"HR8 1LS","la":"Herefordshire, County of","era":"trad","nn":2186,"risk":63,"cat":"red"},{"name":"The Grandstand","lat":52.06705,"lon":-2.73056,"postcode":"HR4 9NH","la":"Herefordshire, County of","era":"other","nn":57,"risk":26,"cat":"green"},{"name":"The Grape Vaults","lat":52.22867,"lon":-2.73884,"postcode":"HR6 8BS","la":"Herefordshire, County of","era":"other","nn":141,"risk":26,"cat":"green"},{"name":"The Greenman","lat":52.00719,"lon":-2.61492,"postcode":"HR1 4PE","la":"Herefordshire, County of","era":"other","nn":49,"risk":46,"cat":"amber"},{"name":"The Harewood End","lat":51.93973,"lon":-2.68842,"postcode":"HR2 8JT","la":"Herefordshire, County of","era":"other","nn":2921,"risk":68,"cat":"red"},{"name":"The Herdsman","lat":52.0591,"lon":-2.71489,"postcode":"HR4 9HG","la":"Herefordshire, County of","era":"other","nn":136,"risk":26,"cat":"green"},{"name":"The Horseshoe Inn","lat":52.03919,"lon":-2.42427,"postcode":"HR8 1BP","la":"Herefordshire, County of","era":"trad","nn":199,"risk":27,"cat":"green"},{"name":"The Hostelrie at Goodrich","lat":51.87198,"lon":-2.61924,"postcode":"HR9 6HX","la":"Herefordshire, County of","era":"other","nn":919,"risk":52,"cat":"amber"},{"name":"The Imperial Inn","lat":52.05774,"lon":-2.71639,"postcode":"HR4 9EA","la":"Herefordshire, County of","era":"trad","nn":0,"risk":25,"cat":"green"},{"name":"The Inn","lat":52.18902,"lon":-2.50695,"postcode":"HR7 4AA","la":"Herefordshire, County of","era":"trad","nn":86,"risk":31,"cat":"amber"},{"name":"The Kerry","lat":52.05739,"lon":-2.71228,"postcode":"HR1 2BS","la":"Herefordshire, County of","era":"other","nn":47,"risk":26,"cat":"green"},{"name":"The King Charles II Catering","lat":51.91521,"lon":-2.58303,"postcode":"HR9 7EA","la":"Herefordshire, County of","era":"trad","nn":52,"risk":26,"cat":"green"},{"name":"The Kings Arms","lat":51.91402,"lon":-2.58223,"postcode":"HR9 5BU","la":"Herefordshire, County of","era":"trad","nn":43,"risk":26,"cat":"green"},{"name":"The Lough Pool","lat":51.93463,"lon":-2.64543,"postcode":"HR9 6LX","la":"Herefordshire, County of","era":"other","nn":1552,"risk":59,"cat":"amber"},{"name":"The Mail Rooms","lat":51.9138,"lon":-2.58273,"postcode":"HR9 5BS","la":"Herefordshire, County of","era":"other","nn":43,"risk":26,"cat":"green"},{"name":"The Man Of Ross Inn","lat":51.91486,"lon":-2.58611,"postcode":"HR9 7BS","la":"Herefordshire, County of","era":"trad","nn":146,"risk":26,"cat":"green"},{"name":"The Mill Race","lat":51.87499,"lon":-2.60228,"postcode":"HR9 5QS","la":"Herefordshire, County of","era":"trad","nn":1212,"risk":56,"cat":"amber"},{"name":"The Mortimers Cross Inn","lat":52.26761,"lon":-2.84451,"postcode":"HR6 9PD","la":"Herefordshire, County of","era":"trad","nn":1654,"risk":59,"cat":"amber"},{"name":"The New Inn","lat":52.10111,"lon":-2.92774,"postcode":"HR4 7LR","la":"Herefordshire, County of","era":"trad","nn":3552,"risk":73,"cat":"red"},{"name":"The Oak At Wigmore","lat":52.31583,"lon":-2.86118,"postcode":"HR6 9UJ","la":"Herefordshire, County of","era":"trad","nn":104,"risk":46,"cat":"amber"},{"name":"The Orange Tree","lat":52.05455,"lon":-2.71847,"postcode":"HR4 9BX","la":"Herefordshire, County of","era":"other","nn":42,"risk":26,"cat":"green"},{"name":"The Oxford Arms","lat":52.06133,"lon":-2.71472,"postcode":"HR4 9EZ","la":"Herefordshire, County of","era":"trad","nn":195,"risk":27,"cat":"green"},{"name":"The Oxford Arms","lat":52.20416,"lon":-3.02823,"postcode":"HR5 3DR","la":"Herefordshire, County of","era":"trad","nn":163,"risk":31,"cat":"amber"},{"name":"The Penny Farthing","lat":51.90676,"lon":-2.47856,"postcode":"HR9 7LW","la":"Herefordshire, County of","era":"other","nn":2502,"risk":65,"cat":"red"},{"name":"The Plough","lat":52.0592,"lon":-2.7302,"postcode":"HR4 0DH","la":"Herefordshire, County of","era":"trad","nn":0,"risk":25,"cat":"green"},{"name":"The Plough Inn","lat":51.98421,"lon":-2.67449,"postcode":"HR2 6PW","la":"Herefordshire, County of","era":"trad","nn":2637,"risk":66,"cat":"red"},{"name":"The Press Room","lat":52.2272,"lon":-2.73801,"postcode":"HR6 8LR","la":"Herefordshire, County of","era":"other","nn":17,"risk":25,"cat":"green"},{"name":"The Quarters","lat":52.22655,"lon":-2.73876,"postcode":"HR6 8JA","la":"Herefordshire, County of","era":"mod","nn":88,"risk":26,"cat":"green"},{"name":"The Queen's Arms","lat":52.18966,"lon":-2.50766,"postcode":"HR7 4AE","la":"Herefordshire, County of","era":"trad","nn":0,"risk":30,"cat":"green"},{"name":"The Queens Head","lat":52.20272,"lon":-3.02772,"postcode":"HR5 3DW","la":"Herefordshire, County of","era":"trad","nn":163,"risk":31,"cat":"amber"},{"name":"The Red Lion","lat":51.92151,"lon":-2.65315,"postcode":"HR9 6LH","la":"Herefordshire, County of","era":"trad","nn":1536,"risk":59,"cat":"amber"},{"name":"The Red Lion Inn","lat":52.21804,"lon":-2.89321,"postcode":"HR6 9DS","la":"Herefordshire, County of","era":"trad","nn":48,"risk":46,"cat":"amber"},{"name":"The Riverside Bar","lat":51.84092,"lon":-2.63862,"postcode":"HR9 6BY","la":"Herefordshire, County of","era":"other","nn":0,"risk":43,"cat":"amber"},{"name":"The Riverside Inn","lat":52.28249,"lon":-2.84421,"postcode":"HR6 9ST","la":"Herefordshire, County of","era":"trad","nn":1654,"risk":59,"cat":"amber"},{"name":"The Roadmaker Inn","lat":51.93247,"lon":-2.47186,"postcode":"HR9 7SW","la":"Herefordshire, County of","era":"trad","nn":1866,"risk":61,"cat":"red"},{"name":"The Royal Oak","lat":52.20391,"lon":-3.03264,"postcode":"HR5 3BE","la":"Herefordshire, County of","era":"trad","nn":302,"risk":32,"cat":"amber"},{"name":"The Royal Oak","lat":52.00463,"lon":-2.49311,"postcode":"HR8 2ND","la":"Herefordshire, County of","era":"trad","nn":1155,"risk":56,"cat":"amber"},{"name":"The Seven Stars","lat":52.03758,"lon":-2.42297,"postcode":"HR8 1BN","la":"Herefordshire, County of","era":"other","nn":77,"risk":26,"cat":"green"},{"name":"The Shack Revolution","lat":52.05705,"lon":-2.71269,"postcode":"HR1 2BT","la":"Herefordshire, County of","era":"other","nn":0,"risk":25,"cat":"green"},{"name":"The Slip Tavern","lat":51.99678,"lon":-2.50964,"postcode":"HR8 2NG","la":"Herefordshire, County of","era":"other","nn":727,"risk":50,"cat":"amber"},{"name":"The Spread","lat":52.0543,"lon":-2.71802,"postcode":"HR4 9BW","la":"Herefordshire, County of","era":"other","nn":42,"risk":26,"cat":"green"},{"name":"The Stables","lat":52.05605,"lon":-2.71844,"postcode":"HR4 0BX","la":"Herefordshire, County of","era":"other","nn":0,"risk":25,"cat":"green"},{"name":"The Stagg","lat":52.23071,"lon":-2.98144,"postcode":"HR5 3RL","la":"Herefordshire, County of","era":"trad","nn":4078,"risk":76,"cat":"red"},{"name":"The Stockton Cross","lat":52.24702,"lon":-2.70621,"postcode":"HR6 0HD","la":"Herefordshire, County of","era":"trad","nn":2921,"risk":68,"cat":"red"},{"name":"The Sun Inn","lat":52.11678,"lon":-3.029,"postcode":"HR3 6EA","la":"Herefordshire, County of","era":"trad","nn":1732,"risk":60,"cat":"amber"},{"name":"The Swan Inn","lat":52.06945,"lon":-2.69641,"postcode":"HR1 1JJ","la":"Herefordshire, County of","era":"trad","nn":1293,"risk":57,"cat":"amber"},{"name":"The Tarrington Arms","lat":52.06425,"lon":-2.55993,"postcode":"HR1 4HX","la":"Herefordshire, County of","era":"trad","nn":4076,"risk":76,"cat":"red"},{"name":"The Three Elms","lat":52.07569,"lon":-2.74527,"postcode":"HR4 9QQ","la":"Herefordshire, County of","era":"trad","nn":220,"risk":47,"cat":"amber"},{"name":"The Tipsy Kat","lat":52.05345,"lon":-2.71863,"postcode":"HR4 9DF","la":"Herefordshire, County of","era":"other","nn":29,"risk":25,"cat":"green"},{"name":"The Trumpet Inn","lat":52.0539,"lon":-2.50274,"postcode":"HR8 2RA","la":"Herefordshire, County of","era":"trad","nn":4076,"risk":76,"cat":"red"},{"name":"The Tump Inn","lat":51.96753,"lon":-2.74024,"postcode":"HR2 8EJ","la":"Herefordshire, County of","era":"trad","nn":1463,"risk":58,"cat":"amber"},{"name":"The Vaga Tavern","lat":52.04774,"lon":-2.7314,"postcode":"HR2 7AT","la":"Herefordshire, County of","era":"other","nn":903,"risk":34,"cat":"amber"},{"name":"The Venue","lat":52.05595,"lon":-2.71148,"postcode":"HR1 2HU","la":"Herefordshire, County of","era":"other","nn":82,"risk":26,"cat":"green"},{"name":"The Victory","lat":52.05316,"lon":-2.70851,"postcode":"HR1 2QD","la":"Herefordshire, County of","era":"other","nn":193,"risk":27,"cat":"green"},{"name":"The Volunteer","lat":52.0513,"lon":-2.7067,"postcode":"HR1 2QU","la":"Herefordshire, County of","era":"other","nn":241,"risk":27,"cat":"green"},{"name":"The Walwyn Arms","lat":51.995,"lon":-2.49943,"postcode":"HR8 2LY","la":"Herefordshire, County of","era":"trad","nn":727,"risk":50,"cat":"amber"},{"name":"The Wellington","lat":52.05774,"lon":-2.71639,"postcode":"HR4 9EA","la":"Herefordshire, County of","era":"trad","nn":0,"risk":25,"cat":"green"},{"name":"The White Lion","lat":52.22579,"lon":-2.73148,"postcode":"HR6 8AR","la":"Herefordshire, County of","era":"trad","nn":296,"risk":27,"cat":"green"},{"name":"The Wye Inn","lat":52.04107,"lon":-2.7047,"postcode":"HR2 6EF","la":"Herefordshire, County of","era":"trad","nn":1048,"risk":55,"cat":"amber"},{"name":"The Yew Tree Inn","lat":52.06885,"lon":-2.898,"postcode":"HR2 9JT","la":"Herefordshire, County of","era":"trad","nn":4123,"risk":77,"cat":"red"},{"name":"Three Horseshoes","lat":52.0007,"lon":-2.79455,"postcode":"HR2 9AS","la":"Herefordshire, County of","era":"trad","nn":3713,"risk":74,"cat":"red"},{"name":"Three Horseshoes Inn","lat":52.13138,"lon":-2.91112,"postcode":"HR4 7BH","la":"Herefordshire, County of","era":"trad","nn":3552,"risk":73,"cat":"red"},{"name":"Unicorn Inn","lat":52.1594,"lon":-2.87372,"postcode":"HR4 8SL","la":"Herefordshire, County of","era":"trad","nn":75,"risk":46,"cat":"amber"},{"name":"Weavers Real Ale House","lat":52.03569,"lon":-2.42264,"postcode":"HR8 2DX","la":"Herefordshire, County of","era":"other","nn":68,"risk":26,"cat":"green"},{"name":"Wellington Social Club","lat":52.12929,"lon":-2.74528,"postcode":"HR4 8AX","la":"Herefordshire, County of","era":"other","nn":3803,"risk":74,"cat":"red"},{"name":"Weston Cross Inn","lat":51.90802,"lon":-2.53672,"postcode":"HR9 7NU","la":"Herefordshire, County of","era":"trad","nn":3109,"risk":70,"cat":"red"},{"name":"Wheatsheaf Inn","lat":52.11626,"lon":-2.46516,"postcode":"HR8 1HT","la":"Herefordshire, County of","era":"trad","nn":3411,"risk":72,"cat":"red"},{"name":"Wheelwright Arms","lat":52.17149,"lon":-2.58918,"postcode":"HR7 4RN","la":"Herefordshire, County of","era":"trad","nn":3572,"risk":73,"cat":"red"},{"name":"White Swan","lat":52.22197,"lon":-2.85281,"postcode":"HR6 9BD","la":"Herefordshire, County of","era":"trad","nn":184,"risk":47,"cat":"amber"},{"name":"Wobbly Taphouse","lat":52.07589,"lon":-2.74847,"postcode":"HR4 9QJ","la":"Herefordshire, County of","era":"mod","nn":220,"risk":47,"cat":"amber"},{"name":"Wye Knot Inn","lat":51.84954,"lon":-2.64846,"postcode":"HR9 6BJ","la":"Herefordshire, County of","era":"trad","nn":786,"risk":51,"cat":"amber"},{"name":"Ye Old Ferrie Inn","lat":51.84315,"lon":-2.64357,"postcode":"HR9 6BL","la":"Herefordshire, County of","era":"trad","nn":421,"risk":33,"cat":"amber"},{"name":"Ye Olde Salutation Inn","lat":52.15888,"lon":-2.87442,"postcode":"HR4 8SJ","la":"Herefordshire, County of","era":"trad","nn":75,"risk":46,"cat":"amber"},{"name":"Ye Olde Tavern","lat":52.20511,"lon":-3.02431,"postcode":"HR5 3BX","la":"Herefordshire, County of","era":"other","nn":287,"risk":32,"cat":"amber"},{"name":"Yew Tree Inn","lat":51.91775,"lon":-2.63161,"postcode":"HR9 6JZ","la":"Herefordshire, County of","era":"trad","nn":1536,"risk":59,"cat":"amber"},{"name":"AMR Catering","lat":52.07467,"lon":-3.12352,"postcode":"HR3 5AB","la":"Powys","era":"other","nn":110,"risk":25,"cat":"green"},{"name":"Foyles of Glasbury","lat":52.04571,"lon":-3.2027,"postcode":"HR3 5LH","la":"Powys","era":"other","nn":552,"risk":46,"cat":"amber"},{"name":"Rose and Crown","lat":52.07499,"lon":-3.12653,"postcode":"HR3 5DB","la":"Powys","era":"trad","nn":209,"risk":26,"cat":"green"},{"name":"The Globe at Hay","lat":52.07703,"lon":-3.12512,"postcode":"HR3 5BG","la":"Powys","era":"other","nn":247,"risk":29,"cat":"green"},{"name":"The Harp Inn","lat":52.04625,"lon":-3.19468,"postcode":"HR3 5NR","la":"Powys","era":"trad","nn":552,"risk":46,"cat":"amber"},{"name":"The Old Black Lion","lat":52.07396,"lon":-3.12241,"postcode":"HR3 5AD","la":"Powys","era":"trad","nn":110,"risk":25,"cat":"green"},{"name":"The Royal Oak Inn","lat":52.18882,"lon":-3.12494,"postcode":"HR5 3NR","la":"Powys","era":"trad","nn":4326,"risk":75,"cat":"red"},{"name":"The Saints Bar","lat":52.06957,"lon":-3.13468,"postcode":"HR3 5PJ","la":"Powys","era":"trad","nn":821,"risk":33,"cat":"amber"}]