[{"name":"Adelphi Vaults","lat":53.41238,"lon":-4.33474,"postcode":"LL68 9HD","la":"Isle of Anglesey","era":"other","nn":135,"risk":31,"cat":"amber"},{"name":"Anglesey Golf Club Ltd","lat":53.2349,"lon":-4.51495,"postcode":"LL64 5QX","la":"Isle of Anglesey","era":"other","nn":860,"risk":51,"cat":"amber"},{"name":"Auckland Arms","lat":53.22546,"lon":-4.16209,"postcode":"LL59 5DD","la":"Isle of Anglesey","era":"trad","nn":59,"risk":33,"cat":"amber"},{"name":"Baron Hill Golf Club","lat":53.25708,"lon":-4.1107,"postcode":"LL58 8YW","la":"Isle of Anglesey","era":"other","nn":1274,"risk":59,"cat":"amber"},{"name":"Beach Motel","lat":53.27776,"lon":-4.61242,"postcode":"LL65 2YT","la":"Isle of Anglesey","era":"other","nn":768,"risk":52,"cat":"amber"},{"name":"Bodewran Bach","lat":53.26757,"lon":-4.3827,"postcode":"LL65 3LZ","la":"Isle of Anglesey","era":"other","nn":2431,"risk":67,"cat":"red"},{"name":"Bold Arms","lat":53.26338,"lon":-4.09249,"postcode":"LL58 8AA","la":"Isle of Anglesey","era":"trad","nn":0,"risk":30,"cat":"green"},{"name":"Boston Arms","lat":53.30625,"lon":-4.62913,"postcode":"LL65 2NE","la":"Isle of Anglesey","era":"trad","nn":102,"risk":28,"cat":"green"},{"name":"Bulkeley Arms","lat":53.22579,"lon":-4.16278,"postcode":"LL59 5DF","la":"Isle of Anglesey","era":"trad","nn":59,"risk":33,"cat":"amber"},{"name":"Bull Inn","lat":53.28672,"lon":-4.21822,"postcode":"LL75 8LJ","la":"Isle of Anglesey","era":"trad","nn":585,"risk":51,"cat":"amber"},{"name":"Cambria Inn","lat":53.31138,"lon":-4.63555,"postcode":"LL65 1NH","la":"Isle of Anglesey","era":"trad","nn":0,"risk":27,"cat":"green"},{"name":"Cefn Glas Hotel","lat":53.39219,"lon":-4.45328,"postcode":"LL68 0PT","la":"Isle of Anglesey","era":"other","nn":2232,"risk":65,"cat":"red"},{"name":"Church Bay Hotel","lat":53.37307,"lon":-4.55108,"postcode":"LL65 4ES","la":"Isle of Anglesey","era":"other","nn":6826,"risk":85,"cat":"red"},{"name":"Clwb Golff Porth Llechog Bull Bay Golf Club","lat":53.41591,"lon":-4.36612,"postcode":"LL68 9RY","la":"Isle of Anglesey","era":"trad","nn":1412,"risk":59,"cat":"amber"},{"name":"Clwb Rygbi Llangefni","lat":53.255,"lon":-4.31167,"postcode":"LL77 7EN","la":"Isle of Anglesey","era":"other","nn":105,"risk":45,"cat":"amber"},{"name":"Cybi Sports Bar","lat":53.31152,"lon":-4.63297,"postcode":"LL65 1HG","la":"Isle of Anglesey","era":"other","nn":0,"risk":27,"cat":"green"},{"name":"Edinburgh Castle","lat":53.30715,"lon":-4.62939,"postcode":"LL65 2BU","la":"Isle of Anglesey","era":"other","nn":102,"risk":28,"cat":"green"},{"name":"Fourcrosses Inn","lat":53.2333,"lon":-4.18307,"postcode":"LL59 5RP","la":"Isle of Anglesey","era":"trad","nn":1588,"risk":61,"cat":"red"},{"name":"George & Dragon","lat":53.26338,"lon":-4.09249,"postcode":"LL58 8AA","la":"Isle of Anglesey","era":"trad","nn":0,"risk":30,"cat":"green"},{"name":"George Hotel","lat":53.3107,"lon":-4.63321,"postcode":"LL65 1UL","la":"Isle of Anglesey","era":"trad","nn":93,"risk":28,"cat":"green"},{"name":"George Inn","lat":53.29422,"lon":-4.50262,"postcode":"LL65 3TT","la":"Isle of Anglesey","era":"trad","nn":3341,"risk":73,"cat":"red"},{"name":"Gleesons","lat":53.31152,"lon":-4.63297,"postcode":"LL65 1HG","la":"Isle of Anglesey","era":"other","nn":0,"risk":27,"cat":"green"},{"name":"Gwalchmai Hotel","lat":53.2588,"lon":-4.41619,"postcode":"LL65 4PU","la":"Isle of Anglesey","era":"other","nn":2431,"risk":67,"cat":"red"},{"name":"Henllys Hall Golf Club","lat":53.27649,"lon":-4.10122,"postcode":"LL58 8HU","la":"Isle of Anglesey","era":"other","nn":1569,"risk":61,"cat":"red"},{"name":"Holland Hotel","lat":53.3073,"lon":-4.63265,"postcode":"LL65 2HW","la":"Isle of Anglesey","era":"other","nn":217,"risk":29,"cat":"green"},{"name":"Holyhead Conservative Club","lat":53.31152,"lon":-4.63297,"postcode":"LL65 1HG","la":"Isle of Anglesey","era":"trad","nn":0,"risk":27,"cat":"green"},{"name":"Holyhead Golf Club & Pro Shop","lat":53.28839,"lon":-4.62608,"postcode":"LL65 2YL","la":"Isle of Anglesey","era":"trad","nn":843,"risk":50,"cat":"amber"},{"name":"Holyhead Hotspur Football club","lat":53.29596,"lon":-4.62683,"postcode":"LL65 2YE","la":"Isle of Anglesey","era":"trad","nn":843,"risk":50,"cat":"amber"},{"name":"Holyhead Sailing Club","lat":53.31786,"lon":-4.64127,"postcode":"LL65 1YD","la":"Isle of Anglesey","era":"trad","nn":269,"risk":29,"cat":"green"},{"name":"Iorwerth Arms","lat":53.26893,"lon":-4.47548,"postcode":"LL65 3PP","la":"Isle of Anglesey","era":"trad","nn":3341,"risk":73,"cat":"red"},{"name":"Jameo's Bar and Grill Ltd","lat":53.30927,"lon":-4.63322,"postcode":"LL65 1UW","la":"Isle of Anglesey","era":"mod","nn":33,"risk":27,"cat":"green"},{"name":"Joiners Arms","lat":53.19273,"lon":-4.38656,"postcode":"LL62 5AS","la":"Isle of Anglesey","era":"trad","nn":3554,"risk":74,"cat":"red"},{"name":"Kinmel Arms Hotel","lat":53.35218,"lon":-4.23678,"postcode":"LL72 8HH","la":"Isle of Anglesey","era":"trad","nn":1963,"risk":63,"cat":"red"},{"name":"Liverpool Arms","lat":53.41208,"lon":-4.33671,"postcode":"LL68 9HA","la":"Isle of Anglesey","era":"trad","nn":135,"risk":31,"cat":"amber"},{"name":"Liverpool Arms Hotel","lat":53.26252,"lon":-4.09385,"postcode":"LL58 8BA","la":"Isle of Anglesey","era":"trad","nn":131,"risk":31,"cat":"amber"},{"name":"Market Tavern","lat":53.40978,"lon":-4.34746,"postcode":"LL68 9AN","la":"Isle of Anglesey","era":"other","nn":177,"risk":31,"cat":"amber"},{"name":"Owain Glyndwr","lat":53.29514,"lon":-4.13807,"postcode":"LL58 8UF","la":"Isle of Anglesey","era":"other","nn":3210,"risk":72,"cat":"red"},{"name":"Paddlers Return","lat":53.29197,"lon":-4.65088,"postcode":"LL65 2LP","la":"Isle of Anglesey","era":"other","nn":1659,"risk":61,"cat":"red"},{"name":"Panton Arms","lat":53.28164,"lon":-4.21593,"postcode":"LL75 8AZ","la":"Isle of Anglesey","era":"trad","nn":585,"risk":51,"cat":"amber"},{"name":"Parciau Arms","lat":53.33736,"lon":-4.25286,"postcode":"LL73 8PH","la":"Isle of Anglesey","era":"trad","nn":1949,"risk":63,"cat":"red"},{"name":"Penrhos Arms Hotel","lat":53.22153,"lon":-4.20972,"postcode":"LL61 5YQ","la":"Isle of Anglesey","era":"trad","nn":73,"risk":48,"cat":"amber"},{"name":"Pilot Boat","lat":53.3608,"lon":-4.29654,"postcode":"LL70 9EX","la":"Isle of Anglesey","era":"other","nn":1960,"risk":63,"cat":"red"},{"name":"Plas Coch Holiday Home Park","lat":53.19216,"lon":-4.22911,"postcode":"LL61 6EJ","la":"Isle of Anglesey","era":"other","nn":1517,"risk":60,"cat":"amber"},{"name":"R A O B  Social Club","lat":53.31138,"lon":-4.63555,"postcode":"LL65 1NH","la":"Isle of Anglesey","era":"mod","nn":0,"risk":27,"cat":"green"},{"name":"Railway Club","lat":53.30955,"lon":-4.63305,"postcode":"LL65 1UD","la":"Isle of Anglesey","era":"trad","nn":33,"risk":27,"cat":"green"},{"name":"Royal Anglesey Yacht Club","lat":53.26378,"lon":-4.08953,"postcode":"LL58 8BY","la":"Isle of Anglesey","era":"trad","nn":144,"risk":31,"cat":"amber"},{"name":"Sandymount","lat":53.22728,"lon":-4.52171,"postcode":"LL64 5UX","la":"Isle of Anglesey","era":"other","nn":181,"risk":46,"cat":"amber"},{"name":"Silver Bay Caravan Park & Club","lat":53.24788,"lon":-4.57254,"postcode":"LL65 2RZ","la":"Isle of Anglesey","era":"other","nn":1333,"risk":59,"cat":"amber"},{"name":"Tafarn Pen y Cefn","lat":53.24366,"lon":-4.1504,"postcode":"LL59 5UN","la":"Isle of Anglesey","era":"other","nn":1508,"risk":60,"cat":"amber"},{"name":"Tafarn Ty Gwyn","lat":53.22119,"lon":-4.20878,"postcode":"LL61 5UJ","la":"Isle of Anglesey","era":"other","nn":73,"risk":48,"cat":"amber"},{"name":"Tafarn Y Rhos","lat":53.24405,"lon":-4.34434,"postcode":"LL77 7YU","la":"Isle of Anglesey","era":"other","nn":2491,"risk":67,"cat":"red"},{"name":"The Albert Vaults","lat":53.31256,"lon":-4.63313,"postcode":"LL65 1HL","la":"Isle of Anglesey","era":"other","nn":0,"risk":27,"cat":"green"},{"name":"The Benllech","lat":53.32079,"lon":-4.22292,"postcode":"LL74 8SW","la":"Isle of Anglesey","era":"other","nn":1819,"risk":62,"cat":"red"},{"name":"The Britannia Inn","lat":53.31084,"lon":-4.63608,"postcode":"LL65 1RS","la":"Isle of Anglesey","era":"trad","nn":69,"risk":28,"cat":"green"},{"name":"The Bull","lat":53.26358,"lon":-4.09167,"postcode":"LL58 8AP","la":"Isle of Anglesey","era":"trad","nn":59,"risk":30,"cat":"green"},{"name":"The Bull Hotel","lat":53.28287,"lon":-4.56037,"postcode":"LL65 3DP","la":"Isle of Anglesey","era":"trad","nn":61,"risk":48,"cat":"amber"},{"name":"The Bull Inn","lat":53.33033,"lon":-4.37535,"postcode":"LL71 8EA","la":"Isle of Anglesey","era":"trad","nn":133,"risk":48,"cat":"amber"},{"name":"The Chester","lat":53.30833,"lon":-4.63868,"postcode":"LL65 1TE","la":"Isle of Anglesey","era":"other","nn":329,"risk":29,"cat":"green"},{"name":"The Gazelle Hotel","lat":53.24559,"lon":-4.12797,"postcode":"LL59 5PE","la":"Isle of Anglesey","era":"other","nn":1241,"risk":58,"cat":"amber"},{"name":"The Holland Arms Hotel","lat":53.22532,"lon":-4.29224,"postcode":"LL60 6HY","la":"Isle of Anglesey","era":"trad","nn":3090,"risk":71,"cat":"red"},{"name":"The Kings Head Hotel","lat":53.40902,"lon":-4.34444,"postcode":"LL68 9BP","la":"Isle of Anglesey","era":"trad","nn":61,"risk":30,"cat":"green"},{"name":"The Liverpool Arms","lat":53.22564,"lon":-4.16125,"postcode":"LL59 5EY","la":"Isle of Anglesey","era":"trad","nn":60,"risk":33,"cat":"amber"},{"name":"The Old Foundry Vaults","lat":53.25593,"lon":-4.3119,"postcode":"LL77 7LT","la":"Isle of Anglesey","era":"mod","nn":105,"risk":45,"cat":"amber"},{"name":"The Prince Of Wales","lat":53.30317,"lon":-4.61956,"postcode":"LL65 2RA","la":"Isle of Anglesey","era":"trad","nn":722,"risk":35,"cat":"amber"},{"name":"The Queens","lat":53.40951,"lon":-4.34482,"postcode":"LL68 9AE","la":"Isle of Anglesey","era":"trad","nn":61,"risk":30,"cat":"green"},{"name":"The Ring Hotel","lat":53.37587,"lon":-4.39256,"postcode":"LL66 0AB","la":"Isle of Anglesey","era":"other","nn":4417,"risk":81,"cat":"red"},{"name":"The Ship Inn","lat":53.3067,"lon":-4.209,"postcode":"LL75 8RJ","la":"Isle of Anglesey","era":"trad","nn":1819,"risk":62,"cat":"red"},{"name":"The Skerries","lat":53.31152,"lon":-4.63297,"postcode":"LL65 1HG","la":"Isle of Anglesey","era":"other","nn":0,"risk":27,"cat":"green"},{"name":"The Stag Inn","lat":53.41289,"lon":-4.45125,"postcode":"LL67 0EW","la":"Isle of Anglesey","era":"trad","nn":86,"risk":48,"cat":"amber"},{"name":"The Stanley Arms","lat":53.31256,"lon":-4.63313,"postcode":"LL65 1HL","la":"Isle of Anglesey","era":"trad","nn":0,"risk":27,"cat":"green"},{"name":"The Victoria Inn","lat":53.31569,"lon":-4.64309,"postcode":"LL65 1AU","la":"Isle of Anglesey","era":"trad","nn":269,"risk":29,"cat":"green"},{"name":"The White Lion Hotel","lat":53.16513,"lon":-4.35966,"postcode":"LL61 6SH","la":"Isle of Anglesey","era":"trad","nn":3554,"risk":74,"cat":"red"},{"name":"Trearddur Bay Hotel","lat":53.28021,"lon":-4.62322,"postcode":"LL65 2UN","la":"Isle of Anglesey","era":"other","nn":768,"risk":50,"cat":"amber"},{"name":"Twrcyhelun Arms","lat":53.33109,"lon":-4.3769,"postcode":"LL71 8DB","la":"Isle of Anglesey","era":"trad","nn":133,"risk":48,"cat":"amber"},{"name":"Valley Hotel","lat":53.28318,"lon":-4.56111,"postcode":"LL65 3DU","la":"Isle of Anglesey","era":"other","nn":61,"risk":48,"cat":"amber"},{"name":"Wellmans Sport/Social Club","lat":53.25183,"lon":-4.30617,"postcode":"LL77 7JA","la":"Isle of Anglesey","era":"mod","nn":508,"risk":48,"cat":"amber"},{"name":"White Eagle Inn","lat":53.24849,"lon":-4.59254,"postcode":"LL65 2NJ","la":"Isle of Anglesey","era":"trad","nn":1333,"risk":59,"cat":"amber"},{"name":"Woodlands Falls Rynys Caravan Park","lat":53.34999,"lon":-4.27321,"postcode":"LL70 9HJ","la":"Isle of Anglesey","era":"other","nn":1949,"risk":63,"cat":"red"},{"name":"Y Groeslon","lat":53.17957,"lon":-4.26993,"postcode":"LL61 6TU","la":"Isle of Anglesey","era":"other","nn":3059,"risk":71,"cat":"red"},{"name":"Y Morfa","lat":53.22756,"lon":-4.51903,"postcode":"LL64 5QE","la":"Isle of Anglesey","era":"other","nn":181,"risk":46,"cat":"amber"},{"name":"Ye Olde Vigour Hotel","lat":53.41225,"lon":-4.45197,"postcode":"LL67 0HH","la":"Isle of Anglesey","era":"other","nn":86,"risk":48,"cat":"amber"},{"name":"Abergele Golf Club","lat":53.28113,"lon":-3.59628,"postcode":"LL22 8DS","la":"Conwy","era":"other","nn":896,"risk":33,"cat":"amber"},{"name":"Albion Ale House Cyf","lat":53.28067,"lon":-3.83209,"postcode":"LL32 8RF","la":"Conwy","era":"mod","nn":143,"risk":25,"cat":"green"},{"name":"Ascot Taproom","lat":53.32061,"lon":-3.81049,"postcode":"LL30 1YU","la":"Conwy","era":"mod","nn":135,"risk":25,"cat":"green"},{"name":"Beach Comber Club (Thornley Leisure Ltd)","lat":53.29207,"lon":-3.64094,"postcode":"LL22 8HB","la":"Conwy","era":"other","nn":313,"risk":44,"cat":"amber"},{"name":"Betws Y Coed Golf Club","lat":53.09443,"lon":-3.7979,"postcode":"LL24 0AL","la":"Conwy","era":"other","nn":820,"risk":50,"cat":"amber"},{"name":"Black Cloak Brewing Ltd","lat":53.29372,"lon":-3.72454,"postcode":"LL29 7RU","la":"Conwy","era":"trad","nn":104,"risk":25,"cat":"green"},{"name":"Blue Bell","lat":53.28116,"lon":-3.82794,"postcode":"LL32 8AY","la":"Conwy","era":"other","nn":0,"risk":24,"cat":"green"},{"name":"Brewers Fayre","lat":53.32358,"lon":-3.788,"postcode":"LL30 3AL","la":"Conwy","era":"other","nn":757,"risk":34,"cat":"amber"},{"name":"Broadway Boulevard","lat":53.31841,"lon":-3.81836,"postcode":"LL30 1YR","la":"Conwy","era":"other","nn":426,"risk":27,"cat":"green"},{"name":"Bron Eryri Hotel","lat":53.26787,"lon":-3.92699,"postcode":"LL34 6AF","la":"Conwy","era":"other","nn":737,"risk":49,"cat":"amber"},{"name":"Browns Bar & Grill","lat":53.30154,"lon":-3.54098,"postcode":"LL22 9HD","la":"Conwy","era":"mod","nn":119,"risk":25,"cat":"green"},{"name":"Bryn Morfa Caravan Park","lat":53.28601,"lon":-3.84923,"postcode":"LL32 8DW","la":"Conwy","era":"other","nn":201,"risk":28,"cat":"green"},{"name":"Bubble Catering at Old Colwyn Golf Club","lat":53.28677,"lon":-3.69576,"postcode":"LL29 9NL","la":"Conwy","era":"other","nn":423,"risk":27,"cat":"green"},{"name":"Castle View","lat":53.2904,"lon":-3.82247,"postcode":"LL31 9TH","la":"Conwy","era":"other","nn":718,"risk":34,"cat":"amber"},{"name":"CJ TACO","lat":53.30438,"lon":-3.54427,"postcode":"LL22 9LD","la":"Conwy","era":"other","nn":189,"risk":25,"cat":"green"},{"name":"Club 147","lat":53.3267,"lon":-3.83213,"postcode":"LL30 2PE","la":"Conwy","era":"other","nn":21,"risk":24,"cat":"green"},{"name":"Clwb Llanrwst","lat":53.13864,"lon":-3.79849,"postcode":"LL26 0LB","la":"Conwy","era":"other","nn":67,"risk":29,"cat":"green"},{"name":"Colwyn Bay & District Club Ltd","lat":53.29075,"lon":-3.73223,"postcode":"LL29 7HF","la":"Conwy","era":"other","nn":461,"risk":27,"cat":"green"},{"name":"Colwyn Bay Rugby Football Club Ltd","lat":53.30417,"lon":-3.76267,"postcode":"LL28 4SW","la":"Conwy","era":"other","nn":943,"risk":51,"cat":"amber"},{"name":"Conservative Club","lat":53.32594,"lon":-3.83256,"postcode":"LL30 2SW","la":"Conwy","era":"other","nn":50,"risk":24,"cat":"green"},{"name":"Conway Yacht Club","lat":53.29555,"lon":-3.83486,"postcode":"LL31 9DF","la":"Conwy","era":"other","nn":0,"risk":29,"cat":"green"},{"name":"Conwy Comrades Sport & Social Club Ltd","lat":53.28044,"lon":-3.82967,"postcode":"LL32 8AF","la":"Conwy","era":"mod","nn":75,"risk":24,"cat":"green"},{"name":"Conwy Golf Club (Caernarvonshire)","lat":53.29062,"lon":-3.84362,"postcode":"LL32 8ER","la":"Conwy","era":"other","nn":250,"risk":26,"cat":"green"},{"name":"Cottage Loaf","lat":53.32475,"lon":-3.8323,"postcode":"LL30 2SR","la":"Conwy","era":"other","nn":30,"risk":24,"cat":"green"},{"name":"County Hotel","lat":53.32171,"lon":-3.81135,"postcode":"LL30 1BD","la":"Conwy","era":"other","nn":135,"risk":25,"cat":"green"},{"name":"Craiglwyd Hall","lat":53.26635,"lon":-3.9162,"postcode":"LL34 6ER","la":"Conwy","era":"other","nn":737,"risk":49,"cat":"amber"},{"name":"Cross Keys","lat":53.32302,"lon":-3.83044,"postcode":"LL30 2TL","la":"Conwy","era":"trad","nn":35,"risk":24,"cat":"green"},{"name":"Cross Keys","lat":53.26902,"lon":-3.79616,"postcode":"LL28 5SS","la":"Conwy","era":"trad","nn":37,"risk":44,"cat":"amber"},{"name":"Cross Keys Inn","lat":53.31772,"lon":-3.78177,"postcode":"LL30 3DD","la":"Conwy","era":"trad","nn":18,"risk":29,"cat":"green"},{"name":"Crosville Social Club","lat":53.28477,"lon":-3.81716,"postcode":"LL31 9RU","la":"Conwy","era":"mod","nn":718,"risk":29,"cat":"green"},{"name":"Cues Sports & Entertainment Bar","lat":53.30353,"lon":-3.53765,"postcode":"LL22 9EN","la":"Conwy","era":"other","nn":0,"risk":24,"cat":"green"},{"name":"Elementary","lat":53.30971,"lon":-3.73974,"postcode":"LL28 4PS","la":"Conwy","era":"other","nn":48,"risk":24,"cat":"green"},{"name":"Fairy Glen Hotel","lat":53.27159,"lon":-3.88737,"postcode":"LL34 6SP","la":"Conwy","era":"other","nn":997,"risk":51,"cat":"amber"},{"name":"Fat Cat Cafe Bar","lat":53.32654,"lon":-3.83233,"postcode":"LL30 2PE","la":"Conwy","era":"other","nn":15,"risk":24,"cat":"green"},{"name":"Fusion at the Semaphore Lodge","lat":53.28276,"lon":-3.66329,"postcode":"LL29 8SW","la":"Conwy","era":"other","nn":1666,"risk":58,"cat":"amber"},{"name":"George & Dragon","lat":53.28448,"lon":-3.58403,"postcode":"LL22 7AF","la":"Conwy","era":"trad","nn":0,"risk":24,"cat":"green"},{"name":"George And Dragon","lat":53.28116,"lon":-3.82794,"postcode":"LL32 8AY","la":"Conwy","era":"trad","nn":0,"risk":24,"cat":"green"},{"name":"Glan Ceirw Country Club","lat":53.00136,"lon":-3.54222,"postcode":"LL21 0RF","la":"Conwy","era":"other","nn":2817,"risk":66,"cat":"red"},{"name":"Harbour","lat":53.31202,"lon":-3.51532,"postcode":"LL18 5BA","la":"Conwy","era":"other","nn":219,"risk":28,"cat":"green"},{"name":"Hickory's Smokehouse","lat":53.30774,"lon":-3.7498,"postcode":"LL28 4TR","la":"Conwy","era":"other","nn":521,"risk":28,"cat":"green"},{"name":"ink. gallery LTD","lat":53.29539,"lon":-3.73398,"postcode":"LL29 7RS","la":"Conwy","era":"other","nn":393,"risk":27,"cat":"green"},{"name":"J D Wetherspoon Plc","lat":53.32494,"lon":-3.83262,"postcode":"LL30 2DD","la":"Conwy","era":"other","nn":30,"risk":24,"cat":"green"},{"name":"J D Wetherspoon Plc","lat":53.29663,"lon":-3.72762,"postcode":"LL29 8LA","la":"Conwy","era":"other","nn":62,"risk":24,"cat":"green"},{"name":"Jakes Venue","lat":53.29937,"lon":-3.55699,"postcode":"LL22 9EY","la":"Conwy","era":"other","nn":252,"risk":28,"cat":"green"},{"name":"Johnny Dough's at Bridge","lat":53.28026,"lon":-3.82753,"postcode":"LL32 8LD","la":"Conwy","era":"other","nn":0,"risk":24,"cat":"green"},{"name":"Just a Bite Catering at Colwyn Bay Cricket Club","lat":53.31109,"lon":-3.74433,"postcode":"LL28 4LR","la":"Conwy","era":"other","nn":303,"risk":26,"cat":"green"},{"name":"Kings Head (Henrys)","lat":53.32738,"lon":-3.83585,"postcode":"LL30 2NB","la":"Conwy","era":"trad","nn":151,"risk":25,"cat":"green"},{"name":"Kinmel Arms","lat":53.26885,"lon":-3.54,"postcode":"LL22 9BP","la":"Conwy","era":"trad","nn":2215,"risk":62,"cat":"red"},{"name":"Kinmel Bay Members Club","lat":53.31211,"lon":-3.51861,"postcode":"LL18 5DG","la":"Conwy","era":"other","nn":219,"risk":26,"cat":"green"},{"name":"L C Drink & Dine","lat":53.32628,"lon":-3.83205,"postcode":"LL30 2PE","la":"Conwy","era":"other","nn":35,"risk":24,"cat":"green"},{"name":"Le Sport Health & Fitness","lat":53.30966,"lon":-3.74045,"postcode":"LL28 4RB","la":"Conwy","era":"other","nn":48,"risk":24,"cat":"green"},{"name":"Llandudno Cricket Club","lat":53.32092,"lon":-3.84012,"postcode":"LL30 2BT","la":"Conwy","era":"other","nn":655,"risk":29,"cat":"green"},{"name":"Llandudno FC Club House","lat":53.31649,"lon":-3.8316,"postcode":"LL30 1HH","la":"Conwy","era":"other","nn":0,"risk":24,"cat":"green"},{"name":"Llandudno Junction Community Club","lat":53.29113,"lon":-3.81095,"postcode":"LL31 9PG","la":"Conwy","era":"other","nn":770,"risk":47,"cat":"amber"},{"name":"Llandudno Rugby Club","lat":53.3122,"lon":-3.82213,"postcode":"LL30 1LH","la":"Conwy","era":"other","nn":532,"risk":30,"cat":"green"},{"name":"Llandudno Sailing Club Ltd","lat":53.32184,"lon":-3.81549,"postcode":"LL30 1BB","la":"Conwy","era":"other","nn":276,"risk":26,"cat":"green"},{"name":"Llanfair Arms","lat":53.25201,"lon":-3.97408,"postcode":"LL33 0TT","la":"Conwy","era":"trad","nn":77,"risk":25,"cat":"green"},{"name":"Llanfairfechan Golf Club","lat":53.24825,"lon":-3.97556,"postcode":"LL33 0EB","la":"Conwy","era":"other","nn":355,"risk":26,"cat":"green"},{"name":"Llanfairfechan Sailing Club","lat":53.25887,"lon":-3.97987,"postcode":"LL33 0BY","la":"Conwy","era":"other","nn":447,"risk":27,"cat":"green"},{"name":"Llew Gwyn","lat":53.0265,"lon":-3.56104,"postcode":"LL21 9SW","la":"Conwy","era":"other","nn":360,"risk":46,"cat":"amber"},{"name":"Maelgwyn Public House","lat":53.28305,"lon":-3.80356,"postcode":"LL31 9EF","la":"Conwy","era":"other","nn":924,"risk":48,"cat":"amber"},{"name":"Maesdu Golf Club Bar","lat":53.31276,"lon":-3.83007,"postcode":"LL30 1HU","la":"Conwy","era":"other","nn":427,"risk":27,"cat":"green"},{"name":"Magpie and Stump","lat":53.30675,"lon":-3.5288,"postcode":"LL18 5LE","la":"Conwy","era":"other","nn":224,"risk":26,"cat":"green"},{"name":"Millers Cottage Country Club","lat":53.3029,"lon":-3.55126,"postcode":"LL22 9HS","la":"Conwy","era":"trad","nn":297,"risk":26,"cat":"green"},{"name":"Mochdre Sports and Social Club","lat":53.2894,"lon":-3.76636,"postcode":"LL28 5HB","la":"Conwy","era":"mod","nn":285,"risk":46,"cat":"amber"},{"name":"Morton Grill & Brew","lat":53.30341,"lon":-3.54192,"postcode":"LL22 9LB","la":"Conwy","era":"other","nn":157,"risk":25,"cat":"green"},{"name":"Mulberry","lat":53.29004,"lon":-3.84,"postcode":"LL32 8GU","la":"Conwy","era":"other","nn":250,"risk":26,"cat":"green"},{"name":"New Inn","lat":53.13897,"lon":-3.7974,"postcode":"LL26 0LL","la":"Conwy","era":"trad","nn":0,"risk":29,"cat":"green"},{"name":"Ocean's Bar","lat":53.32699,"lon":-3.83141,"postcode":"LL30 2LP","la":"Conwy","era":"other","nn":59,"risk":24,"cat":"green"},{"name":"Palins Country Club","lat":53.30584,"lon":-3.52479,"postcode":"LL18 5LE","la":"Conwy","era":"other","nn":285,"risk":26,"cat":"green"},{"name":"Park Hotel","lat":53.29079,"lon":-3.72137,"postcode":"LL29 7PS","la":"Conwy","era":"other","nn":388,"risk":27,"cat":"green"},{"name":"Pavilion","lat":53.29457,"lon":-3.72629,"postcode":"LL29 7RS","la":"Conwy","era":"trad","nn":54,"risk":24,"cat":"green"},{"name":"Pen Y Bont Inn","lat":53.2844,"lon":-3.58037,"postcode":"LL22 7HA","la":"Conwy","era":"trad","nn":120,"risk":25,"cat":"green"},{"name":"Pen y Bryn","lat":53.28844,"lon":-3.73798,"postcode":"LL29 6DD","la":"Conwy","era":"other","nn":461,"risk":45,"cat":"amber"},{"name":"Pen Y Bryn","lat":53.13843,"lon":-3.79755,"postcode":"LL26 0LH","la":"Conwy","era":"other","nn":61,"risk":29,"cat":"green"},{"name":"Pen Y Bryn Hotel","lat":53.25142,"lon":-3.9749,"postcode":"LL33 0TU","la":"Conwy","era":"other","nn":86,"risk":25,"cat":"green"},{"name":"Pendyffryn Hall Bar","lat":53.28056,"lon":-3.88948,"postcode":"LL34 6UF","la":"Conwy","era":"other","nn":1008,"risk":54,"cat":"amber"},{"name":"Pen-Llan","lat":53.25432,"lon":-3.97905,"postcode":"LL33 0AL","la":"Conwy","era":"other","nn":129,"risk":25,"cat":"green"},{"name":"Penmaenmawr Golf Club","lat":53.27322,"lon":-3.90211,"postcode":"LL34 6RD","la":"Conwy","era":"other","nn":474,"risk":45,"cat":"amber"},{"name":"Penrhyn Arms","lat":53.31778,"lon":-3.78202,"postcode":"LL30 3BY","la":"Conwy","era":"trad","nn":18,"risk":29,"cat":"green"},{"name":"Penrhyn Old Hall","lat":53.31766,"lon":-3.77812,"postcode":"LL30 3EE","la":"Conwy","era":"other","nn":243,"risk":31,"cat":"amber"},{"name":"Pont Y Pair Inn","lat":53.09337,"lon":-3.81006,"postcode":"LL24 0BN","la":"Conwy","era":"trad","nn":820,"risk":50,"cat":"amber"},{"name":"Porters","lat":53.2958,"lon":-3.7272,"postcode":"LL29 8BP","la":"Conwy","era":"other","nn":0,"risk":24,"cat":"green"},{"name":"Prince Madoc","lat":53.29564,"lon":-3.72668,"postcode":"LL29 8BU","la":"Conwy","era":"trad","nn":39,"risk":24,"cat":"green"},{"name":"Queens Head","lat":53.3073,"lon":-3.77714,"postcode":"LL31 9JP","la":"Conwy","era":"trad","nn":1023,"risk":54,"cat":"amber"},{"name":"RAOB Club","lat":53.32239,"lon":-3.82993,"postcode":"LL30 2TW","la":"Conwy","era":"other","nn":8,"risk":24,"cat":"green"},{"name":"Red Lion Hotel","lat":53.28968,"lon":-3.69996,"postcode":"LL29 9PL","la":"Conwy","era":"trad","nn":7,"risk":24,"cat":"green"},{"name":"Rhos Fynach","lat":53.31144,"lon":-3.73927,"postcode":"LL28 4NG","la":"Conwy","era":"other","nn":195,"risk":25,"cat":"green"},{"name":"Rhos On Sea Golf Club Bar Area","lat":53.31674,"lon":-3.75903,"postcode":"LL30 3PU","la":"Conwy","era":"mod","nn":1161,"risk":55,"cat":"amber"},{"name":"Royal British Legion","lat":53.28925,"lon":-3.64071,"postcode":"LL22 8EN","la":"Conwy","era":"trad","nn":159,"risk":43,"cat":"amber"},{"name":"Sandpiper at Golden Sands","lat":53.30861,"lon":-3.53014,"postcode":"LL18 5NA","la":"Conwy","era":"other","nn":224,"risk":26,"cat":"green"},{"name":"Sandy Cove Social Club","lat":53.3084,"lon":-3.52449,"postcode":"LL18 5LT","la":"Conwy","era":"mod","nn":285,"risk":26,"cat":"green"},{"name":"Saracens Head","lat":53.02345,"lon":-3.56285,"postcode":"LL21 9SY","la":"Conwy","era":"trad","nn":360,"risk":46,"cat":"amber"},{"name":"Seagull Inn","lat":53.30354,"lon":-3.53765,"postcode":"LL22 9EN","la":"Conwy","era":"trad","nn":0,"risk":24,"cat":"green"},{"name":"Sheldons Cafe Bar Ltd","lat":53.29562,"lon":-3.72797,"postcode":"LL29 8LG","la":"Conwy","era":"mod","nn":55,"risk":24,"cat":"green"},{"name":"Silver Fountain Inn","lat":53.06835,"lon":-3.7823,"postcode":"LL24 0HF","la":"Conwy","era":"trad","nn":1799,"risk":59,"cat":"amber"},{"name":"Snooze","lat":53.32763,"lon":-3.83229,"postcode":"LL30 2HD","la":"Conwy","era":"other","nn":0,"risk":24,"cat":"green"},{"name":"Sportsmans Arms Inn","lat":53.12717,"lon":-3.54993,"postcode":"LL16 5SW","la":"Conwy","era":"trad","nn":8842,"risk":81,"cat":"red"},{"name":"Sunnyvale Camp Club","lat":53.31462,"lon":-3.51364,"postcode":"LL18 5AS","la":"Conwy","era":"other","nn":310,"risk":31,"cat":"amber"},{"name":"Swan Inn","lat":53.21818,"lon":-3.60735,"postcode":"LL22 8RY","la":"Conwy","era":"trad","nn":0,"risk":44,"cat":"amber"},{"name":"Tafarn Penllan","lat":53.08259,"lon":-3.76953,"postcode":"LL26 0RW","la":"Conwy","era":"other","nn":1799,"risk":59,"cat":"amber"},{"name":"Tapps","lat":53.32283,"lon":-3.83003,"postcode":"LL30 2TL","la":"Conwy","era":"other","nn":35,"risk":24,"cat":"green"},{"name":"Tapps at Rhos","lat":53.30872,"lon":-3.74015,"postcode":"LL28 4EY","la":"Conwy","era":"other","nn":7,"risk":24,"cat":"green"},{"name":"The Afon Conwy","lat":53.27952,"lon":-3.78997,"postcode":"LL28 5LB","la":"Conwy","era":"other","nn":985,"risk":51,"cat":"amber"},{"name":"The Albert Public House","lat":53.32234,"lon":-3.82984,"postcode":"LL30 2TW","la":"Conwy","era":"other","nn":8,"risk":24,"cat":"green"},{"name":"The Bay Hop","lat":53.2962,"lon":-3.72822,"postcode":"LL29 8LG","la":"Conwy","era":"other","nn":62,"risk":24,"cat":"green"},{"name":"The Bee Inn","lat":53.21713,"lon":-3.79312,"postcode":"LL28 5UD","la":"Conwy","era":"trad","nn":3622,"risk":72,"cat":"red"},{"name":"The Black Lion","lat":53.21818,"lon":-3.60735,"postcode":"LL22 8RY","la":"Conwy","era":"trad","nn":0,"risk":44,"cat":"amber"},{"name":"The Boat House","lat":53.29901,"lon":-3.553,"postcode":"LL22 9HG","la":"Conwy","era":"other","nn":261,"risk":26,"cat":"green"},{"name":"The Boathouse","lat":53.30866,"lon":-3.74014,"postcode":"LL28 4EY","la":"Conwy","era":"other","nn":7,"risk":24,"cat":"green"},{"name":"The Bull Hotel","lat":53.28378,"lon":-3.58293,"postcode":"LL22 7AW","la":"Conwy","era":"trad","nn":73,"risk":24,"cat":"green"},{"name":"The Carlton","lat":53.32551,"lon":-3.83142,"postcode":"LL30 2PD","la":"Conwy","era":"other","nn":86,"risk":25,"cat":"green"},{"name":"The Club House (Golden Gate Holiday Park)","lat":53.30114,"lon":-3.55462,"postcode":"LL22 9HU","la":"Conwy","era":"mod","nn":252,"risk":26,"cat":"green"},{"name":"The Crafty Fox","lat":53.28981,"lon":-3.70033,"postcode":"LL29 9PL","la":"Conwy","era":"other","nn":28,"risk":24,"cat":"green"},{"name":"The Crossbar, Llandudno Football Club","lat":53.31649,"lon":-3.8316,"postcode":"LL30 1HH","la":"Conwy","era":"trad","nn":0,"risk":24,"cat":"green"},{"name":"The Cuckoo","lat":53.29032,"lon":-3.70279,"postcode":"LL29 9PF","la":"Conwy","era":"other","nn":142,"risk":25,"cat":"green"},{"name":"The Erskine Arms","lat":53.28026,"lon":-3.82753,"postcode":"LL32 8LD","la":"Conwy","era":"trad","nn":0,"risk":24,"cat":"green"},{"name":"The Giler Arms","lat":53.04319,"lon":-3.65393,"postcode":"LL24 0LL","la":"Conwy","era":"trad","nn":6474,"risk":81,"cat":"red"},{"name":"The Gladstone","lat":53.27642,"lon":-3.90683,"postcode":"LL34 6PS","la":"Conwy","era":"other","nn":474,"risk":47,"cat":"amber"},{"name":"The Gresham","lat":53.32666,"lon":-3.83244,"postcode":"LL30 2PE","la":"Conwy","era":"other","nn":15,"risk":24,"cat":"green"},{"name":"The Groes Inn","lat":53.24597,"lon":-3.83912,"postcode":"LL32 8TN","la":"Conwy","era":"trad","nn":1669,"risk":58,"cat":"amber"},{"name":"The Harp","lat":53.28448,"lon":-3.58403,"postcode":"LL22 7AF","la":"Conwy","era":"other","nn":0,"risk":24,"cat":"green"},{"name":"The Hawk And Buckle Inn","lat":53.22244,"lon":-3.52503,"postcode":"LL16 5ED","la":"Conwy","era":"trad","nn":4692,"risk":79,"cat":"red"},{"name":"The Holland Arms","lat":53.22177,"lon":-3.73927,"postcode":"LL22 8BG","la":"Conwy","era":"trad","nn":3622,"risk":72,"cat":"red"},{"name":"The Hoptimist","lat":53.28457,"lon":-3.58317,"postcode":"LL22 7AA","la":"Conwy","era":"other","nn":58,"risk":24,"cat":"green"},{"name":"The Kings Arms","lat":53.32296,"lon":-3.8258,"postcode":"LL30 2NL","la":"Conwy","era":"trad","nn":76,"risk":24,"cat":"green"},{"name":"The Lion Bed & Breakfast","lat":53.13884,"lon":-3.68103,"postcode":"LL22 8UU","la":"Conwy","era":"trad","nn":6182,"risk":81,"cat":"red"},{"name":"The Little Goat Cottage (previously The Goat Inn)","lat":52.98819,"lon":-3.46464,"postcode":"LL21 0NR","la":"Conwy","era":"trad","nn":5395,"risk":81,"cat":"red"},{"name":"The Liverpool Arms","lat":53.28247,"lon":-3.82889,"postcode":"LL32 8BE","la":"Conwy","era":"trad","nn":158,"risk":25,"cat":"green"},{"name":"The Manor","lat":53.26081,"lon":-3.83358,"postcode":"LL32 8HJ","la":"Conwy","era":"other","nn":307,"risk":46,"cat":"amber"},{"name":"The Mountain View","lat":53.2901,"lon":-3.76224,"postcode":"LL28 5AT","la":"Conwy","era":"other","nn":285,"risk":46,"cat":"amber"},{"name":"The Neville Public House","lat":53.32217,"lon":-3.82438,"postcode":"LL30 1AB","la":"Conwy","era":"other","nn":129,"risk":25,"cat":"green"},{"name":"The New Alexandra Hotel","lat":53.3232,"lon":-3.82686,"postcode":"LL30 2LE","la":"Conwy","era":"other","nn":76,"risk":24,"cat":"green"},{"name":"The Old White House","lat":53.28486,"lon":-3.84254,"postcode":"LL32 8DP","la":"Conwy","era":"other","nn":375,"risk":27,"cat":"green"},{"name":"The Plough","lat":53.28971,"lon":-3.7009,"postcode":"LL29 9LN","la":"Conwy","era":"trad","nn":40,"risk":24,"cat":"green"},{"name":"The Queen Victoria","lat":53.32763,"lon":-3.83229,"postcode":"LL30 2HD","la":"Conwy","era":"trad","nn":0,"risk":24,"cat":"green"},{"name":"The Red Lion","lat":53.13897,"lon":-3.7974,"postcode":"LL26 0LL","la":"Conwy","era":"trad","nn":0,"risk":29,"cat":"green"},{"name":"The Royal British Legion","lat":53.32102,"lon":-3.82567,"postcode":"LL30 1AB","la":"Conwy","era":"trad","nn":154,"risk":25,"cat":"green"},{"name":"The Snowdon","lat":53.32683,"lon":-3.83377,"postcode":"LL30 2HB","la":"Conwy","era":"other","nn":90,"risk":25,"cat":"green"},{"name":"The Sports Pavillion","lat":53.26911,"lon":-3.7967,"postcode":"LL28 5SP","la":"Conwy","era":"trad","nn":37,"risk":44,"cat":"amber"},{"name":"The Stag Hotel","lat":53.19438,"lon":-3.68521,"postcode":"LL22 8PP","la":"Conwy","era":"trad","nn":4715,"risk":79,"cat":"red"},{"name":"The Station","lat":53.2958,"lon":-3.7272,"postcode":"LL29 8BP","la":"Conwy","era":"other","nn":0,"risk":24,"cat":"green"},{"name":"The Sun Inn","lat":53.28968,"lon":-3.69985,"postcode":"LL29 9PL","la":"Conwy","era":"trad","nn":7,"risk":24,"cat":"green"},{"name":"The Swallows Nest","lat":53.26097,"lon":-3.83819,"postcode":"LL32 8UX","la":"Conwy","era":"other","nn":307,"risk":46,"cat":"amber"},{"name":"The Toad Pub","lat":53.29999,"lon":-3.73223,"postcode":"LL28 4BU","la":"Conwy","era":"other","nn":483,"risk":27,"cat":"green"},{"name":"The Valentine Inn","lat":53.28882,"lon":-3.63843,"postcode":"LL22 8ES","la":"Conwy","era":"trad","nn":159,"risk":43,"cat":"amber"},{"name":"The Village Inn","lat":53.25509,"lon":-3.97758,"postcode":"LL33 0NU","la":"Conwy","era":"trad","nn":129,"risk":25,"cat":"green"},{"name":"The Waterfront","lat":53.29555,"lon":-3.83486,"postcode":"LL31 9DF","la":"Conwy","era":"other","nn":0,"risk":29,"cat":"green"},{"name":"The Wendover","lat":53.3005,"lon":-3.5435,"postcode":"LL22 9LL","la":"Conwy","era":"other","nn":204,"risk":25,"cat":"green"},{"name":"The White Lion","lat":53.27187,"lon":-3.70561,"postcode":"LL29 8YA","la":"Conwy","era":"trad","nn":1781,"risk":59,"cat":"amber"},{"name":"The Yacht","lat":53.29031,"lon":-3.58149,"postcode":"LL22 7PL","la":"Conwy","era":"other","nn":648,"risk":29,"cat":"green"},{"name":"Theatr Colwyn","lat":53.29413,"lon":-3.72595,"postcode":"LL29 7RU","la":"Conwy","era":"other","nn":54,"risk":24,"cat":"green"},{"name":"Tinkers Bar Cocktails & Eatery","lat":53.30248,"lon":-3.54013,"postcode":"LL22 9EP","la":"Conwy","era":"mod","nn":119,"risk":25,"cat":"green"},{"name":"Town House","lat":53.32475,"lon":-3.83116,"postcode":"LL30 2SB","la":"Conwy","era":"other","nn":76,"risk":24,"cat":"green"},{"name":"Victoria Club","lat":53.31881,"lon":-3.81116,"postcode":"LL30 1TH","la":"Conwy","era":"trad","nn":205,"risk":25,"cat":"green"},{"name":"Virginia Inn","lat":53.25186,"lon":-3.97296,"postcode":"LL33 0TH","la":"Conwy","era":"trad","nn":77,"risk":25,"cat":"green"},{"name":"West Shore Social Club","lat":53.31544,"lon":-3.83651,"postcode":"LL30 2DZ","la":"Conwy","era":"mod","nn":347,"risk":26,"cat":"green"},{"name":"Wheatsheaf Inn","lat":53.24774,"lon":-3.63926,"postcode":"LL22 8AW","la":"Conwy","era":"trad","nn":3914,"risk":74,"cat":"red"},{"name":"Winkups Cabaret Club","lat":53.3056,"lon":-3.53302,"postcode":"LL22 9EL","la":"Conwy","era":"other","nn":308,"risk":26,"cat":"green"},{"name":"Y Bedol Inn","lat":53.2029,"lon":-3.84828,"postcode":"LL32 8QF","la":"Conwy","era":"trad","nn":617,"risk":48,"cat":"amber"},{"name":"Y Gwindy (Bar Only)","lat":53.28424,"lon":-3.58215,"postcode":"LL22 7AG","la":"Conwy","era":"mod","nn":73,"risk":24,"cat":"green"},{"name":"Y Gwydyr Hotel Dolwyddelan","lat":53.05461,"lon":-3.88695,"postcode":"LL25 0EJ","la":"Conwy","era":"other","nn":6705,"risk":81,"cat":"red"},{"name":"Y Morfa Venue at Conwy United Football Club","lat":53.28708,"lon":-3.84678,"postcode":"LL32 8HA","la":"Conwy","era":"other","nn":201,"risk":28,"cat":"green"},{"name":"Ye Olde Bull","lat":53.20735,"lon":-3.85382,"postcode":"LL32 8JB","la":"Conwy","era":"trad","nn":617,"risk":48,"cat":"amber"},{"name":"Ye Olde Mail Coach - Craft Union Pub Company ltd","lat":53.28108,"lon":-3.83006,"postcode":"LL32 8DE","la":"Conwy","era":"other","nn":75,"risk":24,"cat":"green"},{"name":"Archies","lat":53.33305,"lon":-3.40184,"postcode":"LL19 9AS","la":"Denbighshire","era":"other","nn":83,"risk":31,"cat":"amber"},{"name":"Bar 236","lat":53.33234,"lon":-3.40145,"postcode":"LL19 9BP","la":"Denbighshire","era":"mod","nn":83,"risk":33,"cat":"amber"},{"name":"Blue Moon","lat":53.31753,"lon":-3.48326,"postcode":"LL18 2BT","la":"Denbighshire","era":"other","nn":261,"risk":30,"cat":"green"},{"name":"Boars head","lat":53.11427,"lon":-3.31225,"postcode":"LL15 1HW","la":"Denbighshire","era":"trad","nn":418,"risk":48,"cat":"amber"},{"name":"Britannia Inn","lat":53.18167,"lon":-3.42242,"postcode":"LL16 3LU","la":"Denbighshire","era":"trad","nn":176,"risk":29,"cat":"green"},{"name":"Central Beach Club","lat":53.34022,"lon":-3.41092,"postcode":"LL19 7ET","la":"Denbighshire","era":"other","nn":654,"risk":37,"cat":"amber"},{"name":"Denbigh Conservative Club","lat":53.18312,"lon":-3.42138,"postcode":"LL16 3LE","la":"Denbighshire","era":"other","nn":42,"risk":28,"cat":"green"},{"name":"Ellis's Bar - Wet Sales","lat":53.32023,"lon":-3.49334,"postcode":"LL18 1SS","la":"Denbighshire","era":"mod","nn":43,"risk":28,"cat":"green"},{"name":"Feathers Inn","lat":53.11345,"lon":-3.30608,"postcode":"LL15 1AW","la":"Denbighshire","era":"trad","nn":421,"risk":48,"cat":"amber"},{"name":"Griffin Inn","lat":53.12486,"lon":-3.28116,"postcode":"LL15 1UP","la":"Denbighshire","era":"trad","nn":2091,"risk":65,"cat":"red"},{"name":"Liberty Tavern","lat":52.9698,"lon":-3.17148,"postcode":"LL20 8PS","la":"Denbighshire","era":"other","nn":61,"risk":28,"cat":"green"},{"name":"Llindir Inn ltd","lat":53.20103,"lon":-3.46431,"postcode":"LL16 5BH","la":"Denbighshire","era":"trad","nn":3236,"risk":73,"cat":"red"},{"name":"Masons Arms","lat":53.18791,"lon":-3.4109,"postcode":"LL16 3DT","la":"Denbighshire","era":"trad","nn":256,"risk":30,"cat":"green"},{"name":"Occasions","lat":52.97018,"lon":-3.1706,"postcode":"LL20 8NU","la":"Denbighshire","era":"other","nn":36,"risk":28,"cat":"green"},{"name":"Park Place Hotel","lat":53.11238,"lon":-3.31767,"postcode":"LL15 1LF","la":"Denbighshire","era":"other","nn":418,"risk":48,"cat":"amber"},{"name":"Plas Pigot Country Club","lat":53.18705,"lon":-3.40734,"postcode":"LL16 3ER","la":"Denbighshire","era":"other","nn":256,"risk":32,"cat":"amber"},{"name":"Pleasant View Club","lat":53.28864,"lon":-3.46,"postcode":"LL18 5RH","la":"Denbighshire","era":"other","nn":272,"risk":47,"cat":"amber"},{"name":"Plough Inn","lat":53.18348,"lon":-3.4215,"postcode":"LL16 3TF","la":"Denbighshire","era":"trad","nn":42,"risk":28,"cat":"green"},{"name":"Prestatyn Constitutional Club","lat":53.3322,"lon":-3.40354,"postcode":"LL19 9DL","la":"Denbighshire","era":"other","nn":139,"risk":34,"cat":"amber"},{"name":"Rhyl Masonic Buildings","lat":53.32013,"lon":-3.47978,"postcode":"LL18 4RG","la":"Denbighshire","era":"trad","nn":106,"risk":28,"cat":"green"},{"name":"Royal Air Force Association","lat":52.97286,"lon":-3.17326,"postcode":"LL20 8SW","la":"Denbighshire","era":"trad","nn":347,"risk":30,"cat":"green"},{"name":"Six Bells","lat":53.31998,"lon":-3.49413,"postcode":"LL18 1TF","la":"Denbighshire","era":"other","nn":59,"risk":28,"cat":"green"},{"name":"St. Asaph Conservative Club","lat":53.25711,"lon":-3.44437,"postcode":"LL17 0RG","la":"Denbighshire","era":"other","nn":31,"risk":45,"cat":"amber"},{"name":"Sun Inn","lat":52.96879,"lon":-3.16621,"postcode":"LL20 8HN","la":"Denbighshire","era":"trad","nn":243,"risk":29,"cat":"green"},{"name":"Swan Inn","lat":53.32098,"lon":-3.48913,"postcode":"LL18 3BS","la":"Denbighshire","era":"trad","nn":90,"risk":28,"cat":"green"},{"name":"Tafarn Fach","lat":53.3147,"lon":-3.47505,"postcode":"LL18 2HT","la":"Denbighshire","era":"other","nn":371,"risk":30,"cat":"green"},{"name":"Tafarn Y Waen","lat":53.24662,"lon":-3.40757,"postcode":"LL17 0DY","la":"Denbighshire","era":"other","nn":2711,"risk":69,"cat":"red"},{"name":"The Barrow","lat":53.25686,"lon":-3.44455,"postcode":"LL17 0RD","la":"Denbighshire","era":"other","nn":31,"risk":45,"cat":"amber"},{"name":"The Bridge End Hotel","lat":52.97081,"lon":-3.16762,"postcode":"LL20 8RY","la":"Denbighshire","era":"other","nn":212,"risk":29,"cat":"green"},{"name":"The Bull Inn","lat":52.96985,"lon":-3.17057,"postcode":"LL20 8NU","la":"Denbighshire","era":"trad","nn":36,"risk":28,"cat":"green"},{"name":"the castle inn","lat":53.29016,"lon":-3.4632,"postcode":"LL18 5AE","la":"Denbighshire","era":"trad","nn":252,"risk":47,"cat":"amber"},{"name":"The Cob and Pen","lat":53.31936,"lon":-3.48774,"postcode":"LL18 1UF","la":"Denbighshire","era":"other","nn":202,"risk":29,"cat":"green"},{"name":"The Esplanade Club","lat":53.32742,"lon":-3.47003,"postcode":"LL18 3PP","la":"Denbighshire","era":"other","nn":1038,"risk":58,"cat":"amber"},{"name":"The Golden Lion","lat":53.16182,"lon":-3.30348,"postcode":"LL16 4LN","la":"Denbighshire","era":"trad","nn":2685,"risk":69,"cat":"red"},{"name":"The Golden Lion","lat":53.17542,"lon":-3.33677,"postcode":"LL16 4HG","la":"Denbighshire","era":"trad","nn":2685,"risk":69,"cat":"red"},{"name":"The Hand Inn","lat":53.18403,"lon":-3.42488,"postcode":"LL16 3PF","la":"Denbighshire","era":"trad","nn":234,"risk":29,"cat":"green"},{"name":"The Harp Hotel","lat":52.98077,"lon":-3.37354,"postcode":"LL21 0DE","la":"Denbighshire","era":"other","nn":283,"risk":50,"cat":"amber"},{"name":"The Leyland Arms","lat":53.0441,"lon":-3.32937,"postcode":"LL15 2PT","la":"Denbighshire","era":"trad","nn":7633,"risk":85,"cat":"red"},{"name":"The Lorne","lat":53.3207,"lon":-3.4904,"postcode":"LL18 1RH","la":"Denbighshire","era":"other","nn":90,"risk":28,"cat":"green"},{"name":"The Millbank Inn","lat":53.32019,"lon":-3.48137,"postcode":"LL18 4RD","la":"Denbighshire","era":"trad","nn":106,"risk":28,"cat":"green"},{"name":"The New Inn","lat":53.2908,"lon":-3.46684,"postcode":"LL18 2TY","la":"Denbighshire","era":"trad","nn":252,"risk":47,"cat":"amber"},{"name":"The Pendyffryn Club","lat":53.33588,"lon":-3.41756,"postcode":"LL19 7SS","la":"Denbighshire","era":"other","nn":654,"risk":50,"cat":"amber"},{"name":"The Royal Oak","lat":52.97976,"lon":-3.36965,"postcode":"LL21 0DR","la":"Denbighshire","era":"trad","nn":283,"risk":50,"cat":"amber"},{"name":"The Swan Inn","lat":53.25948,"lon":-3.45099,"postcode":"LL17 0LT","la":"Denbighshire","era":"trad","nn":513,"risk":49,"cat":"amber"},{"name":"The Vale","lat":53.31616,"lon":-3.48008,"postcode":"LL18 2PD","la":"Denbighshire","era":"other","nn":261,"risk":30,"cat":"green"},{"name":"The Vaults, Denbigh","lat":53.18325,"lon":-3.42,"postcode":"LL16 3RY","la":"Denbighshire","era":"other","nn":55,"risk":28,"cat":"green"},{"name":"The Wings Club Ltd","lat":53.18364,"lon":-3.42068,"postcode":"LL16 3TT","la":"Denbighshire","era":"other","nn":49,"risk":28,"cat":"green"},{"name":"Tinkers Bar","lat":53.32022,"lon":-3.4927,"postcode":"LL18 1SP","la":"Denbighshire","era":"other","nn":43,"risk":28,"cat":"green"},{"name":"Torello Lounge","lat":53.33513,"lon":-3.40447,"postcode":"LL19 9AH","la":"Denbighshire","era":"mod","nn":290,"risk":30,"cat":"green"},{"name":"Ty Fry Inn","lat":53.26983,"lon":-3.50673,"postcode":"LL18 5TE","la":"Denbighshire","era":"trad","nn":2215,"risk":66,"cat":"red"},{"name":"Victory Club","lat":53.3209,"lon":-3.49313,"postcode":"LL18 1SB","la":"Denbighshire","era":"other","nn":76,"risk":28,"cat":"green"},{"name":"White Lion","lat":53.18375,"lon":-3.41996,"postcode":"LL16 3TE","la":"Denbighshire","era":"trad","nn":49,"risk":28,"cat":"green"},{"name":"Y Bodunig","lat":53.30052,"lon":-3.4134,"postcode":"LL18 6AA","la":"Denbighshire","era":"other","nn":2525,"risk":68,"cat":"red"},{"name":"Beachcomber Inn","lat":53.34345,"lon":-3.36725,"postcode":"LL19 9SS","la":"Flintshire","era":"trad","nn":1118,"risk":59,"cat":"amber"},{"name":"Bells of St Marys","lat":53.34088,"lon":-3.35097,"postcode":"LL19 9TB","la":"Flintshire","era":"other","nn":1093,"risk":58,"cat":"amber"},{"name":"Caergwrle Social Club","lat":53.11059,"lon":-3.04006,"postcode":"LL12 9ET","la":"Flintshire","era":"mod","nn":50,"risk":46,"cat":"amber"},{"name":"Crown Inn","lat":53.30654,"lon":-3.3641,"postcode":"LL18 6DN","la":"Flintshire","era":"trad","nn":2231,"risk":66,"cat":"red"},{"name":"Crown Inn","lat":53.11059,"lon":-3.0408,"postcode":"LL12 9LG","la":"Flintshire","era":"trad","nn":50,"risk":49,"cat":"amber"},{"name":"Eagle & Child Inn","lat":53.31875,"lon":-3.39075,"postcode":"LL18 6EJ","la":"Flintshire","era":"trad","nn":1669,"risk":62,"cat":"red"},{"name":"Poachers Cottage Inn","lat":53.09132,"lon":-3.06977,"postcode":"LL11 5LH","la":"Flintshire","era":"trad","nn":1328,"risk":60,"cat":"amber"},{"name":"The Cross Keys Llanfynydd","lat":53.10225,"lon":-3.07774,"postcode":"LL11 5HH","la":"Flintshire","era":"trad","nn":1328,"risk":60,"cat":"amber"},{"name":"White Lion","lat":53.11865,"lon":-3.0335,"postcode":"LL12 9NF","la":"Flintshire","era":"trad","nn":998,"risk":55,"cat":"amber"},{"name":"Abersoch Golf Club","lat":52.81916,"lon":-4.50451,"postcode":"LL53 7EY","la":"Gwynedd","era":"other","nn":487,"risk":33,"cat":"amber"},{"name":"Academy Bar","lat":53.22617,"lon":-4.13168,"postcode":"LL57 2UW","la":"Gwynedd","era":"other","nn":150,"risk":26,"cat":"green"},{"name":"Albert Inn","lat":53.13867,"lon":-4.27368,"postcode":"LL55 2PN","la":"Gwynedd","era":"trad","nn":13,"risk":25,"cat":"green"},{"name":"Alexandra Hotel","lat":53.14433,"lon":-4.27101,"postcode":"LL55 1BA","la":"Gwynedd","era":"other","nn":332,"risk":27,"cat":"green"},{"name":"Anglesey Arms Ltd","lat":53.13973,"lon":-4.27835,"postcode":"LL55 1SG","la":"Gwynedd","era":"trad","nn":111,"risk":26,"cat":"green"},{"name":"Antelope Inn","lat":53.21854,"lon":-4.16103,"postcode":"LL57 2HZ","la":"Gwynedd","era":"trad","nn":772,"risk":35,"cat":"amber"},{"name":"Aqua Beach Bar","lat":52.85314,"lon":-4.47892,"postcode":"LL53 7TR","la":"Gwynedd","era":"other","nn":655,"risk":47,"cat":"amber"},{"name":"Bach Wen Farm Ltd","lat":53.02137,"lon":-4.36693,"postcode":"LL54 5NH","la":"Gwynedd","era":"other","nn":5245,"risk":83,"cat":"red"},{"name":"Bala Sailing Club","lat":52.89797,"lon":-3.59489,"postcode":"LL23 7BS","la":"Gwynedd","era":"other","nn":1339,"risk":57,"cat":"amber"},{"name":"Bangor Masonic Hall","lat":53.20318,"lon":-4.17956,"postcode":"LL57 4FA","la":"Gwynedd","era":"trad","nn":2108,"risk":62,"cat":"red"},{"name":"Barmouth Hotel","lat":52.72025,"lon":-4.05187,"postcode":"LL42 1EG","la":"Gwynedd","era":"other","nn":143,"risk":31,"cat":"amber"},{"name":"Belle Vue Hotel","lat":53.22775,"lon":-4.13418,"postcode":"LL57 2EU","la":"Gwynedd","era":"other","nn":61,"risk":25,"cat":"green"},{"name":"Black Boy Inn","lat":53.14101,"lon":-4.27581,"postcode":"LL55 1RW","la":"Gwynedd","era":"trad","nn":21,"risk":25,"cat":"green"},{"name":"Boardwalk Bar - Hafan Y Mor","lat":52.90603,"lon":-4.33413,"postcode":"LL53 6HX","la":"Gwynedd","era":"mod","nn":0,"risk":45,"cat":"amber"},{"name":"Bootons Hospitality Ltd","lat":52.92155,"lon":-4.13965,"postcode":"LL49 9UR","la":"Gwynedd","era":"other","nn":634,"risk":30,"cat":"green"},{"name":"Box Bar","lat":52.90603,"lon":-4.33413,"postcode":"LL53 6HX","la":"Gwynedd","era":"other","nn":0,"risk":45,"cat":"amber"},{"name":"Bryn Hir Arms","lat":52.91942,"lon":-4.23448,"postcode":"LL52 0BT","la":"Gwynedd","era":"trad","nn":208,"risk":47,"cat":"amber"},{"name":"Bryntirion (Bala) Ltd","lat":52.91599,"lon":-3.50102,"postcode":"LL23 7RA","la":"Gwynedd","era":"other","nn":6534,"risk":83,"cat":"red"},{"name":"Bulls Head","lat":52.90967,"lon":-3.59965,"postcode":"LL23 7AD","la":"Gwynedd","era":"trad","nn":173,"risk":46,"cat":"amber"},{"name":"Caernarfon and District Ex Service Club","lat":53.13889,"lon":-4.27131,"postcode":"LL55 2AF","la":"Gwynedd","era":"other","nn":110,"risk":26,"cat":"green"},{"name":"Caernarfon Sailing Club","lat":53.14216,"lon":-4.27786,"postcode":"LL55 1SR","la":"Gwynedd","era":"other","nn":175,"risk":26,"cat":"green"},{"name":"Castle Cottage Inn","lat":52.86013,"lon":-4.1074,"postcode":"LL46 2YL","la":"Gwynedd","era":"trad","nn":273,"risk":44,"cat":"amber"},{"name":"Chock A Block Restaurants Ltd ( The Cliffs)","lat":52.93574,"lon":-4.55671,"postcode":"LL53 6BY","la":"Gwynedd","era":"other","nn":122,"risk":46,"cat":"amber"},{"name":"Clwb Cefnogwyr Peldroed Caernarfon Town","lat":53.13545,"lon":-4.26791,"postcode":"LL55 2HT","la":"Gwynedd","era":"other","nn":355,"risk":28,"cat":"green"},{"name":"Clwb Chwaraeon Pwllheli","lat":52.89516,"lon":-4.45068,"postcode":"LL53 5TH","la":"Gwynedd","era":"other","nn":2198,"risk":63,"cat":"red"},{"name":"Clwb Criced a Bowlio Bethesda","lat":53.18735,"lon":-4.06236,"postcode":"LL57 3DT","la":"Gwynedd","era":"other","nn":582,"risk":32,"cat":"amber"},{"name":"Clwb Glyn Garth","lat":52.85688,"lon":-4.48991,"postcode":"LL53 7UB","la":"Gwynedd","era":"other","nn":274,"risk":32,"cat":"amber"},{"name":"Clwb Golff Pwllheli","lat":52.8784,"lon":-4.4333,"postcode":"LL53 5PS","la":"Gwynedd","era":"other","nn":1483,"risk":58,"cat":"amber"},{"name":"Clwb Golff Y Bala Golf Club","lat":52.91157,"lon":-3.61476,"postcode":"LL23 7YD","la":"Gwynedd","era":"other","nn":1035,"risk":55,"cat":"amber"},{"name":"Clwb Rygbi Bangor Rugby Club","lat":53.21069,"lon":-4.0982,"postcode":"LL57 4AA","la":"Gwynedd","era":"other","nn":2329,"risk":64,"cat":"red"},{"name":"Clwb Rygbi Caernarfon","lat":53.1301,"lon":-4.2628,"postcode":"LL55 2YE","la":"Gwynedd","era":"other","nn":686,"risk":50,"cat":"amber"},{"name":"Clwb Rygbi Dolgellau","lat":52.74278,"lon":-3.8902,"postcode":"LL40 1UU","la":"Gwynedd","era":"other","nn":293,"risk":30,"cat":"green"},{"name":"Copa Diner & Bar","lat":53.13941,"lon":-4.27374,"postcode":"LL55 2NA","la":"Gwynedd","era":"other","nn":71,"risk":26,"cat":"green"},{"name":"Cross Keys","lat":52.74271,"lon":-3.88499,"postcode":"LL40 1EY","la":"Gwynedd","era":"trad","nn":58,"risk":28,"cat":"green"},{"name":"Crosville Social Club","lat":53.23517,"lon":-4.12132,"postcode":"LL57 1AD","la":"Gwynedd","era":"mod","nn":474,"risk":33,"cat":"amber"},{"name":"Crown","lat":53.14087,"lon":-4.27603,"postcode":"LL55 1RH","la":"Gwynedd","era":"trad","nn":21,"risk":25,"cat":"green"},{"name":"Cwellyn Arms","lat":53.05384,"lon":-4.13629,"postcode":"LL54 6TL","la":"Gwynedd","era":"trad","nn":5207,"risk":83,"cat":"red"},{"name":"Douglas Arms Hotel","lat":53.17927,"lon":-4.06018,"postcode":"LL57 3AY","la":"Gwynedd","era":"trad","nn":108,"risk":28,"cat":"green"},{"name":"George Inn","lat":53.18288,"lon":-4.0578,"postcode":"LL57 3SE","la":"Gwynedd","era":"trad","nn":432,"risk":31,"cat":"amber"},{"name":"Glyn Y Weddw Arms","lat":52.85727,"lon":-4.48588,"postcode":"LL53 7TH","la":"Gwynedd","era":"trad","nn":274,"risk":32,"cat":"amber"},{"name":"Goat Hotel","lat":52.91091,"lon":-3.5981,"postcode":"LL23 7AF","la":"Gwynedd","era":"other","nn":173,"risk":46,"cat":"amber"},{"name":"Golden Fleece","lat":52.93934,"lon":-4.14186,"postcode":"LL49 9RB","la":"Gwynedd","era":"trad","nn":0,"risk":43,"cat":"amber"},{"name":"Gwynedd Bar Restaurant","lat":53.11856,"lon":-4.12522,"postcode":"LL55 4SU","la":"Gwynedd","era":"mod","nn":131,"risk":43,"cat":"amber"},{"name":"Haulfryn - Warren Holiday Park","lat":52.84003,"lon":-4.49547,"postcode":"LL53 7AA","la":"Gwynedd","era":"other","nn":1742,"risk":60,"cat":"amber"},{"name":"Hole In The Wall","lat":53.14034,"lon":-4.27555,"postcode":"LL55 1RF","la":"Gwynedd","era":"other","nn":20,"risk":25,"cat":"green"},{"name":"Horizon","lat":52.76085,"lon":-4.09491,"postcode":"LL43 2LQ","la":"Gwynedd","era":"other","nn":3369,"risk":71,"cat":"red"},{"name":"Iard Hendre","lat":53.21892,"lon":-4.06266,"postcode":"LL57 3YP","la":"Gwynedd","era":"other","nn":2537,"risk":65,"cat":"red"},{"name":"J D Wetherspoon","lat":53.22448,"lon":-4.129,"postcode":"LL57 1NS","la":"Gwynedd","era":"other","nn":45,"risk":25,"cat":"green"},{"name":"J D Wetherspoon Plc","lat":53.14094,"lon":-4.27489,"postcode":"LL55 1AG","la":"Gwynedd","era":"other","nn":62,"risk":26,"cat":"green"},{"name":"Kings Head","lat":52.99576,"lon":-3.94792,"postcode":"LL41 3PD","la":"Gwynedd","era":"trad","nn":543,"risk":46,"cat":"amber"},{"name":"Llanberis & District Social Club","lat":53.12187,"lon":-4.12712,"postcode":"LL55 4EY","la":"Gwynedd","era":"mod","nn":262,"risk":44,"cat":"amber"},{"name":"Madoc Yacht Club Ltd","lat":52.91904,"lon":-4.13116,"postcode":"LL49 9AY","la":"Gwynedd","era":"other","nn":500,"risk":29,"cat":"green"},{"name":"Meirion Vaults","lat":52.994,"lon":-3.93329,"postcode":"LL41 3AE","la":"Gwynedd","era":"other","nn":463,"risk":46,"cat":"amber"},{"name":"Meirioneth Yacht Club","lat":52.71871,"lon":-4.05259,"postcode":"LL42 1HB","la":"Gwynedd","era":"other","nn":178,"risk":31,"cat":"amber"},{"name":"Menter Y Plu","lat":52.92162,"lon":-4.26959,"postcode":"LL52 0SH","la":"Gwynedd","era":"other","nn":2010,"risk":62,"cat":"red"},{"name":"Morgan Lloyd","lat":53.13973,"lon":-4.27495,"postcode":"LL55 2NF","la":"Gwynedd","era":"other","nn":61,"risk":25,"cat":"green"},{"name":"Mostyn Arms","lat":53.23107,"lon":-4.11931,"postcode":"LL57 1BH","la":"Gwynedd","era":"trad","nn":227,"risk":27,"cat":"green"},{"name":"Mountain Rangers Social Club","lat":53.09251,"lon":-4.22868,"postcode":"LL54 7ET","la":"Gwynedd","era":"mod","nn":2343,"risk":64,"cat":"red"},{"name":"Nefyn & District Constitutional Club","lat":52.93578,"lon":-4.52385,"postcode":"LL53 6EA","la":"Gwynedd","era":"other","nn":2202,"risk":63,"cat":"red"},{"name":"Nefyn Golf Club","lat":52.93547,"lon":-4.55848,"postcode":"LL53 6DA","la":"Gwynedd","era":"other","nn":122,"risk":43,"cat":"amber"},{"name":"Neuadd Dyfi","lat":52.54468,"lon":-4.05189,"postcode":"LL35 0NR","la":"Gwynedd","era":"other","nn":488,"risk":48,"cat":"amber"},{"name":"Newborough Arms","lat":53.1147,"lon":-4.26808,"postcode":"LL55 2UG","la":"Gwynedd","era":"trad","nn":1749,"risk":60,"cat":"amber"},{"name":"Oak","lat":52.93013,"lon":-4.06716,"postcode":"LL48 6BL","la":"Gwynedd","era":"trad","nn":0,"risk":45,"cat":"amber"},{"name":"Oak","lat":52.93013,"lon":-4.06716,"postcode":"LL48 6BL","la":"Gwynedd","era":"trad","nn":0,"risk":45,"cat":"amber"},{"name":"Palace Vaults","lat":53.14031,"lon":-4.27585,"postcode":"LL55 1RR","la":"Gwynedd","era":"other","nn":0,"risk":25,"cat":"green"},{"name":"Pant Yr Ardd","lat":53.18983,"lon":-4.09013,"postcode":"LL57 4PL","la":"Gwynedd","era":"other","nn":1870,"risk":61,"cat":"red"},{"name":"Patricks Bar","lat":53.2283,"lon":-4.13442,"postcode":"LL57 2HE","la":"Gwynedd","era":"other","nn":62,"risk":26,"cat":"green"},{"name":"Peg & Mallet","lat":52.92675,"lon":-4.40172,"postcode":"LL53 6UY","la":"Gwynedd","era":"other","nn":4339,"risk":78,"cat":"red"},{"name":"Pen Y Cob / Wetherspoons","lat":52.88772,"lon":-4.41749,"postcode":"LL53 5HG","la":"Gwynedd","era":"other","nn":79,"risk":31,"cat":"amber"},{"name":"Penbont Inn","lat":53.15021,"lon":-4.17849,"postcode":"LL55 4AY","la":"Gwynedd","era":"trad","nn":629,"risk":49,"cat":"amber"},{"name":"Penlan Fawr","lat":52.8889,"lon":-4.41743,"postcode":"LL53 5DE","la":"Gwynedd","era":"other","nn":81,"risk":31,"cat":"amber"},{"name":"Penygroes Ex-Servicemen Club &","lat":53.05084,"lon":-4.27837,"postcode":"LL54 6RN","la":"Gwynedd","era":"other","nn":619,"risk":49,"cat":"amber"},{"name":"Porthmadog Football Club Ltd","lat":52.93518,"lon":-4.12274,"postcode":"LL49 9PP","la":"Gwynedd","era":"other","nn":835,"risk":48,"cat":"amber"},{"name":"Pow Catering","lat":52.91979,"lon":-4.23143,"postcode":"LL52 0HB","la":"Gwynedd","era":"other","nn":208,"risk":47,"cat":"amber"},{"name":"Prince Llewelyn Hotel","lat":53.01195,"lon":-4.10147,"postcode":"LL55 4LT","la":"Gwynedd","era":"trad","nn":5207,"risk":83,"cat":"red"},{"name":"Purple Hops Ltd","lat":53.14031,"lon":-4.27585,"postcode":"LL55 1RR","la":"Gwynedd","era":"other","nn":0,"risk":25,"cat":"green"},{"name":"Rascals","lat":53.22683,"lon":-4.13364,"postcode":"LL57 2PT","la":"Gwynedd","era":"other","nn":108,"risk":26,"cat":"green"},{"name":"Red Lion","lat":52.9285,"lon":-4.13247,"postcode":"LL49 9ED","la":"Gwynedd","era":"trad","nn":338,"risk":27,"cat":"green"},{"name":"Royal St Davids Golf Club","lat":52.85908,"lon":-4.11108,"postcode":"LL46 2UB","la":"Gwynedd","era":"trad","nn":0,"risk":43,"cat":"amber"},{"name":"Royal Welch Fusiliers Comrades","lat":52.99537,"lon":-3.93982,"postcode":"LL41 3HB","la":"Gwynedd","era":"trad","nn":463,"risk":46,"cat":"amber"},{"name":"Royal Welsh Yacht Club","lat":53.1406,"lon":-4.27755,"postcode":"LL55 1RN","la":"Gwynedd","era":"trad","nn":106,"risk":26,"cat":"green"},{"name":"Ship Aground","lat":52.9036,"lon":-4.06504,"postcode":"LL47 6UB","la":"Gwynedd","era":"trad","nn":2954,"risk":68,"cat":"red"},{"name":"Ship and Castle","lat":53.1413,"lon":-4.27418,"postcode":"LL55 1AT","la":"Gwynedd","era":"trad","nn":62,"risk":26,"cat":"green"},{"name":"Ship Inn","lat":52.92773,"lon":-4.56506,"postcode":"LL53 8YP","la":"Gwynedd","era":"trad","nn":967,"risk":52,"cat":"amber"},{"name":"Snowdonia Park","lat":53.10654,"lon":-4.2025,"postcode":"LL55 4AQ","la":"Gwynedd","era":"other","nn":2343,"risk":64,"cat":"red"},{"name":"South Caernarfonshire Yacht Club","lat":52.82429,"lon":-4.50135,"postcode":"LL53 7DP","la":"Gwynedd","era":"other","nn":213,"risk":32,"cat":"amber"},{"name":"Spooners","lat":52.92412,"lon":-4.12666,"postcode":"LL49 9NF","la":"Gwynedd","era":"other","nn":281,"risk":27,"cat":"green"},{"name":"St Deiniol Golf Club","lat":53.22928,"lon":-4.1143,"postcode":"LL57 1PX","la":"Gwynedd","era":"other","nn":388,"risk":28,"cat":"green"},{"name":"St Tudwals Inn","lat":52.82351,"lon":-4.50525,"postcode":"LL53 7DS","la":"Gwynedd","era":"trad","nn":209,"risk":32,"cat":"amber"},{"name":"Stag Inn","lat":52.74386,"lon":-3.88539,"postcode":"LL40 1AU","la":"Gwynedd","era":"trad","nn":130,"risk":28,"cat":"green"},{"name":"Station Inn","lat":52.93211,"lon":-4.13411,"postcode":"LL49 9HT","la":"Gwynedd","era":"trad","nn":416,"risk":28,"cat":"green"},{"name":"Sun Inn","lat":52.81015,"lon":-4.53918,"postcode":"LL53 7LG","la":"Gwynedd","era":"trad","nn":2536,"risk":65,"cat":"red"},{"name":"Tafarn pen y bont","lat":52.86026,"lon":-4.61563,"postcode":"LL53 8DT","la":"Gwynedd","era":"other","nn":234,"risk":47,"cat":"amber"},{"name":"Tafarn Pencei","lat":52.92353,"lon":-4.13073,"postcode":"LL49 9AT","la":"Gwynedd","era":"other","nn":156,"risk":26,"cat":"green"},{"name":"Tafarn Tryfan Inn","lat":53.18026,"lon":-4.06281,"postcode":"LL57 3AN","la":"Gwynedd","era":"trad","nn":103,"risk":28,"cat":"green"},{"name":"Tafarn Y Fic","lat":52.96134,"lon":-4.44415,"postcode":"LL53 6PA","la":"Gwynedd","era":"other","nn":3738,"risk":74,"cat":"red"},{"name":"Tafarn Y Fic","lat":53.1843,"lon":-4.20942,"postcode":"LL56 4PJ","la":"Gwynedd","era":"other","nn":97,"risk":43,"cat":"amber"},{"name":"Tafarn Y Glob Cyf","lat":53.2279,"lon":-4.13506,"postcode":"LL57 2EY","la":"Gwynedd","era":"other","nn":61,"risk":25,"cat":"green"},{"name":"Tafarn Yr Eagles Ltd","lat":53.13843,"lon":-4.26986,"postcode":"LL55 2RF","la":"Gwynedd","era":"trad","nn":110,"risk":26,"cat":"green"},{"name":"Talhenbont Hall","lat":52.93286,"lon":-4.29308,"postcode":"LL53 6SZ","la":"Gwynedd","era":"other","nn":2010,"risk":62,"cat":"red"},{"name":"The Albion Hotel","lat":53.22548,"lon":-4.1276,"postcode":"LL57 1NU","la":"Gwynedd","era":"other","nn":78,"risk":26,"cat":"green"},{"name":"The Australia","lat":52.92598,"lon":-4.12966,"postcode":"LL49 9LR","la":"Gwynedd","era":"other","nn":160,"risk":26,"cat":"green"},{"name":"The Bull Inn","lat":53.17963,"lon":-4.06168,"postcode":"LL57 3AR","la":"Gwynedd","era":"trad","nn":103,"risk":28,"cat":"green"},{"name":"The Castle","lat":53.22613,"lon":-4.12799,"postcode":"LL57 1LP","la":"Gwynedd","era":"other","nn":78,"risk":26,"cat":"green"},{"name":"The Dyffryn Country Inn","lat":52.78849,"lon":-4.11541,"postcode":"LL44 2HD","la":"Gwynedd","era":"trad","nn":3369,"risk":71,"cat":"red"},{"name":"The Galley - Dovey Yacht Club","lat":52.54389,"lon":-4.04479,"postcode":"LL35 0EE","la":"Gwynedd","era":"other","nn":488,"risk":48,"cat":"amber"},{"name":"The Glyntwrog Inn","lat":53.14671,"lon":-4.18591,"postcode":"LL55 4AN","la":"Gwynedd","era":"trad","nn":629,"risk":49,"cat":"amber"},{"name":"The Goat Inn","lat":52.96993,"lon":-4.25965,"postcode":"LL51 9LJ","la":"Gwynedd","era":"trad","nn":4691,"risk":80,"cat":"red"},{"name":"The Harp Inn","lat":53.22416,"lon":-4.1294,"postcode":"LL57 1NS","la":"Gwynedd","era":"trad","nn":45,"risk":25,"cat":"green"},{"name":"The Heights","lat":53.11958,"lon":-4.12619,"postcode":"LL55 4HB","la":"Gwynedd","era":"other","nn":131,"risk":43,"cat":"amber"},{"name":"The Last Inn","lat":52.72016,"lon":-4.04976,"postcode":"LL42 1EL","la":"Gwynedd","era":"trad","nn":143,"risk":31,"cat":"amber"},{"name":"The Mitre","lat":52.8883,"lon":-4.41817,"postcode":"LL53 5HE","la":"Gwynedd","era":"other","nn":79,"risk":31,"cat":"amber"},{"name":"The Ship","lat":52.9249,"lon":-4.13123,"postcode":"LL49 9AP","la":"Gwynedd","era":"trad","nn":156,"risk":26,"cat":"green"},{"name":"The Ship Inn","lat":52.85872,"lon":-4.49584,"postcode":"LL53 7PE","la":"Gwynedd","era":"trad","nn":448,"risk":46,"cat":"amber"},{"name":"The Skerries","lat":53.22921,"lon":-4.12072,"postcode":"LL57 1YE","la":"Gwynedd","era":"other","nn":227,"risk":27,"cat":"green"},{"name":"The Tredegar Arms","lat":52.58733,"lon":-4.08622,"postcode":"LL36 9BS","la":"Gwynedd","era":"trad","nn":102,"risk":46,"cat":"amber"},{"name":"The Union Inn","lat":52.93934,"lon":-4.14186,"postcode":"LL49 9RB","la":"Gwynedd","era":"trad","nn":0,"risk":43,"cat":"amber"},{"name":"The Vaynol","lat":52.82526,"lon":-4.50409,"postcode":"LL53 7AP","la":"Gwynedd","era":"other","nn":209,"risk":32,"cat":"amber"},{"name":"The Venue","lat":52.72207,"lon":-4.0575,"postcode":"LL42 1LY","la":"Gwynedd","era":"other","nn":430,"risk":33,"cat":"amber"},{"name":"Thornley Leisure Parks 2022 Ltd","lat":53.08678,"lon":-4.33618,"postcode":"LL54 5TW","la":"Gwynedd","era":"other","nn":5026,"risk":83,"cat":"red"},{"name":"Twthill Vaults","lat":53.14135,"lon":-4.27062,"postcode":"LL55 1PB","la":"Gwynedd","era":"other","nn":237,"risk":27,"cat":"green"},{"name":"Ty Coch Inn Ltd","lat":52.94304,"lon":-4.56773,"postcode":"LL53 6DB","la":"Gwynedd","era":"trad","nn":1046,"risk":55,"cat":"amber"},{"name":"Ty Newydd Sarn","lat":52.85902,"lon":-4.61845,"postcode":"LL53 8DY","la":"Gwynedd","era":"other","nn":234,"risk":47,"cat":"amber"},{"name":"Ty Siamas","lat":52.74256,"lon":-3.88587,"postcode":"LL40 1PY","la":"Gwynedd","era":"other","nn":62,"risk":28,"cat":"green"},{"name":"Tywyn Ex Service And Workmans Club","lat":52.5867,"lon":-4.08732,"postcode":"LL36 9BP","la":"Gwynedd","era":"other","nn":102,"risk":46,"cat":"amber"},{"name":"Union Inn","lat":53.218,"lon":-4.14042,"postcode":"LL57 4SB","la":"Gwynedd","era":"trad","nn":1004,"risk":55,"cat":"amber"},{"name":"Whitehall","lat":52.88906,"lon":-4.4186,"postcode":"LL53 5RG","la":"Gwynedd","era":"other","nn":81,"risk":31,"cat":"amber"},{"name":"Y Branwen","lat":52.85908,"lon":-4.11108,"postcode":"LL46 2UB","la":"Gwynedd","era":"other","nn":0,"risk":43,"cat":"amber"},{"name":"Y Bryn at the Clubhouse Woodlands","lat":52.61275,"lon":-4.04159,"postcode":"LL36 9UH","la":"Gwynedd","era":"mod","nn":4132,"risk":76,"cat":"red"},{"name":"Y Castell","lat":53.13918,"lon":-4.27492,"postcode":"LL55 2NN","la":"Gwynedd","era":"other","nn":61,"risk":25,"cat":"green"},{"name":"Y Garddfon","lat":53.18404,"lon":-4.21081,"postcode":"LL56 4RQ","la":"Gwynedd","era":"other","nn":97,"risk":43,"cat":"amber"},{"name":"Y Goat","lat":53.05246,"lon":-4.28723,"postcode":"LL54 6NW","la":"Gwynedd","era":"other","nn":619,"risk":49,"cat":"amber"},{"name":"Y Pengwern Arms","lat":52.95911,"lon":-3.9364,"postcode":"LL41 4PB","la":"Gwynedd","era":"trad","nn":3885,"risk":75,"cat":"red"},{"name":"Y Segontiwm","lat":53.13877,"lon":-4.27378,"postcode":"LL55 2PN","la":"Gwynedd","era":"other","nn":13,"risk":25,"cat":"green"},{"name":"Y Twr","lat":52.99398,"lon":-4.43075,"postcode":"LL54 5LH","la":"Gwynedd","era":"other","nn":3738,"risk":74,"cat":"red"},{"name":"Yr Eagles","lat":52.8588,"lon":-3.67472,"postcode":"LL23 7UB","la":"Gwynedd","era":"trad","nn":6904,"risk":83,"cat":"red"},{"name":"Yr Heulyn","lat":53.18716,"lon":-4.20543,"postcode":"LL56 4JN","la":"Gwynedd","era":"other","nn":414,"risk":45,"cat":"amber"},{"name":"Yr Unicorn","lat":52.74222,"lon":-3.88471,"postcode":"LL40 1ES","la":"Gwynedd","era":"other","nn":58,"risk":28,"cat":"green"},{"name":"The Poachers","lat":52.92117,"lon":-3.04585,"postcode":"LL14 5DG","la":"Shropshire","era":"other","nn":1457,"risk":51,"cat":"amber"},{"name":"Aqueduct Inn","lat":52.96385,"lon":-3.08726,"postcode":"LL20 7PY","la":"Wrexham","era":"trad","nn":1344,"risk":60,"cat":"amber"},{"name":"Black Lion Inn","lat":53.0356,"lon":-3.02644,"postcode":"LL14 4HN","la":"Wrexham","era":"trad","nn":315,"risk":50,"cat":"amber"},{"name":"Bridge End Inn","lat":52.98678,"lon":-3.04092,"postcode":"LL14 6DA","la":"Wrexham","era":"trad","nn":38,"risk":48,"cat":"amber"},{"name":"Brymbo Conservative Club","lat":53.07759,"lon":-3.0544,"postcode":"LL11 5BL","la":"Wrexham","era":"other","nn":56,"risk":46,"cat":"amber"},{"name":"Cefn Druids FC","lat":52.97779,"lon":-3.06954,"postcode":"LL14 3YF","la":"Wrexham","era":"other","nn":517,"risk":34,"cat":"amber"},{"name":"Chequers Wine Bar","lat":53.04478,"lon":-2.9932,"postcode":"LL13 8LS","la":"Wrexham","era":"other","nn":32,"risk":28,"cat":"green"},{"name":"Cross Foxes","lat":53.05307,"lon":-3.07027,"postcode":"LL11 3RY","la":"Wrexham","era":"trad","nn":127,"risk":46,"cat":"amber"},{"name":"Cross Foxes Inn","lat":53.07172,"lon":-3.03977,"postcode":"LL11 6AW","la":"Wrexham","era":"trad","nn":737,"risk":38,"cat":"amber"},{"name":"Crown Inn","lat":53.07542,"lon":-3.03061,"postcode":"LL11 4SR","la":"Wrexham","era":"trad","nn":258,"risk":34,"cat":"amber"},{"name":"Eagles Inn","lat":52.98025,"lon":-3.0761,"postcode":"LL14 3RP","la":"Wrexham","era":"trad","nn":463,"risk":36,"cat":"amber"},{"name":"Fairfield Tavern","lat":53.04109,"lon":-2.99586,"postcode":"LL13 7DW","la":"Wrexham","era":"other","nn":397,"risk":30,"cat":"green"},{"name":"Golden Lion","lat":53.0452,"lon":-2.99304,"postcode":"LL13 8HP","la":"Wrexham","era":"trad","nn":42,"risk":28,"cat":"green"},{"name":"Griffin Inn","lat":53.08842,"lon":-2.97886,"postcode":"LL12 8RG","la":"Wrexham","era":"trad","nn":3195,"risk":73,"cat":"red"},{"name":"Gwersyllt Sports Working Men's Club And Institute","lat":53.07684,"lon":-3.02264,"postcode":"LL11 4AF","la":"Wrexham","era":"trad","nn":556,"risk":49,"cat":"amber"},{"name":"Hand Hotel","lat":52.93252,"lon":-3.05669,"postcode":"LL14 5EY","la":"Wrexham","era":"other","nn":1457,"risk":60,"cat":"amber"},{"name":"Haybank Club House & Grill","lat":53.00044,"lon":-3.04505,"postcode":"LL13 0SP","la":"Wrexham","era":"mod","nn":1059,"risk":58,"cat":"amber"},{"name":"Hill Street Social","lat":53.04625,"lon":-2.99625,"postcode":"LL11 1SN","la":"Wrexham","era":"mod","nn":116,"risk":28,"cat":"green"},{"name":"King William Inn","lat":53.07738,"lon":-3.03268,"postcode":"LL11 4TA","la":"Wrexham","era":"trad","nn":258,"risk":34,"cat":"amber"},{"name":"Lancaster Pubs Ltd t/a The Red Lion","lat":53.05265,"lon":-3.06852,"postcode":"LL11 3NB","la":"Wrexham","era":"trad","nn":127,"risk":46,"cat":"amber"},{"name":"Long Pull","lat":53.04571,"lon":-2.99159,"postcode":"LL13 8BD","la":"Wrexham","era":"other","nn":101,"risk":28,"cat":"green"},{"name":"Magic Dragon Brewery Tap","lat":53.04575,"lon":-2.98994,"postcode":"LL13 8BT","la":"Wrexham","era":"other","nn":110,"risk":28,"cat":"green"},{"name":"Mojitos Cocktail Bar","lat":53.04475,"lon":-2.99397,"postcode":"LL13 8NA","la":"Wrexham","era":"other","nn":14,"risk":28,"cat":"green"},{"name":"Old No7 Bar Lounge Ltd","lat":53.04482,"lon":-2.99367,"postcode":"LL13 8NA","la":"Wrexham","era":"mod","nn":7,"risk":28,"cat":"green"},{"name":"Peal o bell's","lat":53.08083,"lon":-2.88009,"postcode":"LL13 9JP","la":"Wrexham","era":"other","nn":257,"risk":49,"cat":"amber"},{"name":"Penny Black","lat":53.04495,"lon":-2.99418,"postcode":"LL11 1TA","la":"Wrexham","era":"other","nn":14,"risk":28,"cat":"green"},{"name":"Railway Inn","lat":53.05866,"lon":-3.00177,"postcode":"LL11 2DL","la":"Wrexham","era":"trad","nn":834,"risk":53,"cat":"amber"},{"name":"Railway Inn","lat":53.01054,"lon":-3.05941,"postcode":"LL14 1AR","la":"Wrexham","era":"trad","nn":100,"risk":33,"cat":"amber"},{"name":"Red Lion","lat":53.05598,"lon":-3.0627,"postcode":"LL11 3PG","la":"Wrexham","era":"trad","nn":537,"risk":49,"cat":"amber"},{"name":"Red Lion Inn","lat":53.03585,"lon":-2.9743,"postcode":"LL13 0NT","la":"Wrexham","era":"trad","nn":1519,"risk":61,"cat":"red"},{"name":"Rhos Snooker Club","lat":53.01037,"lon":-3.05795,"postcode":"LL14 1AF","la":"Wrexham","era":"other","nn":100,"risk":33,"cat":"amber"},{"name":"Rollers Arms","lat":53.05964,"lon":-3.04355,"postcode":"LL11 5PB","la":"Wrexham","era":"trad","nn":1343,"risk":60,"cat":"amber"},{"name":"Rough Hands Tap","lat":53.04645,"lon":-2.99376,"postcode":"LL11 1AP","la":"Wrexham","era":"mod","nn":120,"risk":28,"cat":"green"},{"name":"Royal oak","lat":53.04497,"lon":-2.99248,"postcode":"LL13 8HY","la":"Wrexham","era":"trad","nn":3,"risk":28,"cat":"green"},{"name":"Royston Club","lat":52.98245,"lon":-3.07022,"postcode":"LL14 3HN","la":"Wrexham","era":"other","nn":463,"risk":48,"cat":"amber"},{"name":"Saith Seren","lat":53.04703,"lon":-2.99187,"postcode":"LL13 8BG","la":"Wrexham","era":"other","nn":25,"risk":28,"cat":"green"},{"name":"Sun Inn","lat":53.01368,"lon":-3.06083,"postcode":"LL14 2LG","la":"Wrexham","era":"trad","nn":362,"risk":48,"cat":"amber"},{"name":"TableTaps","lat":53.04709,"lon":-2.99521,"postcode":"LL11 1LR","la":"Wrexham","era":"other","nn":116,"risk":28,"cat":"green"},{"name":"Ted's Bar","lat":53.04498,"lon":-2.99253,"postcode":"LL13 8HY","la":"Wrexham","era":"other","nn":3,"risk":28,"cat":"green"},{"name":"The Cross Foxes","lat":53.0453,"lon":-2.99467,"postcode":"LL11 1TA","la":"Wrexham","era":"trad","nn":40,"risk":28,"cat":"green"},{"name":"The Grapes","lat":53.00995,"lon":-3.04579,"postcode":"LL14 1NB","la":"Wrexham","era":"other","nn":815,"risk":51,"cat":"amber"},{"name":"The Holly Bush Inn","lat":52.97242,"lon":-3.07309,"postcode":"LL14 3AE","la":"Wrexham","era":"trad","nn":457,"risk":36,"cat":"amber"},{"name":"The Ironworks","lat":53.04479,"lon":-2.99376,"postcode":"LL13 8NA","la":"Wrexham","era":"mod","nn":7,"risk":28,"cat":"green"},{"name":"THE KARAOKE BAR","lat":53.04494,"lon":-2.99397,"postcode":"LL13 8NB","la":"Wrexham","era":"other","nn":14,"risk":28,"cat":"green"},{"name":"The Miners Arms","lat":53.07713,"lon":-3.05475,"postcode":"LL11 5BL","la":"Wrexham","era":"trad","nn":56,"risk":46,"cat":"amber"},{"name":"The Newbridge Arms","lat":52.96935,"lon":-3.06854,"postcode":"LL14 3BJ","la":"Wrexham","era":"trad","nn":457,"risk":48,"cat":"amber"},{"name":"The Oak","lat":52.93296,"lon":-3.18809,"postcode":"LL20 7EH","la":"Wrexham","era":"trad","nn":3355,"risk":74,"cat":"red"},{"name":"The Old Swan","lat":53.04496,"lon":-2.99447,"postcode":"LL11 1TA","la":"Wrexham","era":"trad","nn":19,"risk":28,"cat":"green"},{"name":"The Parish","lat":53.0445,"lon":-2.99414,"postcode":"LL13 8NA","la":"Wrexham","era":"other","nn":30,"risk":28,"cat":"green"},{"name":"The Quarry Arms","lat":53.06048,"lon":-2.9451,"postcode":"LL13 9SD","la":"Wrexham","era":"trad","nn":1369,"risk":60,"cat":"amber"},{"name":"The Swan Inn","lat":52.9362,"lon":-3.13831,"postcode":"LL20 7AR","la":"Wrexham","era":"trad","nn":3355,"risk":74,"cat":"red"},{"name":"The swan inn","lat":53.03277,"lon":-3.02633,"postcode":"LL14 4AU","la":"Wrexham","era":"trad","nn":315,"risk":50,"cat":"amber"},{"name":"The Vaults","lat":52.98666,"lon":-3.04038,"postcode":"LL14 6DA","la":"Wrexham","era":"other","nn":38,"risk":48,"cat":"amber"},{"name":"The Welch Fusilier","lat":53.04698,"lon":-2.99151,"postcode":"LL13 8AH","la":"Wrexham","era":"other","nn":25,"risk":28,"cat":"green"},{"name":"The White Lion","lat":53.07889,"lon":-2.88218,"postcode":"LL13 9YW","la":"Wrexham","era":"trad","nn":257,"risk":49,"cat":"amber"},{"name":"Turf Hotel","lat":53.05126,"lon":-3.00385,"postcode":"LL11 2AH","la":"Wrexham","era":"other","nn":415,"risk":31,"cat":"amber"},{"name":"Wrexham Lager Social Club","lat":53.04812,"lon":-3.00048,"postcode":"LL13 7SR","la":"Wrexham","era":"mod","nn":351,"risk":30,"cat":"green"},{"name":"Wrexham Rail Sports & Social Club","lat":53.0451,"lon":-2.99652,"postcode":"LL13 7LU","la":"Wrexham","era":"mod","nn":126,"risk":29,"cat":"green"},{"name":"Wrexham Rugby Club","lat":53.05293,"lon":-2.96129,"postcode":"LL13 9TY","la":"Wrexham","era":"other","nn":1369,"risk":60,"cat":"amber"},{"name":"Y Tai","lat":53.07664,"lon":-3.05051,"postcode":"LL11 5EA","la":"Wrexham","era":"other","nn":281,"risk":35,"cat":"amber"}]