[{"name":"102 Club","lat":55.06896,"lon":-3.60735,"postcode":"DG1 2BY","la":"Dumfries and Galloway","era":"other","nn":12,"risk":25,"cat":"green"},{"name":"Abbey Inn","lat":55.0833,"lon":-3.62304,"postcode":"DG2 0DQ","la":"Dumfries and Galloway","era":"trad","nn":1401,"risk":58,"cat":"amber"},{"name":"Albert Club","lat":55.06689,"lon":-3.61132,"postcode":"DG1 2PJ","la":"Dumfries and Galloway","era":"other","nn":97,"risk":26,"cat":"green"},{"name":"Annan & District Ex Service Club","lat":54.98728,"lon":-3.2542,"postcode":"DG12 5HA","la":"Dumfries and Galloway","era":"other","nn":224,"risk":27,"cat":"green"},{"name":"Annan Bowling Club","lat":54.98621,"lon":-3.25718,"postcode":"DG12 6DX","la":"Dumfries and Galloway","era":"other","nn":182,"risk":27,"cat":"green"},{"name":"ANNAN RUGBY CLUB","lat":54.98652,"lon":-3.26267,"postcode":"DG12 6AA","la":"Dumfries and Galloway","era":"other","nn":60,"risk":26,"cat":"green"},{"name":"Back to the Buck","lat":54.98753,"lon":-3.2615,"postcode":"DG12 6DW","la":"Dumfries and Galloway","era":"other","nn":115,"risk":26,"cat":"green"},{"name":"Bluebell Inn","lat":54.98715,"lon":-3.26514,"postcode":"DG12 6AG","la":"Dumfries and Galloway","era":"trad","nn":134,"risk":26,"cat":"green"},{"name":"Bridge Arms","lat":54.90402,"lon":-5.02696,"postcode":"DG9 7JF","la":"Dumfries and Galloway","era":"trad","nn":58,"risk":26,"cat":"green"},{"name":"Bruce Arms","lat":55.12919,"lon":-3.44188,"postcode":"DG11 1NY","la":"Dumfries and Galloway","era":"trad","nn":152,"risk":46,"cat":"amber"},{"name":"Buzz Bingo","lat":55.06902,"lon":-3.60719,"postcode":"DG1 2JJ","la":"Dumfries and Galloway","era":"other","nn":12,"risk":25,"cat":"green"},{"name":"Castle Douglas Bowling Club","lat":54.93817,"lon":-3.93534,"postcode":"DG7 1ET","la":"Dumfries and Galloway","era":"other","nn":185,"risk":32,"cat":"amber"},{"name":"Castle Douglas Golf Club","lat":54.94224,"lon":-3.93772,"postcode":"DG7 1BA","la":"Dumfries and Galloway","era":"other","nn":464,"risk":34,"cat":"amber"},{"name":"Cavens Arms","lat":55.06932,"lon":-3.61576,"postcode":"DG1 2AH","la":"Dumfries and Galloway","era":"trad","nn":86,"risk":26,"cat":"green"},{"name":"Central Cafe","lat":54.90483,"lon":-5.02523,"postcode":"DG9 7EF","la":"Dumfries and Galloway","era":"other","nn":68,"risk":26,"cat":"green"},{"name":"Chasers Pub","lat":54.90492,"lon":-5.02658,"postcode":"DG9 7LD","la":"Dumfries and Galloway","era":"other","nn":33,"risk":26,"cat":"green"},{"name":"Coachman Bar","lat":55.33248,"lon":-3.44413,"postcode":"DG10 9ET","la":"Dumfries and Galloway","era":"trad","nn":47,"risk":43,"cat":"amber"},{"name":"Coachman Bar","lat":55.3329,"lon":-3.44422,"postcode":"DG10 9ET","la":"Dumfries and Galloway","era":"trad","nn":47,"risk":43,"cat":"amber"},{"name":"Commercial Inn","lat":54.90553,"lon":-5.0306,"postcode":"DG9 7JY","la":"Dumfries and Galloway","era":"trad","nn":174,"risk":26,"cat":"green"},{"name":"Commercial Inn","lat":54.98744,"lon":-3.25907,"postcode":"DG12 6DP","la":"Dumfries and Galloway","era":"trad","nn":155,"risk":26,"cat":"green"},{"name":"Creetown Bowling Club","lat":54.9019,"lon":-4.38088,"postcode":"DG8 7HX","la":"Dumfries and Galloway","era":"other","nn":943,"risk":52,"cat":"amber"},{"name":"Crown Inn","lat":55.36722,"lon":-3.92314,"postcode":"DG4 6BL","la":"Dumfries and Galloway","era":"trad","nn":276,"risk":47,"cat":"amber"},{"name":"Cum-Ye-Inn","lat":54.9315,"lon":-3.82081,"postcode":"DG5 4HB","la":"Dumfries and Galloway","era":"trad","nn":236,"risk":44,"cat":"amber"},{"name":"Dalbeattie Bowling Club","lat":54.93257,"lon":-3.824,"postcode":"DG5 4AX","la":"Dumfries and Galloway","era":"other","nn":236,"risk":44,"cat":"amber"},{"name":"Dalbeattie Golf Club","lat":54.93587,"lon":-3.82298,"postcode":"DG5 4JR","la":"Dumfries and Galloway","era":"other","nn":372,"risk":45,"cat":"amber"},{"name":"Dickie's Bar","lat":55.06864,"lon":-3.60864,"postcode":"DG1 2BY","la":"Dumfries and Galloway","era":"other","nn":47,"risk":26,"cat":"green"},{"name":"Dumfries & Galloway Golf Club","lat":55.06552,"lon":-3.62668,"postcode":"DG2 7NY","la":"Dumfries and Galloway","era":"other","nn":46,"risk":26,"cat":"green"},{"name":"Dumfries and County Golf Club","lat":55.07846,"lon":-3.60272,"postcode":"DG1 1JX","la":"Dumfries and Galloway","era":"other","nn":617,"risk":35,"cat":"amber"},{"name":"Dumfries Bowling Club","lat":55.07142,"lon":-3.6067,"postcode":"DG1 1LN","la":"Dumfries and Galloway","era":"other","nn":152,"risk":26,"cat":"green"},{"name":"Dumfries Rugby Football Club","lat":55.06082,"lon":-3.62137,"postcode":"DG2 7LU","la":"Dumfries and Galloway","era":"other","nn":623,"risk":30,"cat":"green"},{"name":"Easterbrook Hall","lat":55.04883,"lon":-3.59287,"postcode":"DG1 4TA","la":"Dumfries and Galloway","era":"other","nn":251,"risk":47,"cat":"amber"},{"name":"Elmarglen","lat":55.24034,"lon":-3.76612,"postcode":"DG3 5ND","la":"Dumfries and Galloway","era":"trad","nn":114,"risk":44,"cat":"amber"},{"name":"Farmers Arms","lat":55.24117,"lon":-3.76504,"postcode":"DG3 5LJ","la":"Dumfries and Galloway","era":"trad","nn":112,"risk":44,"cat":"amber"},{"name":"Globe Inn","lat":55.06857,"lon":-3.6183,"postcode":"DG2 7AB","la":"Dumfries and Galloway","era":"trad","nn":18,"risk":25,"cat":"green"},{"name":"Globe Inn","lat":55.06758,"lon":-3.60971,"postcode":"DG1 2JA","la":"Dumfries and Galloway","era":"trad","nn":90,"risk":26,"cat":"green"},{"name":"Green's Sports Bar","lat":55.06422,"lon":-3.60611,"postcode":"DG1 2QB","la":"Dumfries and Galloway","era":"other","nn":127,"risk":26,"cat":"green"},{"name":"Gretna Bowling Club","lat":54.99771,"lon":-3.06332,"postcode":"DG16 5DP","la":"Dumfries and Galloway","era":"other","nn":343,"risk":45,"cat":"amber"},{"name":"Gretna Inn","lat":54.9956,"lon":-3.05938,"postcode":"DG16 5DN","la":"Dumfries and Galloway","era":"trad","nn":343,"risk":48,"cat":"amber"},{"name":"Hole I' The Wa' Inn","lat":55.06952,"lon":-3.61127,"postcode":"DG1 2BA","la":"Dumfries and Galloway","era":"trad","nn":66,"risk":26,"cat":"green"},{"name":"Kenmuir Arms","lat":54.94333,"lon":-4.85168,"postcode":"DG8 0AJ","la":"Dumfries and Galloway","era":"trad","nn":9114,"risk":83,"cat":"red"},{"name":"Kirkconnel Bowling Club","lat":55.38555,"lon":-4.00386,"postcode":"DG4 6PN","la":"Dumfries and Galloway","era":"other","nn":253,"risk":47,"cat":"amber"},{"name":"Kirkcudbright Bowling Club","lat":54.83581,"lon":-4.04988,"postcode":"DG6 4AF","la":"Dumfries and Galloway","era":"other","nn":184,"risk":44,"cat":"amber"},{"name":"Kirkcudbright Golf Club","lat":54.84177,"lon":-4.04058,"postcode":"DG6 4EZ","la":"Dumfries and Galloway","era":"other","nn":891,"risk":49,"cat":"amber"},{"name":"Langholm Golf Club","lat":55.15042,"lon":-2.99526,"postcode":"DG13 0HR","la":"Dumfries and Galloway","era":"other","nn":522,"risk":49,"cat":"amber"},{"name":"Liquid Lounge","lat":55.06773,"lon":-3.61172,"postcode":"DG1 2PQ","la":"Dumfries and Galloway","era":"mod","nn":46,"risk":26,"cat":"green"},{"name":"Lochmaben Golf Clubhouse","lat":55.12784,"lon":-3.44231,"postcode":"DG11 1NT","la":"Dumfries and Galloway","era":"other","nn":152,"risk":46,"cat":"amber"},{"name":"Lockerbie Bowling Club","lat":55.12647,"lon":-3.35937,"postcode":"DG11 2AR","la":"Dumfries and Galloway","era":"other","nn":104,"risk":26,"cat":"green"},{"name":"Lockerbie Golf Club","lat":55.12461,"lon":-3.34818,"postcode":"DG11 2ND","la":"Dumfries and Galloway","era":"other","nn":354,"risk":28,"cat":"green"},{"name":"Lodge Eskdale Kilwinning (Social Club)","lat":55.15309,"lon":-3.00203,"postcode":"DG13 0AL","la":"Dumfries and Galloway","era":"other","nn":522,"risk":49,"cat":"amber"},{"name":"Marchmount Bowling Club","lat":55.07348,"lon":-3.59843,"postcode":"DG1 1NJ","la":"Dumfries and Galloway","era":"other","nn":401,"risk":28,"cat":"green"},{"name":"Masonic Arms","lat":54.883,"lon":-4.18061,"postcode":"DG7 2HU","la":"Dumfries and Galloway","era":"trad","nn":9699,"risk":83,"cat":"red"},{"name":"Masonic Arms","lat":54.83627,"lon":-4.05264,"postcode":"DG6 4JA","la":"Dumfries and Galloway","era":"trad","nn":184,"risk":44,"cat":"amber"},{"name":"Masonic Hall","lat":55.0712,"lon":-3.61411,"postcode":"DG1 1EJ","la":"Dumfries and Galloway","era":"trad","nn":105,"risk":26,"cat":"green"},{"name":"Masonic Lodge","lat":54.8665,"lon":-4.44464,"postcode":"DG8 9DS","la":"Dumfries and Galloway","era":"trad","nn":161,"risk":44,"cat":"amber"},{"name":"Masonic Social Club","lat":55.38755,"lon":-4.00578,"postcode":"DG4 6NE","la":"Dumfries and Galloway","era":"other","nn":253,"risk":47,"cat":"amber"},{"name":"Maxwelltown Bowling Club","lat":55.06592,"lon":-3.62648,"postcode":"DG2 9DL","la":"Dumfries and Galloway","era":"other","nn":46,"risk":26,"cat":"green"},{"name":"Mid Annandale Comrades Club","lat":55.12189,"lon":-3.35516,"postcode":"DG11 2AA","la":"Dumfries and Galloway","era":"other","nn":44,"risk":26,"cat":"green"},{"name":"Moffat Golf Club","lat":55.33193,"lon":-3.45818,"postcode":"DG10 9SB","la":"Dumfries and Galloway","era":"other","nn":889,"risk":49,"cat":"amber"},{"name":"Monty's","lat":54.9391,"lon":-3.93295,"postcode":"DG7 1DE","la":"Dumfries and Galloway","era":"other","nn":185,"risk":32,"cat":"amber"},{"name":"N'dulge","lat":55.07008,"lon":-3.61159,"postcode":"DG1 1BS","la":"Dumfries and Galloway","era":"other","nn":19,"risk":25,"cat":"green"},{"name":"New Bazaar Inn","lat":55.0683,"lon":-3.61479,"postcode":"DG1 2RS","la":"Dumfries and Galloway","era":"trad","nn":18,"risk":25,"cat":"green"},{"name":"Pleuchie's Hoff","lat":55.07056,"lon":-3.59473,"postcode":"DG1 3EW","la":"Dumfries and Galloway","era":"other","nn":401,"risk":28,"cat":"green"},{"name":"Portpatrick Bowling Club","lat":54.842,"lon":-5.1175,"postcode":"DG9 8SX","la":"Dumfries and Galloway","era":"other","nn":8851,"risk":83,"cat":"red"},{"name":"Queen Of The South Lounge","lat":55.07055,"lon":-3.62532,"postcode":"DG2 9BA","la":"Dumfries and Galloway","era":"other","nn":445,"risk":28,"cat":"green"},{"name":"Queens Head","lat":55.00417,"lon":-3.05371,"postcode":"DG16 5EH","la":"Dumfries and Galloway","era":"trad","nn":944,"risk":52,"cat":"amber"},{"name":"Queensberry Arms Hotel","lat":54.98701,"lon":-3.26306,"postcode":"DG12 6AD","la":"Dumfries and Galloway","era":"trad","nn":60,"risk":26,"cat":"green"},{"name":"R A F Association","lat":55.06831,"lon":-3.60909,"postcode":"DG1 2BY","la":"Dumfries and Galloway","era":"other","nn":35,"risk":26,"cat":"green"},{"name":"Reggies Bar & Function Suite Ltd","lat":54.9016,"lon":-5.0233,"postcode":"DG9 7EU","la":"Dumfries and Galloway","era":"mod","nn":186,"risk":27,"cat":"green"},{"name":"Riverside Tap","lat":55.06873,"lon":-3.61488,"postcode":"DG1 2RQ","la":"Dumfries and Galloway","era":"mod","nn":17,"risk":25,"cat":"green"},{"name":"Robert The Bruce","lat":55.07032,"lon":-3.61351,"postcode":"DG1 2AB","la":"Dumfries and Galloway","era":"other","nn":105,"risk":26,"cat":"green"},{"name":"Royal Bar","lat":55.12204,"lon":-3.35452,"postcode":"DG11 2HA","la":"Dumfries and Galloway","era":"trad","nn":23,"risk":25,"cat":"green"},{"name":"S.K. Social Club","lat":55.36925,"lon":-3.92562,"postcode":"DG4 6BX","la":"Dumfries and Galloway","era":"mod","nn":276,"risk":47,"cat":"amber"},{"name":"Salutation Inn","lat":55.06845,"lon":-3.61811,"postcode":"DG2 7AA","la":"Dumfries and Galloway","era":"trad","nn":18,"risk":25,"cat":"green"},{"name":"Sands Snooker Club","lat":55.06603,"lon":-3.6108,"postcode":"DG1 2RX","la":"Dumfries and Galloway","era":"other","nn":97,"risk":26,"cat":"green"},{"name":"Ship Inn","lat":55.06521,"lon":-3.60711,"postcode":"DG1 2PY","la":"Dumfries and Galloway","era":"trad","nn":127,"risk":26,"cat":"green"},{"name":"Slipstream","lat":55.06902,"lon":-3.60811,"postcode":"DG1 2DA","la":"Dumfries and Galloway","era":"other","nn":48,"risk":26,"cat":"green"},{"name":"South of Scotland Ice Rink Club","lat":55.12723,"lon":-3.36031,"postcode":"DG11 2AR","la":"Dumfries and Galloway","era":"other","nn":104,"risk":26,"cat":"green"},{"name":"Spread Eagle Inn","lat":55.06844,"lon":-3.61938,"postcode":"DG2 7TL","la":"Dumfries and Galloway","era":"trad","nn":71,"risk":26,"cat":"green"},{"name":"Star Inn","lat":54.95609,"lon":-4.48319,"postcode":"DG8 6EQ","la":"Dumfries and Galloway","era":"trad","nn":371,"risk":48,"cat":"amber"},{"name":"Stranraer Bowling Club","lat":54.90463,"lon":-5.01465,"postcode":"DG9 8AS","la":"Dumfries and Galloway","era":"other","nn":240,"risk":27,"cat":"green"},{"name":"Stranraer Football Club","lat":54.9037,"lon":-5.01127,"postcode":"DG9 8BS","la":"Dumfries and Galloway","era":"other","nn":240,"risk":27,"cat":"green"},{"name":"Stranraer Football Club Social Club","lat":54.90511,"lon":-5.02618,"postcode":"DG9 7LD","la":"Dumfries and Galloway","era":"mod","nn":33,"risk":26,"cat":"green"},{"name":"Stranraer Kilwinning Masonic Lodge","lat":54.90396,"lon":-5.03065,"postcode":"DG9 7JL","la":"Dumfries and Galloway","era":"trad","nn":174,"risk":26,"cat":"green"},{"name":"Tam O'Shanter Inn","lat":55.07025,"lon":-3.61157,"postcode":"DG1 1BH","la":"Dumfries and Galloway","era":"trad","nn":19,"risk":25,"cat":"green"},{"name":"The Barrel","lat":55.0685,"lon":-3.60953,"postcode":"DG1 2BU","la":"Dumfries and Galloway","era":"other","nn":35,"risk":26,"cat":"green"},{"name":"The Black Bull","lat":55.12184,"lon":-3.35438,"postcode":"DG11 2HA","la":"Dumfries and Galloway","era":"trad","nn":23,"risk":25,"cat":"green"},{"name":"The Brig","lat":55.12199,"lon":-3.35136,"postcode":"DG11 2HE","la":"Dumfries and Galloway","era":"other","nn":193,"risk":27,"cat":"green"},{"name":"The Clubhouse Bar","lat":55.0509,"lon":-3.59128,"postcode":"DG1 4TH","la":"Dumfries and Galloway","era":"mod","nn":251,"risk":47,"cat":"amber"},{"name":"The Coach and Horses","lat":55.06779,"lon":-3.61268,"postcode":"DG1 2RS","la":"Dumfries and Galloway","era":"trad","nn":17,"risk":25,"cat":"green"},{"name":"The Corner Pocket","lat":54.90387,"lon":-5.02503,"postcode":"DG9 7EA","la":"Dumfries and Galloway","era":"other","nn":68,"risk":26,"cat":"green"},{"name":"The Crofter's Inn","lat":54.92415,"lon":-4.99038,"postcode":"DG9 8QP","la":"Dumfries and Galloway","era":"trad","nn":2360,"risk":64,"cat":"red"},{"name":"The Five Arches","lat":55.06899,"lon":-3.57418,"postcode":"DG1 3JR","la":"Dumfries and Galloway","era":"other","nn":1320,"risk":57,"cat":"amber"},{"name":"The Fullarton (formerly Lochside Theatre)","lat":54.93727,"lon":-3.9301,"postcode":"DG7 1EU","la":"Dumfries and Galloway","era":"other","nn":273,"risk":32,"cat":"amber"},{"name":"The Galloway Arms","lat":54.95943,"lon":-4.48321,"postcode":"DG8 6DB","la":"Dumfries and Galloway","era":"trad","nn":371,"risk":48,"cat":"amber"},{"name":"The Galloway Inn","lat":54.8683,"lon":-4.44134,"postcode":"DG8 9EH","la":"Dumfries and Galloway","era":"trad","nn":290,"risk":45,"cat":"amber"},{"name":"The Glenpark","lat":55.08336,"lon":-3.64659,"postcode":"DG2 9PR","la":"Dumfries and Galloway","era":"other","nn":1499,"risk":58,"cat":"amber"},{"name":"The Granary","lat":55.07041,"lon":-3.60999,"postcode":"DG1 1HN","la":"Dumfries and Galloway","era":"other","nn":102,"risk":26,"cat":"green"},{"name":"The Grapes","lat":54.90403,"lon":-5.02606,"postcode":"DG9 7HY","la":"Dumfries and Galloway","era":"other","nn":58,"risk":26,"cat":"green"},{"name":"The Hightae Inn","lat":55.09484,"lon":-3.41816,"postcode":"DG11 1JS","la":"Dumfries and Galloway","era":"trad","nn":3978,"risk":76,"cat":"red"},{"name":"The Lairds Inn","lat":54.89513,"lon":-4.37198,"postcode":"DG8 7DQ","la":"Dumfries and Galloway","era":"trad","nn":943,"risk":52,"cat":"amber"},{"name":"The Lantern","lat":55.06585,"lon":-3.60931,"postcode":"DG1 2PP","la":"Dumfries and Galloway","era":"other","nn":97,"risk":26,"cat":"green"},{"name":"The Pheasant","lat":54.79233,"lon":-4.43393,"postcode":"DG8 8EL","la":"Dumfries and Galloway","era":"other","nn":8137,"risk":83,"cat":"red"},{"name":"The Pub","lat":54.90316,"lon":-5.02228,"postcode":"DG9 7SB","la":"Dumfries and Galloway","era":"other","nn":186,"risk":27,"cat":"green"},{"name":"The Ship Inn","lat":54.69115,"lon":-4.89332,"postcode":"DG9 9PU","la":"Dumfries and Galloway","era":"trad","nn":22095,"risk":83,"cat":"red"},{"name":"The Stag Bar","lat":55.06772,"lon":-3.61244,"postcode":"DG1 2PA","la":"Dumfries and Galloway","era":"trad","nn":17,"risk":25,"cat":"green"},{"name":"Theatre Royal","lat":55.06807,"lon":-3.60746,"postcode":"DG1 2JH","la":"Dumfries and Galloway","era":"trad","nn":98,"risk":26,"cat":"green"},{"name":"Thornhill Bowling Club","lat":55.24163,"lon":-3.76347,"postcode":"DG3 5LZ","la":"Dumfries and Galloway","era":"other","nn":112,"risk":44,"cat":"amber"},{"name":"Thornhill Golf Club","lat":55.24576,"lon":-3.74933,"postcode":"DG3 5DW","la":"Dumfries and Galloway","era":"other","nn":1007,"risk":55,"cat":"amber"},{"name":"Waverley Bar","lat":55.07126,"lon":-3.60434,"postcode":"DG1 1LX","la":"Dumfries and Galloway","era":"other","nn":152,"risk":26,"cat":"green"},{"name":"Wigtown and Bladnoch Golf Club (Catering)","lat":54.8652,"lon":-4.44573,"postcode":"DG8 9DY","la":"Dumfries and Galloway","era":"other","nn":161,"risk":44,"cat":"amber"},{"name":"Wigtownshire Rugby Football Club","lat":54.90655,"lon":-5.01101,"postcode":"DG9 8BN","la":"Dumfries and Galloway","era":"other","nn":316,"risk":27,"cat":"green"},{"name":"Worlds End","lat":55.06846,"lon":-3.61488,"postcode":"DG1 2RR","la":"Dumfries and Galloway","era":"other","nn":16,"risk":25,"cat":"green"},{"name":"Ye Olde Friars Vaults","lat":55.06858,"lon":-3.61477,"postcode":"DG1 2RL","la":"Dumfries and Galloway","era":"other","nn":16,"risk":25,"cat":"green"}]