[{"name":"AFC Sudbury","lat":52.04024,"lon":0.71541,"postcode":"CO10 1XR","la":"Babergh","era":"other","nn":806,"risk":56,"cat":"amber"},{"name":"Ark Bar Restaurant","lat":51.9587,"lon":1.05783,"postcode":"CO11 1RH","la":"Babergh","era":"mod","nn":49,"risk":53,"cat":"amber"},{"name":"Brantham Leisure Centre","lat":51.9586,"lon":1.05852,"postcode":"CO11 1RZ","la":"Babergh","era":"other","nn":49,"risk":53,"cat":"amber"},{"name":"Courtyard Tap","lat":52.038,"lon":0.72662,"postcode":"CO10 2EU","la":"Babergh","era":"mod","nn":246,"risk":34,"cat":"amber"},{"name":"Fox and Hounds","lat":52.03769,"lon":0.85574,"postcode":"CO10 5ED","la":"Babergh","era":"trad","nn":1031,"risk":62,"cat":"red"},{"name":"Grover And Allen (J D Wetherspoon)","lat":52.04032,"lon":0.73088,"postcode":"CO10 1RF","la":"Babergh","era":"other","nn":91,"risk":33,"cat":"amber"},{"name":"Gt Waldingfield Bowls & Social Club","lat":52.0599,"lon":0.77433,"postcode":"CO10 0SD","la":"Babergh","era":"mod","nn":2365,"risk":72,"cat":"red"},{"name":"Hare and Hounds","lat":52.00078,"lon":0.8459,"postcode":"CO6 4PW","la":"Babergh","era":"trad","nn":2159,"risk":70,"cat":"red"},{"name":"Infinity nightclub","lat":52.03961,"lon":0.73261,"postcode":"CO10 2TP","la":"Babergh","era":"other","nn":112,"risk":33,"cat":"amber"},{"name":"Kins Head Inn","lat":52.02702,"lon":0.74433,"postcode":"CO10 0JE","la":"Babergh","era":"trad","nn":723,"risk":58,"cat":"amber"},{"name":"North Street Tavern","lat":52.04098,"lon":0.7301,"postcode":"CO10 1RE","la":"Babergh","era":"other","nn":91,"risk":33,"cat":"amber"},{"name":"Shoulder of Mutton","lat":52.00852,"lon":0.81696,"postcode":"CO10 5LJ","la":"Babergh","era":"other","nn":2159,"risk":70,"cat":"red"},{"name":"Sudbury Institute Club","lat":52.03745,"lon":0.73011,"postcode":"CO10 2SP","la":"Babergh","era":"other","nn":137,"risk":34,"cat":"amber"},{"name":"The Bay Horse","lat":52.04283,"lon":0.72787,"postcode":"CO10 1JS","la":"Babergh","era":"trad","nn":256,"risk":34,"cat":"amber"},{"name":"The Brook Inn","lat":52.02066,"lon":0.74648,"postcode":"CO10 0JQ","la":"Babergh","era":"trad","nn":723,"risk":58,"cat":"amber"},{"name":"The Cock Inn","lat":52.09487,"lon":0.83212,"postcode":"CO10 9PB","la":"Babergh","era":"trad","nn":2541,"risk":73,"cat":"red"},{"name":"The Comfortable Cow","lat":52.0386,"lon":0.7325,"postcode":"CO10 2EB","la":"Babergh","era":"other","nn":112,"risk":33,"cat":"amber"},{"name":"The Fleece","lat":52.02878,"lon":0.85989,"postcode":"CO10 5DX","la":"Babergh","era":"trad","nn":1031,"risk":62,"cat":"red"},{"name":"The Grange Park Suffolk Limited","lat":51.97599,"lon":1.05362,"postcode":"CO7 6UX","la":"Babergh","era":"other","nn":187,"risk":54,"cat":"amber"},{"name":"The Horse and Groom","lat":52.04129,"lon":0.73412,"postcode":"CO10 2TU","la":"Babergh","era":"trad","nn":214,"risk":34,"cat":"amber"},{"name":"The Lady Elizabeth","lat":52.03868,"lon":0.73023,"postcode":"CO10 2EA","la":"Babergh","era":"other","nn":137,"risk":34,"cat":"amber"},{"name":"The Lion","lat":51.97175,"lon":1.01128,"postcode":"CO7 6TB","la":"Babergh","era":"trad","nn":2938,"risk":76,"cat":"red"},{"name":"The Royal Oak","lat":51.97531,"lon":1.05611,"postcode":"CO7 6XA","la":"Babergh","era":"trad","nn":187,"risk":54,"cat":"amber"},{"name":"The Six Bells","lat":52.11771,"lon":0.83829,"postcode":"CO10 9NG","la":"Babergh","era":"other","nn":2575,"risk":73,"cat":"red"},{"name":"The Swan","lat":52.07946,"lon":0.71866,"postcode":"CO10 9JQ","la":"Babergh","era":"trad","nn":4122,"risk":84,"cat":"red"},{"name":"The Swan","lat":52.07134,"lon":0.80349,"postcode":"CO10 0SQ","la":"Babergh","era":"trad","nn":2365,"risk":72,"cat":"red"},{"name":"Three Horseshoes","lat":51.97239,"lon":0.77604,"postcode":"CO8 5BS","la":"Babergh","era":"trad","nn":363,"risk":55,"cat":"amber"},{"name":"Amerios Bar","lat":51.92691,"lon":0.69974,"postcode":"CO6 2RN","la":"Braintree","era":"other","nn":0,"risk":26,"cat":"green"},{"name":"Angel","lat":51.83297,"lon":0.69697,"postcode":"CO5 9AN","la":"Braintree","era":"trad","nn":272,"risk":30,"cat":"green"},{"name":"Birdbrook Bowls Club","lat":52.04084,"lon":0.48603,"postcode":"CO9 4BN","la":"Braintree","era":"other","nn":2562,"risk":66,"cat":"red"},{"name":"Castle Hedingham Bowls Club","lat":51.98727,"lon":0.5978,"postcode":"CO9 3HB","la":"Braintree","era":"other","nn":236,"risk":33,"cat":"amber"},{"name":"Coggeshall Conservative Club","lat":51.8724,"lon":0.68797,"postcode":"CO6 1TX","la":"Braintree","era":"other","nn":186,"risk":45,"cat":"amber"},{"name":"Coggeshall Town Football Club","lat":51.87001,"lon":0.67186,"postcode":"CO6 1NT","la":"Braintree","era":"other","nn":977,"risk":53,"cat":"amber"},{"name":"Colne Valley Golf Club","lat":51.93318,"lon":0.68871,"postcode":"CO6 2ER","la":"Braintree","era":"other","nn":583,"risk":30,"cat":"green"},{"name":"Colnes Constitutional Club","lat":51.92691,"lon":0.69974,"postcode":"CO6 2RN","la":"Braintree","era":"other","nn":0,"risk":26,"cat":"green"},{"name":"Courtauld Halstead Bowls Club","lat":51.93604,"lon":0.63041,"postcode":"CO9 1AL","la":"Braintree","era":"other","nn":457,"risk":29,"cat":"green"},{"name":"Courtyard Tap","lat":51.94389,"lon":0.63293,"postcode":"CO9 1JA","la":"Braintree","era":"mod","nn":49,"risk":26,"cat":"green"},{"name":"Earls Colne Recreation Club","lat":51.92834,"lon":0.69198,"postcode":"CO6 2NG","la":"Braintree","era":"other","nn":441,"risk":29,"cat":"green"},{"name":"Earls Colne The Atlas Social Club","lat":51.92641,"lon":0.6976,"postcode":"CO6 2SB","la":"Braintree","era":"mod","nn":157,"risk":27,"cat":"green"},{"name":"Easterford Lodge Masonic Hall","lat":51.83444,"lon":0.70014,"postcode":"CO5 9DX","la":"Braintree","era":"trad","nn":158,"risk":27,"cat":"green"},{"name":"Gosfield Social Club","lat":51.93997,"lon":0.59019,"postcode":"CO9 1TD","la":"Braintree","era":"mod","nn":516,"risk":50,"cat":"amber"},{"name":"Halstead Conservative Club","lat":51.94503,"lon":0.6377,"postcode":"CO9 2AP","la":"Braintree","era":"other","nn":36,"risk":26,"cat":"green"},{"name":"Halstead Masonic Hall","lat":51.94396,"lon":0.64094,"postcode":"CO9 2JZ","la":"Braintree","era":"trad","nn":103,"risk":27,"cat":"green"},{"name":"Kelvedon Conservative Club","lat":51.83737,"lon":0.7013,"postcode":"CO5 9AA","la":"Braintree","era":"other","nn":212,"risk":27,"cat":"green"},{"name":"Kelvedon Labour Club","lat":51.83581,"lon":0.69952,"postcode":"CO5 9AE","la":"Braintree","era":"other","nn":158,"risk":27,"cat":"green"},{"name":"Lipstick And Locks","lat":51.94511,"lon":0.63821,"postcode":"CO9 2AP","la":"Braintree","era":"other","nn":36,"risk":26,"cat":"green"},{"name":"Sible Hedingham Sports And Social Club","lat":51.98254,"lon":0.5891,"postcode":"CO9 3QB","la":"Braintree","era":"mod","nn":794,"risk":49,"cat":"amber"},{"name":"The Bell Inn","lat":51.98963,"lon":0.59894,"postcode":"CO9 3EJ","la":"Braintree","era":"trad","nn":45,"risk":44,"cat":"amber"},{"name":"The Bell Inn","lat":51.85039,"lon":0.71707,"postcode":"CO5 9QQ","la":"Braintree","era":"trad","nn":1231,"risk":57,"cat":"amber"},{"name":"The Chapel Inn","lat":51.8713,"lon":0.68593,"postcode":"CO6 1TS","la":"Braintree","era":"trad","nn":186,"risk":32,"cat":"amber"},{"name":"The Co-operative Food","lat":51.94473,"lon":0.6418,"postcode":"CO9 2DY","la":"Braintree","era":"other","nn":103,"risk":27,"cat":"green"},{"name":"The Dorrington","lat":51.9438,"lon":0.63223,"postcode":"CO9 1JD","la":"Braintree","era":"other","nn":49,"risk":26,"cat":"green"},{"name":"The Drum Inn","lat":51.92788,"lon":0.69882,"postcode":"CO6 2PA","la":"Braintree","era":"trad","nn":0,"risk":26,"cat":"green"},{"name":"The Eight Bells PH","lat":51.97037,"lon":0.77188,"postcode":"CO8 5AE","la":"Braintree","era":"other","nn":363,"risk":49,"cat":"amber"},{"name":"The Five Bells PH","lat":51.94044,"lon":0.69183,"postcode":"CO6 2HY","la":"Braintree","era":"other","nn":835,"risk":52,"cat":"amber"},{"name":"The Green Man","lat":52.00861,"lon":0.53312,"postcode":"CO9 4DR","la":"Braintree","era":"other","nn":2306,"risk":65,"cat":"red"},{"name":"The Half Moon","lat":52.05006,"lon":0.61182,"postcode":"CO10 7DP","la":"Braintree","era":"other","nn":1037,"risk":56,"cat":"amber"},{"name":"The Henny Swan","lat":52.01278,"lon":0.73693,"postcode":"CO10 7LS","la":"Braintree","era":"trad","nn":1093,"risk":56,"cat":"amber"},{"name":"The Kings Head","lat":51.96898,"lon":0.6957,"postcode":"CO9 2NH","la":"Braintree","era":"trad","nn":3185,"risk":71,"cat":"red"},{"name":"The Kings Head PH","lat":51.93561,"lon":0.59279,"postcode":"CO9 1TP","la":"Braintree","era":"trad","nn":516,"risk":50,"cat":"amber"},{"name":"The Lamarsh Lion","lat":51.98446,"lon":0.75488,"postcode":"CO8 5EP","la":"Braintree","era":"trad","nn":1952,"risk":62,"cat":"red"},{"name":"The Lion PH","lat":51.92788,"lon":0.69882,"postcode":"CO6 2PA","la":"Braintree","era":"trad","nn":0,"risk":26,"cat":"green"},{"name":"The Locomotive","lat":51.94493,"lon":0.63214,"postcode":"CO9 1LL","la":"Braintree","era":"other","nn":126,"risk":27,"cat":"green"},{"name":"The Pheasant PH","lat":52.00699,"lon":0.64021,"postcode":"CO9 3AU","la":"Braintree","era":"other","nn":2217,"risk":64,"cat":"red"},{"name":"The Railway Tavern","lat":51.83977,"lon":0.70433,"postcode":"CO5 9JD","la":"Braintree","era":"trad","nn":276,"risk":28,"cat":"green"},{"name":"The Red Lion Inn","lat":52.04289,"lon":0.6215,"postcode":"CO10 7BQ","la":"Braintree","era":"trad","nn":1037,"risk":56,"cat":"amber"},{"name":"The Royal Oak","lat":51.94394,"lon":0.6354,"postcode":"CO9 2JG","la":"Braintree","era":"trad","nn":169,"risk":27,"cat":"green"},{"name":"The Sun Inn","lat":51.84086,"lon":0.70794,"postcode":"CO5 9NH","la":"Braintree","era":"trad","nn":276,"risk":30,"cat":"green"},{"name":"The Three Bottles","lat":52.01632,"lon":0.56545,"postcode":"CO9 4HY","la":"Braintree","era":"other","nn":594,"risk":50,"cat":"amber"},{"name":"The Victory Inn","lat":51.99556,"lon":0.66673,"postcode":"CO9 2PT","la":"Braintree","era":"trad","nn":2217,"risk":64,"cat":"red"},{"name":"The Wheatsheaf","lat":51.98935,"lon":0.59846,"postcode":"CO9 3EX","la":"Braintree","era":"trad","nn":45,"risk":31,"cat":"amber"},{"name":"The White Hart","lat":51.94471,"lon":0.63807,"postcode":"CO9 2AA","la":"Braintree","era":"trad","nn":44,"risk":26,"cat":"green"},{"name":"The White Hart","lat":52.01102,"lon":0.56659,"postcode":"CO9 4HJ","la":"Braintree","era":"trad","nn":594,"risk":50,"cat":"amber"},{"name":"The Woolpack Inn","lat":51.87391,"lon":0.6903,"postcode":"CO6 1UB","la":"Braintree","era":"trad","nn":232,"risk":45,"cat":"amber"},{"name":"Three Pigeons","lat":51.93999,"lon":0.62854,"postcode":"CO9 1AA","la":"Braintree","era":"other","nn":457,"risk":29,"cat":"green"},{"name":"Twinstead Cricket Club","lat":51.99717,"lon":0.70762,"postcode":"CO10 7NA","la":"Braintree","era":"other","nn":2653,"risk":67,"cat":"red"},{"name":"Abbey Arms","lat":51.88641,"lon":0.90097,"postcode":"CO2 7HA","la":"Colchester","era":"trad","nn":168,"risk":28,"cat":"green"},{"name":"After Office Hours","lat":51.88992,"lon":0.90004,"postcode":"CO1 1SP","la":"Colchester","era":"other","nn":37,"risk":27,"cat":"green"},{"name":"ATIK","lat":51.89025,"lon":0.89992,"postcode":"CO1 1SP","la":"Colchester","era":"other","nn":37,"risk":27,"cat":"green"},{"name":"Belle Vue Social Club","lat":51.89702,"lon":0.89173,"postcode":"CO1 1UU","la":"Colchester","era":"mod","nn":165,"risk":28,"cat":"green"},{"name":"Bull Hotel","lat":51.88761,"lon":0.8957,"postcode":"CO3 3ES","la":"Colchester","era":"trad","nn":61,"risk":28,"cat":"green"},{"name":"Cherry Tree Inn","lat":51.85752,"lon":0.91074,"postcode":"CO2 0AD","la":"Colchester","era":"trad","nn":1300,"risk":59,"cat":"amber"},{"name":"CODA","lat":51.88952,"lon":0.9029,"postcode":"CO1 1DN","la":"Colchester","era":"other","nn":54,"risk":28,"cat":"green"},{"name":"Dabchicks Sailing Club","lat":51.78099,"lon":0.89984,"postcode":"CO5 8NX","la":"Colchester","era":"other","nn":231,"risk":49,"cat":"amber"},{"name":"Fashion Cafe Bar","lat":51.88782,"lon":0.90327,"postcode":"CO2 7DX","la":"Colchester","era":"other","nn":18,"risk":27,"cat":"green"},{"name":"Goat & Boot","lat":51.89012,"lon":0.91129,"postcode":"CO1 2QW","la":"Colchester","era":"other","nn":346,"risk":30,"cat":"green"},{"name":"Greenstead Association Social Club","lat":51.88985,"lon":0.93565,"postcode":"CO4 3QD","la":"Colchester","era":"mod","nn":1138,"risk":58,"cat":"amber"},{"name":"Highways Social Club","lat":51.88562,"lon":0.89887,"postcode":"CO2 7BN","la":"Colchester","era":"mod","nn":168,"risk":28,"cat":"green"},{"name":"Live & Let Live","lat":51.88703,"lon":0.8407,"postcode":"CO3 0PS","la":"Colchester","era":"other","nn":1786,"risk":62,"cat":"red"},{"name":"New Times","lat":51.80742,"lon":0.74158,"postcode":"CO5 0BN","la":"Colchester","era":"other","nn":528,"risk":48,"cat":"amber"},{"name":"North Countrymans Club","lat":51.88931,"lon":0.89541,"postcode":"CO1 1NF","la":"Colchester","era":"other","nn":46,"risk":27,"cat":"green"},{"name":"Play Football Ltd","lat":51.89585,"lon":0.89024,"postcode":"CO3 3LE","la":"Colchester","era":"other","nn":165,"risk":28,"cat":"green"},{"name":"Queen Street Brewhouse","lat":51.88949,"lon":0.90442,"postcode":"CO1 2PG","la":"Colchester","era":"trad","nn":79,"risk":28,"cat":"green"},{"name":"Queens Head Public House","lat":51.91032,"lon":0.84777,"postcode":"CO6 3HE","la":"Colchester","era":"trad","nn":2634,"risk":68,"cat":"red"},{"name":"Roberts Club","lat":51.8878,"lon":0.90263,"postcode":"CO2 7DG","la":"Colchester","era":"other","nn":43,"risk":27,"cat":"green"},{"name":"Rose & Crown","lat":51.8544,"lon":0.95913,"postcode":"CO7 9BX","la":"Colchester","era":"trad","nn":72,"risk":45,"cat":"amber"},{"name":"Rubix","lat":51.88779,"lon":0.89486,"postcode":"CO3 3EN","la":"Colchester","era":"other","nn":61,"risk":28,"cat":"green"},{"name":"Slug & Lettuce","lat":51.88994,"lon":0.90169,"postcode":"CO1 1TB","la":"Colchester","era":"other","nn":95,"risk":28,"cat":"green"},{"name":"The Albert","lat":51.8973,"lon":0.89591,"postcode":"CO1 1UT","la":"Colchester","era":"other","nn":146,"risk":28,"cat":"green"},{"name":"The Ale House","lat":51.88545,"lon":0.89447,"postcode":"CO3 3DA","la":"Colchester","era":"other","nn":254,"risk":29,"cat":"green"},{"name":"The Alma","lat":51.86968,"lon":0.79839,"postcode":"CO6 1BZ","la":"Colchester","era":"other","nn":1569,"risk":61,"cat":"red"},{"name":"The Ancient Briton","lat":51.87063,"lon":0.87429,"postcode":"CO2 9EG","la":"Colchester","era":"other","nn":1302,"risk":59,"cat":"amber"},{"name":"The Artilleryman","lat":51.88333,"lon":0.91652,"postcode":"CO1 2JQ","la":"Colchester","era":"other","nn":346,"risk":30,"cat":"green"},{"name":"The Black Buoy Inn","lat":51.85459,"lon":0.96013,"postcode":"CO7 9BS","la":"Colchester","era":"trad","nn":72,"risk":45,"cat":"amber"},{"name":"The British Grenadier","lat":51.88159,"lon":0.9099,"postcode":"CO1 2AP","la":"Colchester","era":"other","nn":190,"risk":28,"cat":"green"},{"name":"The Camulodunum","lat":51.88978,"lon":0.8973,"postcode":"CO1 1PG","la":"Colchester","era":"other","nn":85,"risk":28,"cat":"green"},{"name":"The Castle Inn Public House","lat":51.88986,"lon":0.90344,"postcode":"CO1 1TH","la":"Colchester","era":"trad","nn":54,"risk":28,"cat":"green"},{"name":"The Centurion","lat":51.88988,"lon":0.89607,"postcode":"CO1 1PX","la":"Colchester","era":"other","nn":0,"risk":27,"cat":"green"},{"name":"The Centurion","lat":51.88988,"lon":0.89607,"postcode":"CO1 1PX","la":"Colchester","era":"other","nn":0,"risk":27,"cat":"green"},{"name":"The Foresters Arms","lat":51.89104,"lon":0.90648,"postcode":"CO1 1UW","la":"Colchester","era":"trad","nn":223,"risk":29,"cat":"green"},{"name":"The Fox","lat":51.78354,"lon":0.93477,"postcode":"CO5 8SA","la":"Colchester","era":"trad","nn":905,"risk":54,"cat":"amber"},{"name":"The Grapes","lat":51.87894,"lon":0.90668,"postcode":"CO2 7RB","la":"Colchester","era":"other","nn":369,"risk":30,"cat":"green"},{"name":"The Greyhound","lat":51.85649,"lon":0.95945,"postcode":"CO7 9AZ","la":"Colchester","era":"trad","nn":217,"risk":46,"cat":"amber"},{"name":"The Hare & Hounds","lat":51.83395,"lon":0.82209,"postcode":"CO2 0PN","la":"Colchester","era":"trad","nn":2542,"risk":67,"cat":"red"},{"name":"The King's Arms","lat":51.87561,"lon":0.7281,"postcode":"CO6 1RU","la":"Colchester","era":"trad","nn":2602,"risk":68,"cat":"red"},{"name":"The Layer Fox","lat":51.84399,"lon":0.85533,"postcode":"CO2 0JH","la":"Colchester","era":"trad","nn":2542,"risk":67,"cat":"red"},{"name":"The Magnet","lat":51.89842,"lon":0.89478,"postcode":"CO1 1UZ","la":"Colchester","era":"other","nn":146,"risk":28,"cat":"green"},{"name":"The Playhouse","lat":51.88758,"lon":0.89693,"postcode":"CO2 7AA","la":"Colchester","era":"other","nn":85,"risk":28,"cat":"green"},{"name":"The Plough","lat":51.81021,"lon":0.88318,"postcode":"CO5 7QR","la":"Colchester","era":"trad","nn":3445,"risk":74,"cat":"red"},{"name":"The Prettygate","lat":51.88071,"lon":0.86462,"postcode":"CO3 4NW","la":"Colchester","era":"other","nn":1302,"risk":59,"cat":"amber"},{"name":"The Purple Dog","lat":51.8881,"lon":0.89942,"postcode":"CO1 1LS","la":"Colchester","era":"other","nn":181,"risk":28,"cat":"green"},{"name":"The Royal British Legion","lat":51.7786,"lon":0.91701,"postcode":"CO5 8QX","la":"Colchester","era":"trad","nn":1204,"risk":58,"cat":"amber"},{"name":"The Royal Mortar","lat":51.88134,"lon":0.91264,"postcode":"CO1 2AS","la":"Colchester","era":"trad","nn":190,"risk":28,"cat":"green"},{"name":"The Ship Inn","lat":51.80457,"lon":0.73544,"postcode":"CO5 0PQ","la":"Colchester","era":"trad","nn":528,"risk":51,"cat":"amber"},{"name":"The Silk Road","lat":51.88766,"lon":0.90321,"postcode":"CO2 7DX","la":"Colchester","era":"other","nn":18,"risk":27,"cat":"green"},{"name":"The Silver Oyster","lat":51.86916,"lon":0.90897,"postcode":"CO2 8LY","la":"Colchester","era":"other","nn":1099,"risk":57,"cat":"amber"},{"name":"The Spinnaker","lat":51.88146,"lon":0.92615,"postcode":"CO2 8JB","la":"Colchester","era":"trad","nn":693,"risk":50,"cat":"amber"},{"name":"The Swan","lat":51.882,"lon":0.80954,"postcode":"CO3 8LU","la":"Colchester","era":"trad","nn":339,"risk":50,"cat":"amber"},{"name":"The Three Horseshoes","lat":51.91832,"lon":0.80189,"postcode":"CO6 3NJ","la":"Colchester","era":"trad","nn":3271,"risk":73,"cat":"red"},{"name":"Tiptree Press Club","lat":51.81259,"lon":0.74941,"postcode":"CO5 0JP","la":"Colchester","era":"other","nn":787,"risk":53,"cat":"amber"},{"name":"Twisters","lat":51.89147,"lon":0.89605,"postcode":"CO1 1PY","la":"Colchester","era":"other","nn":79,"risk":28,"cat":"green"},{"name":"Two Brews of Essex","lat":51.88895,"lon":0.89575,"postcode":"CO1 1NF","la":"Colchester","era":"other","nn":46,"risk":27,"cat":"green"},{"name":"Two Tides Clubhouse","lat":51.77542,"lon":0.9339,"postcode":"CO5 8DA","la":"Colchester","era":"other","nn":905,"risk":54,"cat":"amber"},{"name":"Victoria Inn","lat":51.89478,"lon":0.89568,"postcode":"CO1 1RB","la":"Colchester","era":"trad","nn":282,"risk":29,"cat":"green"},{"name":"Walkabout","lat":51.88853,"lon":0.89584,"postcode":"CO1 1NH","la":"Colchester","era":"other","nn":47,"risk":27,"cat":"green"},{"name":"West Mersea Yacht Club","lat":51.77892,"lon":0.89951,"postcode":"CO5 8PB","la":"Colchester","era":"other","nn":231,"risk":49,"cat":"amber"},{"name":"White Hart Toby Carvery","lat":51.8836,"lon":0.81374,"postcode":"CO3 8LT","la":"Colchester","era":"trad","nn":339,"risk":50,"cat":"amber"},{"name":"Ye Olde Marquis","lat":51.8921,"lon":0.8966,"postcode":"CO1 1EG","la":"Colchester","era":"other","nn":79,"risk":28,"cat":"green"},{"name":"Alma","lat":51.94729,"lon":1.2863,"postcode":"CO12 3EE","la":"Tendring","era":"other","nn":57,"risk":27,"cat":"green"},{"name":"Amy's","lat":51.79548,"lon":1.14841,"postcode":"CO15 3AU","la":"Tendring","era":"other","nn":0,"risk":27,"cat":"green"},{"name":"Anchor Inn","lat":51.94231,"lon":1.08661,"postcode":"CO11 1ND","la":"Tendring","era":"trad","nn":1488,"risk":59,"cat":"amber"},{"name":"Bath House","lat":51.85204,"lon":1.27619,"postcode":"CO14 8PZ","la":"Tendring","era":"other","nn":333,"risk":29,"cat":"green"},{"name":"Bell Inn","lat":51.85713,"lon":1.16303,"postcode":"CO16 0DY","la":"Tendring","era":"trad","nn":183,"risk":33,"cat":"amber"},{"name":"Black Boy","lat":51.85891,"lon":1.1171,"postcode":"CO16 9JJ","la":"Tendring","era":"other","nn":1415,"risk":59,"cat":"amber"},{"name":"Blacksmiths Arms","lat":51.82644,"lon":1.14267,"postcode":"CO16 9LQ","la":"Tendring","era":"trad","nn":2119,"risk":64,"cat":"red"},{"name":"Boardwalk Bar and Grill","lat":51.78636,"lon":1.15465,"postcode":"CO15 1QX","la":"Tendring","era":"mod","nn":147,"risk":28,"cat":"green"},{"name":"Bowling Green","lat":51.86337,"lon":1.09171,"postcode":"CO16 9AA","la":"Tendring","era":"other","nn":1813,"risk":62,"cat":"red"},{"name":"Brace Of Pistols","lat":51.80364,"lon":1.12885,"postcode":"CO16 8DU","la":"Tendring","era":"other","nn":990,"risk":53,"cat":"amber"},{"name":"Bricklayers Arms","lat":51.89019,"lon":1.07263,"postcode":"CO7 8SL","la":"Tendring","era":"trad","nn":2600,"risk":67,"cat":"red"},{"name":"Brightlingsea Cricket Club","lat":51.81549,"lon":1.02881,"postcode":"CO7 0NN","la":"Tendring","era":"other","nn":265,"risk":28,"cat":"green"},{"name":"Brightlingsea Football Club","lat":51.81449,"lon":1.02531,"postcode":"CO7 0PL","la":"Tendring","era":"other","nn":265,"risk":28,"cat":"green"},{"name":"Brightlingsea Sailing Club","lat":51.80655,"lon":1.02132,"postcode":"CO7 0DY","la":"Tendring","era":"other","nn":166,"risk":28,"cat":"green"},{"name":"Buzz Group Limited (Previously Gala Bingo)","lat":51.79202,"lon":1.14847,"postcode":"CO15 1NJ","la":"Tendring","era":"other","nn":361,"risk":29,"cat":"green"},{"name":"Castle Inn","lat":51.92838,"lon":1.21596,"postcode":"CO12 5HH","la":"Tendring","era":"trad","nn":78,"risk":47,"cat":"amber"},{"name":"Clacton Conservative Club","lat":51.79548,"lon":1.14841,"postcode":"CO15 3AU","la":"Tendring","era":"other","nn":0,"risk":27,"cat":"green"},{"name":"Clacton On Sea Bowling Club","lat":51.78233,"lon":1.14401,"postcode":"CO15 1XB","la":"Tendring","era":"other","nn":188,"risk":28,"cat":"green"},{"name":"Colne Yacht Club","lat":51.80559,"lon":1.0244,"postcode":"CO7 0AX","la":"Tendring","era":"other","nn":0,"risk":27,"cat":"green"},{"name":"Colvin Memorial Temple","lat":51.79095,"lon":1.1581,"postcode":"CO15 6EG","la":"Tendring","era":"other","nn":389,"risk":29,"cat":"green"},{"name":"Comrades Sports and Social Club","lat":51.79776,"lon":1.14989,"postcode":"CO15 3LT","la":"Tendring","era":"mod","nn":221,"risk":28,"cat":"green"},{"name":"Crown Inn","lat":51.92431,"lon":0.93944,"postcode":"CO7 7QR","la":"Tendring","era":"trad","nn":3841,"risk":76,"cat":"red"},{"name":"DBAK LTD","lat":51.9359,"lon":1.27454,"postcode":"CO12 3PL","la":"Tendring","era":"other","nn":556,"risk":48,"cat":"amber"},{"name":"Duck & Pheasant / Coot \\\\& Moorhen","lat":51.8175,"lon":1.01875,"postcode":"CO7 0QR","la":"Tendring","era":"other","nn":302,"risk":29,"cat":"green"},{"name":"Ferry Boat Inn","lat":51.80114,"lon":1.01879,"postcode":"CO16 8NG","la":"Tendring","era":"trad","nn":435,"risk":30,"cat":"green"},{"name":"Frinton & Walton Masonic Association","lat":51.84183,"lon":1.2147,"postcode":"CO13 0LU","la":"Tendring","era":"trad","nn":1291,"risk":58,"cat":"amber"},{"name":"Globe","lat":51.94767,"lon":1.2872,"postcode":"CO12 3HA","la":"Tendring","era":"other","nn":74,"risk":27,"cat":"green"},{"name":"Harwich And District Indoor Bowls Club","lat":51.93133,"lon":1.23718,"postcode":"CO12 4TL","la":"Tendring","era":"other","nn":1016,"risk":56,"cat":"amber"},{"name":"Harwich Town Sailing Club","lat":51.94678,"lon":1.28907,"postcode":"CO12 3EJ","la":"Tendring","era":"other","nn":127,"risk":27,"cat":"green"},{"name":"Holiday Inn Amusements","lat":51.77631,"lon":1.08522,"postcode":"CO16 8SH","la":"Tendring","era":"trad","nn":101,"risk":30,"cat":"green"},{"name":"Jaywick Community Resource Centre","lat":51.77365,"lon":1.10366,"postcode":"CO15 2JP","la":"Tendring","era":"other","nn":1088,"risk":57,"cat":"amber"},{"name":"King's Arms","lat":51.93782,"lon":1.28203,"postcode":"CO12 3AP","la":"Tendring","era":"trad","nn":339,"risk":31,"cat":"amber"},{"name":"Lawford Football Club","lat":51.93774,"lon":1.04073,"postcode":"CO11 2HZ","la":"Tendring","era":"other","nn":1902,"risk":62,"cat":"red"},{"name":"Lock and Barrel","lat":51.83185,"lon":1.24565,"postcode":"CO13 9PR","la":"Tendring","era":"other","nn":1303,"risk":58,"cat":"amber"},{"name":"Moon And Starfish","lat":51.78804,"lon":1.15495,"postcode":"CO15 1PT","la":"Tendring","era":"other","nn":131,"risk":27,"cat":"green"},{"name":"Orchards Holiday Village","lat":51.79958,"lon":1.02459,"postcode":"CO16 8LJ","la":"Tendring","era":"other","nn":0,"risk":27,"cat":"green"},{"name":"Parkeston Railway Club","lat":51.94358,"lon":1.25467,"postcode":"CO12 4PQ","la":"Tendring","era":"trad","nn":602,"risk":51,"cat":"amber"},{"name":"Plough Clacton Ltd","lat":51.80499,"lon":1.15464,"postcode":"CO15 4DA","la":"Tendring","era":"trad","nn":126,"risk":32,"cat":"amber"},{"name":"Pointer Inn","lat":51.85263,"lon":0.99485,"postcode":"CO7 8AQ","la":"Tendring","era":"trad","nn":2394,"risk":66,"cat":"red"},{"name":"Queens Arms","lat":51.79606,"lon":1.14823,"postcode":"CO15 3AX","la":"Tendring","era":"trad","nn":66,"risk":27,"cat":"green"},{"name":"Queen's Head Hotel","lat":51.84961,"lon":1.27335,"postcode":"CO14 8AD","la":"Tendring","era":"trad","nn":56,"risk":29,"cat":"green"},{"name":"Railway Club","lat":51.794,"lon":1.15264,"postcode":"CO15 6QA","la":"Tendring","era":"trad","nn":221,"risk":28,"cat":"green"},{"name":"Railway Tavern Brightlingsea","lat":51.80987,"lon":1.02096,"postcode":"CO7 0DT","la":"Tendring","era":"trad","nn":290,"risk":29,"cat":"green"},{"name":"Ramsey Methodist Church","lat":51.92814,"lon":1.21489,"postcode":"CO12 5HL","la":"Tendring","era":"trad","nn":78,"risk":47,"cat":"amber"},{"name":"Red Lion","lat":51.79952,"lon":1.07865,"postcode":"CO16 8PA","la":"Tendring","era":"trad","nn":122,"risk":47,"cat":"amber"},{"name":"Roaring Donkey","lat":51.80296,"lon":1.18035,"postcode":"CO15 6PD","la":"Tendring","era":"other","nn":192,"risk":45,"cat":"amber"},{"name":"Robin Hood","lat":51.80779,"lon":1.14902,"postcode":"CO15 4ED","la":"Tendring","era":"other","nn":497,"risk":48,"cat":"amber"},{"name":"Rose And Crown","lat":51.85929,"lon":1.15989,"postcode":"CO16 0EF","la":"Tendring","era":"trad","nn":322,"risk":34,"cat":"amber"},{"name":"Royal Albion","lat":51.84913,"lon":1.2731,"postcode":"CO14 8AS","la":"Tendring","era":"trad","nn":56,"risk":29,"cat":"green"},{"name":"Royal British Legion","lat":51.80977,"lon":1.02636,"postcode":"CO7 0BG","la":"Tendring","era":"trad","nn":227,"risk":28,"cat":"green"},{"name":"Sailor Boy Freehouse","lat":51.77278,"lon":1.08791,"postcode":"CO16 8TB","la":"Tendring","era":"other","nn":433,"risk":32,"cat":"amber"},{"name":"Samuel Pepys Wine Bar","lat":51.94685,"lon":1.28671,"postcode":"CO12 3EA","la":"Tendring","era":"other","nn":57,"risk":27,"cat":"green"},{"name":"Seawick Holiday Park","lat":51.77688,"lon":1.08636,"postcode":"CO16 8SG","la":"Tendring","era":"other","nn":101,"risk":30,"cat":"green"},{"name":"Shakers Bar","lat":51.94559,"lon":1.28715,"postcode":"CO12 3DB","la":"Tendring","era":"other","nn":63,"risk":27,"cat":"green"},{"name":"Show Bar and Papa Johns","lat":51.79958,"lon":1.02459,"postcode":"CO16 8LJ","la":"Tendring","era":"mod","nn":0,"risk":27,"cat":"green"},{"name":"St Osyth Social Club","lat":51.79887,"lon":1.07722,"postcode":"CO16 8NU","la":"Tendring","era":"mod","nn":122,"risk":47,"cat":"amber"},{"name":"Stour Sailing Club","lat":51.94569,"lon":1.06561,"postcode":"CO11 1AU","la":"Tendring","era":"other","nn":21,"risk":47,"cat":"amber"},{"name":"Tendring Division Sport Club Police Bar","lat":51.78881,"lon":1.15035,"postcode":"CO15 1ET","la":"Tendring","era":"other","nn":240,"risk":28,"cat":"green"},{"name":"The Bicycle @ Tendring Ltd","lat":51.87075,"lon":1.12462,"postcode":"CO16 9AP","la":"Tendring","era":"other","nn":1415,"risk":59,"cat":"amber"},{"name":"The Cherry Tree","lat":51.81653,"lon":1.02286,"postcode":"CO7 0JF","la":"Tendring","era":"other","nn":283,"risk":29,"cat":"green"},{"name":"The Creek (Formally The Flag Inn)","lat":51.82009,"lon":1.07001,"postcode":"CO7 8RE","la":"Tendring","era":"trad","nn":2363,"risk":66,"cat":"red"},{"name":"The Crown","lat":51.94552,"lon":1.06545,"postcode":"CO11 1AH","la":"Tendring","era":"trad","nn":21,"risk":47,"cat":"amber"},{"name":"The Crown","lat":51.85627,"lon":1.16529,"postcode":"CO16 0DY","la":"Tendring","era":"trad","nn":103,"risk":32,"cat":"amber"},{"name":"The Essex Skipper","lat":51.84332,"lon":1.2495,"postcode":"CO13 0AZ","la":"Tendring","era":"other","nn":1303,"risk":58,"cat":"amber"},{"name":"The Fusilier 2023 Limited","lat":51.84219,"lon":1.07454,"postcode":"CO7 8NH","la":"Tendring","era":"other","nn":1296,"risk":58,"cat":"amber"},{"name":"The Great Bromley Cross Inn","lat":51.90802,"lon":1.00467,"postcode":"CO7 7TL","la":"Tendring","era":"trad","nn":3374,"risk":73,"cat":"red"},{"name":"The Haywain","lat":51.91045,"lon":1.05369,"postcode":"CO11 2PL","la":"Tendring","era":"other","nn":2600,"risk":67,"cat":"red"},{"name":"The Kings Arms","lat":51.86902,"lon":1.03503,"postcode":"CO7 7DJ","la":"Tendring","era":"trad","nn":2769,"risk":68,"cat":"red"},{"name":"The Kings Head","lat":51.8114,"lon":1.02437,"postcode":"CO7 0HT","la":"Tendring","era":"trad","nn":227,"risk":28,"cat":"green"},{"name":"The Mayflower Brewers Fayre","lat":51.93849,"lon":1.25763,"postcode":"CO12 4NX","la":"Tendring","era":"other","nn":602,"risk":48,"cat":"amber"},{"name":"The Oakwood Inn","lat":51.80615,"lon":1.19175,"postcode":"CO15 5UT","la":"Tendring","era":"trad","nn":671,"risk":49,"cat":"amber"},{"name":"The Plough Inn","lat":51.85211,"lon":1.06464,"postcode":"CO7 8LA","la":"Tendring","era":"trad","nn":1296,"risk":58,"cat":"amber"},{"name":"The Robert Burre","lat":51.81263,"lon":1.17243,"postcode":"CO15 4LN","la":"Tendring","era":"other","nn":1205,"risk":57,"cat":"amber"},{"name":"The Rosebud","lat":51.80989,"lon":1.03257,"postcode":"CO7 0EH","la":"Tendring","era":"other","nn":427,"risk":30,"cat":"green"},{"name":"The Ship","lat":51.85173,"lon":1.22805,"postcode":"CO13 0DT","la":"Tendring","era":"trad","nn":1432,"risk":59,"cat":"amber"},{"name":"The Ship Inn","lat":51.83055,"lon":1.21022,"postcode":"CO13 0JP","la":"Tendring","era":"trad","nn":1291,"risk":58,"cat":"amber"},{"name":"The Ship Pub","lat":51.80405,"lon":1.15568,"postcode":"CO15 4AR","la":"Tendring","era":"trad","nn":126,"risk":30,"cat":"green"},{"name":"The Stingray Freehouse","lat":51.94608,"lon":1.2876,"postcode":"CO12 3DS","la":"Tendring","era":"other","nn":63,"risk":27,"cat":"green"},{"name":"The Tavern","lat":51.80343,"lon":1.18304,"postcode":"CO15 5UH","la":"Tendring","era":"other","nn":192,"risk":45,"cat":"amber"},{"name":"The Three Jays","lat":51.78256,"lon":1.11951,"postcode":"CO15 2PJ","la":"Tendring","era":"other","nn":1473,"risk":59,"cat":"amber"},{"name":"The Victory","lat":51.84894,"lon":1.27213,"postcode":"CO14 8AR","la":"Tendring","era":"other","nn":70,"risk":30,"cat":"green"},{"name":"The Village Inn","lat":51.77347,"lon":1.08062,"postcode":"CO16 8SX","la":"Tendring","era":"trad","nn":11,"risk":29,"cat":"green"},{"name":"The Wick Lodge Bar and Resturant","lat":51.7969,"lon":1.11945,"postcode":"CO16 8BG","la":"Tendring","era":"mod","nn":990,"risk":53,"cat":"amber"},{"name":"Thorpe Sports and Social Club","lat":51.85545,"lon":1.16459,"postcode":"CO16 0HD","la":"Tendring","era":"mod","nn":103,"risk":32,"cat":"amber"},{"name":"Toby Carvery","lat":51.78126,"lon":1.14189,"postcode":"CO15 1NW","la":"Tendring","era":"other","nn":188,"risk":45,"cat":"amber"},{"name":"Tom Peppers and Wahoo","lat":51.78741,"lon":1.15334,"postcode":"CO15 1RH","la":"Tendring","era":"other","nn":131,"risk":27,"cat":"green"},{"name":"Trafalgar","lat":51.93235,"lon":1.2519,"postcode":"CO12 4LW","la":"Tendring","era":"other","nn":787,"risk":52,"cat":"amber"},{"name":"UCSC Ltd (University Community Sailing Club)","lat":51.80559,"lon":1.0244,"postcode":"CO7 0AX","la":"Tendring","era":"other","nn":0,"risk":27,"cat":"green"},{"name":"United Services Club","lat":51.93902,"lon":1.28657,"postcode":"CO12 3NS","la":"Tendring","era":"other","nn":339,"risk":29,"cat":"green"},{"name":"Village Inn","lat":51.77346,"lon":1.08046,"postcode":"CO16 8SX","la":"Tendring","era":"trad","nn":11,"risk":29,"cat":"green"},{"name":"Waggon","lat":51.91026,"lon":1.14316,"postcode":"CO11 2RU","la":"Tendring","era":"other","nn":4573,"risk":81,"cat":"red"},{"name":"Walton Tavern Pub","lat":51.84774,"lon":1.27198,"postcode":"CO14 8AP","la":"Tendring","era":"other","nn":134,"risk":30,"cat":"green"},{"name":"Westcliff Theatre","lat":51.78685,"lon":1.14888,"postcode":"CO15 1LE","la":"Tendring","era":"other","nn":240,"risk":28,"cat":"green"},{"name":"White Hart","lat":51.84332,"lon":1.12567,"postcode":"CO16 9ED","la":"Tendring","era":"trad","nn":1831,"risk":62,"cat":"red"},{"name":"Willows Caravan Park Club","lat":51.85987,"lon":1.27921,"postcode":"CO14 8HU","la":"Tendring","era":"trad","nn":895,"risk":53,"cat":"amber"},{"name":"Yachtsmans Arms","lat":51.80633,"lon":1.02371,"postcode":"CO7 0AZ","la":"Tendring","era":"trad","nn":96,"risk":27,"cat":"green"},{"name":"Ye Olde Cherry Tree","lat":51.91546,"lon":1.22257,"postcode":"CO12 5JH","la":"Tendring","era":"other","nn":1506,"risk":60,"cat":"amber"},{"name":"Young's Club","lat":51.79597,"lon":1.1522,"postcode":"CO15 3PT","la":"Tendring","era":"other","nn":221,"risk":28,"cat":"green"},{"name":"Cavendish Sports Club","lat":52.08765,"lon":0.64321,"postcode":"CO10 8AD","la":"West Suffolk","era":"other","nn":645,"risk":49,"cat":"amber"},{"name":"Five Bells","lat":52.08766,"lon":0.63248,"postcode":"CO10 8BA","la":"West Suffolk","era":"other","nn":93,"risk":45,"cat":"amber"},{"name":"Rose and Crown","lat":52.10976,"lon":0.53622,"postcode":"CO10 8ED","la":"West Suffolk","era":"trad","nn":4073,"risk":78,"cat":"red"},{"name":"The Bell Hotel","lat":52.07832,"lon":0.581,"postcode":"CO10 8NN","la":"West Suffolk","era":"other","nn":57,"risk":32,"cat":"amber"},{"name":"The Cock Inn","lat":52.08079,"lon":0.58105,"postcode":"CO10 8PX","la":"West Suffolk","era":"trad","nn":0,"risk":32,"cat":"amber"},{"name":"The George","lat":52.0874,"lon":0.63378,"postcode":"CO10 8BA","la":"West Suffolk","era":"trad","nn":93,"risk":45,"cat":"amber"},{"name":"The Globe","lat":52.08079,"lon":0.58105,"postcode":"CO10 8PX","la":"West Suffolk","era":"other","nn":0,"risk":32,"cat":"amber"},{"name":"The Lion","lat":52.06258,"lon":0.53839,"postcode":"CO10 8HP","la":"West Suffolk","era":"trad","nn":3362,"risk":73,"cat":"red"},{"name":"The Swan Inn","lat":52.07849,"lon":0.58022,"postcode":"CO10 8NY","la":"West Suffolk","era":"trad","nn":57,"risk":32,"cat":"amber"}]