[{"name":"Rackstraw Farm","lat":51.346,"lon":-0.78688,"postcode":"GU47 0RT","la":"Bracknell Forest","era":"other","nn":160,"risk":49,"cat":"amber"},{"name":"Rose and Crown","lat":51.34704,"lon":-0.80994,"postcode":"GU47 8HA","la":"Bracknell Forest","era":"trad","nn":484,"risk":51,"cat":"amber"},{"name":"Sandhurst Social Club","lat":51.34795,"lon":-0.79326,"postcode":"GU47 9AW","la":"Bracknell Forest","era":"mod","nn":339,"risk":38,"cat":"amber"},{"name":"The Village Inn","lat":51.34658,"lon":-0.80302,"postcode":"GU47 9DX","la":"Bracknell Forest","era":"trad","nn":484,"risk":39,"cat":"amber"},{"name":"The Wellington Arms","lat":51.34633,"lon":-0.78912,"postcode":"GU47 9BN","la":"Bracknell Forest","era":"trad","nn":160,"risk":36,"cat":"amber"},{"name":"Badgers Tavern","lat":50.96372,"lon":-0.61941,"postcode":"GU28 0JF","la":"Chichester","era":"other","nn":2333,"risk":67,"cat":"red"},{"name":"Black Horse Inn","lat":50.98005,"lon":-0.59477,"postcode":"GU28 0HL","la":"Chichester","era":"trad","nn":645,"risk":50,"cat":"amber"},{"name":"Club House","lat":50.99403,"lon":-0.72206,"postcode":"GU29 0BB","la":"Chichester","era":"other","nn":329,"risk":51,"cat":"amber"},{"name":"Faustinos Wine Bar","lat":50.98786,"lon":-0.73823,"postcode":"GU29 9DJ","la":"Chichester","era":"other","nn":63,"risk":31,"cat":"amber"},{"name":"Foresters Arms","lat":50.95059,"lon":-0.67807,"postcode":"GU28 0QA","la":"Chichester","era":"trad","nn":3056,"risk":72,"cat":"red"},{"name":"Half Moon","lat":50.98908,"lon":-0.75088,"postcode":"GU29 9LL","la":"Chichester","era":"other","nn":867,"risk":37,"cat":"amber"},{"name":"Half Moon Inn","lat":51.05624,"lon":-0.64339,"postcode":"GU28 9HP","la":"Chichester","era":"trad","nn":234,"risk":50,"cat":"amber"},{"name":"Halfway Bridge Inn","lat":50.98963,"lon":-0.67538,"postcode":"GU28 9BP","la":"Chichester","era":"trad","nn":1364,"risk":60,"cat":"amber"},{"name":"Harting Mens Club","lat":50.96928,"lon":-0.88497,"postcode":"GU31 5QF","la":"Chichester","era":"trad","nn":3232,"risk":73,"cat":"red"},{"name":"Liphook Golf Club","lat":51.06036,"lon":-0.80921,"postcode":"GU30 7EH","la":"Chichester","era":"other","nn":1045,"risk":58,"cat":"amber"},{"name":"Nava Thai","lat":50.99325,"lon":-0.77809,"postcode":"GU29 0NZ","la":"Chichester","era":"other","nn":1959,"risk":64,"cat":"red"},{"name":"Noahs Ark Inn","lat":51.0355,"lon":-0.66472,"postcode":"GU28 9ET","la":"Chichester","era":"trad","nn":1349,"risk":60,"cat":"amber"},{"name":"Northchapel Working Mens Club","lat":51.05678,"lon":-0.64015,"postcode":"GU28 9JA","la":"Chichester","era":"trad","nn":234,"risk":50,"cat":"amber"},{"name":"Petworth And District Over 60's","lat":50.98627,"lon":-0.60888,"postcode":"GU28 0AB","la":"Chichester","era":"other","nn":302,"risk":48,"cat":"amber"},{"name":"Petworth Park Sports CIC","lat":50.98589,"lon":-0.62327,"postcode":"GU28 0QY","la":"Chichester","era":"other","nn":631,"risk":50,"cat":"amber"},{"name":"Rising Sun","lat":51.0306,"lon":-0.80046,"postcode":"GU30 7NA","la":"Chichester","era":"other","nn":3365,"risk":74,"cat":"red"},{"name":"Royal Oak","lat":50.97407,"lon":-0.73988,"postcode":"GU29 0EP","la":"Chichester","era":"trad","nn":614,"risk":53,"cat":"amber"},{"name":"Stag Inn","lat":51.02755,"lon":-0.59326,"postcode":"GU28 9JP","la":"Chichester","era":"trad","nn":3013,"risk":72,"cat":"red"},{"name":"The Blue Bell Community Hub","lat":50.95064,"lon":-0.75177,"postcode":"GU29 0HN","la":"Chichester","era":"mod","nn":2134,"risk":66,"cat":"red"},{"name":"The Cricketers","lat":50.94525,"lon":-0.63528,"postcode":"GU28 0LB","la":"Chichester","era":"other","nn":2335,"risk":67,"cat":"red"},{"name":"The Duke Of Cumberland Arms","lat":51.02396,"lon":-0.72543,"postcode":"GU27 3HQ","la":"Chichester","era":"trad","nn":2874,"risk":71,"cat":"red"},{"name":"The Elsted Inn","lat":50.97885,"lon":-0.81529,"postcode":"GU29 0JT","la":"Chichester","era":"trad","nn":1894,"risk":64,"cat":"red"},{"name":"The Greyhound Inn","lat":50.96954,"lon":-0.74488,"postcode":"GU29 9QH","la":"Chichester","era":"trad","nn":614,"risk":53,"cat":"amber"},{"name":"The Jolly Drover","lat":51.03051,"lon":-0.87697,"postcode":"GU33 7QL","la":"Chichester","era":"other","nn":1330,"risk":60,"cat":"amber"},{"name":"The Midhurst Club","lat":50.98839,"lon":-0.73855,"postcode":"GU29 9DR","la":"Chichester","era":"other","nn":63,"risk":31,"cat":"amber"},{"name":"The Mill","lat":51.0849,"lon":-0.74072,"postcode":"GU27 3QE","la":"Chichester","era":"trad","nn":435,"risk":49,"cat":"amber"},{"name":"The Red Lion","lat":51.04928,"lon":-0.71722,"postcode":"GU27 3HY","la":"Chichester","era":"trad","nn":2874,"risk":71,"cat":"red"},{"name":"The Royal British Legion","lat":50.98387,"lon":-0.60625,"postcode":"GU28 0BD","la":"Chichester","era":"trad","nn":324,"risk":36,"cat":"amber"},{"name":"The Swan Inn","lat":50.98572,"lon":-0.73811,"postcode":"GU29 9PB","la":"Chichester","era":"trad","nn":70,"risk":31,"cat":"amber"},{"name":"The Sylvia Beaufoy Youth Centre","lat":50.9841,"lon":-0.61148,"postcode":"GU28 0ET","la":"Chichester","era":"other","nn":302,"risk":35,"cat":"amber"},{"name":"The Three Horse Shoes","lat":51.02902,"lon":-0.68102,"postcode":"GU28 9EY","la":"Chichester","era":"trad","nn":1349,"risk":60,"cat":"amber"},{"name":"The Three Moles","lat":50.97792,"lon":-0.66959,"postcode":"GU28 0PN","la":"Chichester","era":"other","nn":1364,"risk":60,"cat":"amber"},{"name":"The Unicorn Inn","lat":50.95447,"lon":-0.72191,"postcode":"GU29 0DL","la":"Chichester","era":"trad","nn":2134,"risk":66,"cat":"red"},{"name":"The Welldiggers Arms","lat":50.97963,"lon":-0.58558,"postcode":"GU28 0HG","la":"Chichester","era":"trad","nn":645,"risk":53,"cat":"amber"},{"name":"The Wheatsheaf","lat":50.98586,"lon":-0.73909,"postcode":"GU29 9BX","la":"Chichester","era":"trad","nn":70,"risk":31,"cat":"amber"},{"name":"The White Horse","lat":51.00771,"lon":-0.84933,"postcode":"GU31 5EA","la":"Chichester","era":"trad","nn":3189,"risk":73,"cat":"red"},{"name":"Three Horseshoes","lat":50.9705,"lon":-0.83886,"postcode":"GU29 0JY","la":"Chichester","era":"trad","nn":1894,"risk":64,"cat":"red"},{"name":"Tillington Village Hall Management Committee","lat":50.98985,"lon":-0.62972,"postcode":"GU28 9AF","la":"Chichester","era":"other","nn":631,"risk":53,"cat":"amber"},{"name":"White Horse","lat":50.99661,"lon":-0.72437,"postcode":"GU29 0AL","la":"Chichester","era":"trad","nn":329,"risk":51,"cat":"amber"},{"name":"51 Degrees North","lat":51.18946,"lon":-1.03191,"postcode":"GU34 5SS","la":"East Hampshire","era":"other","nn":1420,"risk":58,"cat":"amber"},{"name":"Alton Bowling Club","lat":51.14791,"lon":-0.98055,"postcode":"GU34 1JL","la":"East Hampshire","era":"other","nn":155,"risk":26,"cat":"green"},{"name":"Alton Conservative Club","lat":51.14593,"lon":-0.97993,"postcode":"GU34 1ND","la":"East Hampshire","era":"other","nn":22,"risk":25,"cat":"green"},{"name":"Alton Football Club","lat":51.15812,"lon":-0.9665,"postcode":"GU34 2NB","la":"East Hampshire","era":"other","nn":0,"risk":28,"cat":"green"},{"name":"Alton Golf Club","lat":51.17393,"lon":-0.98037,"postcode":"GU34 4BU","la":"East Hampshire","era":"other","nn":1999,"risk":62,"cat":"red"},{"name":"Alton Masonic Centre","lat":51.14884,"lon":-0.9769,"postcode":"GU34 1HA","la":"East Hampshire","era":"trad","nn":71,"risk":26,"cat":"green"},{"name":"Alton Rugby Football Club","lat":51.15812,"lon":-0.9665,"postcode":"GU34 2NB","la":"East Hampshire","era":"other","nn":0,"risk":28,"cat":"green"},{"name":"Anchor Inn","lat":51.1899,"lon":-0.90532,"postcode":"GU34 4NA","la":"East Hampshire","era":"trad","nn":1740,"risk":60,"cat":"amber"},{"name":"Aspire Coaching Limited","lat":51.09806,"lon":-1.04899,"postcode":"GU34 5AS","la":"East Hampshire","era":"trad","nn":1032,"risk":55,"cat":"amber"},{"name":"Baby Spice Bakes","lat":51.04263,"lon":-0.88852,"postcode":"GU33 7EF","la":"East Hampshire","era":"other","nn":0,"risk":30,"cat":"green"},{"name":"Ball & Wicket","lat":51.188,"lon":-0.83562,"postcode":"GU10 4LA","la":"East Hampshire","era":"other","nn":542,"risk":47,"cat":"amber"},{"name":"Bexfontana Ltd","lat":51.12224,"lon":-0.82063,"postcode":"GU35 8BT","la":"East Hampshire","era":"other","nn":532,"risk":49,"cat":"amber"},{"name":"Black Sheep","lat":51.00345,"lon":-0.93857,"postcode":"GU32 3JX","la":"East Hampshire","era":"other","nn":66,"risk":26,"cat":"green"},{"name":"Blackmoor Golf Club","lat":51.10299,"lon":-0.87898,"postcode":"GU35 9EH","la":"East Hampshire","era":"other","nn":676,"risk":50,"cat":"amber"},{"name":"Blacknest Golf & Country Club","lat":51.1618,"lon":-0.8574,"postcode":"GU34 4QL","la":"East Hampshire","era":"other","nn":2542,"risk":66,"cat":"red"},{"name":"Bordon and Oakhanger Social Club","lat":51.12226,"lon":-0.87692,"postcode":"GU35 9HG","la":"East Hampshire","era":"other","nn":1007,"risk":55,"cat":"amber"},{"name":"Bordon Working Mens Club","lat":51.11073,"lon":-0.85543,"postcode":"GU35 0DH","la":"East Hampshire","era":"trad","nn":967,"risk":52,"cat":"amber"},{"name":"Bramshott Parish Club","lat":51.07908,"lon":-0.80384,"postcode":"GU30 7NP","la":"East Hampshire","era":"trad","nn":217,"risk":32,"cat":"amber"},{"name":"Bramshott Place","lat":51.08294,"lon":-0.79416,"postcode":"GU30 7GA","la":"East Hampshire","era":"trad","nn":604,"risk":34,"cat":"amber"},{"name":"Brewers Fayre & Premier Travel Inn","lat":51.00949,"lon":-0.95265,"postcode":"GU32 3BS","la":"East Hampshire","era":"trad","nn":930,"risk":52,"cat":"amber"},{"name":"Cassidy's Bar","lat":51.1492,"lon":-0.97565,"postcode":"GU34 1BD","la":"East Hampshire","era":"other","nn":58,"risk":26,"cat":"green"},{"name":"Chawton Park Indoor Bowls Club","lat":51.13761,"lon":-0.99062,"postcode":"GU34 1RF","la":"East Hampshire","era":"other","nn":0,"risk":28,"cat":"green"},{"name":"CM Sports","lat":51.15618,"lon":-0.97578,"postcode":"GU34 2LX","la":"East Hampshire","era":"other","nn":498,"risk":29,"cat":"green"},{"name":"CM Sports","lat":51.11631,"lon":-0.86604,"postcode":"GU35 0JB","la":"East Hampshire","era":"other","nn":726,"risk":48,"cat":"amber"},{"name":"CM Sports","lat":51.11278,"lon":-0.75811,"postcode":"GU26 6LR","la":"East Hampshire","era":"other","nn":223,"risk":27,"cat":"green"},{"name":"CM Sports","lat":51.00856,"lon":-0.92349,"postcode":"GU31 4BP","la":"East Hampshire","era":"other","nn":352,"risk":28,"cat":"green"},{"name":"CM Sports","lat":51.0393,"lon":-0.88989,"postcode":"GU33 7LQ","la":"East Hampshire","era":"other","nn":383,"risk":33,"cat":"amber"},{"name":"CM Sports","lat":51.14358,"lon":-0.98647,"postcode":"GU34 1PW","la":"East Hampshire","era":"other","nn":273,"risk":27,"cat":"green"},{"name":"Conservative Club","lat":51.18478,"lon":-0.82979,"postcode":"GU10 4DE","la":"East Hampshire","era":"other","nn":233,"risk":32,"cat":"amber"},{"name":"Cricketers Inn","lat":51.1371,"lon":-0.87589,"postcode":"GU35 9ND","la":"East Hampshire","era":"trad","nn":247,"risk":44,"cat":"amber"},{"name":"Donna's Catering","lat":51.09969,"lon":-0.82583,"postcode":"GU30 7RU","la":"East Hampshire","era":"other","nn":0,"risk":45,"cat":"amber"},{"name":"Folly Bar","lat":51.00434,"lon":-0.93446,"postcode":"GU31 4AD","la":"East Hampshire","era":"other","nn":78,"risk":26,"cat":"green"},{"name":"Four Marks Lunch Club","lat":51.10728,"lon":-1.0508,"postcode":"GU34 5AA","la":"East Hampshire","era":"other","nn":1032,"risk":55,"cat":"amber"},{"name":"Fox & Pelican","lat":51.11079,"lon":-0.75062,"postcode":"GU26 6LG","la":"East Hampshire","era":"trad","nn":184,"risk":27,"cat":"green"},{"name":"Fresher is Better","lat":51.04469,"lon":-0.8553,"postcode":"GU33 7JA","la":"East Hampshire","era":"other","nn":0,"risk":43,"cat":"amber"},{"name":"Granny's Kitchen","lat":51.14576,"lon":-0.98008,"postcode":"GU34 1ND","la":"East Hampshire","era":"mod","nn":22,"risk":25,"cat":"green"},{"name":"Grayshott Cricket Club","lat":51.11225,"lon":-0.76118,"postcode":"GU26 6LS","la":"East Hampshire","era":"other","nn":0,"risk":25,"cat":"green"},{"name":"Grayshott Football Club","lat":51.11225,"lon":-0.76118,"postcode":"GU26 6LS","la":"East Hampshire","era":"other","nn":0,"risk":25,"cat":"green"},{"name":"Grayshott Social Club","lat":51.10898,"lon":-0.7544,"postcode":"GU26 6HL","la":"East Hampshire","era":"mod","nn":332,"risk":28,"cat":"green"},{"name":"Grayshott Sports Pavillion (Bar)","lat":51.11225,"lon":-0.76118,"postcode":"GU26 6LS","la":"East Hampshire","era":"trad","nn":0,"risk":25,"cat":"green"},{"name":"Hawkley Sports & Social Club","lat":51.05767,"lon":-0.93658,"postcode":"GU33 6NF","la":"East Hampshire","era":"mod","nn":137,"risk":46,"cat":"amber"},{"name":"Hen & Chicken","lat":51.17786,"lon":-0.92125,"postcode":"GU34 4JH","la":"East Hampshire","era":"other","nn":1740,"risk":60,"cat":"amber"},{"name":"Herne Farm Leisure Centre","lat":51.00555,"lon":-0.92507,"postcode":"GU31 4PJ","la":"East Hampshire","era":"other","nn":352,"risk":28,"cat":"green"},{"name":"Holybourne Cricket Club","lat":51.16217,"lon":-0.95117,"postcode":"GU34 4EW","la":"East Hampshire","era":"other","nn":392,"risk":48,"cat":"amber"},{"name":"Ivy House","lat":51.14699,"lon":-0.9752,"postcode":"GU34 1SS","la":"East Hampshire","era":"other","nn":167,"risk":26,"cat":"green"},{"name":"Kingsley Tennis Centre","lat":51.13696,"lon":-0.87943,"postcode":"GU35 9NG","la":"East Hampshire","era":"trad","nn":247,"risk":44,"cat":"amber"},{"name":"Kingsley Utd Sports Club","lat":51.14065,"lon":-0.87125,"postcode":"GU35 9PD","la":"East Hampshire","era":"trad","nn":511,"risk":46,"cat":"amber"},{"name":"Lindford Sports Association","lat":51.12739,"lon":-0.84765,"postcode":"GU35 0NY","la":"East Hampshire","era":"other","nn":549,"risk":49,"cat":"amber"},{"name":"Lindford Working Mens Club","lat":51.11751,"lon":-0.84476,"postcode":"GU35 0PN","la":"East Hampshire","era":"trad","nn":569,"risk":49,"cat":"amber"},{"name":"Liss Cricket Club","lat":51.05179,"lon":-0.90062,"postcode":"GU33 6JU","la":"East Hampshire","era":"other","nn":0,"risk":45,"cat":"amber"},{"name":"New Forest Child Care CIC Rowledge","lat":51.18359,"lon":-0.82705,"postcode":"GU10 4BW","la":"East Hampshire","era":"other","nn":233,"risk":32,"cat":"amber"},{"name":"Newton Valence Sports & Social Club","lat":51.09023,"lon":-0.97139,"postcode":"GU34 3RQ","la":"East Hampshire","era":"mod","nn":2162,"risk":63,"cat":"red"},{"name":"Passfield Social Club","lat":51.09969,"lon":-0.82583,"postcode":"GU30 7RU","la":"East Hampshire","era":"mod","nn":0,"risk":45,"cat":"amber"},{"name":"Perrins Catering Ltd","lat":51.13761,"lon":-0.99062,"postcode":"GU34 1RF","la":"East Hampshire","era":"other","nn":0,"risk":28,"cat":"green"},{"name":"Petersfield Bowls and Snooker Club","lat":51.00306,"lon":-0.93624,"postcode":"GU32 3HX","la":"East Hampshire","era":"other","nn":0,"risk":25,"cat":"green"},{"name":"Petersfield Catering @ Petersfield Bowls & Snooker Club","lat":51.00306,"lon":-0.93624,"postcode":"GU32 3HX","la":"East Hampshire","era":"other","nn":0,"risk":25,"cat":"green"},{"name":"Petersfield Social Club","lat":51.00747,"lon":-0.93975,"postcode":"GU32 3ED","la":"East Hampshire","era":"mod","nn":172,"risk":26,"cat":"green"},{"name":"Petersfield Town FC","lat":51.00764,"lon":-0.9291,"postcode":"GU31 4BW","la":"East Hampshire","era":"other","nn":362,"risk":28,"cat":"green"},{"name":"Phoenix Theatre Bar","lat":51.1222,"lon":-0.86151,"postcode":"GU35 0LR","la":"East Hampshire","era":"other","nn":726,"risk":50,"cat":"amber"},{"name":"Rake Activity Club","lat":51.04469,"lon":-0.8553,"postcode":"GU33 7JA","la":"East Hampshire","era":"other","nn":0,"risk":43,"cat":"amber"},{"name":"Rose & Crown Farringdon","lat":51.11169,"lon":-0.98119,"postcode":"GU34 3ED","la":"East Hampshire","era":"trad","nn":2483,"risk":65,"cat":"red"},{"name":"Royal British Legion","lat":51.11062,"lon":-0.74799,"postcode":"GU26 6TZ","la":"East Hampshire","era":"trad","nn":184,"risk":27,"cat":"green"},{"name":"Seven Stars","lat":51.00823,"lon":-0.96804,"postcode":"GU32 3PG","la":"East Hampshire","era":"other","nn":1086,"risk":55,"cat":"amber"},{"name":"South Petersfield Golf Pay & Play","lat":50.99573,"lon":-0.92755,"postcode":"GU31 4LB","la":"East Hampshire","era":"other","nn":901,"risk":52,"cat":"amber"},{"name":"Steep Cricket Club","lat":51.02153,"lon":-0.93246,"postcode":"GU32 2DB","la":"East Hampshire","era":"other","nn":347,"risk":48,"cat":"amber"},{"name":"Ten Tun Tap House","lat":51.1482,"lon":-0.97728,"postcode":"GU34 1HZ","la":"East Hampshire","era":"mod","nn":76,"risk":26,"cat":"green"},{"name":"The Bakers Arms","lat":51.14975,"lon":-0.97459,"postcode":"GU34 1BN","la":"East Hampshire","era":"trad","nn":0,"risk":25,"cat":"green"},{"name":"The Castle of Comfort","lat":51.13085,"lon":-1.06609,"postcode":"GU34 5LU","la":"East Hampshire","era":"other","nn":2830,"risk":68,"cat":"red"},{"name":"The Cricketers Inn","lat":51.02266,"lon":-0.94866,"postcode":"GU32 2DW","la":"East Hampshire","era":"trad","nn":1140,"risk":56,"cat":"amber"},{"name":"The Crown Hotel","lat":51.14975,"lon":-0.97459,"postcode":"GU34 1BN","la":"East Hampshire","era":"trad","nn":0,"risk":25,"cat":"green"},{"name":"The Deers Hut","lat":51.07796,"lon":-0.82459,"postcode":"GU30 7PD","la":"East Hampshire","era":"other","nn":1455,"risk":58,"cat":"amber"},{"name":"The Eight Bells","lat":51.1517,"lon":-0.97578,"postcode":"GU34 2DA","la":"East Hampshire","era":"other","nn":232,"risk":27,"cat":"green"},{"name":"The Five Bells","lat":50.97666,"lon":-0.94999,"postcode":"GU31 5RX","la":"East Hampshire","era":"other","nn":91,"risk":46,"cat":"amber"},{"name":"The Flying Bull","lat":51.044,"lon":-0.85478,"postcode":"GU33 7JB","la":"Chichester","era":"trad","nn":84,"risk":46,"cat":"amber"},{"name":"The French Horn","lat":51.14126,"lon":-0.98518,"postcode":"GU34 1RT","la":"East Hampshire","era":"other","nn":273,"risk":27,"cat":"green"},{"name":"The George","lat":51.00402,"lon":-0.93833,"postcode":"GU32 3HH","la":"East Hampshire","era":"trad","nn":56,"risk":26,"cat":"green"},{"name":"The George","lat":51.14565,"lon":-0.97916,"postcode":"GU34 1LH","la":"East Hampshire","era":"trad","nn":62,"risk":26,"cat":"green"},{"name":"The Good Intent","lat":51.00668,"lon":-0.93404,"postcode":"GU31 4AF","la":"East Hampshire","era":"other","nn":250,"risk":27,"cat":"green"},{"name":"The Greatham Inn","lat":51.0737,"lon":-0.88918,"postcode":"GU33 6AD","la":"East Hampshire","era":"trad","nn":2202,"risk":63,"cat":"red"},{"name":"The Green Dragon","lat":51.07947,"lon":-0.8008,"postcode":"GU30 7AN","la":"East Hampshire","era":"trad","nn":217,"risk":32,"cat":"amber"},{"name":"The Greyfriar","lat":51.13376,"lon":-0.98813,"postcode":"GU34 1SB","la":"East Hampshire","era":"other","nn":462,"risk":33,"cat":"amber"},{"name":"The Half Moon","lat":51.01355,"lon":-0.91858,"postcode":"GU31 4BE","la":"East Hampshire","era":"other","nn":164,"risk":29,"cat":"green"},{"name":"The Hanger Free House","lat":51.11742,"lon":-0.90193,"postcode":"GU35 9JQ","la":"East Hampshire","era":"other","nn":1826,"risk":60,"cat":"amber"},{"name":"The Harrow Inn","lat":51.02151,"lon":-0.92749,"postcode":"GU32 2DA","la":"East Hampshire","era":"trad","nn":347,"risk":45,"cat":"amber"},{"name":"The Hawkley Inn","lat":51.05652,"lon":-0.93588,"postcode":"GU33 6NE","la":"East Hampshire","era":"trad","nn":137,"risk":46,"cat":"amber"},{"name":"The Holly Bush","lat":51.11942,"lon":-0.82678,"postcode":"GU35 8PP","la":"East Hampshire","era":"trad","nn":532,"risk":49,"cat":"amber"},{"name":"The Izaak Walton","lat":50.99431,"lon":-1.03083,"postcode":"GU32 1QA","la":"East Hampshire","era":"other","nn":134,"risk":46,"cat":"amber"},{"name":"The Joneses Studio","lat":51.14612,"lon":-0.97324,"postcode":"GU34 1EF","la":"East Hampshire","era":"mod","nn":167,"risk":26,"cat":"green"},{"name":"The Jubilee Tap","lat":51.09732,"lon":-0.94256,"postcode":"GU34 3JJ","la":"East Hampshire","era":"mod","nn":110,"risk":46,"cat":"amber"},{"name":"The King's Arms","lat":51.0024,"lon":-0.93488,"postcode":"GU31 4JJ","la":"East Hampshire","era":"trad","nn":120,"risk":26,"cat":"green"},{"name":"The King's Arms","lat":51.14963,"lon":-0.97613,"postcode":"GU34 1HT","la":"East Hampshire","era":"trad","nn":58,"risk":26,"cat":"green"},{"name":"The Links Tavern","lat":51.0695,"lon":-0.80577,"postcode":"GU30 7EF","la":"East Hampshire","era":"other","nn":832,"risk":51,"cat":"amber"},{"name":"The Lounge Bar","lat":51.1493,"lon":-0.97761,"postcode":"GU34 1HN","la":"East Hampshire","era":"mod","nn":71,"risk":26,"cat":"green"},{"name":"The Market Hotel","lat":51.14849,"lon":-0.97854,"postcode":"GU34 1HD","la":"East Hampshire","era":"other","nn":0,"risk":25,"cat":"green"},{"name":"The Masonic Hall","lat":51.0067,"lon":-0.93761,"postcode":"GU32 3ER","la":"East Hampshire","era":"trad","nn":172,"risk":26,"cat":"green"},{"name":"The Nest Hotel & Restaurant","lat":50.97733,"lon":-0.95072,"postcode":"GU31 5SW","la":"East Hampshire","era":"other","nn":91,"risk":46,"cat":"amber"},{"name":"The Old Drum Ltd","lat":51.0046,"lon":-0.93866,"postcode":"GU32 3DP","la":"East Hampshire","era":"other","nn":68,"risk":26,"cat":"green"},{"name":"The Prince of Wales","lat":51.08683,"lon":-0.76104,"postcode":"GU27 1QH","la":"East Hampshire","era":"trad","nn":1083,"risk":55,"cat":"amber"},{"name":"The Queens Head","lat":51.01496,"lon":-0.91926,"postcode":"GU32 2AH","la":"East Hampshire","era":"trad","nn":164,"risk":31,"cat":"amber"},{"name":"The Railway Arms","lat":51.1533,"lon":-0.96893,"postcode":"GU34 2RB","la":"East Hampshire","era":"trad","nn":510,"risk":29,"cat":"green"},{"name":"The Royal Anchor","lat":51.07685,"lon":-0.80352,"postcode":"GU30 7AD","la":"East Hampshire","era":"trad","nn":248,"risk":29,"cat":"green"},{"name":"The Royal British Legion","lat":51.04263,"lon":-0.88852,"postcode":"GU33 7EF","la":"East Hampshire","era":"trad","nn":0,"risk":30,"cat":"green"},{"name":"The Royal Exchange","lat":51.12254,"lon":-0.84623,"postcode":"GU35 0NX","la":"East Hampshire","era":"trad","nn":549,"risk":47,"cat":"amber"},{"name":"The Royal Oak","lat":51.09769,"lon":-0.85167,"postcode":"GU35 9AF","la":"East Hampshire","era":"trad","nn":1470,"risk":58,"cat":"amber"},{"name":"The Selborne Arms","lat":51.09651,"lon":-0.94166,"postcode":"GU34 3JR","la":"East Hampshire","era":"trad","nn":110,"risk":46,"cat":"amber"},{"name":"The Spread Eagle","lat":51.05179,"lon":-0.90062,"postcode":"GU33 6JU","la":"East Hampshire","era":"trad","nn":0,"risk":45,"cat":"amber"},{"name":"The Square Brewery","lat":51.00409,"lon":-0.93753,"postcode":"GU32 3HJ","la":"East Hampshire","era":"other","nn":56,"risk":26,"cat":"green"},{"name":"The Star Inn","lat":51.18974,"lon":-0.87858,"postcode":"GU10 5LW","la":"East Hampshire","era":"trad","nn":1864,"risk":61,"cat":"red"},{"name":"The Sun Inn","lat":51.1576,"lon":-1.04399,"postcode":"GU34 5JT","la":"East Hampshire","era":"trad","nn":3290,"risk":71,"cat":"red"},{"name":"The Temple Inn","lat":51.05402,"lon":-0.88564,"postcode":"GU33 7BP","la":"East Hampshire","era":"trad","nn":1076,"risk":55,"cat":"amber"},{"name":"The Three Horseshoes","lat":51.13721,"lon":-0.93425,"postcode":"GU34 3AE","la":"East Hampshire","era":"trad","nn":2895,"risk":68,"cat":"red"},{"name":"The Townhouse","lat":51.00392,"lon":-0.93535,"postcode":"GU32 3JL","la":"East Hampshire","era":"other","nn":78,"risk":26,"cat":"green"},{"name":"The Trooper Inn","lat":51.03945,"lon":-0.96378,"postcode":"GU32 1BD","la":"East Hampshire","era":"trad","nn":2146,"risk":63,"cat":"red"},{"name":"The Wheatsheaf","lat":51.14849,"lon":-0.97854,"postcode":"GU34 1HD","la":"East Hampshire","era":"trad","nn":0,"risk":25,"cat":"green"},{"name":"The Whistle Stop","lat":51.04264,"lon":-0.89166,"postcode":"GU33 7DS","la":"East Hampshire","era":"other","nn":219,"risk":32,"cat":"amber"},{"name":"The White Hart","lat":51.16425,"lon":-0.94663,"postcode":"GU34 4EY","la":"East Hampshire","era":"trad","nn":392,"risk":48,"cat":"amber"},{"name":"The White Horse","lat":51.05585,"lon":-0.98213,"postcode":"GU32 1DA","la":"East Hampshire","era":"trad","nn":2230,"risk":63,"cat":"red"},{"name":"The Woodlark","lat":51.10459,"lon":-0.86964,"postcode":"GU35 9AH","la":"East Hampshire","era":"other","nn":676,"risk":50,"cat":"amber"},{"name":"TPS Holiday Club","lat":51.00004,"lon":-0.94026,"postcode":"GU32 3LU","la":"East Hampshire","era":"other","nn":396,"risk":28,"cat":"green"},{"name":"White Horse Alton","lat":51.14718,"lon":-0.97815,"postcode":"GU34 1EN","la":"East Hampshire","era":"trad","nn":128,"risk":26,"cat":"green"},{"name":"Ye Olde George Inn","lat":50.99505,"lon":-1.03234,"postcode":"GU32 1NH","la":"East Hampshire","era":"trad","nn":134,"risk":46,"cat":"amber"},{"name":"Alley Bar","lat":51.23506,"lon":-0.57392,"postcode":"GU1 3EX","la":"Guildford","era":"other","nn":40,"risk":26,"cat":"green"},{"name":"Anchor & Horseshoes","lat":51.25432,"lon":-0.54987,"postcode":"GU1 1XR","la":"Guildford","era":"trad","nn":834,"risk":51,"cat":"amber"},{"name":"Artists Rifle Clubhouse","lat":51.31095,"lon":-0.65558,"postcode":"GU24 0NY","la":"Guildford","era":"other","nn":0,"risk":26,"cat":"green"},{"name":"Astolat","lat":51.23684,"lon":-0.59015,"postcode":"GU2 7TU","la":"Guildford","era":"other","nn":840,"risk":31,"cat":"amber"},{"name":"Barley Mow","lat":51.20969,"lon":-0.73785,"postcode":"GU10 1NE","la":"Guildford","era":"other","nn":93,"risk":46,"cat":"amber"},{"name":"British Legion Seale & Sands","lat":51.2105,"lon":-0.73815,"postcode":"GU10 1LL","la":"Guildford","era":"other","nn":93,"risk":46,"cat":"amber"},{"name":"Canada Club","lat":51.31095,"lon":-0.65558,"postcode":"GU24 0NY","la":"Guildford","era":"other","nn":0,"risk":26,"cat":"green"},{"name":"City Rifle Club","lat":51.31095,"lon":-0.65558,"postcode":"GU24 0NY","la":"Guildford","era":"other","nn":0,"risk":26,"cat":"green"},{"name":"Clockwork Kitchen","lat":51.23448,"lon":-0.57398,"postcode":"GU1 3UA","la":"Guildford","era":"mod","nn":0,"risk":26,"cat":"green"},{"name":"Compton Club Ltd","lat":51.21459,"lon":-0.6285,"postcode":"GU3 1JQ","la":"Guildford","era":"other","nn":0,"risk":43,"cat":"amber"},{"name":"Corkage","lat":51.23457,"lon":-0.57408,"postcode":"GU1 3UA","la":"Guildford","era":"other","nn":12,"risk":26,"cat":"green"},{"name":"Cricketers","lat":51.2364,"lon":-0.73259,"postcode":"GU10 1AF","la":"Guildford","era":"other","nn":537,"risk":29,"cat":"green"},{"name":"English 8 Club","lat":51.31095,"lon":-0.65558,"postcode":"GU24 0NY","la":"Guildford","era":"other","nn":0,"risk":26,"cat":"green"},{"name":"Fairlands Community Club","lat":51.26284,"lon":-0.62008,"postcode":"GU3 3NA","la":"Guildford","era":"other","nn":1482,"risk":58,"cat":"amber"},{"name":"George Abbot","lat":51.23489,"lon":-0.57781,"postcode":"GU2 4AB","la":"Guildford","era":"trad","nn":41,"risk":26,"cat":"green"},{"name":"Gomshall Village Sports and Social Club","lat":51.21922,"lon":-0.45109,"postcode":"GU5 9LY","la":"Guildford","era":"mod","nn":237,"risk":30,"cat":"green"},{"name":"Gresham School Rifle Club","lat":51.31095,"lon":-0.65558,"postcode":"GU24 0NY","la":"Guildford","era":"other","nn":0,"risk":26,"cat":"green"},{"name":"Growlers And Cans","lat":51.23752,"lon":-0.57042,"postcode":"GU1 4HD","la":"Guildford","era":"other","nn":0,"risk":26,"cat":"green"},{"name":"Guildford City Social Club","lat":51.24707,"lon":-0.57442,"postcode":"GU1 1DN","la":"Guildford","era":"mod","nn":463,"risk":29,"cat":"green"},{"name":"Half Moon","lat":51.3011,"lon":-0.49134,"postcode":"GU23 6AN","la":"Guildford","era":"other","nn":70,"risk":46,"cat":"amber"},{"name":"Hogs Back Tap","lat":51.22843,"lon":-0.73155,"postcode":"GU10 1DE","la":"Guildford","era":"mod","nn":353,"risk":46,"cat":"amber"},{"name":"Holroyd Arms","lat":51.25005,"lon":-0.59012,"postcode":"GU2 8AF","la":"Guildford","era":"trad","nn":334,"risk":45,"cat":"amber"},{"name":"Horse and Groom","lat":51.24582,"lon":-0.52912,"postcode":"GU1 2RG","la":"Guildford","era":"trad","nn":1726,"risk":60,"cat":"amber"},{"name":"Ibis Rifle Club","lat":51.31095,"lon":-0.65558,"postcode":"GU24 0NY","la":"Guildford","era":"other","nn":0,"risk":26,"cat":"green"},{"name":"Joe Manneh Catering Company at The Queen Victoria","lat":51.21506,"lon":-0.56691,"postcode":"GU4 8BY","la":"Guildford","era":"trad","nn":0,"risk":43,"cat":"amber"},{"name":"Journeys","lat":51.23499,"lon":-0.57158,"postcode":"GU1 3QT","la":"Guildford","era":"other","nn":61,"risk":26,"cat":"green"},{"name":"Kerrera Bar","lat":51.23655,"lon":-0.57155,"postcode":"GU1 4AP","la":"Guildford","era":"other","nn":49,"risk":26,"cat":"green"},{"name":"Kings Head Public House","lat":51.23448,"lon":-0.57398,"postcode":"GU1 3UA","la":"Guildford","era":"trad","nn":0,"risk":26,"cat":"green"},{"name":"Labyrinth Guildford","lat":51.23678,"lon":-0.57809,"postcode":"GU1 4RY","la":"Guildford","era":"other","nn":25,"risk":26,"cat":"green"},{"name":"Lion Brewery","lat":51.25169,"lon":-0.70809,"postcode":"GU12 6BT","la":"Guildford","era":"trad","nn":1358,"risk":58,"cat":"amber"},{"name":"Lloyds Number 1 Bar","lat":51.23655,"lon":-0.57804,"postcode":"GU1 4SB","la":"Guildford","era":"other","nn":3,"risk":26,"cat":"green"},{"name":"London And Middlesex Rifle Association","lat":51.31095,"lon":-0.65558,"postcode":"GU24 0NY","la":"Guildford","era":"other","nn":0,"risk":26,"cat":"green"},{"name":"Mayrobert ltd","lat":51.3005,"lon":-0.49167,"postcode":"GU23 6AZ","la":"Guildford","era":"other","nn":70,"risk":46,"cat":"amber"},{"name":"North London Rifle Club","lat":51.31095,"lon":-0.65558,"postcode":"GU24 0NY","la":"Guildford","era":"other","nn":0,"risk":26,"cat":"green"},{"name":"Old Guildfordian Association Of Clubs","lat":51.24791,"lon":-0.5561,"postcode":"GU1 1TU","la":"Guildford","era":"other","nn":834,"risk":51,"cat":"amber"},{"name":"Percy Arms","lat":51.21556,"lon":-0.52607,"postcode":"GU4 8NP","la":"Guildford","era":"trad","nn":1990,"risk":62,"cat":"red"},{"name":"Pews Bar & Courtyard","lat":51.23495,"lon":-0.57337,"postcode":"GU1 3UL","la":"Guildford","era":"mod","nn":33,"risk":26,"cat":"green"},{"name":"Popworld Guildford","lat":51.23654,"lon":-0.57801,"postcode":"GU1 4SB","la":"Guildford","era":"other","nn":3,"risk":26,"cat":"green"},{"name":"Queens Head Public House","lat":51.25447,"lon":-0.48271,"postcode":"GU4 7RY","la":"Guildford","era":"trad","nn":1486,"risk":58,"cat":"amber"},{"name":"Rogues Wine Bar","lat":51.23777,"lon":-0.55945,"postcode":"GU1 3PB","la":"Guildford","era":"other","nn":536,"risk":29,"cat":"green"},{"name":"Row Barge Public House","lat":51.25121,"lon":-0.57375,"postcode":"GU1 1LW","la":"Guildford","era":"other","nn":463,"risk":31,"cat":"amber"},{"name":"Royal Oak","lat":51.28021,"lon":-0.64737,"postcode":"GU24 0DQ","la":"Guildford","era":"trad","nn":1468,"risk":58,"cat":"amber"},{"name":"Royal Oak Public House","lat":51.25003,"lon":-0.626,"postcode":"GU3 3DA","la":"Guildford","era":"trad","nn":805,"risk":51,"cat":"amber"},{"name":"Seven Stars Public House","lat":51.30113,"lon":-0.50841,"postcode":"GU23 6DL","la":"Guildford","era":"other","nn":1167,"risk":56,"cat":"amber"},{"name":"Sixes Social Cricket","lat":51.23523,"lon":-0.57236,"postcode":"GU1 3QY","la":"Guildford","era":"mod","nn":61,"risk":26,"cat":"green"},{"name":"Star Inn","lat":51.23498,"lon":-0.57501,"postcode":"GU1 3TY","la":"Guildford","era":"trad","nn":76,"risk":26,"cat":"green"},{"name":"Stoke","lat":51.24255,"lon":-0.57156,"postcode":"GU1 4JN","la":"Guildford","era":"other","nn":93,"risk":26,"cat":"green"},{"name":"Stoughton & Westborough RBL Club Ltd","lat":51.25152,"lon":-0.59597,"postcode":"GU2 9SG","la":"Guildford","era":"other","nn":438,"risk":46,"cat":"amber"},{"name":"Surrey Rifle Association","lat":51.31095,"lon":-0.65558,"postcode":"GU24 0NY","la":"Guildford","era":"other","nn":0,"risk":26,"cat":"green"},{"name":"Thai Kitchen Compton","lat":51.21459,"lon":-0.6285,"postcode":"GU3 1JQ","la":"Guildford","era":"mod","nn":0,"risk":43,"cat":"amber"},{"name":"The Admiral","lat":51.26003,"lon":-0.72234,"postcode":"GU12 5HS","la":"Guildford","era":"other","nn":600,"risk":50,"cat":"amber"},{"name":"The Boileroom","lat":51.24048,"lon":-0.57234,"postcode":"GU1 4LS","la":"Guildford","era":"other","nn":81,"risk":26,"cat":"green"},{"name":"The Britannia","lat":51.23311,"lon":-0.57622,"postcode":"GU2 4BE","la":"Guildford","era":"trad","nn":196,"risk":27,"cat":"green"},{"name":"The Bulls Head","lat":51.25435,"lon":-0.50407,"postcode":"GU4 7ST","la":"Guildford","era":"trad","nn":867,"risk":52,"cat":"amber"},{"name":"The Cannon Guildford Ltd","lat":51.23452,"lon":-0.57791,"postcode":"GU2 4BL","la":"Guildford","era":"other","nn":0,"risk":26,"cat":"green"},{"name":"The Compasses Inn","lat":51.22006,"lon":-0.44797,"postcode":"GU5 9LA","la":"Guildford","era":"trad","nn":133,"risk":44,"cat":"amber"},{"name":"The Cricketers On The Green","lat":51.29451,"lon":-0.64249,"postcode":"GU24 0JT","la":"Guildford","era":"other","nn":271,"risk":47,"cat":"amber"},{"name":"The Cyder House Inn","lat":51.19739,"lon":-0.66325,"postcode":"GU8 6AN","la":"Waverley","era":"other","nn":1459,"risk":59,"cat":"amber"},{"name":"The Drummond","lat":51.24166,"lon":-0.57602,"postcode":"GU1 4RF","la":"Guildford","era":"other","nn":289,"risk":28,"cat":"green"},{"name":"The Drummond At Albury","lat":51.22035,"lon":-0.49855,"postcode":"GU5 9AG","la":"Guildford","era":"other","nn":1962,"risk":62,"cat":"red"},{"name":"The Fallen Angel","lat":51.23577,"lon":-0.57323,"postcode":"GU1 3DP","la":"Guildford","era":"trad","nn":84,"risk":26,"cat":"green"},{"name":"The Five And Lime","lat":51.23728,"lon":-0.57418,"postcode":"GU1 4JX","la":"Guildford","era":"other","nn":181,"risk":27,"cat":"green"},{"name":"The Fox Inn","lat":51.28387,"lon":-0.62217,"postcode":"GU3 3PP","la":"Guildford","era":"trad","nn":1799,"risk":61,"cat":"red"},{"name":"The Gomshall Mill, Pub & Dining","lat":51.21915,"lon":-0.44674,"postcode":"GU5 9LB","la":"Guildford","era":"trad","nn":133,"risk":44,"cat":"amber"},{"name":"The Good Intent","lat":51.22218,"lon":-0.66683,"postcode":"GU3 1AR","la":"Guildford","era":"other","nn":2768,"risk":67,"cat":"red"},{"name":"The Greyhound Public House","lat":51.24497,"lon":-0.72822,"postcode":"GU12 6LA","la":"Guildford","era":"trad","nn":1001,"risk":55,"cat":"amber"},{"name":"The Guildford Tup","lat":51.23752,"lon":-0.57042,"postcode":"GU1 4HD","la":"Guildford","era":"other","nn":0,"risk":26,"cat":"green"},{"name":"The Jolly Farmer","lat":51.27885,"lon":-0.58543,"postcode":"GU3 3RN","la":"Guildford","era":"other","nn":1797,"risk":61,"cat":"red"},{"name":"The Jovial Sailor","lat":51.28874,"lon":-0.50238,"postcode":"GU23 6EZ","la":"Guildford","era":"other","nn":575,"risk":50,"cat":"amber"},{"name":"The Keep","lat":51.23475,"lon":-0.57301,"postcode":"GU1 3UW","la":"Guildford","era":"other","nn":33,"risk":26,"cat":"green"},{"name":"The King's Head","lat":51.24256,"lon":-0.57022,"postcode":"GU1 4JW","la":"Guildford","era":"trad","nn":93,"risk":26,"cat":"green"},{"name":"The New inn","lat":51.29438,"lon":-0.5407,"postcode":"GU23 7EN","la":"Guildford","era":"trad","nn":907,"risk":52,"cat":"amber"},{"name":"The Old Ford","lat":51.27548,"lon":-0.73112,"postcode":"GU12 5QA","la":"Guildford","era":"other","nn":737,"risk":51,"cat":"amber"},{"name":"The Old Sergeants Mess","lat":51.31095,"lon":-0.65558,"postcode":"GU24 0NY","la":"Guildford","era":"other","nn":0,"risk":26,"cat":"green"},{"name":"The Onslow Arms","lat":51.26214,"lon":-0.50396,"postcode":"GU4 7TE","la":"Guildford","era":"trad","nn":867,"risk":52,"cat":"amber"},{"name":"The Prince Albert","lat":51.24102,"lon":-0.57154,"postcode":"GU1 4HT","la":"Guildford","era":"trad","nn":81,"risk":26,"cat":"green"},{"name":"The Queen Vic","lat":51.21506,"lon":-0.56691,"postcode":"GU4 8BY","la":"Guildford","era":"trad","nn":0,"risk":43,"cat":"amber"},{"name":"The Rat's Castle / The Fat Pizza / The Fat Burger and Desserts","lat":51.23693,"lon":-0.56704,"postcode":"GU1 3SA","la":"Guildford","era":"other","nn":244,"risk":27,"cat":"green"},{"name":"The Royal Oak","lat":51.23565,"lon":-0.57006,"postcode":"GU1 3RR","la":"Guildford","era":"trad","nn":95,"risk":26,"cat":"green"},{"name":"The Saddlers Arms","lat":51.28979,"lon":-0.51047,"postcode":"GU23 6JQ","la":"Guildford","era":"trad","nn":575,"risk":50,"cat":"amber"},{"name":"The Sea Horse Inn","lat":51.21831,"lon":-0.56904,"postcode":"GU4 8BU","la":"Guildford","era":"trad","nn":391,"risk":46,"cat":"amber"},{"name":"The Squirrel Inn","lat":51.19914,"lon":-0.6425,"postcode":"GU7 2RN","la":"Guildford","era":"trad","nn":1459,"risk":58,"cat":"amber"},{"name":"The Stag on the River","lat":51.18642,"lon":-0.64868,"postcode":"GU7 2QG","la":"Guildford","era":"trad","nn":1478,"risk":58,"cat":"amber"},{"name":"The Swan Public House","lat":51.26522,"lon":-0.71996,"postcode":"GU12 5HA","la":"Guildford","era":"trad","nn":600,"risk":50,"cat":"amber"},{"name":"The Weyside","lat":51.23177,"lon":-0.57313,"postcode":"GU1 3XJ","la":"Guildford","era":"other","nn":261,"risk":27,"cat":"green"},{"name":"The White Hart","lat":51.23157,"lon":-0.73227,"postcode":"GU10 1DH","la":"Guildford","era":"trad","nn":353,"risk":33,"cat":"amber"},{"name":"The White Hart","lat":51.29338,"lon":-0.64594,"postcode":"GU24 0LP","la":"Guildford","era":"trad","nn":271,"risk":47,"cat":"amber"},{"name":"The White Hart","lat":51.24955,"lon":-0.63755,"postcode":"GU3 3DZ","la":"Guildford","era":"trad","nn":805,"risk":51,"cat":"amber"},{"name":"The White Horse","lat":51.21874,"lon":-0.46513,"postcode":"GU5 9HS","la":"Guildford","era":"trad","nn":0,"risk":43,"cat":"amber"},{"name":"The William Bray","lat":51.21874,"lon":-0.46513,"postcode":"GU5 9HS","la":"Guildford","era":"other","nn":0,"risk":43,"cat":"amber"},{"name":"Three Pigeons","lat":51.23623,"lon":-0.57105,"postcode":"GU1 3AJ","la":"Guildford","era":"other","nn":49,"risk":26,"cat":"green"},{"name":"Weybourne House","lat":51.22938,"lon":-0.57761,"postcode":"GU2 4DR","la":"Guildford","era":"other","nn":356,"risk":28,"cat":"green"},{"name":"White House Public House","lat":51.23452,"lon":-0.57791,"postcode":"GU2 4AJ","la":"Guildford","era":"mod","nn":0,"risk":26,"cat":"green"},{"name":"William IV Pub","lat":51.20955,"lon":-0.47627,"postcode":"GU5 9DG","la":"Guildford","era":"other","nn":1283,"risk":57,"cat":"amber"},{"name":"Withies Inn","lat":51.21182,"lon":-0.62133,"postcode":"GU3 1JA","la":"Guildford","era":"trad","nn":587,"risk":47,"cat":"amber"},{"name":"Wooden Bridge","lat":51.2488,"lon":-0.58576,"postcode":"GU2 9AA","la":"Guildford","era":"other","nn":334,"risk":30,"cat":"green"},{"name":"Y Bar","lat":51.23694,"lon":-0.57763,"postcode":"GU1 4SG","la":"Guildford","era":"other","nn":37,"risk":26,"cat":"green"},{"name":"Ye Olde Ship Inn","lat":51.22641,"lon":-0.5795,"postcode":"GU2 4EB","la":"Guildford","era":"trad","nn":356,"risk":28,"cat":"green"},{"name":"Broadway Club","lat":51.2808,"lon":-0.8405,"postcode":"GU51 3RN","la":"Hart","era":"other","nn":214,"risk":33,"cat":"amber"},{"name":"Dog And Partridge","lat":51.34197,"lon":-0.82834,"postcode":"GU46 7LR","la":"Hart","era":"other","nn":115,"risk":35,"cat":"amber"},{"name":"Falkners Arms","lat":51.29498,"lon":-0.82387,"postcode":"GU51 2XF","la":"Hart","era":"trad","nn":420,"risk":52,"cat":"amber"},{"name":"Fleet Social \\\\& Bowling Club","lat":51.28314,"lon":-0.8364,"postcode":"GU51 3RZ","la":"Hart","era":"mod","nn":386,"risk":35,"cat":"amber"},{"name":"Fox And Hounds Public House","lat":51.27016,"lon":-0.85085,"postcode":"GU51 5NP","la":"Hart","era":"trad","nn":913,"risk":56,"cat":"amber"},{"name":"Hawley Bowling Club","lat":51.32596,"lon":-0.7797,"postcode":"GU17 9BW","la":"Hart","era":"other","nn":549,"risk":56,"cat":"amber"},{"name":"Heron On The Lake","lat":51.29222,"lon":-0.828,"postcode":"GU51 2RY","la":"Hart","era":"other","nn":420,"risk":52,"cat":"amber"},{"name":"Mr Bumble PH","lat":51.33083,"lon":-0.77844,"postcode":"GU17 9AP","la":"Hart","era":"other","nn":549,"risk":53,"cat":"amber"},{"name":"Prince Of Wales Public House","lat":51.27322,"lon":-0.83791,"postcode":"GU52 7SY","la":"Hart","era":"trad","nn":499,"risk":35,"cat":"amber"},{"name":"Propaganda Music Canteen","lat":51.27888,"lon":-0.84458,"postcode":"GU51 3BU","la":"Hart","era":"other","nn":75,"risk":32,"cat":"amber"},{"name":"The Anchor Public House","lat":51.33124,"lon":-0.83844,"postcode":"GU46 6EP","la":"Hart","era":"trad","nn":1177,"risk":63,"cat":"red"},{"name":"The Cricketers Public House","lat":51.33432,"lon":-0.82224,"postcode":"GU46 6BA","la":"Hart","era":"other","nn":670,"risk":54,"cat":"amber"},{"name":"The Crown And Cushion","lat":51.30621,"lon":-0.80265,"postcode":"GU17 9UA","la":"Hart","era":"trad","nn":1634,"risk":66,"cat":"red"},{"name":"The Ely Lodge And Restaurant","lat":51.32417,"lon":-0.82239,"postcode":"GU17 9LJ","la":"Hart","era":"other","nn":1129,"risk":62,"cat":"red"},{"name":"The Emporium","lat":51.27998,"lon":-0.84327,"postcode":"GU51 3QW","la":"Hart","era":"other","nn":152,"risk":33,"cat":"amber"},{"name":"The Exchequer","lat":51.26122,"lon":-0.86612,"postcode":"GU51 5SU","la":"Hart","era":"other","nn":1122,"risk":62,"cat":"red"},{"name":"The Foresters","lat":51.26395,"lon":-0.82626,"postcode":"GU52 8EH","la":"Hart","era":"other","nn":486,"risk":55,"cat":"amber"},{"name":"The Hampshire Arms","lat":51.2343,"lon":-0.86085,"postcode":"GU10 5QU","la":"Hart","era":"trad","nn":224,"risk":53,"cat":"amber"},{"name":"The Oatsheaf Public House","lat":51.27789,"lon":-0.84644,"postcode":"GU51 5DR","la":"Hart","era":"trad","nn":113,"risk":33,"cat":"amber"},{"name":"The Plume Of Feathers","lat":51.23291,"lon":-0.86318,"postcode":"GU10 5NT","la":"Hart","era":"other","nn":224,"risk":53,"cat":"amber"},{"name":"The Prince Arthur","lat":51.27878,"lon":-0.84564,"postcode":"GU51 4BX","la":"Hart","era":"trad","nn":75,"risk":32,"cat":"amber"},{"name":"The Royal Oak","lat":51.33951,"lon":-0.81734,"postcode":"GU46 7UG","la":"Hart","era":"trad","nn":670,"risk":39,"cat":"amber"},{"name":"The Station","lat":51.29017,"lon":-0.83312,"postcode":"GU51 3QJ","la":"Hart","era":"other","nn":423,"risk":40,"cat":"amber"},{"name":"The Tweseldown","lat":51.2596,"lon":-0.82689,"postcode":"GU52 8DY","la":"Hart","era":"other","nn":486,"risk":55,"cat":"amber"},{"name":"The Windmill","lat":51.24331,"lon":-0.8314,"postcode":"GU10 5BJ","la":"Hart","era":"trad","nn":1838,"risk":67,"cat":"red"},{"name":"The Wyvern Public House","lat":51.27679,"lon":-0.83358,"postcode":"GU51 3NW","la":"Hart","era":"other","nn":499,"risk":35,"cat":"amber"},{"name":"White Lion","lat":51.34266,"lon":-0.82958,"postcode":"GU46 7RX","la":"Hart","era":"trad","nn":115,"risk":38,"cat":"amber"},{"name":"Yateley United Community Centre Ltd","lat":51.34963,"lon":-0.82868,"postcode":"GU46 7SZ","la":"Hart","era":"other","nn":778,"risk":55,"cat":"amber"},{"name":"Royal British Legion (Virginia Water)","lat":51.40135,"lon":-0.5643,"postcode":"GU25 4AD","la":"Runnymede","era":"trad","nn":1102,"risk":58,"cat":"amber"},{"name":"The Rose & Olive Branch","lat":51.41272,"lon":-0.57473,"postcode":"GU25 4LH","la":"Runnymede","era":"trad","nn":1241,"risk":59,"cat":"amber"},{"name":"Aldershot & Fleet RUFC","lat":51.23549,"lon":-0.74149,"postcode":"GU12 4BP","la":"Rushmoor","era":"other","nn":293,"risk":31,"cat":"amber"},{"name":"Aldershot Cricket Club","lat":51.23522,"lon":-0.74568,"postcode":"GU12 4BP","la":"Rushmoor","era":"other","nn":293,"risk":33,"cat":"amber"},{"name":"Aldershot Traction Club","lat":51.23815,"lon":-0.76941,"postcode":"GU11 3NE","la":"Rushmoor","era":"other","nn":396,"risk":34,"cat":"amber"},{"name":"Alexandra","lat":51.24875,"lon":-0.76855,"postcode":"GU11 3NP","la":"Rushmoor","era":"other","nn":64,"risk":29,"cat":"green"},{"name":"Army Golf Club","lat":51.26752,"lon":-0.77785,"postcode":"GU11 2HF","la":"Rushmoor","era":"other","nn":2098,"risk":66,"cat":"red"},{"name":"Cove Football Club","lat":51.29966,"lon":-0.7658,"postcode":"GU14 8PF","la":"Rushmoor","era":"other","nn":817,"risk":34,"cat":"amber"},{"name":"Cove Ivy Leaf Club","lat":51.29339,"lon":-0.77194,"postcode":"GU14 0HF","la":"Rushmoor","era":"other","nn":244,"risk":33,"cat":"amber"},{"name":"DB Classical Dining Ltd","lat":51.24869,"lon":-0.76947,"postcode":"GU11 3DR","la":"Rushmoor","era":"other","nn":0,"risk":29,"cat":"green"},{"name":"EGB Catering","lat":51.24869,"lon":-0.76947,"postcode":"GU11 3DR","la":"Rushmoor","era":"other","nn":0,"risk":29,"cat":"green"},{"name":"Elephant & Castle","lat":51.27504,"lon":-0.74606,"postcode":"GU14 6ET","la":"Rushmoor","era":"other","nn":145,"risk":32,"cat":"amber"},{"name":"Excelsior Club","lat":51.24672,"lon":-0.76375,"postcode":"GU11 1ND","la":"Rushmoor","era":"other","nn":190,"risk":30,"cat":"green"},{"name":"Farnborough Football Club","lat":51.3103,"lon":-0.76301,"postcode":"GU14 8UD","la":"Rushmoor","era":"other","nn":359,"risk":34,"cat":"amber"},{"name":"Garden Gate Public House","lat":51.24301,"lon":-0.76258,"postcode":"GU11 3BT","la":"Rushmoor","era":"other","nn":420,"risk":32,"cat":"amber"},{"name":"Hawley Arms","lat":51.3107,"lon":-0.75741,"postcode":"GU14 8EL","la":"Rushmoor","era":"trad","nn":392,"risk":31,"cat":"amber"},{"name":"Imperial Standard","lat":51.24706,"lon":-0.77695,"postcode":"GU11 3PL","la":"Rushmoor","era":"other","nn":551,"risk":32,"cat":"amber"},{"name":"New Inn Public House","lat":51.31643,"lon":-0.76528,"postcode":"GU17 9ES","la":"Rushmoor","era":"trad","nn":351,"risk":34,"cat":"amber"},{"name":"Plough And Horses","lat":51.296,"lon":-0.78575,"postcode":"GU14 9RG","la":"Rushmoor","era":"trad","nn":529,"risk":52,"cat":"amber"},{"name":"Queens Hotel","lat":51.24995,"lon":-0.76687,"postcode":"GU11 1BH","la":"Rushmoor","era":"trad","nn":29,"risk":29,"cat":"green"},{"name":"Sovereign Snooker","lat":51.2757,"lon":-0.74784,"postcode":"GU14 6EN","la":"Rushmoor","era":"other","nn":145,"risk":30,"cat":"green"},{"name":"The Alexandra","lat":51.29321,"lon":-0.75845,"postcode":"GU14 7PH","la":"Rushmoor","era":"other","nn":82,"risk":29,"cat":"green"},{"name":"The Crab & Anchor Public House","lat":51.29133,"lon":-0.7872,"postcode":"GU14 0NA","la":"Rushmoor","era":"trad","nn":529,"risk":52,"cat":"amber"},{"name":"The Crimea Inn","lat":51.24852,"lon":-0.75744,"postcode":"GU11 1UE","la":"Rushmoor","era":"trad","nn":293,"risk":31,"cat":"amber"},{"name":"The Fox Inn","lat":51.31261,"lon":-0.77411,"postcode":"GU14 9BN","la":"Rushmoor","era":"trad","nn":747,"risk":39,"cat":"amber"},{"name":"The Funky End","lat":51.24776,"lon":-0.76147,"postcode":"GU11 1HT","la":"Rushmoor","era":"other","nn":196,"risk":30,"cat":"green"},{"name":"The George","lat":51.24932,"lon":-0.76426,"postcode":"GU11 1DX","la":"Rushmoor","era":"trad","nn":104,"risk":29,"cat":"green"},{"name":"The Gloster","lat":51.28545,"lon":-0.75832,"postcode":"GU14 7DL","la":"Rushmoor","era":"other","nn":396,"risk":31,"cat":"amber"},{"name":"The Prince Of Wales Public House","lat":51.29962,"lon":-0.74253,"postcode":"GU14 8AL","la":"Rushmoor","era":"trad","nn":847,"risk":40,"cat":"amber"},{"name":"The Railway Enthusiasts Club","lat":51.31354,"lon":-0.76323,"postcode":"GU14 8JG","la":"Rushmoor","era":"trad","nn":351,"risk":34,"cat":"amber"},{"name":"The Red Lion","lat":51.24231,"lon":-0.74864,"postcode":"GU12 4EZ","la":"Rushmoor","era":"trad","nn":387,"risk":31,"cat":"amber"},{"name":"The Royal British Legion Club","lat":51.28133,"lon":-0.74829,"postcode":"GU14 6QB","la":"Rushmoor","era":"trad","nn":395,"risk":31,"cat":"amber"},{"name":"The Royal Staff","lat":51.24659,"lon":-0.7502,"postcode":"GU12 4NW","la":"Rushmoor","era":"trad","nn":489,"risk":32,"cat":"amber"},{"name":"The Ship Inn","lat":51.30601,"lon":-0.75002,"postcode":"GU14 8BE","la":"Rushmoor","era":"trad","nn":732,"risk":39,"cat":"amber"},{"name":"The Snow Goose","lat":51.30363,"lon":-0.77585,"postcode":"GU14 9DX","la":"Rushmoor","era":"other","nn":827,"risk":54,"cat":"amber"},{"name":"The Squirrel","lat":51.28046,"lon":-0.73811,"postcode":"GU14 6LR","la":"Rushmoor","era":"other","nn":644,"risk":33,"cat":"amber"},{"name":"The Swan Farnborough","lat":51.28394,"lon":-0.75317,"postcode":"GU14 6TL","la":"Rushmoor","era":"trad","nn":396,"risk":34,"cat":"amber"},{"name":"The Tilly Shilling","lat":51.29329,"lon":-0.75729,"postcode":"GU14 7PG","la":"Rushmoor","era":"other","nn":82,"risk":29,"cat":"green"},{"name":"The Tradesmans Arms","lat":51.29187,"lon":-0.76942,"postcode":"GU14 0EX","la":"Rushmoor","era":"trad","nn":136,"risk":30,"cat":"green"},{"name":"The Victoria","lat":51.24839,"lon":-0.7643,"postcode":"GU11 1JW","la":"Rushmoor","era":"trad","nn":104,"risk":29,"cat":"green"},{"name":"Tiffanys Public House","lat":51.24706,"lon":-0.76663,"postcode":"GU11 3DY","la":"Rushmoor","era":"other","nn":194,"risk":30,"cat":"green"},{"name":"Trafalgar Inn","lat":51.24982,"lon":-0.7665,"postcode":"GU11 1HA","la":"Rushmoor","era":"trad","nn":29,"risk":29,"cat":"green"},{"name":"West End Centre","lat":51.24818,"lon":-0.76877,"postcode":"GU11 3JD","la":"Rushmoor","era":"other","nn":64,"risk":29,"cat":"green"},{"name":"West Farnborough Social Club","lat":51.29121,"lon":-0.76777,"postcode":"GU14 0AH","la":"Rushmoor","era":"mod","nn":136,"risk":30,"cat":"green"},{"name":"White Lion Pub","lat":51.24047,"lon":-0.74391,"postcode":"GU12 4EA","la":"Rushmoor","era":"trad","nn":387,"risk":31,"cat":"amber"},{"name":"York Road Social Club","lat":51.27796,"lon":-0.74646,"postcode":"GU14 6NG","la":"Rushmoor","era":"mod","nn":269,"risk":30,"cat":"green"},{"name":"Agincourt Nightclub","lat":51.33429,"lon":-0.76653,"postcode":"GU15 3JA","la":"Surrey Heath","era":"other","nn":807,"risk":51,"cat":"amber"},{"name":"Bob Potter Leisure Ltd","lat":51.30263,"lon":-0.7203,"postcode":"GU16 6PT","la":"Surrey Heath","era":"other","nn":352,"risk":30,"cat":"green"},{"name":"Camberley And District Club","lat":51.33915,"lon":-0.74744,"postcode":"GU15 3JS","la":"Surrey Heath","era":"other","nn":18,"risk":28,"cat":"green"},{"name":"Carpenters Arms","lat":51.33666,"lon":-0.74738,"postcode":"GU15 3PE","la":"Surrey Heath","era":"trad","nn":170,"risk":29,"cat":"green"},{"name":"Chobham Club","lat":51.35267,"lon":-0.60528,"postcode":"GU24 8LD","la":"Surrey Heath","era":"other","nn":548,"risk":32,"cat":"amber"},{"name":"Duke Of York","lat":51.33707,"lon":-0.74401,"postcode":"GU15 3RS","la":"Surrey Heath","era":"trad","nn":38,"risk":28,"cat":"green"},{"name":"Four Horseshoes","lat":51.33081,"lon":-0.75633,"postcode":"GU15 3EQ","la":"Surrey Heath","era":"trad","nn":417,"risk":36,"cat":"amber"},{"name":"Frimley Green Working Mens Club","lat":51.30077,"lon":-0.72866,"postcode":"GU16 6HX","la":"Surrey Heath","era":"trad","nn":149,"risk":29,"cat":"green"},{"name":"Harvester Kings Head","lat":51.30021,"lon":-0.72357,"postcode":"GU16 6NR","la":"Surrey Heath","era":"trad","nn":294,"risk":30,"cat":"green"},{"name":"Horse And Groom","lat":51.34629,"lon":-0.60345,"postcode":"GU24 8AA","la":"Surrey Heath","era":"trad","nn":40,"risk":33,"cat":"amber"},{"name":"Kingfisher On The Quay","lat":51.29316,"lon":-0.73607,"postcode":"GU16 6DS","la":"Surrey Heath","era":"trad","nn":672,"risk":35,"cat":"amber"},{"name":"Kings Arms Hungry Horse","lat":51.36121,"lon":-0.6925,"postcode":"GU19 5AZ","la":"Surrey Heath","era":"trad","nn":112,"risk":31,"cat":"amber"},{"name":"Lightwater Club","lat":51.35153,"lon":-0.66411,"postcode":"GU18 5SD","la":"Surrey Heath","era":"other","nn":201,"risk":47,"cat":"amber"},{"name":"Location","lat":51.33876,"lon":-0.7446,"postcode":"GU15 3RB","la":"Surrey Heath","era":"other","nn":66,"risk":28,"cat":"green"},{"name":"Station Tap / KT / CB / LL / 88th / VM / SC / PA / DM","lat":51.33742,"lon":-0.74354,"postcode":"GU15 3RB","la":"Surrey Heath","era":"mod","nn":23,"risk":28,"cat":"green"},{"name":"The Bear","lat":51.33815,"lon":-0.74788,"postcode":"GU15 3PQ","la":"Surrey Heath","era":"other","nn":115,"risk":29,"cat":"green"},{"name":"The Bee","lat":51.37401,"lon":-0.67395,"postcode":"GU20 6PD","la":"Surrey Heath","era":"other","nn":634,"risk":50,"cat":"amber"},{"name":"The Brickmakers","lat":51.37206,"lon":-0.63794,"postcode":"GU20 6HT","la":"Surrey Heath","era":"other","nn":1111,"risk":58,"cat":"amber"},{"name":"The Cabin","lat":51.33922,"lon":-0.74766,"postcode":"GU15 3JS","la":"Surrey Heath","era":"other","nn":18,"risk":28,"cat":"green"},{"name":"The Cedar Tree","lat":51.36066,"lon":-0.69432,"postcode":"GU19 5AG","la":"Surrey Heath","era":"other","nn":141,"risk":34,"cat":"amber"},{"name":"The Claude Du Vall","lat":51.33721,"lon":-0.74351,"postcode":"GU15 3RB","la":"Surrey Heath","era":"other","nn":23,"risk":28,"cat":"green"},{"name":"The Crabtree","lat":51.32156,"lon":-0.75323,"postcode":"GU15 2QJ","la":"Surrey Heath","era":"other","nn":636,"risk":52,"cat":"amber"},{"name":"The Cricketers","lat":51.36912,"lon":-0.68867,"postcode":"GU19 5HR","la":"Surrey Heath","era":"other","nn":817,"risk":51,"cat":"amber"},{"name":"The Crossley Club","lat":51.35192,"lon":-0.66694,"postcode":"GU18 5RA","la":"Surrey Heath","era":"trad","nn":121,"risk":46,"cat":"amber"},{"name":"The Foresters Arms","lat":51.35524,"lon":-0.70083,"postcode":"GU19 5DH","la":"Surrey Heath","era":"trad","nn":753,"risk":38,"cat":"amber"},{"name":"The Four Horseshoes","lat":51.35725,"lon":-0.60824,"postcode":"GU24 8QP","la":"Surrey Heath","era":"trad","nn":375,"risk":48,"cat":"amber"},{"name":"The Frog","lat":51.3046,"lon":-0.70441,"postcode":"GU16 6QF","la":"Surrey Heath","era":"other","nn":1126,"risk":58,"cat":"amber"},{"name":"The Hare & Hounds","lat":51.34001,"lon":-0.64838,"postcode":"GU24 9QG","la":"Surrey Heath","era":"trad","nn":268,"risk":47,"cat":"amber"},{"name":"The Inn At West End","lat":51.34007,"lon":-0.64451,"postcode":"GU24 9PW","la":"Surrey Heath","era":"trad","nn":88,"risk":46,"cat":"amber"},{"name":"The Miners Arms","lat":51.29583,"lon":-0.72739,"postcode":"GU16 6EZ","la":"Surrey Heath","era":"trad","nn":555,"risk":32,"cat":"amber"},{"name":"The Mytchett Community Centre","lat":51.28694,"lon":-0.7264,"postcode":"GU16 6AA","la":"Surrey Heath","era":"other","nn":965,"risk":52,"cat":"amber"},{"name":"The Old Wheatsheaf","lat":51.30464,"lon":-0.72881,"postcode":"GU16 6LA","la":"Surrey Heath","era":"trad","nn":350,"risk":30,"cat":"green"},{"name":"The Railway Arms","lat":51.31329,"lon":-0.74549,"postcode":"GU16 7JE","la":"Surrey Heath","era":"trad","nn":214,"risk":34,"cat":"amber"},{"name":"The Red Lion","lat":51.3528,"lon":-0.66796,"postcode":"GU18 5RP","la":"Surrey Heath","era":"trad","nn":121,"risk":46,"cat":"amber"},{"name":"The Red Lion Chobham","lat":51.35745,"lon":-0.60284,"postcode":"GU24 8RG","la":"Surrey Heath","era":"trad","nn":375,"risk":48,"cat":"amber"},{"name":"The Rose And Thistle","lat":51.30168,"lon":-0.72708,"postcode":"GU16 6HT","la":"Surrey Heath","era":"trad","nn":149,"risk":29,"cat":"green"},{"name":"The Royal Standard","lat":51.3272,"lon":-0.75467,"postcode":"GU15 2PP","la":"Surrey Heath","era":"trad","nn":417,"risk":48,"cat":"amber"},{"name":"The Sun Inn","lat":51.34653,"lon":-0.60389,"postcode":"GU24 8AF","la":"Surrey Heath","era":"trad","nn":40,"risk":33,"cat":"amber"},{"name":"The Sun Pub","lat":51.36503,"lon":-0.65398,"postcode":"GU20 6EN","la":"Surrey Heath","era":"other","nn":253,"risk":47,"cat":"amber"},{"name":"The Surrey Cricketers","lat":51.3666,"lon":-0.65135,"postcode":"GU20 6HE","la":"Surrey Heath","era":"other","nn":253,"risk":47,"cat":"amber"},{"name":"The Wheatsheaf","lat":51.32972,"lon":-0.70166,"postcode":"GU15 1AX","la":"Surrey Heath","era":"trad","nn":2800,"risk":70,"cat":"red"},{"name":"The White Hart","lat":51.34719,"lon":-0.60337,"postcode":"GU24 8AA","la":"Surrey Heath","era":"trad","nn":83,"risk":33,"cat":"amber"},{"name":"The Windmill","lat":51.37815,"lon":-0.66767,"postcode":"GU20 6PJ","la":"Surrey Heath","era":"trad","nn":634,"risk":52,"cat":"amber"},{"name":"Three Mariners","lat":51.36199,"lon":-0.69147,"postcode":"GU19 5AW","la":"Surrey Heath","era":"other","nn":112,"risk":31,"cat":"amber"},{"name":"Trilogy Camberley","lat":51.33816,"lon":-0.74464,"postcode":"GU15 3RS","la":"Surrey Heath","era":"other","nn":66,"risk":28,"cat":"green"},{"name":"West End Social Club","lat":51.34085,"lon":-0.64432,"postcode":"GU24 9PL","la":"Surrey Heath","era":"mod","nn":88,"risk":46,"cat":"amber"},{"name":"White Hart","lat":51.31463,"lon":-0.74327,"postcode":"GU16 7HU","la":"Surrey Heath","era":"trad","nn":214,"risk":49,"cat":"amber"},{"name":"Windlesham Club And Theatre","lat":51.36845,"lon":-0.66383,"postcode":"GU20 6AA","la":"Surrey Heath","era":"other","nn":783,"risk":38,"cat":"amber"},{"name":"Alfold Barn","lat":51.10546,"lon":-0.51058,"postcode":"GU6 8JE","la":"Waverley","era":"other","nn":1215,"risk":58,"cat":"amber"},{"name":"Borelli's Bar and Restaurant","lat":51.21482,"lon":-0.79839,"postcode":"GU9 7NU","la":"Waverley","era":"mod","nn":53,"risk":27,"cat":"green"},{"name":"Bramley Social Club","lat":51.19496,"lon":-0.55673,"postcode":"GU5 0AX","la":"Waverley","era":"other","nn":180,"risk":45,"cat":"amber"},{"name":"Cantelo's Catering","lat":51.14356,"lon":-0.48675,"postcode":"GU6 7AN","la":"Waverley","era":"other","nn":304,"risk":46,"cat":"amber"},{"name":"Care Ashore","lat":51.10362,"lon":-0.52875,"postcode":"GU6 8EX","la":"Waverley","era":"other","nn":1204,"risk":58,"cat":"amber"},{"name":"Churt Working Men's Club","lat":51.13952,"lon":-0.77998,"postcode":"GU10 2HX","la":"Waverley","era":"trad","nn":300,"risk":49,"cat":"amber"},{"name":"Elstead Royal British Legion","lat":51.18399,"lon":-0.70622,"postcode":"GU8 6DG","la":"Waverley","era":"trad","nn":261,"risk":46,"cat":"amber"},{"name":"Ewhurst Village Club","lat":51.15597,"lon":-0.44081,"postcode":"GU6 7QF","la":"Waverley","era":"other","nn":99,"risk":47,"cat":"amber"},{"name":"Farncombe Social Club","lat":51.19822,"lon":-0.60387,"postcode":"GU7 3NG","la":"Waverley","era":"mod","nn":186,"risk":33,"cat":"amber"},{"name":"Farncombe Wok and Grill","lat":51.19983,"lon":-0.60312,"postcode":"GU7 3NH","la":"Waverley","era":"other","nn":186,"risk":33,"cat":"amber"},{"name":"Farnham Brewing Company Ltd","lat":51.17327,"lon":-0.77222,"postcode":"GU10 3BS","la":"Waverley","era":"other","nn":1587,"risk":60,"cat":"amber"},{"name":"Farnham Conservative Club","lat":51.21426,"lon":-0.79924,"postcode":"GU9 7PQ","la":"Waverley","era":"other","nn":86,"risk":27,"cat":"green"},{"name":"Farnham Masonic Club","lat":51.2168,"lon":-0.80086,"postcode":"GU9 7JB","la":"Waverley","era":"trad","nn":44,"risk":27,"cat":"green"},{"name":"Farnham Rugby Club","lat":51.22692,"lon":-0.77506,"postcode":"GU9 9FA","la":"Waverley","era":"other","nn":0,"risk":27,"cat":"green"},{"name":"Fox And Finch","lat":51.1854,"lon":-0.61685,"postcode":"GU7 1HF","la":"Waverley","era":"trad","nn":0,"risk":27,"cat":"green"},{"name":"Foxes of Farnham","lat":51.21321,"lon":-0.79926,"postcode":"GU9 7PB","la":"Waverley","era":"trad","nn":65,"risk":27,"cat":"green"},{"name":"Frensham Royal British Legion","lat":51.17327,"lon":-0.79531,"postcode":"GU10 3BJ","la":"Waverley","era":"trad","nn":51,"risk":47,"cat":"amber"},{"name":"Godalming Masonic Hall","lat":51.18122,"lon":-0.62268,"postcode":"GU7 1RQ","la":"Waverley","era":"trad","nn":400,"risk":30,"cat":"green"},{"name":"Hale and Heath End Social Club","lat":51.23449,"lon":-0.79985,"postcode":"GU9 0JH","la":"Waverley","era":"mod","nn":623,"risk":51,"cat":"amber"},{"name":"Jack and Alice","lat":51.21525,"lon":-0.79871,"postcode":"GU9 7ND","la":"Waverley","era":"other","nn":53,"risk":27,"cat":"green"},{"name":"Lower Bourne Social Club","lat":51.19582,"lon":-0.79672,"postcode":"GU10 3LL","la":"Waverley","era":"mod","nn":486,"risk":35,"cat":"amber"},{"name":"Nutrition21at Farnham Rugby Club","lat":51.22692,"lon":-0.77506,"postcode":"GU9 9FA","la":"Waverley","era":"other","nn":0,"risk":27,"cat":"green"},{"name":"Ockford Social Club","lat":51.18027,"lon":-0.62822,"postcode":"GU7 2NH","la":"Waverley","era":"mod","nn":400,"risk":32,"cat":"amber"},{"name":"Shottermill Club Ltd","lat":51.08697,"lon":-0.73545,"postcode":"GU27 1NL","la":"Waverley","era":"trad","nn":395,"risk":47,"cat":"amber"},{"name":"Thai Food at The","lat":51.19291,"lon":-0.81324,"postcode":"GU10 4NS","la":"Waverley","era":"other","nn":0,"risk":29,"cat":"green"},{"name":"The Albion Tavern","lat":51.2198,"lon":-0.78693,"postcode":"GU9 9QH","la":"Waverley","era":"other","nn":381,"risk":29,"cat":"green"},{"name":"The Alma","lat":51.23736,"lon":-0.79217,"postcode":"GU9 0LJ","la":"Waverley","era":"other","nn":491,"risk":48,"cat":"amber"},{"name":"The Antelope Taproom & Bottle Shop","lat":51.1854,"lon":-0.61408,"postcode":"GU7 1AW","la":"Waverley","era":"mod","nn":157,"risk":28,"cat":"green"},{"name":"The Apple Tree","lat":51.08814,"lon":-0.73011,"postcode":"GU27 1JB","la":"Waverley","era":"other","nn":395,"risk":47,"cat":"amber"},{"name":"The Barley Mow","lat":51.18379,"lon":-0.75242,"postcode":"GU10 2BU","la":"Waverley","era":"other","nn":1808,"risk":62,"cat":"red"},{"name":"The Bat and Ball Freehouse","lat":51.19304,"lon":-0.80896,"postcode":"GU10 4SA","la":"Waverley","era":"other","nn":299,"risk":29,"cat":"green"},{"name":"The Bear and Ragged Staff","lat":51.19721,"lon":-0.82049,"postcode":"GU10 4QR","la":"Waverley","era":"other","nn":37,"risk":29,"cat":"green"},{"name":"The Borough Hall","lat":51.18708,"lon":-0.60974,"postcode":"GU7 1HR","la":"Waverley","era":"other","nn":168,"risk":28,"cat":"green"},{"name":"The Bourne Club","lat":51.20263,"lon":-0.79408,"postcode":"GU9 8HB","la":"Waverley","era":"other","nn":515,"risk":35,"cat":"amber"},{"name":"The Bricklayers Arms","lat":51.183,"lon":-0.52333,"postcode":"GU5 0UA","la":"Waverley","era":"trad","nn":218,"risk":48,"cat":"amber"},{"name":"The Bulls Head","lat":51.1556,"lon":-0.44211,"postcode":"GU6 7QD","la":"Waverley","era":"trad","nn":99,"risk":47,"cat":"amber"},{"name":"The Charterhouse Arms","lat":51.19111,"lon":-0.6147,"postcode":"GU7 2PQ","la":"Waverley","era":"other","nn":543,"risk":31,"cat":"amber"},{"name":"The Cricketers","lat":51.19559,"lon":-0.60769,"postcode":"GU7 2HU","la":"Waverley","era":"other","nn":396,"risk":29,"cat":"green"},{"name":"The Cricketers Inn","lat":51.23123,"lon":-0.7617,"postcode":"GU9 9LU","la":"Waverley","era":"trad","nn":496,"risk":48,"cat":"amber"},{"name":"The Crossways Inn","lat":51.13689,"lon":-0.77897,"postcode":"GU10 2JS","la":"Waverley","era":"trad","nn":300,"risk":49,"cat":"amber"},{"name":"The Crown Inn","lat":51.22808,"lon":-0.76674,"postcode":"GU9 9JS","la":"Waverley","era":"trad","nn":496,"risk":33,"cat":"amber"},{"name":"The Crown Inn","lat":51.10971,"lon":-0.62915,"postcode":"GU8 4TX","la":"Waverley","era":"trad","nn":57,"risk":47,"cat":"amber"},{"name":"The Elm Tree","lat":51.23207,"lon":-0.77749,"postcode":"GU9 9ES","la":"Waverley","era":"trad","nn":540,"risk":30,"cat":"green"},{"name":"The Glass House/Students' Union","lat":51.21672,"lon":-0.80483,"postcode":"GU9 7DS","la":"Waverley","era":"other","nn":277,"risk":29,"cat":"green"},{"name":"The Golden Fleece","lat":51.18612,"lon":-0.70464,"postcode":"GU8 6DB","la":"Waverley","era":"trad","nn":240,"risk":46,"cat":"amber"},{"name":"The Grantley Arms","lat":51.19741,"lon":-0.54561,"postcode":"GU5 0PE","la":"Waverley","era":"trad","nn":820,"risk":50,"cat":"amber"},{"name":"The Hare and Hounds","lat":51.18341,"lon":-0.82323,"postcode":"GU10 4AA","la":"Waverley","era":"trad","nn":267,"risk":46,"cat":"amber"},{"name":"The Holly Bush","lat":51.17287,"lon":-0.79497,"postcode":"GU10 3BJ","la":"Waverley","era":"trad","nn":51,"risk":47,"cat":"amber"},{"name":"The Hop Blossom","lat":51.21581,"lon":-0.80087,"postcode":"GU9 7HX","la":"Waverley","era":"other","nn":110,"risk":27,"cat":"green"},{"name":"The Jack Phillips","lat":51.18595,"lon":-0.61198,"postcode":"GU7 1DY","la":"Waverley","era":"other","nn":129,"risk":28,"cat":"green"},{"name":"The Jolly Farmer","lat":51.19346,"lon":-0.55765,"postcode":"GU5 0HB","la":"Waverley","era":"other","nn":180,"risk":45,"cat":"amber"},{"name":"The Lamb","lat":51.21196,"lon":-0.7959,"postcode":"GU9 7RJ","la":"Waverley","era":"other","nn":96,"risk":27,"cat":"green"},{"name":"The Lost Boy","lat":51.21288,"lon":-0.7985,"postcode":"GU9 7NX","la":"Waverley","era":"other","nn":65,"risk":27,"cat":"green"},{"name":"The Merry Harriers","lat":51.1434,"lon":-0.61898,"postcode":"GU8 4DR","la":"Waverley","era":"other","nn":2064,"risk":64,"cat":"red"},{"name":"The Nelson Arms","lat":51.2169,"lon":-0.80026,"postcode":"GU9 7JQ","la":"Waverley","era":"trad","nn":44,"risk":27,"cat":"green"},{"name":"The Plough","lat":51.21284,"lon":-0.80623,"postcode":"GU9 7EH","la":"Waverley","era":"trad","nn":253,"risk":28,"cat":"green"},{"name":"The Red Lion","lat":51.18484,"lon":-0.52443,"postcode":"GU5 0UB","la":"Waverley","era":"trad","nn":218,"risk":48,"cat":"amber"},{"name":"The Richard Onslow","lat":51.14167,"lon":-0.48989,"postcode":"GU6 8AU","la":"Waverley","era":"other","nn":228,"risk":46,"cat":"amber"},{"name":"The Richmond Arms","lat":51.18487,"lon":-0.61636,"postcode":"GU7 1AF","la":"Waverley","era":"trad","nn":68,"risk":27,"cat":"green"},{"name":"The Rose and Crown","lat":51.1854,"lon":-0.61685,"postcode":"GU7 1HF","la":"Waverley","era":"trad","nn":0,"risk":27,"cat":"green"},{"name":"The Royal Arms","lat":51.23973,"lon":-0.78622,"postcode":"GU9 9AX","la":"Waverley","era":"trad","nn":491,"risk":48,"cat":"amber"},{"name":"The Royal Oak","lat":51.19705,"lon":-0.82002,"postcode":"GU10 4QS","la":"Waverley","era":"trad","nn":37,"risk":29,"cat":"green"},{"name":"The Running Stream","lat":51.23655,"lon":-0.77449,"postcode":"GU9 9HE","la":"Waverley","era":"other","nn":396,"risk":34,"cat":"amber"},{"name":"The Sandrock","lat":51.19291,"lon":-0.81324,"postcode":"GU10 4NS","la":"Waverley","era":"other","nn":0,"risk":29,"cat":"green"},{"name":"The Shepherd and Flock","lat":51.2196,"lon":-0.77899,"postcode":"GU9 9JB","la":"Waverley","era":"other","nn":536,"risk":33,"cat":"amber"},{"name":"The Six Bells","lat":51.2229,"lon":-0.7846,"postcode":"GU9 9QZ","la":"Waverley","era":"other","nn":381,"risk":32,"cat":"amber"},{"name":"The Slug and Lettuce","lat":51.21558,"lon":-0.79681,"postcode":"GU9 7RX","la":"Waverley","era":"other","nn":137,"risk":28,"cat":"green"},{"name":"The Spotted Cow","lat":51.20099,"lon":-0.78124,"postcode":"GU10 3QT","la":"Waverley","era":"other","nn":744,"risk":49,"cat":"amber"},{"name":"The Star","lat":51.15601,"lon":-0.64837,"postcode":"GU8 5LU","la":"Waverley","era":"other","nn":710,"risk":52,"cat":"amber"},{"name":"The Star Inn","lat":51.18627,"lon":-0.61585,"postcode":"GU7 1EL","la":"Waverley","era":"trad","nn":119,"risk":28,"cat":"green"},{"name":"The Sun Inn","lat":51.1856,"lon":-0.61022,"postcode":"GU7 1NN","la":"Waverley","era":"trad","nn":0,"risk":27,"cat":"green"},{"name":"The Sun Inn","lat":51.11612,"lon":-0.56383,"postcode":"GU8 4LE","la":"Waverley","era":"trad","nn":2816,"risk":69,"cat":"red"},{"name":"The Swan Inn","lat":51.08789,"lon":-0.70978,"postcode":"GU27 2HG","la":"Waverley","era":"trad","nn":53,"risk":47,"cat":"amber"},{"name":"The Swan Inn","lat":51.10921,"lon":-0.629,"postcode":"GU8 4TY","la":"Waverley","era":"trad","nn":57,"risk":47,"cat":"amber"},{"name":"The Three Compasses","lat":51.11362,"lon":-0.52214,"postcode":"GU6 8HY","la":"Waverley","era":"other","nn":1204,"risk":58,"cat":"amber"},{"name":"The Three Horseshoes","lat":51.14062,"lon":-0.48707,"postcode":"GU6 8AE","la":"Waverley","era":"trad","nn":228,"risk":46,"cat":"amber"},{"name":"The Three Horseshoes","lat":51.1498,"lon":-0.71099,"postcode":"GU8 6QD","la":"Waverley","era":"trad","nn":3816,"risk":76,"cat":"red"},{"name":"The Three Lions","lat":51.19192,"lon":-0.60277,"postcode":"GU7 3HR","la":"Waverley","era":"trad","nn":532,"risk":30,"cat":"green"},{"name":"The Volunteer","lat":51.1856,"lon":-0.61022,"postcode":"GU7 1NN","la":"Waverley","era":"other","nn":0,"risk":27,"cat":"green"},{"name":"The Wheatsheaf","lat":51.21371,"lon":-0.80287,"postcode":"GU9 7DR","la":"Waverley","era":"trad","nn":253,"risk":28,"cat":"green"},{"name":"The White Hart","lat":51.1497,"lon":-0.64681,"postcode":"GU8 5PH","la":"Waverley","era":"trad","nn":710,"risk":52,"cat":"amber"},{"name":"The White Horse","lat":51.14651,"lon":-0.57019,"postcode":"GU8 4JA","la":"Waverley","era":"trad","nn":3408,"risk":73,"cat":"red"},{"name":"The White Horse Hotel","lat":51.0878,"lon":-0.70905,"postcode":"GU27 2HJ","la":"Waverley","era":"trad","nn":53,"risk":47,"cat":"amber"},{"name":"The William Cobbett","lat":51.21176,"lon":-0.79724,"postcode":"GU9 7QR","la":"Waverley","era":"other","nn":96,"risk":27,"cat":"green"},{"name":"The Woolpack","lat":51.18483,"lon":-0.70187,"postcode":"GU8 6HD","la":"Waverley","era":"trad","nn":240,"risk":46,"cat":"amber"},{"name":"Woolmer Hill Sports Association","lat":51.09349,"lon":-0.74973,"postcode":"GU27 1QA","la":"Waverley","era":"other","nn":1083,"risk":57,"cat":"amber"},{"name":"Yiayia's Kitchen","lat":51.1984,"lon":-0.79109,"postcode":"GU10 3PH","la":"Waverley","era":"mod","nn":486,"risk":35,"cat":"amber"},{"name":"The Thomas Lord","lat":51.01216,"lon":-1.08494,"postcode":"GU32 1LN","la":"Winchester","era":"other","nn":2212,"risk":67,"cat":"red"},{"name":"Brookwood & District Club","lat":51.30456,"lon":-0.63568,"postcode":"GU24 0HJ","la":"Woking","era":"other","nn":1214,"risk":61,"cat":"red"},{"name":"Cellar Magnifique","lat":51.319,"lon":-0.55758,"postcode":"GU21 6EJ","la":"Woking","era":"other","nn":130,"risk":31,"cat":"amber"},{"name":"Crown & Anchor PH","lat":51.30222,"lon":-0.54434,"postcode":"GU22 9LN","la":"Woking","era":"trad","nn":545,"risk":51,"cat":"amber"},{"name":"Crown Public House","lat":51.32345,"lon":-0.57227,"postcode":"GU21 4ST","la":"Woking","era":"trad","nn":47,"risk":35,"cat":"amber"},{"name":"J D Wetherspoons","lat":51.32048,"lon":-0.55524,"postcode":"GU21 5AJ","la":"Woking","era":"other","nn":37,"risk":33,"cat":"amber"},{"name":"Kingfield Arms PH","lat":51.30421,"lon":-0.55151,"postcode":"GU22 9EQ","la":"Woking","era":"trad","nn":545,"risk":39,"cat":"amber"},{"name":"Knaphill Working Mens Club","lat":51.3184,"lon":-0.61809,"postcode":"GU21 2PN","la":"Woking","era":"trad","nn":51,"risk":35,"cat":"amber"},{"name":"Old Woking And District Rec. Club","lat":51.3009,"lon":-0.55979,"postcode":"GU22 9NG","la":"Woking","era":"trad","nn":683,"risk":55,"cat":"amber"},{"name":"Pyrford Cricket Club","lat":51.32374,"lon":-0.50901,"postcode":"GU22 8SP","la":"Woking","era":"other","nn":1360,"risk":62,"cat":"red"},{"name":"Rowbarge Public House","lat":51.31307,"lon":-0.59381,"postcode":"GU21 7SA","la":"Woking","era":"other","nn":1098,"risk":60,"cat":"amber"},{"name":"Slug & Lettuce","lat":51.31998,"lon":-0.55659,"postcode":"GU21 6HX","la":"Woking","era":"other","nn":73,"risk":30,"cat":"green"},{"name":"The Crown Public House","lat":51.31797,"lon":-0.61829,"postcode":"GU21 2PP","la":"Woking","era":"trad","nn":51,"risk":35,"cat":"amber"},{"name":"The Garibaldi","lat":51.31759,"lon":-0.62413,"postcode":"GU21 2QH","la":"Woking","era":"other","nn":408,"risk":50,"cat":"amber"},{"name":"The Junction Tap","lat":51.32026,"lon":-0.55564,"postcode":"GU21 5AJ","la":"Woking","era":"mod","nn":37,"risk":33,"cat":"amber"},{"name":"The Olive Tree Pub & Dining Room","lat":51.28024,"lon":-0.55969,"postcode":"GU4 7QD","la":"Woking","era":"other","nn":1797,"risk":65,"cat":"red"},{"name":"The Plough","lat":51.32998,"lon":-0.57204,"postcode":"GU21 4JL","la":"Woking","era":"trad","nn":723,"risk":52,"cat":"amber"},{"name":"The Princess PH","lat":51.32407,"lon":-0.53953,"postcode":"GU22 8EN","la":"Woking","era":"trad","nn":1163,"risk":60,"cat":"amber"},{"name":"The Red Lion","lat":51.32348,"lon":-0.57159,"postcode":"GU21 4SS","la":"Woking","era":"trad","nn":47,"risk":35,"cat":"amber"},{"name":"The Surrey PH","lat":51.31256,"lon":-0.60958,"postcode":"GU21 8TX","la":"Woking","era":"other","nn":852,"risk":53,"cat":"amber"},{"name":"Wheatsheaf Ember Inns","lat":51.32334,"lon":-0.55993,"postcode":"GU21 4AL","la":"Woking","era":"trad","nn":440,"risk":33,"cat":"amber"},{"name":"Woking Park Bowls Club","lat":51.31149,"lon":-0.55928,"postcode":"GU22 9BA","la":"Woking","era":"trad","nn":843,"risk":41,"cat":"amber"}]