[{"name":"All Bar One","lat":51.51692,"lon":-0.12822,"postcode":"WC1A 1HB","la":"Camden","era":"mod","nn":85,"risk":21,"cat":"green"},{"name":"All Bar One","lat":51.51642,"lon":-0.11923,"postcode":"WC2B 6DX","la":"Camden","era":"mod","nn":75,"risk":21,"cat":"green"},{"name":"Ambassadors Theatre","lat":51.51298,"lon":-0.12796,"postcode":"WC2H 9ND","la":"Camden","era":"other","nn":0,"risk":21,"cat":"green"},{"name":"Amelie's Wine House","lat":51.51997,"lon":-0.13087,"postcode":"WC1E 7BS","la":"Camden","era":"other","nn":160,"risk":22,"cat":"green"},{"name":"Bloomsbury Tavern","lat":51.51682,"lon":-0.12573,"postcode":"WC2H 8EG","la":"Camden","era":"other","nn":31,"risk":21,"cat":"green"},{"name":"Brewdog","lat":51.5134,"lon":-0.12869,"postcode":"WC2H 8HJ","la":"Camden","era":"other","nn":65,"risk":21,"cat":"green"},{"name":"Calthorpe Arms","lat":51.52487,"lon":-0.11604,"postcode":"WC1X 8JR","la":"Camden","era":"trad","nn":233,"risk":22,"cat":"green"},{"name":"Circus","lat":51.51441,"lon":-0.12467,"postcode":"WC2H 9BA","la":"Camden","era":"other","nn":18,"risk":21,"cat":"green"},{"name":"Cross Keys","lat":51.51451,"lon":-0.12488,"postcode":"WC2H 9BA","la":"Camden","era":"trad","nn":18,"risk":21,"cat":"green"},{"name":"Crown & Anchor","lat":51.51404,"lon":-0.12499,"postcode":"WC2H 9PS","la":"Camden","era":"trad","nn":47,"risk":21,"cat":"green"},{"name":"Crowne Plaza Kings Cross","lat":51.52638,"lon":-0.11371,"postcode":"WC1X 9HX","la":"Camden","era":"trad","nn":233,"risk":22,"cat":"green"},{"name":"Flight Club Darts LTD","lat":51.51668,"lon":-0.12706,"postcode":"WC1A 1BS","la":"Camden","era":"other","nn":50,"risk":21,"cat":"green"},{"name":"George Birkbeck Bar","lat":51.52101,"lon":-0.12786,"postcode":"WC1E 7HX","la":"Camden","era":"trad","nn":181,"risk":22,"cat":"green"},{"name":"GRAVITY DRINKS","lat":51.52107,"lon":-0.1183,"postcode":"WC1N 3GS","la":"Camden","era":"other","nn":100,"risk":22,"cat":"green"},{"name":"Hare & Tortoise","lat":51.52427,"lon":-0.1235,"postcode":"WC1N 1AF","la":"Camden","era":"other","nn":110,"risk":22,"cat":"green"},{"name":"Horse & Wig","lat":51.51903,"lon":-0.11344,"postcode":"WC1V 6HZ","la":"Camden","era":"trad","nn":179,"risk":22,"cat":"green"},{"name":"Hudson's House","lat":51.51762,"lon":-0.13025,"postcode":"WC1B 3GH","la":"Camden","era":"other","nn":84,"risk":21,"cat":"green"},{"name":"Jamboree","lat":51.53063,"lon":-0.11971,"postcode":"WC1X 9HH","la":"Camden","era":"other","nn":67,"risk":21,"cat":"green"},{"name":"Lord John Russell P.H.","lat":51.52606,"lon":-0.12595,"postcode":"WC1N 1AL","la":"Camden","era":"other","nn":46,"risk":21,"cat":"green"},{"name":"Lucas Arms","lat":51.52849,"lon":-0.11964,"postcode":"WC1X 8QY","la":"Camden","era":"trad","nn":66,"risk":21,"cat":"green"},{"name":"Mabel's Tavern","lat":51.5278,"lon":-0.12755,"postcode":"WC1H 9AZ","la":"Camden","era":"other","nn":109,"risk":22,"cat":"green"},{"name":"Marlborough Arms","lat":51.52175,"lon":-0.13416,"postcode":"WC1E 7HJ","la":"Camden","era":"trad","nn":91,"risk":21,"cat":"green"},{"name":"Marquis Cornwallis","lat":51.52446,"lon":-0.12507,"postcode":"WC1N 1AP","la":"Camden","era":"other","nn":110,"risk":22,"cat":"green"},{"name":"Museum Tavern","lat":51.51819,"lon":-0.1258,"postcode":"WC1B 3BA","la":"Camden","era":"other","nn":55,"risk":21,"cat":"green"},{"name":"New Ambassadors Theatre","lat":51.51298,"lon":-0.12796,"postcode":"WC2H 9ND","la":"Camden","era":"other","nn":0,"risk":21,"cat":"green"},{"name":"New Bloomsbury Set","lat":51.52583,"lon":-0.1254,"postcode":"WC1N 1AG","la":"Camden","era":"other","nn":46,"risk":21,"cat":"green"},{"name":"Norfolk Arms","lat":51.52664,"lon":-0.12522,"postcode":"WC1H 9EP","la":"Camden","era":"trad","nn":82,"risk":21,"cat":"green"},{"name":"Penderel's Oak","lat":51.51796,"lon":-0.11536,"postcode":"WC1V 7HP","la":"Camden","era":"trad","nn":95,"risk":21,"cat":"green"},{"name":"Philomena\u2019s","lat":51.51506,"lon":-0.12207,"postcode":"WC2B 5AA","la":"Camden","era":"other","nn":54,"risk":21,"cat":"green"},{"name":"Phineas","lat":51.52533,"lon":-0.13298,"postcode":"WC1H 0AH","la":"Camden","era":"other","nn":186,"risk":22,"cat":"green"},{"name":"Princess Louise","lat":51.51727,"lon":-0.12167,"postcode":"WC1V 7BW","la":"Camden","era":"trad","nn":121,"risk":22,"cat":"green"},{"name":"Queen's Head","lat":51.52851,"lon":-0.11854,"postcode":"WC1X 9NB","la":"Camden","era":"trad","nn":76,"risk":21,"cat":"green"},{"name":"Salsa!","lat":51.51411,"lon":-0.12907,"postcode":"WC2H 0JG","la":"Camden","era":"other","nn":84,"risk":21,"cat":"green"},{"name":"Simmons Bar","lat":51.51663,"lon":-0.12026,"postcode":"WC2B 6PP","la":"Camden","era":"other","nn":75,"risk":21,"cat":"green"},{"name":"Simmons Bar (Jeremy Bentham)","lat":51.5236,"lon":-0.1355,"postcode":"WC1E 6JL","la":"Camden","era":"mod","nn":80,"risk":21,"cat":"green"},{"name":"Skinners Arms","lat":51.52827,"lon":-0.12503,"postcode":"WC1H 9NT","la":"Camden","era":"trad","nn":73,"risk":21,"cat":"green"},{"name":"St Martin's Theatre","lat":51.51276,"lon":-0.12754,"postcode":"WC2H 9NG","la":"Camden","era":"other","nn":38,"risk":21,"cat":"green"},{"name":"Sway Bar","lat":51.51557,"lon":-0.12066,"postcode":"WC2B 5BZ","la":"Camden","era":"other","nn":41,"risk":21,"cat":"green"},{"name":"The Angel Public House","lat":51.51545,"lon":-0.12774,"postcode":"WC2H 8LE","la":"Camden","era":"trad","nn":89,"risk":21,"cat":"green"},{"name":"The Boot","lat":51.52765,"lon":-0.12423,"postcode":"WC1H 8BS","la":"Camden","era":"other","nn":89,"risk":21,"cat":"green"},{"name":"The Bountiful Cow","lat":51.5187,"lon":-0.11818,"postcode":"WC1R 4AP","la":"Camden","era":"other","nn":71,"risk":21,"cat":"green"},{"name":"The Cambridge Theatre","lat":51.51351,"lon":-0.12638,"postcode":"WC2H 9HU","la":"Camden","era":"other","nn":67,"risk":21,"cat":"green"},{"name":"The Craft Beer Co ( Covent Garden ) Ltd","lat":51.51574,"lon":-0.12532,"postcode":"WC1V 7AA","la":"Camden","era":"mod","nn":107,"risk":22,"cat":"green"},{"name":"The Crown","lat":51.51431,"lon":-0.12675,"postcode":"WC2H 9DD","la":"Camden","era":"trad","nn":92,"risk":21,"cat":"green"},{"name":"The Crown PH","lat":51.51686,"lon":-0.1264,"postcode":"WC1A 1BL","la":"Camden","era":"trad","nn":40,"risk":21,"cat":"green"},{"name":"The Dolphin","lat":51.52011,"lon":-0.11762,"postcode":"WC1R 4PF","la":"Camden","era":"other","nn":28,"risk":21,"cat":"green"},{"name":"The Dolphin Public House","lat":51.52891,"lon":-0.12473,"postcode":"WC1H 9DW","la":"Camden","era":"other","nn":73,"risk":21,"cat":"green"},{"name":"The Duke of York","lat":51.52279,"lon":-0.11647,"postcode":"WC1N 2PB","la":"Camden","era":"trad","nn":136,"risk":22,"cat":"green"},{"name":"The Enterprise","lat":51.52027,"lon":-0.11733,"postcode":"WC1R 4PN","la":"Camden","era":"other","nn":28,"risk":21,"cat":"green"},{"name":"The Friend at Hand","lat":51.52293,"lon":-0.12455,"postcode":"WC1N 1HX","la":"Camden","era":"other","nn":167,"risk":22,"cat":"green"},{"name":"The George","lat":51.51603,"lon":-0.12073,"postcode":"WC2B 5DG","la":"Camden","era":"trad","nn":0,"risk":21,"cat":"green"},{"name":"The Harrison","lat":51.52756,"lon":-0.12056,"postcode":"WC1H 8JF","la":"Camden","era":"other","nn":121,"risk":22,"cat":"green"},{"name":"The Hercules Pillars","lat":51.51587,"lon":-0.12101,"postcode":"WC2B 5DG","la":"Camden","era":"other","nn":26,"risk":21,"cat":"green"},{"name":"The Lady Ottoline","lat":51.52207,"lon":-0.11489,"postcode":"WC1N 2JF","la":"Camden","era":"other","nn":99,"risk":22,"cat":"green"},{"name":"The Lamb","lat":51.52311,"lon":-0.11895,"postcode":"WC1N 3LZ","la":"Camden","era":"other","nn":101,"risk":22,"cat":"green"},{"name":"The Library Bar","lat":51.52269,"lon":-0.13112,"postcode":"WC1E 7HY","la":"Camden","era":"other","nn":235,"risk":22,"cat":"green"},{"name":"The London Cocktail Club","lat":51.5166,"lon":-0.12601,"postcode":"WC2H 8EB","la":"Camden","era":"other","nn":31,"risk":21,"cat":"green"},{"name":"The Montague on the Gardens","lat":51.52026,"lon":-0.12553,"postcode":"WC1B 5BJ","la":"Camden","era":"other","nn":181,"risk":22,"cat":"green"},{"name":"The Northumberland Arms","lat":51.52973,"lon":-0.11619,"postcode":"WC1X 9BJ","la":"Camden","era":"trad","nn":212,"risk":22,"cat":"green"},{"name":"The Old Crown (sep sublet kitchen)","lat":51.51696,"lon":-0.12507,"postcode":"WC1A 1BH","la":"Camden","era":"other","nn":48,"risk":21,"cat":"green"},{"name":"The Old Nick","lat":51.51914,"lon":-0.11626,"postcode":"WC1R 4PZ","la":"Camden","era":"other","nn":113,"risk":22,"cat":"green"},{"name":"The Old Red Lion","lat":51.51816,"lon":-0.11669,"postcode":"WC1V 6LS","la":"Camden","era":"trad","nn":95,"risk":21,"cat":"green"},{"name":"The Perseverance","lat":51.5222,"lon":-0.11886,"postcode":"WC1N 3NB","la":"Camden","era":"other","nn":101,"risk":22,"cat":"green"},{"name":"The Place Theatre Bar","lat":51.52717,"lon":-0.12891,"postcode":"WC1H 9AB","la":"Camden","era":"other","nn":117,"risk":22,"cat":"green"},{"name":"The Plough","lat":51.51769,"lon":-0.12586,"postcode":"WC1A 1LH","la":"Camden","era":"trad","nn":55,"risk":21,"cat":"green"},{"name":"The Polish Bar (Na Zdrowie)","lat":51.51735,"lon":-0.11899,"postcode":"WC1V 7DX","la":"Camden","era":"mod","nn":16,"risk":21,"cat":"green"},{"name":"The Queens Head","lat":51.52076,"lon":-0.11694,"postcode":"WC1X 8SF","la":"Camden","era":"trad","nn":60,"risk":21,"cat":"green"},{"name":"The Queens Larder","lat":51.52121,"lon":-0.12251,"postcode":"WC1N 3AR","la":"Camden","era":"trad","nn":27,"risk":21,"cat":"green"},{"name":"The Red Rooms","lat":51.51603,"lon":-0.12073,"postcode":"WC2B 5DG","la":"Camden","era":"mod","nn":0,"risk":21,"cat":"green"},{"name":"The Seven Stars","lat":51.51495,"lon":-0.11357,"postcode":"WC2A 2JB","la":"Camden","era":"other","nn":194,"risk":22,"cat":"green"},{"name":"The Ship Tavern","lat":51.51729,"lon":-0.11919,"postcode":"WC2A 3HP","la":"Camden","era":"trad","nn":16,"risk":21,"cat":"green"},{"name":"The Square Pig","lat":51.51873,"lon":-0.11921,"postcode":"WC1V 6NZ","la":"Camden","era":"other","nn":71,"risk":21,"cat":"green"},{"name":"The Sun","lat":51.51523,"lon":-0.12323,"postcode":"WC2B 5RH","la":"Camden","era":"other","nn":38,"risk":21,"cat":"green"},{"name":"The Swan","lat":51.5212,"lon":-0.1229,"postcode":"WC1N 3AP","la":"Camden","era":"trad","nn":27,"risk":21,"cat":"green"},{"name":"The Top Secret Comedy Club","lat":51.51543,"lon":-0.12277,"postcode":"WC2B 5PD","la":"Camden","era":"other","nn":38,"risk":21,"cat":"green"},{"name":"The Water Rats","lat":51.52907,"lon":-0.1194,"postcode":"WC1X 8BZ","la":"Camden","era":"other","nn":66,"risk":21,"cat":"green"},{"name":"The Yorkshire Grey","lat":51.52156,"lon":-0.11371,"postcode":"WC1X 8PN","la":"Camden","era":"other","nn":99,"risk":22,"cat":"green"},{"name":"THIRTEEN LDN","lat":51.51529,"lon":-0.129,"postcode":"WC2H 8LP","la":"Camden","era":"other","nn":89,"risk":21,"cat":"green"},{"name":"Truckles Wine Bar","lat":51.51856,"lon":-0.12406,"postcode":"WC1A 2JR","la":"Camden","era":"other","nn":128,"risk":22,"cat":"green"},{"name":"Two Brewers","lat":51.51337,"lon":-0.12732,"postcode":"WC2H 9EP","la":"Camden","era":"other","nn":62,"risk":21,"cat":"green"},{"name":"White Hart","lat":51.51625,"lon":-0.12392,"postcode":"WC2B 5QD","la":"Camden","era":"trad","nn":112,"risk":22,"cat":"green"},{"name":"The Pregnant Man","lat":51.5165,"lon":-0.1121,"postcode":"WC2A 1JA","la":"City of London","era":"other","nn":200,"risk":24,"cat":"green"},{"name":"All Bar One","lat":51.51073,"lon":-0.12425,"postcode":"WC2E 8QH","la":"Westminster","era":"mod","nn":58,"risk":26,"cat":"green"},{"name":"Blame Gloria","lat":51.51077,"lon":-0.12508,"postcode":"WC2E 9HP","la":"Westminster","era":"other","nn":0,"risk":26,"cat":"green"},{"name":"Club Soda Tasting Rooms","lat":51.51462,"lon":-0.12237,"postcode":"WC2B 5RR","la":"Westminster","era":"mod","nn":54,"risk":26,"cat":"green"},{"name":"Clubhouse 5","lat":51.51129,"lon":-0.13146,"postcode":"WC2H 7BG","la":"Westminster","era":"mod","nn":85,"risk":26,"cat":"green"},{"name":"Concert Artistes Association Bar","lat":51.51077,"lon":-0.12508,"postcode":"WC2E 9HP","la":"Westminster","era":"other","nn":0,"risk":26,"cat":"green"},{"name":"Covent Garden Social Club","lat":51.51212,"lon":-0.12755,"postcode":"WC2H 7JB","la":"Westminster","era":"mod","nn":0,"risk":26,"cat":"green"},{"name":"Dalla Terra Wine Bar","lat":51.51285,"lon":-0.12642,"postcode":"WC2E 9AB","la":"Westminster","era":"other","nn":74,"risk":26,"cat":"green"},{"name":"Lady Of The Grapes","lat":51.51058,"lon":-0.12327,"postcode":"WC2E 7NJ","la":"Westminster","era":"other","nn":34,"risk":26,"cat":"green"},{"name":"London Pub Grub Co","lat":51.51037,"lon":-0.12363,"postcode":"WC2E 7NA","la":"Westminster","era":"other","nn":34,"risk":26,"cat":"green"},{"name":"Mr Fogg'S Tavern","lat":51.51098,"lon":-0.12689,"postcode":"WC2N 4EA","la":"Westminster","era":"other","nn":127,"risk":27,"cat":"green"},{"name":"Plume Wine Bar","lat":51.5121,"lon":-0.12023,"postcode":"WC2E 7DD","la":"Westminster","era":"other","nn":105,"risk":27,"cat":"green"},{"name":"Simmons Bar Leicester Square","lat":51.51027,"lon":-0.12917,"postcode":"WC2H 7LE","la":"Westminster","era":"mod","nn":110,"risk":27,"cat":"green"},{"name":"TEQUILA MOCKINGBIRD","lat":51.51117,"lon":-0.12052,"postcode":"WC2E 7PX","la":"Westminster","era":"trad","nn":105,"risk":27,"cat":"green"},{"name":"Tequila Mockingbird","lat":51.50966,"lon":-0.12625,"postcode":"WC2N 4DD","la":"Westminster","era":"trad","nn":147,"risk":27,"cat":"green"},{"name":"The Arts Theatre","lat":51.51212,"lon":-0.12755,"postcode":"WC2H 7JB","la":"Westminster","era":"other","nn":0,"risk":26,"cat":"green"},{"name":"The Casino At The Empire","lat":51.51087,"lon":-0.13044,"postcode":"WC2H 7NA","la":"Westminster","era":"other","nn":85,"risk":26,"cat":"green"}]