[{"name":"Albert Inn","lat":50.43063,"lon":-3.67977,"postcode":"TQ9 5AD","la":"South Hams","era":"trad","nn":289,"risk":29,"cat":"green"},{"name":"Bay Horse Inn","lat":50.43011,"lon":-3.69193,"postcode":"TQ9 5SP","la":"South Hams","era":"trad","nn":223,"risk":29,"cat":"green"},{"name":"Bellinis Bar","lat":50.35039,"lon":-3.5779,"postcode":"TQ6 9AA","la":"South Hams","era":"other","nn":0,"risk":27,"cat":"green"},{"name":"Church House Inn","lat":50.46145,"lon":-3.59853,"postcode":"TQ3 1SL","la":"South Hams","era":"other","nn":899,"risk":53,"cat":"amber"},{"name":"Church House Inn","lat":50.40335,"lon":-3.62122,"postcode":"TQ9 6SD","la":"South Hams","era":"other","nn":2507,"risk":67,"cat":"red"},{"name":"Crabshell Inn","lat":50.27817,"lon":-3.77311,"postcode":"TQ7 1JZ","la":"South Hams","era":"trad","nn":550,"risk":31,"cat":"amber"},{"name":"Creeks End Inn","lat":50.28251,"lon":-3.77682,"postcode":"TQ7 1HZ","la":"South Hams","era":"trad","nn":125,"risk":28,"cat":"green"},{"name":"Dartbridge Inn","lat":50.48548,"lon":-3.76725,"postcode":"TQ11 0JR","la":"South Hams","era":"trad","nn":493,"risk":36,"cat":"amber"},{"name":"Dartington Community Centre","lat":50.44803,"lon":-3.71026,"postcode":"TQ9 6JD","la":"South Hams","era":"other","nn":2185,"risk":65,"cat":"red"},{"name":"Dartmoor Lodge No.4604","lat":50.42554,"lon":-3.83243,"postcode":"TQ10 9BY","la":"South Hams","era":"other","nn":96,"risk":45,"cat":"amber"},{"name":"Dartmouth Amateur Rowing Club","lat":50.35679,"lon":-3.57732,"postcode":"TQ6 9PH","la":"South Hams","era":"other","nn":329,"risk":29,"cat":"green"},{"name":"Dartmouth Angling & Boating Club","lat":50.34966,"lon":-3.57783,"postcode":"TQ6 9AL","la":"South Hams","era":"other","nn":48,"risk":27,"cat":"green"},{"name":"Dartmouth Arms","lat":50.34922,"lon":-3.57791,"postcode":"TQ6 9AN","la":"South Hams","era":"trad","nn":48,"risk":27,"cat":"green"},{"name":"Dartmouth Bowling Club","lat":50.35093,"lon":-3.58338,"postcode":"TQ6 9RY","la":"South Hams","era":"other","nn":180,"risk":28,"cat":"green"},{"name":"Dartmouth Inn","lat":50.42832,"lon":-3.68418,"postcode":"TQ9 5EL","la":"South Hams","era":"trad","nn":212,"risk":29,"cat":"green"},{"name":"Dodbrooke Inn","lat":50.28672,"lon":-3.7733,"postcode":"TQ7 1DB","la":"South Hams","era":"trad","nn":313,"risk":29,"cat":"green"},{"name":"Ferry Inn","lat":50.23642,"lon":-3.76679,"postcode":"TQ8 8JE","la":"South Hams","era":"trad","nn":174,"risk":46,"cat":"amber"},{"name":"Fishermans Rest","lat":50.31437,"lon":-3.83584,"postcode":"TQ7 4JL","la":"South Hams","era":"other","nn":4650,"risk":82,"cat":"red"},{"name":"King William IV Hotel","lat":50.43136,"lon":-3.68547,"postcode":"TQ9 5HN","la":"South Hams","era":"trad","nn":123,"risk":28,"cat":"green"},{"name":"Kings Arms","lat":50.23795,"lon":-3.76726,"postcode":"TQ8 8BU","la":"South Hams","era":"trad","nn":25,"risk":45,"cat":"amber"},{"name":"Kingsbridge Rugby Football","lat":50.27804,"lon":-3.76438,"postcode":"TQ7 2DJ","la":"South Hams","era":"trad","nn":621,"risk":51,"cat":"amber"},{"name":"Lord Nelson","lat":50.43108,"lon":-3.68379,"postcode":"TQ9 5DA","la":"South Hams","era":"trad","nn":123,"risk":28,"cat":"green"},{"name":"Maltsters Arms","lat":50.39405,"lon":-3.66467,"postcode":"TQ9 7EQ","la":"South Hams","era":"trad","nn":3249,"risk":72,"cat":"red"},{"name":"Pilchard Inn","lat":50.27978,"lon":-3.8984,"postcode":"TQ7 4BG","la":"South Hams","era":"trad","nn":2104,"risk":64,"cat":"red"},{"name":"Pleiades Masonic Club","lat":50.4309,"lon":-3.68903,"postcode":"TQ9 5DZ","la":"South Hams","era":"trad","nn":91,"risk":28,"cat":"green"},{"name":"Red Lion Inn","lat":50.38391,"lon":-3.6033,"postcode":"TQ6 0ES","la":"South Hams","era":"trad","nn":2507,"risk":67,"cat":"red"},{"name":"Regal Club","lat":50.2844,"lon":-3.77578,"postcode":"TQ7 1DD","la":"South Hams","era":"other","nn":206,"risk":29,"cat":"green"},{"name":"Royal Oak","lat":50.24418,"lon":-3.81282,"postcode":"TQ7 3RL","la":"South Hams","era":"trad","nn":3289,"risk":73,"cat":"red"},{"name":"Seale Arms","lat":50.35149,"lon":-3.58099,"postcode":"TQ6 9SA","la":"South Hams","era":"trad","nn":75,"risk":28,"cat":"green"},{"name":"Seven Stars","lat":50.28329,"lon":-3.7781,"postcode":"TQ7 1ED","la":"South Hams","era":"other","nn":81,"risk":28,"cat":"green"},{"name":"Sloop Inn","lat":50.27826,"lon":-3.86889,"postcode":"TQ7 3AJ","la":"South Hams","era":"trad","nn":2104,"risk":64,"cat":"red"},{"name":"South Brent Conservative Club","lat":50.42625,"lon":-3.8347,"postcode":"TQ10 9AA","la":"South Hams","era":"other","nn":159,"risk":46,"cat":"amber"},{"name":"Steam Packet Inn","lat":50.42609,"lon":-3.68148,"postcode":"TQ9 5EW","la":"South Hams","era":"trad","nn":312,"risk":29,"cat":"green"},{"name":"The Bull Inn (Kitchen)","lat":50.4316,"lon":-3.68969,"postcode":"TQ9 5SN","la":"South Hams","era":"other","nn":91,"risk":28,"cat":"green"},{"name":"The Cherub Inn","lat":50.35051,"lon":-3.57856,"postcode":"TQ6 9RB","la":"South Hams","era":"trad","nn":17,"risk":27,"cat":"green"},{"name":"The Crab & Bucket","lat":50.35082,"lon":-3.5776,"postcode":"TQ6 9BH","la":"South Hams","era":"other","nn":53,"risk":27,"cat":"green"},{"name":"The Dolphin Inn","lat":50.35172,"lon":-3.58001,"postcode":"TQ6 9QE","la":"South Hams","era":"trad","nn":75,"risk":28,"cat":"green"},{"name":"The Mill Club","lat":50.28393,"lon":-3.77864,"postcode":"TQ7 1QB","la":"South Hams","era":"trad","nn":81,"risk":28,"cat":"green"},{"name":"The Old Inn","lat":50.36564,"lon":-3.72077,"postcode":"TQ9 7JA","la":"South Hams","era":"trad","nn":5079,"risk":85,"cat":"red"},{"name":"The Pack Horse","lat":50.42503,"lon":-3.83352,"postcode":"TQ10 9BH","la":"South Hams","era":"trad","nn":96,"risk":45,"cat":"amber"},{"name":"The Shambles","lat":50.35067,"lon":-3.57853,"postcode":"TQ6 9RB","la":"South Hams","era":"other","nn":17,"risk":27,"cat":"green"},{"name":"The Ship In Dock Inn","lat":50.35406,"lon":-3.57911,"postcode":"TQ6 9PE","la":"South Hams","era":"trad","nn":268,"risk":29,"cat":"green"},{"name":"The Ship Inn","lat":50.34864,"lon":-3.57241,"postcode":"TQ6 0AG","la":"South Hams","era":"trad","nn":396,"risk":30,"cat":"green"},{"name":"The Spinning Wheel","lat":50.35039,"lon":-3.5779,"postcode":"TQ6 9AA","la":"South Hams","era":"trad","nn":0,"risk":27,"cat":"green"},{"name":"Tom and Tina at The Church House  Inn Limited","lat":50.51103,"lon":-3.82622,"postcode":"TQ13 7SJ","la":"South Hams","era":"other","nn":2656,"risk":68,"cat":"red"},{"name":"Totnes Bowling Club","lat":50.43585,"lon":-3.68606,"postcode":"TQ9 5XW","la":"South Hams","era":"other","nn":269,"risk":29,"cat":"green"},{"name":"Totnes FM Studio Lounge","lat":50.43565,"lon":-3.68227,"postcode":"TQ9 5XN","la":"South Hams","era":"mod","nn":269,"risk":29,"cat":"green"},{"name":"Victoria Inn","lat":50.23806,"lon":-3.76757,"postcode":"TQ8 8BU","la":"South Hams","era":"trad","nn":25,"risk":45,"cat":"amber"},{"name":"Watermans Arms","lat":50.42998,"lon":-3.68562,"postcode":"TQ9 5EF","la":"South Hams","era":"trad","nn":154,"risk":28,"cat":"green"},{"name":"Ye Olde Smokey House","lat":50.45421,"lon":-3.59287,"postcode":"TQ3 1NN","la":"South Hams","era":"other","nn":899,"risk":53,"cat":"amber"},{"name":"Ashburton Conservative Club","lat":50.51503,"lon":-3.75493,"postcode":"TQ13 7DD","la":"Teignbridge","era":"other","nn":100,"risk":43,"cat":"amber"},{"name":"Bar 7","lat":50.53083,"lon":-3.61269,"postcode":"TQ12 2RJ","la":"Teignbridge","era":"mod","nn":0,"risk":25,"cat":"green"},{"name":"BHE Events","lat":50.51592,"lon":-3.75465,"postcode":"TQ13 7AZ","la":"Teignbridge","era":"other","nn":100,"risk":43,"cat":"amber"},{"name":"Bickley Mill Inn","lat":50.4917,"lon":-3.60225,"postcode":"TQ12 5LN","la":"Teignbridge","era":"trad","nn":1826,"risk":60,"cat":"amber"},{"name":"Brunswick House","lat":50.54445,"lon":-3.49708,"postcode":"TQ14 8AE","la":"Teignbridge","era":"other","nn":55,"risk":25,"cat":"green"},{"name":"Chudleigh Cricket And Football Club","lat":50.61571,"lon":-3.59059,"postcode":"TQ13 0DE","la":"Teignbridge","era":"other","nn":1471,"risk":58,"cat":"amber"},{"name":"Claycutters Arms","lat":50.58513,"lon":-3.63436,"postcode":"TQ13 0EY","la":"Teignbridge","era":"trad","nn":2925,"risk":68,"cat":"red"},{"name":"Cockhaven Arms","lat":50.551,"lon":-3.54126,"postcode":"TQ14 9RF","la":"Teignbridge","era":"trad","nn":313,"risk":47,"cat":"amber"},{"name":"Coombe Cellars","lat":50.54051,"lon":-3.55043,"postcode":"TQ12 4RT","la":"Teignbridge","era":"other","nn":795,"risk":50,"cat":"amber"},{"name":"Coppa Dolla Inn","lat":50.48407,"lon":-3.68439,"postcode":"TQ9 6BD","la":"Teignbridge","era":"trad","nn":504,"risk":48,"cat":"amber"},{"name":"Cornerflag Bar (Devon FA)","lat":50.52251,"lon":-3.60646,"postcode":"TQ12 1EJ","la":"Teignbridge","era":"mod","nn":726,"risk":30,"cat":"green"},{"name":"Court Farm Inn","lat":50.50692,"lon":-3.61624,"postcode":"TQ12 5NY","la":"Teignbridge","era":"trad","nn":1065,"risk":55,"cat":"amber"},{"name":"Devon Arms Hotel","lat":50.54537,"lon":-3.49816,"postcode":"TQ14 8DE","la":"Teignbridge","era":"trad","nn":0,"risk":25,"cat":"green"},{"name":"Golden Lion","lat":50.53052,"lon":-3.61226,"postcode":"TQ12 2RB","la":"Teignbridge","era":"trad","nn":0,"risk":25,"cat":"green"},{"name":"Hare & Hounds","lat":50.49285,"lon":-3.57594,"postcode":"TQ12 5HH","la":"Teignbridge","era":"trad","nn":561,"risk":46,"cat":"amber"},{"name":"Ipplepen Conservative Club","lat":50.48813,"lon":-3.64211,"postcode":"TQ12 5RP","la":"Teignbridge","era":"other","nn":59,"risk":45,"cat":"amber"},{"name":"Jolie Brise","lat":50.54722,"lon":-3.49428,"postcode":"TQ14 8PE","la":"Teignbridge","era":"other","nn":30,"risk":25,"cat":"green"},{"name":"Jolly Farmer","lat":50.53052,"lon":-3.61226,"postcode":"TQ12 2RB","la":"Teignbridge","era":"other","nn":0,"risk":25,"cat":"green"},{"name":"Kestor Inn","lat":50.61315,"lon":-3.75822,"postcode":"TQ13 9UF","la":"Teignbridge","era":"trad","nn":2868,"risk":67,"cat":"red"},{"name":"King William IV Inn","lat":50.54473,"lon":-3.49772,"postcode":"TQ14 8BZ","la":"Teignbridge","era":"trad","nn":38,"risk":25,"cat":"green"},{"name":"Kings Arms","lat":50.54665,"lon":-3.59599,"postcode":"TQ12 3EG","la":"Teignbridge","era":"trad","nn":0,"risk":27,"cat":"green"},{"name":"Kings Arms","lat":50.54712,"lon":-3.4934,"postcode":"TQ14 8SU","la":"Teignbridge","era":"trad","nn":33,"risk":25,"cat":"green"},{"name":"Kingsteignton Royal British Legion Club Ltd","lat":50.55123,"lon":-3.59387,"postcode":"TQ12 3LH","la":"Teignbridge","era":"trad","nn":338,"risk":32,"cat":"amber"},{"name":"Locomotive Inn","lat":50.52915,"lon":-3.61089,"postcode":"TQ12 2JP","la":"Teignbridge","era":"trad","nn":44,"risk":25,"cat":"green"},{"name":"London Inn","lat":50.5415,"lon":-3.5069,"postcode":"TQ14 0DN","la":"Teignbridge","era":"trad","nn":166,"risk":26,"cat":"green"},{"name":"Maltings Taphouse and Bottleshop","lat":50.53185,"lon":-3.59937,"postcode":"TQ12 4AA","la":"Teignbridge","era":"mod","nn":166,"risk":26,"cat":"green"},{"name":"Mid Devon Constitutional Club","lat":50.52963,"lon":-3.60949,"postcode":"TQ12 2JS","la":"Teignbridge","era":"other","nn":73,"risk":25,"cat":"green"},{"name":"Molloys (Bar Only)","lat":50.54638,"lon":-3.49791,"postcode":"TQ14 8EA","la":"Teignbridge","era":"mod","nn":60,"risk":25,"cat":"green"},{"name":"New Quay Inn","lat":50.5447,"lon":-3.49825,"postcode":"TQ14 8DA","la":"Teignbridge","era":"trad","nn":37,"risk":25,"cat":"green"},{"name":"Newton Abbot Rugby Football Club Ltd","lat":50.53874,"lon":-3.60086,"postcode":"TQ12 3AF","la":"Teignbridge","era":"other","nn":613,"risk":29,"cat":"green"},{"name":"Newtons Freehouse","lat":50.53316,"lon":-3.61853,"postcode":"TQ12 1TP","la":"Teignbridge","era":"other","nn":431,"risk":28,"cat":"green"},{"name":"Northgate House","lat":50.49376,"lon":-3.77785,"postcode":"TQ11 0EG","la":"Teignbridge","era":"other","nn":750,"risk":50,"cat":"amber"},{"name":"Oakford Club","lat":50.54665,"lon":-3.59599,"postcode":"TQ12 3EG","la":"Teignbridge","era":"trad","nn":0,"risk":27,"cat":"green"},{"name":"Old Exeter Inn","lat":50.5148,"lon":-3.75761,"postcode":"TQ13 7DU","la":"Teignbridge","era":"trad","nn":191,"risk":44,"cat":"amber"},{"name":"Old Rydon Inn","lat":50.55424,"lon":-3.59314,"postcode":"TQ12 3QG","la":"Teignbridge","era":"trad","nn":338,"risk":30,"cat":"green"},{"name":"Passage House Inn","lat":50.5398,"lon":-3.58296,"postcode":"TQ12 3QH","la":"Teignbridge","era":"other","nn":1195,"risk":56,"cat":"amber"},{"name":"Royal Oak Inn","lat":50.5854,"lon":-3.56683,"postcode":"TQ13 0AY","la":"Teignbridge","era":"trad","nn":1154,"risk":55,"cat":"amber"},{"name":"Saracens Head","lat":50.52979,"lon":-3.60628,"postcode":"TQ12 2LH","la":"Teignbridge","era":"trad","nn":110,"risk":26,"cat":"green"},{"name":"Shaldon Conservative Club & Association","lat":50.54013,"lon":-3.50598,"postcode":"TQ14 0DU","la":"Teignbridge","era":"other","nn":88,"risk":26,"cat":"green"},{"name":"Sharpy's Sports and Music Bar Ltd","lat":50.53047,"lon":-3.60911,"postcode":"TQ12 2EF","la":"Teignbridge","era":"mod","nn":97,"risk":26,"cat":"green"},{"name":"Ship Inn","lat":50.60429,"lon":-3.60113,"postcode":"TQ13 0HX","la":"Teignbridge","era":"trad","nn":138,"risk":46,"cat":"amber"},{"name":"Star Inn","lat":50.56193,"lon":-3.66447,"postcode":"TQ12 6EZ","la":"Teignbridge","era":"trad","nn":3343,"risk":71,"cat":"red"},{"name":"Swan Inn","lat":50.53054,"lon":-3.61404,"postcode":"TQ12 1TG","la":"Teignbridge","era":"trad","nn":100,"risk":26,"cat":"green"},{"name":"Tavistock Inn","lat":50.53486,"lon":-3.82874,"postcode":"TQ13 7NY","la":"Teignbridge","era":"trad","nn":2656,"risk":66,"cat":"red"},{"name":"Teignbridge 76 Club","lat":50.53233,"lon":-3.60394,"postcode":"TQ12 2AR","la":"Teignbridge","era":"other","nn":138,"risk":26,"cat":"green"},{"name":"Teignmouth Football Club","lat":50.55589,"lon":-3.50997,"postcode":"TQ14 9EX","la":"Teignbridge","era":"other","nn":913,"risk":51,"cat":"amber"},{"name":"Teignmouth RFC","lat":50.54779,"lon":-3.50793,"postcode":"TQ14 9DQ","la":"Teignbridge","era":"other","nn":604,"risk":29,"cat":"green"},{"name":"The Abbey Inn","lat":50.48766,"lon":-3.77331,"postcode":"TQ11 0EA","la":"Teignbridge","era":"trad","nn":493,"risk":31,"cat":"amber"},{"name":"The Abbot","lat":50.52885,"lon":-3.61129,"postcode":"TQ12 1AG","la":"Teignbridge","era":"other","nn":14,"risk":25,"cat":"green"},{"name":"The Bell Inn","lat":50.59487,"lon":-3.67286,"postcode":"TQ13 9AA","la":"Teignbridge","era":"trad","nn":2683,"risk":66,"cat":"red"},{"name":"The Bishop Lacy Inn","lat":50.60361,"lon":-3.60276,"postcode":"TQ13 0HY","la":"Teignbridge","era":"trad","nn":138,"risk":46,"cat":"amber"},{"name":"The Blue Anchor","lat":50.54635,"lon":-3.49875,"postcode":"TQ14 8EG","la":"Teignbridge","era":"trad","nn":60,"risk":25,"cat":"green"},{"name":"The Brass Monkey","lat":50.54715,"lon":-3.49387,"postcode":"TQ14 8SR","la":"Teignbridge","era":"trad","nn":30,"risk":25,"cat":"green"},{"name":"The Carpenters Arms","lat":50.57193,"lon":-3.7153,"postcode":"TQ13 9RG","la":"Teignbridge","era":"trad","nn":1857,"risk":60,"cat":"amber"},{"name":"The Church House Inn","lat":50.52425,"lon":-3.53063,"postcode":"TQ12 4QA","la":"Teignbridge","era":"other","nn":1713,"risk":59,"cat":"amber"},{"name":"The Cleave","lat":50.61824,"lon":-3.71837,"postcode":"TQ13 9TJ","la":"Teignbridge","era":"other","nn":2868,"risk":67,"cat":"red"},{"name":"The Cridford Inn","lat":50.62925,"lon":-3.61981,"postcode":"TQ13 0NR","la":"Teignbridge","era":"trad","nn":2180,"risk":63,"cat":"red"},{"name":"The Dartmouth Inn","lat":50.52915,"lon":-3.61021,"postcode":"TQ12 2JP","la":"Teignbridge","era":"trad","nn":48,"risk":25,"cat":"green"},{"name":"The Den Bowling Club","lat":50.54554,"lon":-3.49445,"postcode":"TQ14 8BD","la":"Teignbridge","era":"other","nn":184,"risk":26,"cat":"green"},{"name":"The Elizabethan Inn","lat":50.58143,"lon":-3.55172,"postcode":"TQ13 0BL","la":"Teignbridge","era":"trad","nn":1154,"risk":55,"cat":"amber"},{"name":"The Ferry Boat Inn","lat":50.54054,"lon":-3.50492,"postcode":"TQ14 0DL","la":"Teignbridge","era":"trad","nn":88,"risk":26,"cat":"green"},{"name":"The Globe Inn","lat":50.48086,"lon":-3.77849,"postcode":"TQ11 0DA","la":"Teignbridge","era":"trad","nn":118,"risk":31,"cat":"amber"},{"name":"The Highweek Village Inn","lat":50.53679,"lon":-3.62762,"postcode":"TQ12 1QA","la":"Teignbridge","era":"trad","nn":759,"risk":50,"cat":"amber"},{"name":"The Kings Arms","lat":50.48137,"lon":-3.77703,"postcode":"TQ11 0BT","la":"Teignbridge","era":"trad","nn":118,"risk":31,"cat":"amber"},{"name":"The Linny","lat":50.50652,"lon":-3.56496,"postcode":"TQ12 4SR","la":"Teignbridge","era":"trad","nn":1183,"risk":56,"cat":"amber"},{"name":"The Lord Nelson","lat":50.4978,"lon":-3.5775,"postcode":"TQ12 5JB","la":"Teignbridge","era":"trad","nn":230,"risk":32,"cat":"amber"},{"name":"The Market Gate","lat":50.53083,"lon":-3.61269,"postcode":"TQ12 2RJ","la":"Teignbridge","era":"other","nn":0,"risk":25,"cat":"green"},{"name":"The Monks Retreat","lat":50.4844,"lon":-3.69149,"postcode":"TQ9 6BN","la":"Teignbridge","era":"trad","nn":504,"risk":48,"cat":"amber"},{"name":"The Old Inn","lat":50.57697,"lon":-3.81192,"postcode":"TQ13 7TA","la":"Teignbridge","era":"trad","nn":4830,"risk":81,"cat":"red"},{"name":"The Palk Arms","lat":50.61557,"lon":-3.65333,"postcode":"TQ13 9QB","la":"Teignbridge","era":"trad","nn":2683,"risk":66,"cat":"red"},{"name":"The Park Inn","lat":50.50296,"lon":-3.58345,"postcode":"TQ12 5BQ","la":"Teignbridge","era":"trad","nn":519,"risk":46,"cat":"amber"},{"name":"The Railway Brewhouse","lat":50.53037,"lon":-3.59965,"postcode":"TQ12 2BS","la":"Teignbridge","era":"trad","nn":166,"risk":26,"cat":"green"},{"name":"The Richard Hopkins","lat":50.53064,"lon":-3.60706,"postcode":"TQ12 2EW","la":"Teignbridge","era":"other","nn":110,"risk":26,"cat":"green"},{"name":"The Ring Of Bells","lat":50.55373,"lon":-3.5402,"postcode":"TQ14 9QP","la":"Teignbridge","era":"other","nn":313,"risk":47,"cat":"amber"},{"name":"The Rising Sun","lat":50.51383,"lon":-3.71189,"postcode":"TQ13 7JT","la":"Teignbridge","era":"other","nn":3032,"risk":69,"cat":"red"},{"name":"The Rock Inn","lat":50.58151,"lon":-3.73685,"postcode":"TQ13 9XP","la":"Teignbridge","era":"trad","nn":1857,"risk":60,"cat":"amber"},{"name":"The Roundel Club","lat":50.54748,"lon":-3.49462,"postcode":"TQ14 8PE","la":"Teignbridge","era":"other","nn":38,"risk":25,"cat":"green"},{"name":"The Royal British Legion","lat":50.53357,"lon":-3.60387,"postcode":"TQ12 2AP","la":"Teignbridge","era":"trad","nn":138,"risk":26,"cat":"green"},{"name":"The Ship Inn","lat":50.54437,"lon":-3.49824,"postcode":"TQ14 8BY","la":"Teignbridge","era":"trad","nn":37,"risk":25,"cat":"green"},{"name":"The Shipwrights Arms","lat":50.5408,"lon":-3.51297,"postcode":"TQ14 0AQ","la":"Teignbridge","era":"trad","nn":436,"risk":30,"cat":"green"},{"name":"The Sloop Inn - Hungry Horse","lat":50.49984,"lon":-3.57798,"postcode":"TQ12 5ES","la":"Teignbridge","era":"trad","nn":230,"risk":32,"cat":"amber"},{"name":"The Teign Brewery Inn","lat":50.54668,"lon":-3.49954,"postcode":"TQ14 8EG","la":"Teignbridge","era":"trad","nn":67,"risk":25,"cat":"green"},{"name":"The Upside Bar Company","lat":50.53075,"lon":-3.60272,"postcode":"TQ12 2EU","la":"Teignbridge","era":"mod","nn":195,"risk":26,"cat":"green"},{"name":"The Wellington Inn","lat":50.48776,"lon":-3.64271,"postcode":"TQ12 5RH","la":"Teignbridge","era":"trad","nn":59,"risk":45,"cat":"amber"},{"name":"The Wild Goose Inn","lat":50.53337,"lon":-3.55017,"postcode":"TQ12 4RA","la":"Teignbridge","era":"trad","nn":795,"risk":50,"cat":"amber"},{"name":"The Wolborough Inn","lat":50.52843,"lon":-3.61531,"postcode":"TQ12 1JQ","la":"Teignbridge","era":"trad","nn":251,"risk":27,"cat":"green"},{"name":"Toby Carvery","lat":50.52538,"lon":-3.59436,"postcode":"TQ12 4AQ","la":"Teignbridge","era":"other","nn":669,"risk":30,"cat":"green"},{"name":"Two Mile Oak Inn","lat":50.50059,"lon":-3.62754,"postcode":"TQ12 6DF","la":"Teignbridge","era":"trad","nn":1065,"risk":55,"cat":"amber"},{"name":"Union Inn","lat":50.66151,"lon":-3.76606,"postcode":"TQ13 8LN","la":"Teignbridge","era":"trad","nn":5327,"risk":82,"cat":"red"},{"name":"Union Inn","lat":50.50539,"lon":-3.65923,"postcode":"TQ12 6DQ","la":"Teignbridge","era":"trad","nn":2269,"risk":63,"cat":"red"},{"name":"Webb Enterprises The Ten Tors","lat":50.56079,"lon":-3.59795,"postcode":"TQ12 3NP","la":"Teignbridge","era":"other","nn":804,"risk":51,"cat":"amber"},{"name":"White Ensign Club","lat":50.54804,"lon":-3.49939,"postcode":"TQ14 9BU","la":"Teignbridge","era":"other","nn":151,"risk":26,"cat":"green"},{"name":"White Hart Inn","lat":50.52891,"lon":-3.61146,"postcode":"TQ12 1AG","la":"Teignbridge","era":"trad","nn":14,"risk":25,"cat":"green"},{"name":"Ye Old Cider Bar","lat":50.529,"lon":-3.60761,"postcode":"TQ12 2LD","la":"Teignbridge","era":"other","nn":129,"risk":26,"cat":"green"},{"name":"Ye Olde Jolly Sailor","lat":50.54537,"lon":-3.49816,"postcode":"TQ14 8DE","la":"Teignbridge","era":"other","nn":0,"risk":25,"cat":"green"},{"name":"8 Ball Bar & Sports","lat":50.44421,"lon":-3.56288,"postcode":"TQ3 2JB","la":"Torbay","era":"mod","nn":88,"risk":26,"cat":"green"},{"name":"Acorn Centre","lat":50.48926,"lon":-3.53667,"postcode":"TQ2 8ET","la":"Torbay","era":"other","nn":567,"risk":49,"cat":"amber"},{"name":"Babbacombe Inn","lat":50.47851,"lon":-3.51272,"postcode":"TQ1 3LP","la":"Torbay","era":"trad","nn":97,"risk":26,"cat":"green"},{"name":"Barton Cricket Club","lat":50.47922,"lon":-3.54554,"postcode":"TQ2 7NS","la":"Torbay","era":"other","nn":104,"risk":29,"cat":"green"},{"name":"Blagdon Inn","lat":50.43117,"lon":-3.61263,"postcode":"TQ4 7PU","la":"Torbay","era":"trad","nn":1005,"risk":55,"cat":"amber"},{"name":"Boots and Laces","lat":50.47678,"lon":-3.52487,"postcode":"TQ1 3QW","la":"Torbay","era":"other","nn":218,"risk":27,"cat":"green"},{"name":"Brixham AFC","lat":50.39513,"lon":-3.50388,"postcode":"TQ5 9UE","la":"Torbay","era":"other","nn":43,"risk":26,"cat":"green"},{"name":"Brixham Sea Anglers Club","lat":50.38737,"lon":-3.51443,"postcode":"TQ5 9PY","la":"Torbay","era":"other","nn":128,"risk":26,"cat":"green"},{"name":"Brixham United AFC","lat":50.39534,"lon":-3.50337,"postcode":"TQ5 9UE","la":"Torbay","era":"other","nn":43,"risk":26,"cat":"green"},{"name":"Cary Arms","lat":50.4783,"lon":-3.50883,"postcode":"TQ1 3LX","la":"Torbay","era":"trad","nn":237,"risk":27,"cat":"green"},{"name":"Castle Bar Torquay","lat":50.46797,"lon":-3.53218,"postcode":"TQ2 5QB","la":"Torbay","era":"mod","nn":127,"risk":26,"cat":"green"},{"name":"Central Bistro","lat":50.46949,"lon":-3.53529,"postcode":"TQ2 5QS","la":"Torbay","era":"other","nn":147,"risk":26,"cat":"green"},{"name":"Churston Golf Club","lat":50.39816,"lon":-3.55783,"postcode":"TQ5 0LA","la":"Torbay","era":"other","nn":521,"risk":49,"cat":"amber"},{"name":"Crafty Isaac Merritt","lat":50.43729,"lon":-3.5674,"postcode":"TQ3 3AA","la":"Torbay","era":"mod","nn":138,"risk":26,"cat":"green"},{"name":"Devon Arms","lat":50.46061,"lon":-3.52297,"postcode":"TQ1 2AU","la":"Torbay","era":"trad","nn":4,"risk":25,"cat":"green"},{"name":"Dog & Duck","lat":50.47815,"lon":-3.51399,"postcode":"TQ1 3SW","la":"Torbay","era":"other","nn":74,"risk":26,"cat":"green"},{"name":"Dolphin Inn","lat":50.48224,"lon":-3.52318,"postcode":"TQ1 4LY","la":"Torbay","era":"trad","nn":619,"risk":30,"cat":"green"},{"name":"DT's","lat":50.46901,"lon":-3.54004,"postcode":"TQ2 5HZ","la":"Torbay","era":"other","nn":82,"risk":26,"cat":"green"},{"name":"Five Walls Hop House","lat":50.43361,"lon":-3.57233,"postcode":"TQ3 3BN","la":"Torbay","era":"other","nn":157,"risk":27,"cat":"green"},{"name":"Fox And Firkin","lat":50.47068,"lon":-3.53795,"postcode":"TQ1 4BZ","la":"Torbay","era":"trad","nn":212,"risk":27,"cat":"green"},{"name":"Freedom 35/ Bull and Bush","lat":50.46803,"lon":-3.53936,"postcode":"TQ2 5UP","la":"Torbay","era":"trad","nn":50,"risk":26,"cat":"green"},{"name":"Grand Central","lat":50.43546,"lon":-3.56187,"postcode":"TQ4 6AJ","la":"Torbay","era":"other","nn":0,"risk":25,"cat":"green"},{"name":"Green Ginger","lat":50.4622,"lon":-3.52596,"postcode":"TQ2 5DZ","la":"Torbay","era":"other","nn":55,"risk":26,"cat":"green"},{"name":"Harvester","lat":50.45852,"lon":-3.52501,"postcode":"TQ1 2RD","la":"Torbay","era":"trad","nn":94,"risk":26,"cat":"green"},{"name":"Henrys Bar","lat":50.43546,"lon":-3.56187,"postcode":"TQ4 6AJ","la":"Torbay","era":"other","nn":0,"risk":25,"cat":"green"},{"name":"Hole in the Wall","lat":50.46064,"lon":-3.52295,"postcode":"TQ1 2AU","la":"Torbay","era":"other","nn":4,"risk":25,"cat":"green"},{"name":"Hyde Dendy","lat":50.43584,"lon":-3.5609,"postcode":"TQ4 6BD","la":"Torbay","era":"other","nn":50,"risk":26,"cat":"green"},{"name":"Inn on the Green","lat":50.43799,"lon":-3.56215,"postcode":"TQ4 6BG","la":"Torbay","era":"trad","nn":208,"risk":27,"cat":"green"},{"name":"Inn On The Quay","lat":50.42519,"lon":-3.55972,"postcode":"TQ4 6LP","la":"Torbay","era":"trad","nn":680,"risk":30,"cat":"green"},{"name":"JDs Bar","lat":50.46236,"lon":-3.52522,"postcode":"TQ1 1BX","la":"Torbay","era":"other","nn":55,"risk":26,"cat":"green"},{"name":"Juniper","lat":50.46151,"lon":-3.52208,"postcode":"TQ1 1DP","la":"Torbay","era":"other","nn":51,"risk":26,"cat":"green"},{"name":"Kings Bowling Club","lat":50.45824,"lon":-3.54302,"postcode":"TQ2 6QH","la":"Torbay","era":"trad","nn":298,"risk":33,"cat":"amber"},{"name":"Long Bar","lat":50.39497,"lon":-3.5147,"postcode":"TQ5 8DY","la":"Torbay","era":"other","nn":188,"risk":27,"cat":"green"},{"name":"Masons Arms","lat":50.47682,"lon":-3.51124,"postcode":"TQ1 3SY","la":"Torbay","era":"trad","nn":128,"risk":26,"cat":"green"},{"name":"New Quay Inn","lat":50.39581,"lon":-3.5119,"postcode":"TQ5 9TW","la":"Torbay","era":"trad","nn":37,"risk":26,"cat":"green"},{"name":"Oatlands Club","lat":50.44032,"lon":-3.56933,"postcode":"TQ3 2ST","la":"Torbay","era":"other","nn":364,"risk":28,"cat":"green"},{"name":"Old Engine House","lat":50.48433,"lon":-3.55442,"postcode":"TQ2 7AD","la":"Torbay","era":"other","nn":700,"risk":30,"cat":"green"},{"name":"Paignton Amateur Rowing Club","lat":50.43157,"lon":-3.55642,"postcode":"TQ4 6DT","la":"Torbay","era":"other","nn":4,"risk":25,"cat":"green"},{"name":"Paignton Conservative Club","lat":50.43506,"lon":-3.56952,"postcode":"TQ3 3HB","la":"Torbay","era":"other","nn":145,"risk":26,"cat":"green"},{"name":"Paignton Cricket Club","lat":50.43351,"lon":-3.56268,"postcode":"TQ4 6AT","la":"Torbay","era":"other","nn":0,"risk":25,"cat":"green"},{"name":"Paignton Rugby Club","lat":50.43351,"lon":-3.56268,"postcode":"TQ4 6AT","la":"Torbay","era":"other","nn":0,"risk":25,"cat":"green"},{"name":"Paignton Sailing Club","lat":50.4316,"lon":-3.5564,"postcode":"TQ4 6DT","la":"Torbay","era":"other","nn":4,"risk":25,"cat":"green"},{"name":"Paignton Sea Anglers Assoc","lat":50.43082,"lon":-3.55594,"postcode":"TQ4 6DH","la":"Torbay","era":"other","nn":90,"risk":26,"cat":"green"},{"name":"Paignton Torbay Bowling Club","lat":50.43508,"lon":-3.56324,"postcode":"TQ4 6AH","la":"Torbay","era":"other","nn":104,"risk":26,"cat":"green"},{"name":"Palace Place Social Club","lat":50.43646,"lon":-3.5701,"postcode":"TQ3 3AQ","la":"Torbay","era":"mod","nn":156,"risk":27,"cat":"green"},{"name":"Park Lane","lat":50.46108,"lon":-3.52236,"postcode":"TQ1 1ED","la":"Torbay","era":"other","nn":22,"risk":26,"cat":"green"},{"name":"Preston Conservative Club","lat":50.4463,"lon":-3.56021,"postcode":"TQ3 2EY","la":"Torbay","era":"other","nn":184,"risk":27,"cat":"green"},{"name":"Ryans Bar","lat":50.46539,"lon":-3.52844,"postcode":"TQ2 5NF","la":"Torbay","era":"other","nn":114,"risk":26,"cat":"green"},{"name":"Seamus O'Donnells","lat":50.45929,"lon":-3.52447,"postcode":"TQ1 2BD","la":"Torbay","era":"other","nn":94,"risk":26,"cat":"green"},{"name":"Ship Inn","lat":50.44397,"lon":-3.56168,"postcode":"TQ3 2HR","la":"Torbay","era":"trad","nn":88,"risk":26,"cat":"green"},{"name":"Soho","lat":50.46138,"lon":-3.52564,"postcode":"TQ2 5EL","la":"Torbay","era":"other","nn":94,"risk":26,"cat":"green"},{"name":"Sprat and Mackerel","lat":50.39751,"lon":-3.51274,"postcode":"TQ5 8AW","la":"Torbay","era":"other","nn":188,"risk":27,"cat":"green"},{"name":"Talk Of The Town","lat":50.43498,"lon":-3.56177,"postcode":"TQ4 6AL","la":"Torbay","era":"other","nn":54,"risk":26,"cat":"green"},{"name":"The Artful Dodger Public House","lat":50.48723,"lon":-3.52933,"postcode":"TQ1 4RW","la":"Torbay","era":"other","nn":567,"risk":34,"cat":"amber"},{"name":"The Bell Inn","lat":50.38592,"lon":-3.52003,"postcode":"TQ5 9JY","la":"Torbay","era":"trad","nn":383,"risk":31,"cat":"amber"},{"name":"The Blue Anchor","lat":50.39583,"lon":-3.51242,"postcode":"TQ5 8AH","la":"Torbay","era":"trad","nn":37,"risk":26,"cat":"green"},{"name":"The Boathouse","lat":50.44182,"lon":-3.5576,"postcode":"TQ3 2NJ","la":"Torbay","era":"other","nn":375,"risk":28,"cat":"green"},{"name":"The Buccaneer Inn","lat":50.47923,"lon":-3.51389,"postcode":"TQ1 3LN","la":"Torbay","era":"trad","nn":64,"risk":26,"cat":"green"},{"name":"The Cattlemans at The Parkers Arms","lat":50.42904,"lon":-3.59884,"postcode":"TQ4 7DE","la":"Torbay","era":"trad","nn":1005,"risk":55,"cat":"amber"},{"name":"The Cider Press","lat":50.46425,"lon":-3.52655,"postcode":"TQ1 1BG","la":"Torbay","era":"other","nn":184,"risk":27,"cat":"green"},{"name":"The Devon Dumpling","lat":50.47848,"lon":-3.5616,"postcode":"TQ2 7BY","la":"Torbay","era":"other","nn":759,"risk":48,"cat":"amber"},{"name":"The Divers Arms","lat":50.47765,"lon":-3.5125,"postcode":"TQ1 3LU","la":"Torbay","era":"trad","nn":97,"risk":26,"cat":"green"},{"name":"The Drum Inn","lat":50.46332,"lon":-3.5594,"postcode":"TQ2 6XA","la":"Torbay","era":"trad","nn":809,"risk":51,"cat":"amber"},{"name":"The Foundry","lat":50.46108,"lon":-3.52268,"postcode":"TQ1 1ED","la":"Torbay","era":"mod","nn":22,"risk":26,"cat":"green"},{"name":"The George Inn","lat":50.47857,"lon":-3.51479,"postcode":"TQ1 3SW","la":"Torbay","era":"trad","nn":74,"risk":26,"cat":"green"},{"name":"The Golden Lion","lat":50.3935,"lon":-3.51981,"postcode":"TQ5 8NL","la":"Torbay","era":"trad","nn":296,"risk":28,"cat":"green"},{"name":"The Haywain","lat":50.46951,"lon":-3.55341,"postcode":"TQ2 6EL","la":"Torbay","era":"other","nn":809,"risk":34,"cat":"amber"},{"name":"The John Bull Pub","lat":50.47952,"lon":-3.53149,"postcode":"TQ1 4HU","la":"Torbay","era":"trad","nn":392,"risk":28,"cat":"green"},{"name":"The Kent's","lat":50.46659,"lon":-3.50709,"postcode":"TQ1 2JG","la":"Torbay","era":"other","nn":1175,"risk":56,"cat":"amber"},{"name":"The Manor Inn","lat":50.39597,"lon":-3.56433,"postcode":"TQ5 0NL","la":"Torbay","era":"trad","nn":521,"risk":49,"cat":"amber"},{"name":"The Manor Inn","lat":50.46724,"lon":-3.52814,"postcode":"TQ1 3AQ","la":"Torbay","era":"trad","nn":101,"risk":26,"cat":"green"},{"name":"The Mermaid Bar","lat":50.39643,"lon":-3.51068,"postcode":"TQ5 9TF","la":"Torbay","era":"other","nn":111,"risk":26,"cat":"green"},{"name":"The Old Manor Inn","lat":50.44535,"lon":-3.56235,"postcode":"TQ3 2QZ","la":"Torbay","era":"trad","nn":133,"risk":26,"cat":"green"},{"name":"The Oldenburg Hotel","lat":50.43494,"lon":-3.57156,"postcode":"TQ3 3BQ","la":"Torbay","era":"other","nn":145,"risk":26,"cat":"green"},{"name":"The Paignton Club","lat":50.43368,"lon":-3.5607,"postcode":"TQ4 6EB","la":"Torbay","era":"other","nn":142,"risk":26,"cat":"green"},{"name":"The Prince William","lat":50.39774,"lon":-3.50796,"postcode":"TQ5 9BP","la":"Torbay","era":"trad","nn":241,"risk":27,"cat":"green"},{"name":"The Rabbit Hole","lat":50.46869,"lon":-3.53356,"postcode":"TQ2 5QP","la":"Torbay","era":"other","nn":69,"risk":26,"cat":"green"},{"name":"The Royal  Hotel & Carvery","lat":50.47959,"lon":-3.5146,"postcode":"TQ1 3LQ","la":"Torbay","era":"trad","nn":64,"risk":26,"cat":"green"},{"name":"The Spinning Wheel Inn","lat":50.43629,"lon":-3.56093,"postcode":"TQ4 6BE","la":"Torbay","era":"trad","nn":50,"risk":26,"cat":"green"},{"name":"The Sportys Bar","lat":50.4682,"lon":-3.54001,"postcode":"TQ2 5HZ","la":"Torbay","era":"other","nn":50,"risk":26,"cat":"green"},{"name":"The Three Elms","lat":50.38809,"lon":-3.51584,"postcode":"TQ5 9JU","la":"Torbay","era":"trad","nn":128,"risk":26,"cat":"green"},{"name":"The Torbay Inn","lat":50.43093,"lon":-3.56847,"postcode":"TQ4 5ER","la":"Torbay","era":"trad","nn":404,"risk":28,"cat":"green"},{"name":"The Upside Bar Company","lat":50.43527,"lon":-3.56543,"postcode":"TQ4 5DS","la":"Torbay","era":"mod","nn":157,"risk":27,"cat":"green"},{"name":"The Vigilance","lat":50.39304,"lon":-3.51569,"postcode":"TQ5 9BZ","la":"Torbay","era":"other","nn":225,"risk":27,"cat":"green"},{"name":"The Wighton","lat":50.485,"lon":-3.56477,"postcode":"TQ2 7JA","la":"Torbay","era":"other","nn":736,"risk":36,"cat":"amber"},{"name":"The York","lat":50.47682,"lon":-3.52794,"postcode":"TQ1 3HL","la":"Torbay","era":"other","nn":218,"risk":27,"cat":"green"},{"name":"Tor Hill Masonic Catering","lat":50.46832,"lon":-3.53433,"postcode":"TQ2 5RN","la":"Torbay","era":"trad","nn":69,"risk":26,"cat":"green"},{"name":"Torbay Golf Centre","lat":50.41927,"lon":-3.56424,"postcode":"TQ4 7JP","la":"Torbay","era":"other","nn":190,"risk":44,"cat":"amber"},{"name":"Torbay Party Barn","lat":50.46359,"lon":-3.57698,"postcode":"TQ3 1SU","la":"Torbay","era":"other","nn":1244,"risk":57,"cat":"amber"},{"name":"Torquay Bowling Club","lat":50.4652,"lon":-3.53687,"postcode":"TQ2 5HP","la":"Torbay","era":"other","nn":0,"risk":25,"cat":"green"},{"name":"Torquay Cricket Club","lat":50.46073,"lon":-3.54147,"postcode":"TQ2 6NX","la":"Torbay","era":"other","nn":298,"risk":28,"cat":"green"},{"name":"Torquay Lawn Tennis Club","lat":50.4652,"lon":-3.53687,"postcode":"TQ2 5HP","la":"Torbay","era":"other","nn":0,"risk":25,"cat":"green"},{"name":"Torquay Squash Centre","lat":50.48015,"lon":-3.54578,"postcode":"TQ2 7NS","la":"Torbay","era":"other","nn":104,"risk":31,"cat":"amber"},{"name":"TQ2 Club","lat":50.46969,"lon":-3.54051,"postcode":"TQ2 5AJ","la":"Torbay","era":"other","nn":82,"risk":26,"cat":"green"},{"name":"Twiggys","lat":50.4664,"lon":-3.5287,"postcode":"TQ1 1EU","la":"Torbay","era":"other","nn":101,"risk":26,"cat":"green"},{"name":"Upton Social Club","lat":50.47503,"lon":-3.53554,"postcode":"TQ1 4AX","la":"Torbay","era":"mod","nn":513,"risk":29,"cat":"green"},{"name":"Waterside Inn","lat":50.41823,"lon":-3.5621,"postcode":"TQ4 6ND","la":"Torbay","era":"trad","nn":190,"risk":44,"cat":"amber"},{"name":"Willow Tree","lat":50.49038,"lon":-3.55711,"postcode":"TQ2 7TG","la":"Torbay","era":"trad","nn":700,"risk":48,"cat":"amber"},{"name":"Yates Torquay","lat":50.46125,"lon":-3.52354,"postcode":"TQ1 2AA","la":"Torbay","era":"other","nn":64,"risk":26,"cat":"green"},{"name":"Ye Olde Wellhouse","lat":50.4361,"lon":-3.56797,"postcode":"TQ3 3DU","la":"Torbay","era":"other","nn":138,"risk":26,"cat":"green"},{"name":"The Chagford Inn","lat":50.67318,"lon":-3.84104,"postcode":"TQ13 8AW","la":"West Devon","era":"trad","nn":129,"risk":53,"cat":"amber"},{"name":"The Globe Inn","lat":50.67241,"lon":-3.83966,"postcode":"TQ13 8AJ","la":"West Devon","era":"trad","nn":129,"risk":53,"cat":"amber"}]