[{"name":"Alexanders Live Limited","lat":53.19369,"lon":-2.89289,"postcode":"CH1 2JW","la":"Cheshire West and Chester","era":"other","nn":38,"risk":24,"cat":"green"},{"name":"Alfie's Bistro","lat":53.28531,"lon":-2.94645,"postcode":"CH66 3RF","la":"Cheshire West and Chester","era":"other","nn":117,"risk":27,"cat":"green"},{"name":"Axt Haus","lat":53.18984,"lon":-2.90062,"postcode":"CH1 4JH","la":"Cheshire West and Chester","era":"other","nn":405,"risk":27,"cat":"green"},{"name":"Bear And Billet","lat":53.18633,"lon":-2.88959,"postcode":"CH1 1RU","la":"Cheshire West and Chester","era":"other","nn":129,"risk":25,"cat":"green"},{"name":"BEER HEROES","lat":53.19018,"lon":-2.8928,"postcode":"CH1 2LA","la":"Cheshire West and Chester","era":"other","nn":23,"risk":24,"cat":"green"},{"name":"Boot Inn","lat":53.19064,"lon":-2.89065,"postcode":"CH1 1LQ","la":"Cheshire West and Chester","era":"trad","nn":48,"risk":24,"cat":"green"},{"name":"Brewers Arms","lat":53.29107,"lon":-3.06499,"postcode":"CH64 3RP","la":"Cheshire West and Chester","era":"trad","nn":135,"risk":25,"cat":"green"},{"name":"Brewers arms","lat":53.21738,"lon":-2.89505,"postcode":"CH2 1BD","la":"Cheshire West and Chester","era":"trad","nn":975,"risk":51,"cat":"amber"},{"name":"Brewhouse and Kitchen","lat":53.19108,"lon":-2.88461,"postcode":"CH1 1QY","la":"Cheshire West and Chester","era":"mod","nn":36,"risk":24,"cat":"green"},{"name":"Bromfield Arms (Chester)","lat":53.19894,"lon":-2.8763,"postcode":"CH2 3BD","la":"Cheshire West and Chester","era":"trad","nn":78,"risk":24,"cat":"green"},{"name":"Brown Horse","lat":53.28995,"lon":-3.06419,"postcode":"CH64 9UB","la":"Cheshire West and Chester","era":"trad","nn":62,"risk":24,"cat":"green"},{"name":"Carlton Tavern","lat":53.18299,"lon":-2.88469,"postcode":"CH4 7BN","la":"Cheshire West and Chester","era":"other","nn":240,"risk":25,"cat":"green"},{"name":"Centurion Community Action Group LTD","lat":53.19638,"lon":-2.8536,"postcode":"CH3 5LN","la":"Cheshire West and Chester","era":"other","nn":643,"risk":46,"cat":"amber"},{"name":"Cestrian Lodge","lat":53.19157,"lon":-2.88582,"postcode":"CH1 3LG","la":"Cheshire West and Chester","era":"other","nn":83,"risk":24,"cat":"green"},{"name":"Cheshire County Sports Club","lat":53.21316,"lon":-2.86821,"postcode":"CH2 1PR","la":"Cheshire West and Chester","era":"other","nn":660,"risk":48,"cat":"amber"},{"name":"Chester Golf Club","lat":53.18633,"lon":-2.90664,"postcode":"CH4 8AR","la":"Cheshire West and Chester","era":"other","nn":559,"risk":30,"cat":"green"},{"name":"Chester Rugby FC","lat":53.19866,"lon":-2.84472,"postcode":"CH3 7DB","la":"Cheshire West and Chester","era":"other","nn":643,"risk":46,"cat":"amber"},{"name":"Chichester Arms","lat":53.19673,"lon":-2.89958,"postcode":"CH1 4EY","la":"Cheshire West and Chester","era":"trad","nn":93,"risk":24,"cat":"green"},{"name":"Coach House (Chester) Ltd","lat":53.19284,"lon":-2.89314,"postcode":"CH1 2HQ","la":"Cheshire West and Chester","era":"other","nn":40,"risk":24,"cat":"green"},{"name":"Commonhall Street Social","lat":53.18953,"lon":-2.89219,"postcode":"CH1 2BJ","la":"Cheshire West and Chester","era":"mod","nn":65,"risk":24,"cat":"green"},{"name":"Cosmo's","lat":53.19605,"lon":-2.8926,"postcode":"CH2 2FD","la":"Cheshire West and Chester","era":"other","nn":263,"risk":26,"cat":"green"},{"name":"Cross Foxes","lat":53.19246,"lon":-2.87991,"postcode":"CH3 5AF","la":"Cheshire West and Chester","era":"trad","nn":121,"risk":25,"cat":"green"},{"name":"Dublin Packet","lat":53.19121,"lon":-2.89196,"postcode":"CH1 2HA","la":"Cheshire West and Chester","era":"other","nn":64,"risk":24,"cat":"green"},{"name":"Duke of Wellington","lat":53.28266,"lon":-2.82611,"postcode":"CH2 4NR","la":"Cheshire West and Chester","era":"trad","nn":1213,"risk":55,"cat":"amber"},{"name":"Egerton Arms","lat":53.21259,"lon":-2.94319,"postcode":"CH1 6AF","la":"Cheshire West and Chester","era":"trad","nn":1403,"risk":56,"cat":"amber"},{"name":"Egerton Arms","lat":53.19678,"lon":-2.88337,"postcode":"CH1 3DU","la":"Cheshire West and Chester","era":"trad","nn":214,"risk":25,"cat":"green"},{"name":"Ellesmere Port Conservative Club","lat":53.28561,"lon":-2.89556,"postcode":"CH65 2ET","la":"Cheshire West and Chester","era":"other","nn":227,"risk":30,"cat":"green"},{"name":"Golden Eagle","lat":53.18711,"lon":-2.8917,"postcode":"CH1 2DS","la":"Cheshire West and Chester","era":"trad","nn":59,"risk":24,"cat":"green"},{"name":"Great British Taverns","lat":53.20764,"lon":-2.87183,"postcode":"CH2 2FL","la":"Cheshire West and Chester","era":"other","nn":660,"risk":46,"cat":"amber"},{"name":"Greenland Fishery","lat":53.28978,"lon":-3.06508,"postcode":"CH64 9XF","la":"Cheshire West and Chester","era":"other","nn":62,"risk":24,"cat":"green"},{"name":"Halcyon Garden","lat":53.19616,"lon":-2.89858,"postcode":"CH1 4EW","la":"Cheshire West and Chester","era":"other","nn":93,"risk":24,"cat":"green"},{"name":"Halfway House","lat":53.29347,"lon":-2.95339,"postcode":"CH66 1QN","la":"Cheshire West and Chester","era":"other","nn":155,"risk":30,"cat":"green"},{"name":"Harp Inn","lat":53.27746,"lon":-3.06636,"postcode":"CH64 0TB","la":"Cheshire West and Chester","era":"trad","nn":633,"risk":48,"cat":"amber"},{"name":"Hinderton Arms (Neston)","lat":53.29472,"lon":-3.04331,"postcode":"CH64 7TA","la":"Cheshire West and Chester","era":"trad","nn":1097,"risk":54,"cat":"amber"},{"name":"Hooton Lawn Tennis Club","lat":53.28532,"lon":-2.96274,"postcode":"CH66 4PS","la":"Cheshire West and Chester","era":"other","nn":948,"risk":48,"cat":"amber"},{"name":"Horse and Jockey","lat":53.28755,"lon":-2.89451,"postcode":"CH65 4DH","la":"Cheshire West and Chester","era":"trad","nn":227,"risk":43,"cat":"amber"},{"name":"Indie Hops","lat":53.19731,"lon":-2.76323,"postcode":"CH3 8EB","la":"Cheshire West and Chester","era":"other","nn":2023,"risk":60,"cat":"amber"},{"name":"JAX@CH1 ltd","lat":53.19303,"lon":-2.89263,"postcode":"CH1 2HT","la":"Cheshire West and Chester","era":"other","nn":40,"risk":24,"cat":"green"},{"name":"Labour Social Club","lat":53.27911,"lon":-2.90491,"postcode":"CH65 8DP","la":"Cheshire West and Chester","era":"mod","nn":352,"risk":44,"cat":"amber"},{"name":"Liquor and Co","lat":53.18998,"lon":-2.89282,"postcode":"CH1 2LE","la":"Cheshire West and Chester","era":"other","nn":23,"risk":24,"cat":"green"},{"name":"Little Oak","lat":53.19253,"lon":-2.87527,"postcode":"CH3 5BH","la":"Cheshire West and Chester","era":"trad","nn":209,"risk":25,"cat":"green"},{"name":"Liverpool Arms","lat":53.19367,"lon":-2.89346,"postcode":"CH1 2HQ","la":"Cheshire West and Chester","era":"trad","nn":38,"risk":24,"cat":"green"},{"name":"LOCK VAULTS HOOLE","lat":53.19404,"lon":-2.8734,"postcode":"CH2 3DU","la":"Cheshire West and Chester","era":"other","nn":197,"risk":25,"cat":"green"},{"name":"Lockwood & Company","lat":53.19197,"lon":-2.8942,"postcode":"CH1 2AR","la":"Cheshire West and Chester","era":"other","nn":0,"risk":24,"cat":"green"},{"name":"Malt Shovel","lat":53.29251,"lon":-3.06501,"postcode":"CH64 3RB","la":"Cheshire West and Chester","era":"other","nn":161,"risk":25,"cat":"green"},{"name":"Marlborough Arms","lat":53.19052,"lon":-2.88786,"postcode":"CH1 1DA","la":"Cheshire West and Chester","era":"trad","nn":20,"risk":24,"cat":"green"},{"name":"Matts Kitcken at The Plough","lat":53.18114,"lon":-2.81756,"postcode":"CH3 7PT","la":"Cheshire West and Chester","era":"trad","nn":1939,"risk":60,"cat":"amber"},{"name":"Mill At Upton","lat":53.20862,"lon":-2.89437,"postcode":"CH2 1AU","la":"Cheshire West and Chester","era":"trad","nn":975,"risk":51,"cat":"amber"},{"name":"Music Hall Tap","lat":53.19113,"lon":-2.89101,"postcode":"CH1 2EU","la":"Cheshire West and Chester","era":"mod","nn":49,"risk":24,"cat":"green"},{"name":"Neston Cricket Club","lat":53.29334,"lon":-3.07935,"postcode":"CH64 6QJ","la":"Cheshire West and Chester","era":"other","nn":957,"risk":48,"cat":"amber"},{"name":"Neston Masonic Club","lat":53.28867,"lon":-3.05635,"postcode":"CH64 9QB","la":"Cheshire West and Chester","era":"trad","nn":388,"risk":27,"cat":"green"},{"name":"Number Fifteen","lat":53.19149,"lon":-2.88381,"postcode":"CH1 1HB","la":"Cheshire West and Chester","era":"other","nn":20,"risk":24,"cat":"green"},{"name":"Oddfellows Arms","lat":53.19301,"lon":-2.88847,"postcode":"CH1 3JL","la":"Cheshire West and Chester","era":"trad","nn":239,"risk":25,"cat":"green"},{"name":"Off the Wall/Pizza Amore/Dough Masters/K-Town/Chik Box/Locked and Loaded","lat":53.18943,"lon":-2.88793,"postcode":"CH1 1DA","la":"Cheshire West and Chester","era":"other","nn":121,"risk":25,"cat":"green"},{"name":"Olde Cottage Inn","lat":53.19492,"lon":-2.88599,"postcode":"CH1 3DZ","la":"Cheshire West and Chester","era":"trad","nn":265,"risk":26,"cat":"green"},{"name":"Olde Red Lion","lat":53.28632,"lon":-2.94693,"postcode":"CH66 1QQ","la":"Cheshire West and Chester","era":"trad","nn":117,"risk":25,"cat":"green"},{"name":"Peacock & Clarke","lat":53.18934,"lon":-2.86317,"postcode":"CH3 5TD","la":"Cheshire West and Chester","era":"other","nn":215,"risk":25,"cat":"green"},{"name":"Pollard Inn","lat":53.29151,"lon":-3.00774,"postcode":"CH64 2TU","la":"Cheshire West and Chester","era":"trad","nn":2391,"risk":63,"cat":"red"},{"name":"Providence Gin","lat":53.19016,"lon":-2.89224,"postcode":"CH1 2LB","la":"Cheshire West and Chester","era":"other","nn":37,"risk":24,"cat":"green"},{"name":"Pryors Hayes Golf Club","lat":53.194,"lon":-2.73338,"postcode":"CH3 8NL","la":"Cheshire West and Chester","era":"other","nn":2023,"risk":60,"cat":"amber"},{"name":"Red Door","lat":53.1907,"lon":-2.88782,"postcode":"CH1 1DA","la":"Cheshire West and Chester","era":"other","nn":20,"risk":24,"cat":"green"},{"name":"Revolution Bar","lat":53.19155,"lon":-2.88353,"postcode":"CH1 1HB","la":"Cheshire West and Chester","era":"other","nn":20,"risk":24,"cat":"green"},{"name":"Rosies Chester","lat":53.19074,"lon":-2.89135,"postcode":"CH1 2HA","la":"Cheshire West and Chester","era":"other","nn":48,"risk":24,"cat":"green"},{"name":"Royal British Legion","lat":53.28134,"lon":-2.94137,"postcode":"CH66 3RJ","la":"Cheshire West and Chester","era":"trad","nn":550,"risk":28,"cat":"green"},{"name":"Royal British Legion","lat":53.28899,"lon":-3.06216,"postcode":"CH64 9PB","la":"Cheshire West and Chester","era":"trad","nn":172,"risk":25,"cat":"green"},{"name":"Royal Oak","lat":53.19964,"lon":-2.87634,"postcode":"CH2 3BD","la":"Cheshire West and Chester","era":"trad","nn":78,"risk":24,"cat":"green"},{"name":"Shropshire Arms","lat":53.19239,"lon":-2.89281,"postcode":"CH1 2HQ","la":"Cheshire West and Chester","era":"trad","nn":54,"risk":24,"cat":"green"},{"name":"Spital Vaults","lat":53.1925,"lon":-2.87194,"postcode":"CH3 5DB","la":"Cheshire West and Chester","era":"other","nn":154,"risk":25,"cat":"green"},{"name":"Square Bottle","lat":53.19138,"lon":-2.8844,"postcode":"CH1 1HB","la":"Cheshire West and Chester","era":"other","nn":36,"risk":24,"cat":"green"},{"name":"St Theresas Centre","lat":53.20774,"lon":-2.91914,"postcode":"CH1 5BU","la":"Cheshire West and Chester","era":"other","nn":776,"risk":49,"cat":"amber"},{"name":"Telfords Warehouse","lat":53.19329,"lon":-2.89869,"postcode":"CH1 4EZ","la":"Cheshire West and Chester","era":"other","nn":319,"risk":26,"cat":"green"},{"name":"The Bridgewater Arms","lat":53.19503,"lon":-2.88202,"postcode":"CH1 3BP","la":"Cheshire West and Chester","era":"trad","nn":189,"risk":25,"cat":"green"},{"name":"The Bulls Head","lat":53.27558,"lon":-2.93613,"postcode":"CH66 3NZ","la":"Cheshire West and Chester","era":"trad","nn":110,"risk":42,"cat":"amber"},{"name":"The Cabin","lat":53.19197,"lon":-2.8942,"postcode":"CH1 2AR","la":"Cheshire West and Chester","era":"other","nn":0,"risk":24,"cat":"green"},{"name":"The Cat","lat":53.27395,"lon":-2.88907,"postcode":"CH65 5BZ","la":"Cheshire West and Chester","era":"other","nn":550,"risk":45,"cat":"amber"},{"name":"The Cellar","lat":53.19316,"lon":-2.88193,"postcode":"CH1 3AE","la":"Cheshire West and Chester","era":"other","nn":43,"risk":24,"cat":"green"},{"name":"The Cherry Orchard","lat":53.19052,"lon":-2.86572,"postcode":"CH3 5EN","la":"Cheshire West and Chester","era":"other","nn":215,"risk":25,"cat":"green"},{"name":"The Cornerhouse","lat":53.1925,"lon":-2.88172,"postcode":"CH1 3AE","la":"Cheshire West and Chester","era":"other","nn":75,"risk":24,"cat":"green"},{"name":"The Falcon","lat":53.18778,"lon":-2.8907,"postcode":"CH1 1RS","la":"Cheshire West and Chester","era":"other","nn":51,"risk":24,"cat":"green"},{"name":"The Greyhound Inn","lat":53.22284,"lon":-2.96039,"postcode":"CH1 6BJ","la":"Cheshire West and Chester","era":"trad","nn":1615,"risk":58,"cat":"amber"},{"name":"The Grosvenor Arms","lat":53.18401,"lon":-2.88787,"postcode":"CH4 7JE","la":"Cheshire West and Chester","era":"trad","nn":240,"risk":25,"cat":"green"},{"name":"The Gunners","lat":53.27141,"lon":-2.88197,"postcode":"CH65 5HN","la":"Cheshire West and Chester","era":"other","nn":550,"risk":48,"cat":"amber"},{"name":"The Lady Hamilton","lat":53.28295,"lon":-3.0638,"postcode":"CH64 0SG","la":"Cheshire West and Chester","era":"other","nn":633,"risk":28,"cat":"green"},{"name":"The Mount Inn","lat":53.19126,"lon":-2.87092,"postcode":"CH3 5UD","la":"Cheshire West and Chester","era":"trad","nn":154,"risk":25,"cat":"green"},{"name":"The Old Queens Head","lat":53.19175,"lon":-2.88462,"postcode":"CH1 1HE","la":"Cheshire West and Chester","era":"trad","nn":44,"risk":24,"cat":"green"},{"name":"The piper","lat":53.20319,"lon":-2.85611,"postcode":"CH2 3LS","la":"Cheshire West and Chester","era":"other","nn":775,"risk":47,"cat":"amber"},{"name":"The Saddle Inn","lat":53.1876,"lon":-2.89204,"postcode":"CH1 2DD","la":"Cheshire West and Chester","era":"trad","nn":59,"risk":24,"cat":"green"},{"name":"The Straw Hat","lat":53.26563,"lon":-2.92306,"postcode":"CH66 2BH","la":"Cheshire West and Chester","era":"other","nn":893,"risk":50,"cat":"amber"},{"name":"The Wheatsheaf","lat":53.28284,"lon":-2.92312,"postcode":"CH66 3LN","la":"Cheshire West and Chester","era":"trad","nn":1141,"risk":54,"cat":"amber"},{"name":"The William Jessop","lat":53.27941,"lon":-2.89964,"postcode":"CH65 8AB","la":"Cheshire West and Chester","era":"other","nn":352,"risk":29,"cat":"green"},{"name":"The Woodlands Hotel","lat":53.26418,"lon":-2.90985,"postcode":"CH66 2LJ","la":"Cheshire West and Chester","era":"other","nn":893,"risk":50,"cat":"amber"},{"name":"Town Crier, 88th Street , Value Mighty, Sin City Burger","lat":53.19338,"lon":-2.88141,"postcode":"CH1 3AE","la":"Cheshire West and Chester","era":"other","nn":43,"risk":24,"cat":"green"},{"name":"Travellers Rest","lat":53.28403,"lon":-2.94831,"postcode":"CH66 4QQ","la":"Cheshire West and Chester","era":"other","nn":189,"risk":25,"cat":"green"},{"name":"Vauxhall Sports and Social Club","lat":53.29706,"lon":-2.94156,"postcode":"CH66 1NJ","la":"Cheshire West and Chester","era":"mod","nn":882,"risk":50,"cat":"amber"},{"name":"Vicars Cross Golf Club","lat":53.19857,"lon":-2.81839,"postcode":"CH3 7HN","la":"Cheshire West and Chester","era":"trad","nn":1754,"risk":59,"cat":"amber"},{"name":"Victoria Hotel","lat":53.19039,"lon":-2.89178,"postcode":"CH1 2LD","la":"Cheshire West and Chester","era":"trad","nn":40,"risk":24,"cat":"green"},{"name":"Waggon & Horses","lat":53.20356,"lon":-2.92848,"postcode":"CH1 5PR","la":"Cheshire West and Chester","era":"trad","nn":776,"risk":49,"cat":"amber"},{"name":"Wheelwright Arms","lat":53.27426,"lon":-2.81447,"postcode":"CH2 4LU","la":"Cheshire West and Chester","era":"trad","nn":1213,"risk":55,"cat":"amber"},{"name":"White Lion Pub","lat":53.29217,"lon":-2.95424,"postcode":"CH66 5PU","la":"Cheshire West and Chester","era":"trad","nn":155,"risk":25,"cat":"green"},{"name":"White Swan Inn","lat":53.27653,"lon":-2.93665,"postcode":"CH66 3NZ","la":"Cheshire West and Chester","era":"trad","nn":110,"risk":42,"cat":"amber"},{"name":"Ye Olde Kings Head","lat":53.18733,"lon":-2.89056,"postcode":"CH1 1RS","la":"Cheshire West and Chester","era":"trad","nn":51,"risk":24,"cat":"green"},{"name":"The Raven Inn","lat":53.09771,"lon":-3.21207,"postcode":"CH7 4QE","la":"Denbighshire","era":"trad","nn":2109,"risk":65,"cat":"red"},{"name":"The Sun Inn","lat":53.11196,"lon":-3.19122,"postcode":"CH7 4BX","la":"Denbighshire","era":"trad","nn":2109,"risk":65,"cat":"red"},{"name":"Anchor Hotel","lat":53.17916,"lon":-2.92051,"postcode":"CH4 8SE","la":"Flintshire","era":"trad","nn":481,"risk":52,"cat":"amber"},{"name":"Blue Anchor Inn","lat":53.16807,"lon":-3.08971,"postcode":"CH7 2NH","la":"Flintshire","era":"trad","nn":196,"risk":35,"cat":"amber"},{"name":"Blue Bell","lat":53.16692,"lon":-3.06768,"postcode":"CH7 3AE","la":"Flintshire","era":"other","nn":132,"risk":32,"cat":"amber"},{"name":"Boot and Ship Inn","lat":53.27799,"lon":-3.18666,"postcode":"CH6 6HE","la":"Flintshire","era":"trad","nn":2015,"risk":65,"cat":"red"},{"name":"Bridge Inn","lat":53.19527,"lon":-3.0022,"postcode":"CH5 2QN","la":"Flintshire","era":"trad","nn":1052,"risk":58,"cat":"amber"},{"name":"Bryn Griffiths Workingmen's Cl","lat":53.16948,"lon":-3.14365,"postcode":"CH7 1BQ","la":"Flintshire","era":"trad","nn":166,"risk":29,"cat":"green"},{"name":"Buckley Cricket Club","lat":53.16632,"lon":-3.06537,"postcode":"CH7 3AQ","la":"Flintshire","era":"other","nn":44,"risk":31,"cat":"amber"},{"name":"Clwyd Hotel","lat":53.21284,"lon":-3.04036,"postcode":"CH5 1BY","la":"Flintshire","era":"other","nn":107,"risk":31,"cat":"amber"},{"name":"Colomendy Arms","lat":53.15683,"lon":-3.19107,"postcode":"CH7 5LL","la":"Flintshire","era":"trad","nn":1927,"risk":64,"cat":"red"},{"name":"Connah's Quay Labour  Club","lat":53.21501,"lon":-3.04895,"postcode":"CH5 4PJ","la":"Flintshire","era":"other","nn":441,"risk":31,"cat":"amber"},{"name":"Corner Pin","lat":53.17841,"lon":-2.92762,"postcode":"CH4 8SQ","la":"Flintshire","era":"other","nn":481,"risk":52,"cat":"amber"},{"name":"Cross Keys","lat":53.18645,"lon":-3.14025,"postcode":"CH7 6LT","la":"Flintshire","era":"trad","nn":940,"risk":55,"cat":"amber"},{"name":"Crown Inn","lat":53.23358,"lon":-3.24643,"postcode":"CH8 8NQ","la":"Flintshire","era":"trad","nn":1734,"risk":63,"cat":"red"},{"name":"Crown Inn","lat":53.1725,"lon":-3.20342,"postcode":"CH7 5EH","la":"Flintshire","era":"trad","nn":151,"risk":49,"cat":"amber"},{"name":"Dee Inn","lat":53.24941,"lon":-3.13298,"postcode":"CH6 5NR","la":"Flintshire","era":"trad","nn":96,"risk":29,"cat":"green"},{"name":"Deeside Naval Club Ltd","lat":53.21837,"lon":-3.05857,"postcode":"CH5 4SA","la":"Flintshire","era":"other","nn":171,"risk":34,"cat":"amber"},{"name":"Ewloe Social Club","lat":53.19173,"lon":-3.05781,"postcode":"CH5 3AU","la":"Flintshire","era":"mod","nn":367,"risk":48,"cat":"amber"},{"name":"Farmers Arms","lat":53.33069,"lon":-3.30115,"postcode":"CH8 9SW","la":"Flintshire","era":"trad","nn":215,"risk":50,"cat":"amber"},{"name":"Feathers Inn","lat":53.27401,"lon":-3.22389,"postcode":"CH8 7NL","la":"Flintshire","era":"trad","nn":46,"risk":46,"cat":"amber"},{"name":"Flint Golf Club","lat":53.24149,"lon":-3.16393,"postcode":"CH6 5RA","la":"Flintshire","era":"other","nn":1683,"risk":62,"cat":"red"},{"name":"Glasfryn","lat":53.17801,"lon":-3.1393,"postcode":"CH7 6LR","la":"Flintshire","era":"other","nn":770,"risk":39,"cat":"amber"},{"name":"Griffin Inn","lat":53.16607,"lon":-3.11219,"postcode":"CH7 6TF","la":"Flintshire","era":"trad","nn":977,"risk":55,"cat":"amber"},{"name":"Halfway House","lat":53.2245,"lon":-3.07146,"postcode":"CH5 4AS","la":"Flintshire","era":"other","nn":1000,"risk":58,"cat":"amber"},{"name":"Hawarden Park Cricket Club","lat":53.18742,"lon":-3.01101,"postcode":"CH5 3PQ","la":"Flintshire","era":"other","nn":1052,"risk":58,"cat":"amber"},{"name":"Horse & Jockey","lat":53.17115,"lon":-3.07071,"postcode":"CH7 3JQ","la":"Flintshire","era":"trad","nn":511,"risk":32,"cat":"amber"},{"name":"Lady Augusta Masonic Hall","lat":53.3137,"lon":-3.26347,"postcode":"CH8 9HW","la":"Flintshire","era":"trad","nn":2925,"risk":71,"cat":"red"},{"name":"Masonic Hall (Mold) Company Ltd","lat":53.16727,"lon":-3.14407,"postcode":"CH7 1AX","la":"Flintshire","era":"trad","nn":62,"risk":29,"cat":"green"},{"name":"Masons Arms","lat":53.33595,"lon":-3.33673,"postcode":"CH8 9LT","la":"Flintshire","era":"trad","nn":1093,"risk":58,"cat":"amber"},{"name":"McLeans Pub","lat":53.20288,"lon":-3.01445,"postcode":"CH5 2DA","la":"Flintshire","era":"other","nn":182,"risk":47,"cat":"amber"},{"name":"Mechanics Arms","lat":53.20256,"lon":-3.01713,"postcode":"CH5 2AA","la":"Flintshire","era":"trad","nn":182,"risk":47,"cat":"amber"},{"name":"Melrose Inn","lat":53.204,"lon":-3.0392,"postcode":"CH5 1LR","la":"Flintshire","era":"trad","nn":925,"risk":52,"cat":"amber"},{"name":"Mill House","lat":53.16955,"lon":-2.97616,"postcode":"CH4 0DP","la":"Flintshire","era":"trad","nn":894,"risk":52,"cat":"amber"},{"name":"Mold Alehouse","lat":53.16756,"lon":-3.14328,"postcode":"CH7 1AL","la":"Flintshire","era":"other","nn":62,"risk":29,"cat":"green"},{"name":"Mold Cricket Club","lat":53.16717,"lon":-3.13347,"postcode":"CH7 1UF","la":"Flintshire","era":"other","nn":329,"risk":31,"cat":"amber"},{"name":"Mold Ex-Service Mens Club","lat":53.16459,"lon":-3.14061,"postcode":"CH7 1HQ","la":"Flintshire","era":"other","nn":157,"risk":29,"cat":"green"},{"name":"Mold Golf Club","lat":53.17299,"lon":-3.20553,"postcode":"CH7 5EH","la":"Flintshire","era":"other","nn":151,"risk":49,"cat":"amber"},{"name":"Northop Country Park Golf Club","lat":53.20178,"lon":-3.12329,"postcode":"CH7 6WA","la":"Flintshire","era":"other","nn":897,"risk":54,"cat":"amber"},{"name":"Offas Dyke Hotel","lat":53.1647,"lon":-2.98686,"postcode":"CH4 0QN","la":"Flintshire","era":"other","nn":894,"risk":54,"cat":"amber"},{"name":"Old Padeswood Golf Club (Clubhouse)","lat":53.14891,"lon":-3.0855,"postcode":"CH7 4JD","la":"Flintshire","era":"other","nn":2149,"risk":66,"cat":"red"},{"name":"Owain Glyndwr Inn","lat":53.14266,"lon":-3.17075,"postcode":"CH7 5LP","la":"Flintshire","era":"trad","nn":2079,"risk":65,"cat":"red"},{"name":"Parrot Inn","lat":53.17254,"lon":-3.05889,"postcode":"CH7 3DX","la":"Flintshire","era":"trad","nn":353,"risk":31,"cat":"amber"},{"name":"Pen Y Bont Farm","lat":53.16508,"lon":-3.12675,"postcode":"CH7 1UJ","la":"Flintshire","era":"other","nn":184,"risk":29,"cat":"green"},{"name":"Queens Head Inn","lat":53.16618,"lon":-3.12882,"postcode":"CH7 1UQ","la":"Flintshire","era":"trad","nn":184,"risk":29,"cat":"green"},{"name":"Railway Inn","lat":53.12158,"lon":-3.09597,"postcode":"CH7 4TP","la":"Flintshire","era":"trad","nn":2470,"risk":68,"cat":"red"},{"name":"Railway Inn","lat":53.32986,"lon":-3.29821,"postcode":"CH8 9SN","la":"Flintshire","era":"trad","nn":215,"risk":50,"cat":"amber"},{"name":"Red Hall Hotel","lat":53.21613,"lon":-3.06593,"postcode":"CH5 4SX","la":"Flintshire","era":"other","nn":550,"risk":50,"cat":"amber"},{"name":"Red Lion","lat":53.20391,"lon":-3.17954,"postcode":"CH7 6PF","la":"Flintshire","era":"trad","nn":3065,"risk":72,"cat":"red"},{"name":"Royal Oak","lat":53.14751,"lon":-3.00037,"postcode":"CH4 9BE","la":"Flintshire","era":"trad","nn":2113,"risk":65,"cat":"red"},{"name":"Ship Inn","lat":53.21863,"lon":-3.05604,"postcode":"CH5 4DJ","la":"Flintshire","era":"trad","nn":171,"risk":34,"cat":"amber"},{"name":"Spinning Wheel Tavern","lat":53.16414,"lon":-3.01879,"postcode":"CH4 0EG","la":"Flintshire","era":"trad","nn":2129,"risk":66,"cat":"red"},{"name":"Swan Hotel","lat":53.24863,"lon":-3.13237,"postcode":"CH6 5DH","la":"Flintshire","era":"trad","nn":96,"risk":29,"cat":"green"},{"name":"Talbot Bar","lat":53.35141,"lon":-3.32538,"postcode":"CH8 9SA","la":"Flintshire","era":"trad","nn":1877,"risk":64,"cat":"red"},{"name":"The Black Horse Hotel","lat":53.1687,"lon":-3.08342,"postcode":"CH7 2JB","la":"Flintshire","era":"trad","nn":68,"risk":29,"cat":"green"},{"name":"The Black Lion Hotel","lat":53.1683,"lon":-3.08265,"postcode":"CH7 2JA","la":"Flintshire","era":"trad","nn":68,"risk":31,"cat":"amber"},{"name":"The Boot Inn","lat":53.20684,"lon":-3.13378,"postcode":"CH7 6BQ","la":"Flintshire","era":"trad","nn":897,"risk":54,"cat":"amber"},{"name":"The Burntwood","lat":53.1757,"lon":-3.05951,"postcode":"CH7 3EN","la":"Flintshire","era":"other","nn":353,"risk":48,"cat":"amber"},{"name":"The Central Hotel","lat":53.21232,"lon":-3.03902,"postcode":"CH5 1BX","la":"Flintshire","era":"other","nn":107,"risk":31,"cat":"amber"},{"name":"The Coach & Horses Inn","lat":53.22586,"lon":-3.14191,"postcode":"CH6 5QG","la":"Flintshire","era":"trad","nn":1796,"risk":63,"cat":"red"},{"name":"The Cross Foxes Nannerch Ltd","lat":53.21628,"lon":-3.25012,"postcode":"CH7 5RD","la":"Flintshire","era":"trad","nn":1939,"risk":64,"cat":"red"},{"name":"The Crown and Liver","lat":53.19005,"lon":-3.04629,"postcode":"CH5 3DN","la":"Flintshire","era":"trad","nn":434,"risk":49,"cat":"amber"},{"name":"The Drover Arms","lat":53.17313,"lon":-3.1475,"postcode":"CH7 1BP","la":"Flintshire","era":"trad","nn":480,"risk":32,"cat":"amber"},{"name":"The Fat Boar","lat":53.16719,"lon":-3.14007,"postcode":"CH7 1EG","la":"Flintshire","era":"other","nn":147,"risk":29,"cat":"green"},{"name":"The Fox Inn","lat":53.23416,"lon":-3.27247,"postcode":"CH8 8NJ","la":"Flintshire","era":"trad","nn":1734,"risk":63,"cat":"red"},{"name":"The George & Dragon","lat":53.24868,"lon":-3.13602,"postcode":"CH6 5AE","la":"Flintshire","era":"trad","nn":216,"risk":30,"cat":"green"},{"name":"The Gold Cape","lat":53.16599,"lon":-3.14098,"postcode":"CH7 1ES","la":"Flintshire","era":"other","nn":42,"risk":28,"cat":"green"},{"name":"The Griffin","lat":53.16816,"lon":-3.14248,"postcode":"CH7 1BQ","la":"Flintshire","era":"trad","nn":36,"risk":28,"cat":"green"},{"name":"The Groves Community Sports & Social Club","lat":53.2148,"lon":-3.04234,"postcode":"CH5 1ED","la":"Flintshire","era":"mod","nn":254,"risk":35,"cat":"amber"},{"name":"The Market Cross","lat":53.27439,"lon":-3.22257,"postcode":"CH8 7LA","la":"Flintshire","era":"trad","nn":62,"risk":46,"cat":"amber"},{"name":"The Mill Tavern","lat":53.2419,"lon":-3.13865,"postcode":"CH6 5LQ","la":"Flintshire","era":"trad","nn":723,"risk":33,"cat":"amber"},{"name":"The Millstone","lat":53.14787,"lon":-3.04444,"postcode":"CH4 0JE","la":"Flintshire","era":"trad","nn":2481,"risk":68,"cat":"red"},{"name":"The New Glynne Arms","lat":53.17371,"lon":-2.96326,"postcode":"CH4 0DH","la":"Flintshire","era":"trad","nn":976,"risk":55,"cat":"amber"},{"name":"The Old Wine Vaults","lat":53.27435,"lon":-3.2235,"postcode":"CH8 7LP","la":"Flintshire","era":"other","nn":46,"risk":46,"cat":"amber"},{"name":"The Piccadilly Inn","lat":53.24846,"lon":-3.30791,"postcode":"CH7 5AW","la":"Flintshire","era":"trad","nn":2844,"risk":71,"cat":"red"},{"name":"The Red Lion","lat":53.16609,"lon":-3.14158,"postcode":"CH7 1ET","la":"Flintshire","era":"trad","nn":42,"risk":28,"cat":"green"},{"name":"The Royal Oak","lat":53.28491,"lon":-3.21468,"postcode":"CH8 7QB","la":"Flintshire","era":"trad","nn":1281,"risk":60,"cat":"amber"},{"name":"The Running Hare","lat":53.19037,"lon":-3.05278,"postcode":"CH5 3YB","la":"Flintshire","era":"other","nn":367,"risk":48,"cat":"amber"},{"name":"The Shamrock","lat":53.16627,"lon":-3.06602,"postcode":"CH7 3AE","la":"Flintshire","era":"other","nn":44,"risk":31,"cat":"amber"},{"name":"The Ship Hotel","lat":53.25024,"lon":-3.13409,"postcode":"CH6 5NW","la":"Flintshire","era":"trad","nn":119,"risk":29,"cat":"green"},{"name":"The Top Monkey","lat":53.2022,"lon":-3.09578,"postcode":"CH7 6HS","la":"Flintshire","era":"trad","nn":1330,"risk":60,"cat":"amber"},{"name":"The Trap Bar @ Hope & Anchor Inn","lat":53.17728,"lon":-3.08013,"postcode":"CH7 3NL","la":"Flintshire","era":"other","nn":927,"risk":52,"cat":"amber"},{"name":"The Welsh Harp","lat":53.24332,"lon":-3.12805,"postcode":"CH6 5JU","la":"Flintshire","era":"other","nn":657,"risk":33,"cat":"amber"},{"name":"The Wepre Bar & Grill","lat":53.2023,"lon":-3.07581,"postcode":"CH5 4JR","la":"Flintshire","era":"mod","nn":1330,"risk":60,"cat":"amber"},{"name":"The White Bear","lat":53.19536,"lon":-3.02258,"postcode":"CH5 2AH","la":"Flintshire","era":"other","nn":879,"risk":52,"cat":"amber"},{"name":"The White Horse Inn","lat":53.17746,"lon":-3.23271,"postcode":"CH7 5NN","la":"Flintshire","era":"trad","nn":1878,"risk":64,"cat":"red"},{"name":"The Yacht Inn","lat":53.24087,"lon":-3.11637,"postcode":"CH6 5SE","la":"Flintshire","era":"trad","nn":823,"risk":54,"cat":"amber"},{"name":"White Lion","lat":53.16835,"lon":-3.0868,"postcode":"CH7 2NH","la":"Flintshire","era":"trad","nn":196,"risk":35,"cat":"amber"},{"name":"Y Delyn Wine Bar","lat":53.16795,"lon":-3.14207,"postcode":"CH7 1LA","la":"Flintshire","era":"other","nn":36,"risk":28,"cat":"green"},{"name":"Y Pentan","lat":53.16654,"lon":-3.14219,"postcode":"CH7 1NY","la":"Flintshire","era":"other","nn":64,"risk":29,"cat":"green"},{"name":"@955 Sport & Social","lat":53.32446,"lon":-2.96967,"postcode":"CH62 6AS","la":"Wirral","era":"mod","nn":691,"risk":45,"cat":"amber"},{"name":"@no.6","lat":53.34938,"lon":-3.00306,"postcode":"CH63 7PH","la":"Wirral","era":"other","nn":271,"risk":27,"cat":"green"},{"name":"21st Amendment Hoylake","lat":53.39059,"lon":-3.17983,"postcode":"CH47 2EE","la":"Wirral","era":"other","nn":87,"risk":23,"cat":"green"},{"name":"Admiral","lat":53.38923,"lon":-3.03012,"postcode":"CH41 6EB","la":"Wirral","era":"other","nn":151,"risk":24,"cat":"green"},{"name":"Arrowe Park Golf Club","lat":53.36426,"lon":-3.09117,"postcode":"CH49 5LN","la":"Wirral","era":"other","nn":582,"risk":47,"cat":"amber"},{"name":"Arrowe Park Hotel","lat":53.36935,"lon":-3.08907,"postcode":"CH49 5LN","la":"Wirral","era":"other","nn":582,"risk":44,"cat":"amber"},{"name":"Arthurs Of Hoylake","lat":53.39148,"lon":-3.1782,"postcode":"CH47 2AE","la":"Wirral","era":"other","nn":39,"risk":23,"cat":"green"},{"name":"Bassett Hound","lat":53.35355,"lon":-3.08243,"postcode":"CH61 1AS","la":"Wirral","era":"trad","nn":1250,"risk":54,"cat":"amber"},{"name":"Beehive Public House","lat":53.37815,"lon":-3.0254,"postcode":"CH42 0LH","la":"Wirral","era":"other","nn":302,"risk":25,"cat":"green"},{"name":"Bell Mobility Ltd.","lat":53.39901,"lon":-3.03634,"postcode":"CH41 4JQ","la":"Wirral","era":"other","nn":60,"risk":23,"cat":"green"},{"name":"Birkenhead Park Cricket Club","lat":53.39087,"lon":-3.03648,"postcode":"CH43 4TS","la":"Wirral","era":"trad","nn":94,"risk":24,"cat":"green"},{"name":"Birkenhead park RFC","lat":53.39736,"lon":-3.04941,"postcode":"CH41 8AA","la":"Wirral","era":"trad","nn":530,"risk":27,"cat":"green"},{"name":"Birkenhead Royal Naval Association","lat":53.39149,"lon":-3.03551,"postcode":"CH41 4BE","la":"Wirral","era":"trad","nn":94,"risk":24,"cat":"green"},{"name":"Black Toad","lat":53.39176,"lon":-3.17786,"postcode":"CH47 2AF","la":"Wirral","era":"other","nn":39,"risk":23,"cat":"green"},{"name":"Blind Pig @ Heswall Hall","lat":53.32724,"lon":-3.09797,"postcode":"CH60 0AF","la":"Wirral","era":"other","nn":62,"risk":23,"cat":"green"},{"name":"British Legion Club","lat":53.3544,"lon":-3.02468,"postcode":"CH63 8QS","la":"Wirral","era":"other","nn":132,"risk":41,"cat":"amber"},{"name":"Bromborough Social Club","lat":53.33134,"lon":-2.97869,"postcode":"CH62 7JQ","la":"Wirral","era":"mod","nn":971,"risk":50,"cat":"amber"},{"name":"Bronze Sports And Social Club","lat":53.41959,"lon":-3.05601,"postcode":"CH44 2AG","la":"Wirral","era":"mod","nn":0,"risk":23,"cat":"green"},{"name":"Caernarvon Castle","lat":53.3826,"lon":-3.05206,"postcode":"CH43 2JZ","la":"Wirral","era":"other","nn":323,"risk":25,"cat":"green"},{"name":"Caldy Sports Club","lat":53.36037,"lon":-3.14626,"postcode":"CH48 1NX","la":"Wirral","era":"other","nn":105,"risk":44,"cat":"amber"},{"name":"Caldy Sports Club","lat":53.35946,"lon":-3.14585,"postcode":"CH48 1NX","la":"Wirral","era":"other","nn":105,"risk":44,"cat":"amber"},{"name":"Christies Bar","lat":53.39939,"lon":-3.03462,"postcode":"CH41 4JW","la":"Wirral","era":"other","nn":95,"risk":24,"cat":"green"},{"name":"Clarence Hotel","lat":53.43602,"lon":-3.05281,"postcode":"CH45 9JQ","la":"Wirral","era":"other","nn":623,"risk":27,"cat":"green"},{"name":"Coach And Horses","lat":53.40153,"lon":-3.112,"postcode":"CH46 6AD","la":"Wirral","era":"trad","nn":96,"risk":29,"cat":"green"},{"name":"Cock & Pullet","lat":53.38092,"lon":-3.03761,"postcode":"CH42 9LP","la":"Wirral","era":"other","nn":37,"risk":23,"cat":"green"},{"name":"Crosville Employees Social Club","lat":53.37342,"lon":-3.18486,"postcode":"CH48 4HA","la":"Wirral","era":"mod","nn":175,"risk":27,"cat":"green"},{"name":"Crown Hotel","lat":53.39223,"lon":-3.02382,"postcode":"CH41 6JE","la":"Wirral","era":"trad","nn":76,"risk":23,"cat":"green"},{"name":"Dee Hotel - Wetherspoons","lat":53.37276,"lon":-3.18247,"postcode":"CH48 4EF","la":"Wirral","era":"other","nn":175,"risk":27,"cat":"green"},{"name":"Dee Sailing Club","lat":53.3433,"lon":-3.1468,"postcode":"CH61 0HN","la":"Wirral","era":"other","nn":1798,"risk":58,"cat":"amber"},{"name":"Derby Arms","lat":53.36991,"lon":-3.00618,"postcode":"CH42 2AL","la":"Wirral","era":"trad","nn":294,"risk":25,"cat":"green"},{"name":"Eagle & Crown","lat":53.38461,"lon":-3.09737,"postcode":"CH49 0TH","la":"Wirral","era":"trad","nn":132,"risk":26,"cat":"green"},{"name":"Farmers Arms","lat":53.42609,"lon":-3.06693,"postcode":"CH45 3LG","la":"Wirral","era":"trad","nn":110,"risk":24,"cat":"green"},{"name":"Five Bars Rest","lat":53.41002,"lon":-3.01749,"postcode":"CH44 6NA","la":"Wirral","era":"other","nn":455,"risk":29,"cat":"green"},{"name":"Floral Pavilion Theatre","lat":53.43993,"lon":-3.04237,"postcode":"CH45 2JS","la":"Wirral","era":"trad","nn":217,"risk":24,"cat":"green"},{"name":"Fox and Hounds","lat":53.34232,"lon":-3.08335,"postcode":"CH61 1BW","la":"Wirral","era":"trad","nn":1250,"risk":54,"cat":"amber"},{"name":"Gallaghers","lat":53.39383,"lon":-3.01263,"postcode":"CH41 5DQ","la":"Wirral","era":"other","nn":21,"risk":23,"cat":"green"},{"name":"Genting Casino Wirral","lat":53.3882,"lon":-3.03161,"postcode":"CH41 2QQ","la":"Wirral","era":"other","nn":151,"risk":24,"cat":"green"},{"name":"Gin and Other Sins/Brimstage distill","lat":53.33639,"lon":-3.04699,"postcode":"CH63 6JA","la":"Wirral","era":"trad","nn":1028,"risk":53,"cat":"amber"},{"name":"Gravesberie Inn","lat":53.38243,"lon":-3.10901,"postcode":"CH49 2PP","la":"Wirral","era":"trad","nn":517,"risk":26,"cat":"green"},{"name":"Green Lodge Hotel","lat":53.39143,"lon":-3.18416,"postcode":"CH47 1HW","la":"Wirral","era":"other","nn":139,"risk":24,"cat":"green"},{"name":"Halfway House Public House","lat":53.37399,"lon":-3.04199,"postcode":"CH42 9QE","la":"Wirral","era":"mod","nn":355,"risk":25,"cat":"green"},{"name":"Heather Brow","lat":53.39424,"lon":-3.05794,"postcode":"CH43 8TA","la":"Wirral","era":"other","nn":16,"risk":23,"cat":"green"},{"name":"Heswall Football Club","lat":53.32251,"lon":-3.08177,"postcode":"CH60 1XG","la":"Wirral","era":"other","nn":814,"risk":49,"cat":"amber"},{"name":"Heswall Golf Club","lat":53.3155,"lon":-3.09485,"postcode":"CH60 8PB","la":"Wirral","era":"other","nn":1065,"risk":53,"cat":"amber"},{"name":"Heswall Lawn Tennis Club","lat":53.3339,"lon":-3.10554,"postcode":"CH60 6RB","la":"Wirral","era":"other","nn":715,"risk":28,"cat":"green"},{"name":"Heswall Royal British Legion","lat":53.3307,"lon":-3.09604,"postcode":"CH60 7RF","la":"Wirral","era":"trad","nn":246,"risk":25,"cat":"green"},{"name":"Home Guard Old Comrades Assn","lat":53.31864,"lon":-2.96602,"postcode":"CH62 8AH","la":"Wirral","era":"other","nn":558,"risk":32,"cat":"amber"},{"name":"Hooton Arms","lat":53.31483,"lon":-2.96055,"postcode":"CH62 0AN","la":"Wirral","era":"trad","nn":212,"risk":42,"cat":"amber"},{"name":"Horse And Jockey","lat":53.38475,"lon":-3.09935,"postcode":"CH49 0UD","la":"Wirral","era":"trad","nn":132,"risk":26,"cat":"green"},{"name":"Houlihans Variety Club","lat":53.39438,"lon":-3.05791,"postcode":"CH43 8TG","la":"Wirral","era":"other","nn":16,"risk":23,"cat":"green"},{"name":"Hoylake Conservative Club","lat":53.38795,"lon":-3.18437,"postcode":"CH47 4AN","la":"Wirral","era":"other","nn":254,"risk":25,"cat":"green"},{"name":"Hoylake Lights","lat":53.39238,"lon":-3.17714,"postcode":"CH47 3BB","la":"Wirral","era":"other","nn":84,"risk":23,"cat":"green"},{"name":"Hoylake Social Club","lat":53.39545,"lon":-3.17538,"postcode":"CH47 2BR","la":"Wirral","era":"mod","nn":195,"risk":24,"cat":"green"},{"name":"Irby Club","lat":53.35226,"lon":-3.11898,"postcode":"CH61 3UA","la":"Wirral","era":"other","nn":25,"risk":43,"cat":"amber"},{"name":"James Atherton","lat":53.43798,"lon":-3.04232,"postcode":"CH45 2JD","la":"Wirral","era":"other","nn":37,"risk":23,"cat":"green"},{"name":"Johnny pye","lat":53.32863,"lon":-3.09732,"postcode":"CH60 0DB","la":"Wirral","era":"other","nn":120,"risk":24,"cat":"green"},{"name":"Jug and Bottle","lat":53.32633,"lon":-3.09886,"postcode":"CH60 4RH","la":"Wirral","era":"other","nn":117,"risk":24,"cat":"green"},{"name":"Kings Arms Hotel","lat":53.36451,"lon":-3.01634,"postcode":"CH63 8NR","la":"Wirral","era":"trad","nn":810,"risk":29,"cat":"green"},{"name":"Lake Hotel","lat":53.39398,"lon":-3.17838,"postcode":"CH47 2DW","la":"Wirral","era":"other","nn":141,"risk":24,"cat":"green"},{"name":"Lever Social Club","lat":53.34846,"lon":-2.99726,"postcode":"CH62 4XB","la":"Wirral","era":"mod","nn":398,"risk":28,"cat":"green"},{"name":"Liverpool Victoria Rowing Club Boathouse","lat":53.41169,"lon":-3.05126,"postcode":"CH44 5SN","la":"Wirral","era":"trad","nn":111,"risk":24,"cat":"green"},{"name":"Lost Wirral","lat":53.33741,"lon":-3.01269,"postcode":"CH63 4JB","la":"Wirral","era":"other","nn":725,"risk":45,"cat":"amber"},{"name":"Masonic Temple","lat":53.38654,"lon":-3.02385,"postcode":"CH41 2SF","la":"Wirral","era":"trad","nn":449,"risk":26,"cat":"green"},{"name":"Mecca Bingo","lat":53.39162,"lon":-3.02433,"postcode":"CH41 4PF","la":"Wirral","era":"other","nn":76,"risk":23,"cat":"green"},{"name":"Merebrook Hotel","lat":53.32212,"lon":-2.9856,"postcode":"CH62 6DD","la":"Wirral","era":"other","nn":1089,"risk":53,"cat":"amber"},{"name":"Mississippi's","lat":53.34097,"lon":-3.00354,"postcode":"CH63 9JP","la":"Wirral","era":"other","nn":91,"risk":26,"cat":"green"},{"name":"Mona Castle","lat":53.40737,"lon":-3.02272,"postcode":"CH44 7DE","la":"Wirral","era":"other","nn":455,"risk":29,"cat":"green"},{"name":"Montrose Court Restaurant","lat":53.39106,"lon":-3.18088,"postcode":"CH47 2AP","la":"Wirral","era":"trad","nn":87,"risk":23,"cat":"green"},{"name":"Myrtle Inn","lat":53.39952,"lon":-3.03604,"postcode":"CH41 8EL","la":"Wirral","era":"trad","nn":60,"risk":23,"cat":"green"},{"name":"New Brighton Rugby Club","lat":53.41543,"lon":-3.1046,"postcode":"CH46 3RH","la":"Wirral","era":"other","nn":1337,"risk":55,"cat":"amber"},{"name":"Newton Arms","lat":53.37334,"lon":-3.15262,"postcode":"CH48 9XW","la":"Wirral","era":"trad","nn":1492,"risk":56,"cat":"amber"},{"name":"North Star Public House","lat":53.40086,"lon":-3.05483,"postcode":"CH41 8ER","la":"Wirral","era":"other","nn":530,"risk":27,"cat":"green"},{"name":"North Western Hotel","lat":53.39691,"lon":-3.02585,"postcode":"CH41 3QE","la":"Wirral","era":"other","nn":242,"risk":25,"cat":"green"},{"name":"Nyx","lat":53.32874,"lon":-3.09913,"postcode":"CH60 7RA","la":"Wirral","era":"other","nn":120,"risk":24,"cat":"green"},{"name":"Old Parkonians Association Club House","lat":53.37735,"lon":-3.04956,"postcode":"CH43 2HU","la":"Wirral","era":"other","nn":607,"risk":27,"cat":"green"},{"name":"Oxton Bar & Kitchen","lat":53.38204,"lon":-3.04232,"postcode":"CH43 5TQ","la":"Wirral","era":"mod","nn":113,"risk":24,"cat":"green"},{"name":"Oxton Conservative Club","lat":53.38227,"lon":-3.04416,"postcode":"CH43 5SR","la":"Wirral","era":"other","nn":125,"risk":24,"cat":"green"},{"name":"Park View Hotel","lat":53.39905,"lon":-3.03724,"postcode":"CH41 4JQ","la":"Wirral","era":"other","nn":60,"risk":23,"cat":"green"},{"name":"Park View Social Club","lat":53.4168,"lon":-3.03347,"postcode":"CH44 8AB","la":"Wirral","era":"mod","nn":501,"risk":26,"cat":"green"},{"name":"Perch Rock Hotel","lat":53.43781,"lon":-3.04183,"postcode":"CH45 2LW","la":"Wirral","era":"other","nn":37,"risk":23,"cat":"green"},{"name":"Plasterers Arms","lat":53.39525,"lon":-3.17831,"postcode":"CH47 2DJ","la":"Wirral","era":"trad","nn":141,"risk":24,"cat":"green"},{"name":"Platinum Bar","lat":53.39115,"lon":-3.01952,"postcode":"CH41 6JD","la":"Wirral","era":"other","nn":38,"risk":23,"cat":"green"},{"name":"Poulton Victoria Sports And Social Club","lat":53.4114,"lon":-3.05286,"postcode":"CH44 5SW","la":"Wirral","era":"other","nn":111,"risk":24,"cat":"green"},{"name":"Prenton Golf Club","lat":53.3657,"lon":-3.04203,"postcode":"CH42 8LW","la":"Wirral","era":"other","nn":658,"risk":32,"cat":"amber"},{"name":"Prenton Lawn Tennis Club","lat":53.37136,"lon":-3.03896,"postcode":"CH42 8LY","la":"Wirral","era":"other","nn":355,"risk":25,"cat":"green"},{"name":"Prenton Rugby Club","lat":53.3631,"lon":-3.05842,"postcode":"CH43 3BS","la":"Wirral","era":"other","nn":467,"risk":44,"cat":"amber"},{"name":"Queens Arms","lat":53.42199,"lon":-3.04293,"postcode":"CH45 4JR","la":"Wirral","era":"trad","nn":0,"risk":23,"cat":"green"},{"name":"Queens Hotel","lat":53.3931,"lon":-3.03297,"postcode":"CH41 4BB","la":"Wirral","era":"trad","nn":246,"risk":25,"cat":"green"},{"name":"Railway Inn","lat":53.40132,"lon":-3.15909,"postcode":"CH47 6AA","la":"Wirral","era":"trad","nn":1263,"risk":54,"cat":"amber"},{"name":"Red Buddha","lat":53.39131,"lon":-3.02029,"postcode":"CH41 6JD","la":"Wirral","era":"other","nn":0,"risk":23,"cat":"green"},{"name":"Red Buddha","lat":53.39131,"lon":-3.02029,"postcode":"CH41 6JD","la":"Wirral","era":"other","nn":0,"risk":23,"cat":"green"},{"name":"Red Cat","lat":53.37742,"lon":-3.12239,"postcode":"CH49 3AT","la":"Wirral","era":"other","nn":118,"risk":44,"cat":"amber"},{"name":"RING O'BELLS","lat":53.36844,"lon":-3.17357,"postcode":"CH48 7HE","la":"Wirral","era":"other","nn":702,"risk":30,"cat":"green"},{"name":"Riverview Pub","lat":53.39398,"lon":-3.01246,"postcode":"CH41 5DQ","la":"Wirral","era":"other","nn":21,"risk":23,"cat":"green"},{"name":"Rockvilla","lat":53.37186,"lon":-3.01547,"postcode":"CH42 3XH","la":"Wirral","era":"other","nn":302,"risk":25,"cat":"green"},{"name":"Rose & Crown","lat":53.41219,"lon":-3.04215,"postcode":"CH44 4DE","la":"Wirral","era":"trad","nn":606,"risk":27,"cat":"green"},{"name":"Rose & Crown","lat":53.35165,"lon":-3.00454,"postcode":"CH63 7PL","la":"Wirral","era":"trad","nn":271,"risk":42,"cat":"amber"},{"name":"Royal Air Force Association (RAFA)","lat":53.3831,"lon":-3.04663,"postcode":"CH43 1UU","la":"Wirral","era":"trad","nn":188,"risk":24,"cat":"green"},{"name":"Royal Liverpool Golf Club","lat":53.39021,"lon":-3.18375,"postcode":"CH47 4AL","la":"Wirral","era":"trad","nn":139,"risk":24,"cat":"green"},{"name":"Royal Mersey Yacht Club","lat":53.3742,"lon":-3.00365,"postcode":"CH42 1LS","la":"Wirral","era":"trad","nn":80,"risk":23,"cat":"green"},{"name":"Royal Naval Club","lat":53.41487,"lon":-3.02222,"postcode":"CH44 6PX","la":"Wirral","era":"trad","nn":331,"risk":25,"cat":"green"},{"name":"Sacred Heart Parish Centre","lat":53.40086,"lon":-3.11024,"postcode":"CH46 9QA","la":"Wirral","era":"other","nn":138,"risk":29,"cat":"green"},{"name":"Saddle Inn","lat":53.42189,"lon":-3.03755,"postcode":"CH44 1DE","la":"Wirral","era":"trad","nn":35,"risk":23,"cat":"green"},{"name":"Sandridge","lat":53.43262,"lon":-3.04285,"postcode":"CH45 5AR","la":"Wirral","era":"other","nn":156,"risk":24,"cat":"green"},{"name":"Seahorse","lat":53.44067,"lon":-3.04568,"postcode":"CH45 2PB","la":"Wirral","era":"trad","nn":234,"risk":25,"cat":"green"},{"name":"Seamus O'donnell's","lat":53.39111,"lon":-3.02976,"postcode":"CH41 4NG","la":"Wirral","era":"other","nn":93,"risk":24,"cat":"green"},{"name":"Seven Stars Hotel","lat":53.32104,"lon":-3.04436,"postcode":"CH63 1JW","la":"Wirral","era":"other","nn":886,"risk":49,"cat":"amber"},{"name":"Sheridan's","lat":53.42312,"lon":-3.06435,"postcode":"CH45 3LQ","la":"Wirral","era":"other","nn":71,"risk":23,"cat":"green"},{"name":"Sheridan's","lat":53.42263,"lon":-3.06368,"postcode":"CH45 3LQ","la":"Wirral","era":"other","nn":0,"risk":23,"cat":"green"},{"name":"Sheridan's","lat":53.42263,"lon":-3.06368,"postcode":"CH45 3LQ","la":"Wirral","era":"other","nn":0,"risk":23,"cat":"green"},{"name":"Shippons Pub & Kitchen","lat":53.3521,"lon":-3.11926,"postcode":"CH61 3UA","la":"Wirral","era":"other","nn":25,"risk":43,"cat":"amber"},{"name":"Shrewsbury Arms","lat":53.38135,"lon":-3.04107,"postcode":"CH43 5TQ","la":"Wirral","era":"trad","nn":113,"risk":24,"cat":"green"},{"name":"St Anne's Parish Centre","lat":53.37113,"lon":-3.01108,"postcode":"CH42 2BY","la":"Wirral","era":"other","nn":60,"risk":23,"cat":"green"},{"name":"St Josephs Parish Centre","lat":53.41138,"lon":-3.02646,"postcode":"CH44 7ED","la":"Wirral","era":"other","nn":152,"risk":24,"cat":"green"},{"name":"Stanleys","lat":53.42307,"lon":-3.04725,"postcode":"CH45 4LE","la":"Wirral","era":"other","nn":96,"risk":24,"cat":"green"},{"name":"Stanleys Cask","lat":53.43006,"lon":-3.0414,"postcode":"CH45 1JP","la":"Wirral","era":"other","nn":151,"risk":24,"cat":"green"},{"name":"Stanleys Vaults","lat":53.41927,"lon":-3.02714,"postcode":"CH44 8AU","la":"Wirral","era":"other","nn":480,"risk":26,"cat":"green"},{"name":"Stork public house","lat":53.39383,"lon":-3.0199,"postcode":"CH41 6JN","la":"Wirral","era":"other","nn":282,"risk":25,"cat":"green"},{"name":"Sundowner Club","lat":53.40951,"lon":-3.1432,"postcode":"CH47 8XX","la":"Wirral","era":"other","nn":1392,"risk":55,"cat":"amber"},{"name":"Tallulahs Emporium","lat":53.43799,"lon":-3.044,"postcode":"CH45 9LD","la":"Wirral","era":"other","nn":103,"risk":24,"cat":"green"},{"name":"Telegraph Inn","lat":53.43141,"lon":-3.04452,"postcode":"CH45 5EN","la":"Wirral","era":"trad","nn":131,"risk":24,"cat":"green"},{"name":"Territorial Army Centre","lat":53.38373,"lon":-3.05655,"postcode":"CH43 9TF","la":"Wirral","era":"other","nn":323,"risk":25,"cat":"green"},{"name":"The Acorn","lat":53.35554,"lon":-3.02517,"postcode":"CH63 8PT","la":"Wirral","era":"other","nn":132,"risk":41,"cat":"amber"},{"name":"The Armchair","lat":53.40368,"lon":-3.10038,"postcode":"CH46 9PD","la":"Wirral","era":"other","nn":725,"risk":33,"cat":"amber"},{"name":"The Bedford","lat":53.37237,"lon":-3.01004,"postcode":"CH42 2AT","la":"Wirral","era":"other","nn":155,"risk":24,"cat":"green"},{"name":"The Beer Lab","lat":53.32553,"lon":-3.09293,"postcode":"CH60 0AD","la":"Wirral","era":"other","nn":209,"risk":24,"cat":"green"},{"name":"The Bidston","lat":53.40227,"lon":-3.06395,"postcode":"CH41 7BY","la":"Wirral","era":"other","nn":624,"risk":30,"cat":"green"},{"name":"The Birch Tree","lat":53.37368,"lon":-3.03422,"postcode":"CH42 9PY","la":"Wirral","era":"other","nn":238,"risk":25,"cat":"green"},{"name":"The Black Horse Hotel","lat":53.32404,"lon":-3.1021,"postcode":"CH60 0DP","la":"Wirral","era":"trad","nn":333,"risk":25,"cat":"green"},{"name":"The Boot","lat":53.41925,"lon":-3.04865,"postcode":"CH44 2AA","la":"Wirral","era":"other","nn":105,"risk":24,"cat":"green"},{"name":"The Cavendish","lat":53.38887,"lon":-3.03443,"postcode":"CH41 4BZ","la":"Wirral","era":"other","nn":201,"risk":24,"cat":"green"},{"name":"The Cheshire Cheese","lat":53.42087,"lon":-3.0617,"postcode":"CH44 2DH","la":"Wirral","era":"other","nn":235,"risk":25,"cat":"green"},{"name":"The Clairville","lat":53.41974,"lon":-3.04729,"postcode":"CH45 4NW","la":"Wirral","era":"other","nn":52,"risk":23,"cat":"green"},{"name":"The Claughton","lat":53.39479,"lon":-3.05775,"postcode":"CH41 0DH","la":"Wirral","era":"other","nn":47,"risk":23,"cat":"green"},{"name":"The Cleveland Arms","lat":53.35996,"lon":-2.99844,"postcode":"CH62 5BE","la":"Wirral","era":"trad","nn":156,"risk":44,"cat":"amber"},{"name":"The Dell","lat":53.37021,"lon":-3.05933,"postcode":"CH43 3AF","la":"Wirral","era":"other","nn":793,"risk":33,"cat":"amber"},{"name":"The Duchess of Hamilton/Hornblowers","lat":53.39204,"lon":-3.01495,"postcode":"CH41 5ER","la":"Wirral","era":"other","nn":252,"risk":25,"cat":"green"},{"name":"The Farmers Arms","lat":53.40169,"lon":-3.11342,"postcode":"CH46 7TR","la":"Wirral","era":"trad","nn":96,"risk":29,"cat":"green"},{"name":"The George And Dragon","lat":53.39003,"lon":-3.02044,"postcode":"CH41 6DY","la":"Wirral","era":"trad","nn":81,"risk":23,"cat":"green"},{"name":"The Greave Dunning","lat":53.37673,"lon":-3.12374,"postcode":"CH49 3NF","la":"Wirral","era":"other","nn":118,"risk":44,"cat":"amber"},{"name":"The Harry Beswick","lat":53.32693,"lon":-3.09503,"postcode":"CH60 0AH","la":"Wirral","era":"other","nn":199,"risk":24,"cat":"green"},{"name":"The Imperial","lat":53.38216,"lon":-3.02721,"postcode":"CH42 0LW","la":"Wirral","era":"other","nn":462,"risk":26,"cat":"green"},{"name":"The Irby Mill","lat":53.36627,"lon":-3.12291,"postcode":"CH49 3NT","la":"Wirral","era":"trad","nn":1165,"risk":54,"cat":"amber"},{"name":"The John Masefield, Wetherspoons","lat":53.36132,"lon":-2.99785,"postcode":"CH62 5AD","la":"Wirral","era":"other","nn":156,"risk":44,"cat":"amber"},{"name":"The Lazy Landlord","lat":53.41726,"lon":-3.04601,"postcode":"CH44 5UG","la":"Wirral","era":"other","nn":242,"risk":25,"cat":"green"},{"name":"The Lighthouse","lat":53.42707,"lon":-3.06673,"postcode":"CH45 3LP","la":"Wirral","era":"other","nn":110,"risk":24,"cat":"green"},{"name":"The Lord Napier","lat":53.37519,"lon":-3.01322,"postcode":"CH42 3UZ","la":"Wirral","era":"other","nn":377,"risk":26,"cat":"green"},{"name":"The Mackenzie","lat":53.39069,"lon":-3.02854,"postcode":"CH41 6EY","la":"Wirral","era":"other","nn":37,"risk":23,"cat":"green"},{"name":"The Mackenzie","lat":53.39098,"lon":-3.02825,"postcode":"CH41 6EY","la":"Wirral","era":"other","nn":37,"risk":23,"cat":"green"},{"name":"The Magazine Hotel","lat":53.43161,"lon":-3.03422,"postcode":"CH45 1HP","la":"Wirral","era":"other","nn":21,"risk":23,"cat":"green"},{"name":"The Montgomery","lat":53.31329,"lon":-2.96244,"postcode":"CH62 0AG","la":"Wirral","era":"other","nn":212,"risk":42,"cat":"amber"},{"name":"The Nelson","lat":53.42936,"lon":-3.06327,"postcode":"CH45 3HW","la":"Wirral","era":"trad","nn":342,"risk":25,"cat":"green"},{"name":"The New Brighton Hotel","lat":53.43807,"lon":-3.04106,"postcode":"CH45 2JB","la":"Wirral","era":"other","nn":59,"risk":23,"cat":"green"},{"name":"The Old House at Home","lat":53.38261,"lon":-3.01762,"postcode":"CH41 9AS","la":"Wirral","era":"mod","nn":602,"risk":27,"cat":"green"},{"name":"The Overchurch","lat":53.38922,"lon":-3.10894,"postcode":"CH49 4LY","la":"Wirral","era":"other","nn":399,"risk":26,"cat":"green"},{"name":"The Phoenix Club","lat":53.43122,"lon":-3.04256,"postcode":"CH45 5DJ","la":"Wirral","era":"other","nn":131,"risk":24,"cat":"green"},{"name":"The Pilot Boat","lat":53.43144,"lon":-3.03433,"postcode":"CH45 1HP","la":"Wirral","era":"other","nn":21,"risk":23,"cat":"green"},{"name":"The Prense Well","lat":53.32743,"lon":-3.09885,"postcode":"CH60 4RE","la":"Wirral","era":"other","nn":62,"risk":23,"cat":"green"},{"name":"The Prenton Park","lat":53.37568,"lon":-3.03296,"postcode":"CH42 9JG","la":"Wirral","era":"other","nn":238,"risk":25,"cat":"green"},{"name":"The Primrose","lat":53.42188,"lon":-3.03807,"postcode":"CH44 1BB","la":"Wirral","era":"other","nn":35,"risk":23,"cat":"green"},{"name":"The Queens Arms","lat":53.42199,"lon":-3.04293,"postcode":"CH45 4JR","la":"Wirral","era":"trad","nn":0,"risk":23,"cat":"green"},{"name":"The Rake Hotel","lat":53.30676,"lon":-2.97563,"postcode":"CH62 9AY","la":"Wirral","era":"other","nn":1137,"risk":53,"cat":"amber"},{"name":"The Refreshment Rooms","lat":53.37426,"lon":-3.00245,"postcode":"CH42 1LS","la":"Wirral","era":"mod","nn":80,"risk":23,"cat":"green"},{"name":"The Richmond","lat":53.38694,"lon":-3.03422,"postcode":"CH41 2TW","la":"Wirral","era":"other","nn":215,"risk":24,"cat":"green"},{"name":"The Rock Station","lat":53.37085,"lon":-3.01032,"postcode":"CH42 2BU","la":"Wirral","era":"other","nn":60,"risk":23,"cat":"green"},{"name":"The Saddle Club","lat":53.36411,"lon":-3.05158,"postcode":"CH43 3DB","la":"Wirral","era":"other","nn":467,"risk":31,"cat":"amber"},{"name":"The Sandbank","lat":53.4123,"lon":-3.02476,"postcode":"CH44 6NJ","la":"Wirral","era":"other","nn":152,"risk":24,"cat":"green"},{"name":"The Seadog","lat":53.39552,"lon":-3.02866,"postcode":"CH41 3JZ","la":"Wirral","era":"other","nn":242,"risk":25,"cat":"green"},{"name":"The Sportsmans Arms","lat":53.37548,"lon":-3.02624,"postcode":"CH42 7LQ","la":"Wirral","era":"trad","nn":302,"risk":25,"cat":"green"},{"name":"The Tap","lat":53.32857,"lon":-2.95625,"postcode":"CH62 0AU","la":"Wirral","era":"mod","nn":1002,"risk":52,"cat":"amber"},{"name":"The Three Stags","lat":53.34168,"lon":-3.0042,"postcode":"CH63 3EA","la":"Wirral","era":"trad","nn":91,"risk":26,"cat":"green"},{"name":"The Vineyard","lat":53.42244,"lon":-3.04627,"postcode":"CH45 4LB","la":"Wirral","era":"mod","nn":96,"risk":24,"cat":"green"},{"name":"The Wallaseyans Club","lat":53.43011,"lon":-3.056,"postcode":"CH45 0JF","la":"Wirral","era":"other","nn":489,"risk":26,"cat":"green"},{"name":"The Waterloo","lat":53.38966,"lon":-3.01939,"postcode":"CH41 5FD","la":"Wirral","era":"other","nn":81,"risk":23,"cat":"green"},{"name":"The Wellington Hotel","lat":53.42283,"lon":-3.03123,"postcode":"CH44 1ED","la":"Wirral","era":"trad","nn":431,"risk":26,"cat":"green"},{"name":"The White Lion","lat":53.37367,"lon":-3.17985,"postcode":"CH48 4EE","la":"Wirral","era":"trad","nn":201,"risk":27,"cat":"green"},{"name":"Thirty Six","lat":53.39111,"lon":-3.02009,"postcode":"CH41 6JD","la":"Wirral","era":"other","nn":25,"risk":23,"cat":"green"},{"name":"Thorndale Lawn Tennis Club","lat":53.41959,"lon":-3.05601,"postcode":"CH44 2AG","la":"Wirral","era":"other","nn":0,"risk":23,"cat":"green"},{"name":"Thornton Hough Village Hall","lat":53.32762,"lon":-3.05188,"postcode":"CH63 1JD","la":"Wirral","era":"other","nn":886,"risk":49,"cat":"amber"},{"name":"Tixall Bowling And Social Club","lat":53.38075,"lon":-3.03808,"postcode":"CH43 5RT","la":"Wirral","era":"mod","nn":37,"risk":23,"cat":"green"},{"name":"Tower Hotel","lat":53.41891,"lon":-3.04307,"postcode":"CH44 5TL","la":"Wirral","era":"other","nn":250,"risk":25,"cat":"green"},{"name":"Travellers Rest","lat":53.35374,"lon":-3.03087,"postcode":"CH63 8PJ","la":"Wirral","era":"other","nn":417,"risk":43,"cat":"amber"},{"name":"Twelve Sixty Bar & Lounge","lat":53.41939,"lon":-3.04676,"postcode":"CH44 5XH","la":"Wirral","era":"mod","nn":52,"risk":23,"cat":"green"},{"name":"Upton Cricket Club","lat":53.38485,"lon":-3.10235,"postcode":"CH49 6LT","la":"Wirral","era":"other","nn":199,"risk":24,"cat":"green"},{"name":"Wallasey Conservative Club","lat":53.42201,"lon":-3.03969,"postcode":"CH44 1BZ","la":"Wirral","era":"other","nn":108,"risk":24,"cat":"green"},{"name":"Wallasey Yacht Club","lat":53.43735,"lon":-3.04287,"postcode":"CH45 2LN","la":"Wirral","era":"other","nn":79,"risk":23,"cat":"green"},{"name":"West Kirby Social Club","lat":53.36969,"lon":-3.18394,"postcode":"CH48 0RE","la":"Wirral","era":"mod","nn":355,"risk":28,"cat":"green"},{"name":"Wheatsheaf Inn","lat":53.31098,"lon":-3.03547,"postcode":"CH63 4JH","la":"Wirral","era":"trad","nn":1266,"risk":54,"cat":"amber"},{"name":"Willows","lat":53.38769,"lon":-3.11437,"postcode":"CH49 4LA","la":"Wirral","era":"trad","nn":399,"risk":31,"cat":"amber"},{"name":"Wine Lodge & Tap Room","lat":53.49587,"lon":-2.92051,"postcode":"CH41 6EJ","la":"Wirral","era":"mod","nn":79,"risk":28,"cat":"green"},{"name":"Wirral Golf Club","lat":53.39152,"lon":-3.06327,"postcode":"CH43 6TS","la":"Wirral","era":"other","nn":465,"risk":29,"cat":"green"},{"name":"Wirral Hundred","lat":53.37835,"lon":-3.06457,"postcode":"CH43 9JF","la":"Wirral","era":"other","nn":801,"risk":33,"cat":"amber"},{"name":"Woodchurch Hotel","lat":53.37537,"lon":-3.08286,"postcode":"CH49 7NX","la":"Wirral","era":"other","nn":786,"risk":48,"cat":"amber"}]