[{"name":"Albies Bar","lat":53.8298,"lon":-0.43469,"postcode":"HU17 8RH","la":"East Riding of Yorkshire","era":"other","nn":601,"risk":38,"cat":"amber"},{"name":"Alexandra Lodge","lat":53.91184,"lon":-0.16529,"postcode":"HU18 1PU","la":"East Riding of Yorkshire","era":"other","nn":379,"risk":19,"cat":"green"},{"name":"Alma Hotel","lat":53.73306,"lon":0.03006,"postcode":"HU19 2AQ","la":"East Riding of Yorkshire","era":"other","nn":178,"risk":18,"cat":"green"},{"name":"Altisidora","lat":53.8458,"lon":-0.4987,"postcode":"HU17 8QF","la":"East Riding of Yorkshire","era":"other","nn":2257,"risk":55,"cat":"amber"},{"name":"Anlaby Park Hotel","lat":53.74463,"lon":-0.4133,"postcode":"HU4 7RY","la":"East Riding of Yorkshire","era":"other","nn":289,"risk":23,"cat":"green"},{"name":"Atom Bar Beverley","lat":53.84454,"lon":-0.43112,"postcode":"HU17 9EH","la":"East Riding of Yorkshire","era":"mod","nn":109,"risk":17,"cat":"green"},{"name":"Barrel Inn","lat":53.82205,"lon":-0.48249,"postcode":"HU17 8RX","la":"East Riding of Yorkshire","era":"trad","nn":0,"risk":34,"cat":"amber"},{"name":"Bay Horse Inn","lat":53.85941,"lon":-0.28935,"postcode":"HU11 5HP","la":"East Riding of Yorkshire","era":"trad","nn":592,"risk":41,"cat":"amber"},{"name":"Beech Tree","lat":53.749,"lon":-0.4453,"postcode":"HU10 7LS","la":"East Riding of Yorkshire","era":"other","nn":0,"risk":16,"cat":"green"},{"name":"Beverley & East Riding Golf Club","lat":53.8338,"lon":-0.44085,"postcode":"HU17 8RG","la":"East Riding of Yorkshire","era":"other","nn":601,"risk":26,"cat":"green"},{"name":"Beverley Conservative Club","lat":53.8459,"lon":-0.43484,"postcode":"HU17 7AP","la":"East Riding of Yorkshire","era":"other","nn":116,"risk":17,"cat":"green"},{"name":"Beverley RUFC","lat":54.20361,"lon":-1.36397,"postcode":"HU17 9HT","la":"East Riding of Yorkshire","era":"other","nn":2759,"risk":58,"cat":"amber"},{"name":"Beverley Town Cricket Club","lat":53.84808,"lon":-0.42852,"postcode":"HU17 9HW","la":"East Riding of Yorkshire","era":"other","nn":270,"risk":18,"cat":"green"},{"name":"Black Bull Inn","lat":53.76317,"lon":-0.10639,"postcode":"HU12 9AX","la":"East Riding of Yorkshire","era":"trad","nn":306,"risk":39,"cat":"amber"},{"name":"Black Horse","lat":53.79066,"lon":-0.50527,"postcode":"HU20 3US","la":"East Riding of Yorkshire","era":"trad","nn":3142,"risk":61,"cat":"red"},{"name":"Black Horse Inn","lat":53.75576,"lon":-0.04444,"postcode":"HU12 0HB","la":"East Riding of Yorkshire","era":"trad","nn":0,"risk":36,"cat":"amber"},{"name":"Blackburn Leisure","lat":53.7278,"lon":-0.57259,"postcode":"HU15 1BB","la":"East Riding of Yorkshire","era":"other","nn":57,"risk":17,"cat":"green"},{"name":"Blacksmiths Arms","lat":53.80013,"lon":-0.24605,"postcode":"HU11 4JR","la":"East Riding of Yorkshire","era":"trad","nn":663,"risk":41,"cat":"amber"},{"name":"Blue Bell Inn","lat":53.81747,"lon":-0.22789,"postcode":"HU11 5AJ","la":"East Riding of Yorkshire","era":"trad","nn":2109,"risk":54,"cat":"amber"},{"name":"Blue Bell Inn","lat":53.79482,"lon":-0.19115,"postcode":"HU11 4PA","la":"East Riding of Yorkshire","era":"trad","nn":0,"risk":34,"cat":"amber"},{"name":"Blue Bell Inn","lat":53.70991,"lon":-0.11209,"postcode":"HU12 9RE","la":"East Riding of Yorkshire","era":"trad","nn":31,"risk":37,"cat":"amber"},{"name":"Brough Golf Club","lat":53.73147,"lon":-0.58024,"postcode":"HU15 1HB","la":"East Riding of Yorkshire","era":"other","nn":173,"risk":18,"cat":"green"},{"name":"Burstwick Country Golf","lat":53.73939,"lon":-0.13738,"postcode":"HU12 9EF","la":"East Riding of Yorkshire","era":"other","nn":639,"risk":41,"cat":"amber"},{"name":"Burton Constable Lakeside Bar","lat":53.80236,"lon":-0.19942,"postcode":"HU11 4LJ","la":"East Riding of Yorkshire","era":"other","nn":999,"risk":41,"cat":"amber"},{"name":"Butterfly Inn","lat":53.73049,"lon":0.03237,"postcode":"HU19 2HB","la":"East Riding of Yorkshire","era":"trad","nn":0,"risk":16,"cat":"green"},{"name":"By God I Can Cook Ltd","lat":53.78477,"lon":-0.41315,"postcode":"HU16 4EH","la":"East Riding of Yorkshire","era":"other","nn":0,"risk":16,"cat":"green"},{"name":"Cascara","lat":53.72312,"lon":-0.43684,"postcode":"HU13 0RE","la":"East Riding of Yorkshire","era":"other","nn":70,"risk":17,"cat":"green"},{"name":"Cave Castle Golf Club","lat":53.76708,"lon":-0.61222,"postcode":"HU15 2EU","la":"East Riding of Yorkshire","era":"other","nn":790,"risk":39,"cat":"amber"},{"name":"Centurion Arms","lat":53.72779,"lon":-0.57345,"postcode":"HU15 1BA","la":"East Riding of Yorkshire","era":"trad","nn":0,"risk":16,"cat":"green"},{"name":"CGC Event Caterers (Beverley Racecourse)","lat":53.84325,"lon":-0.45708,"postcode":"HU17 8QZ","la":"East Riding of Yorkshire","era":"other","nn":1079,"risk":46,"cat":"amber"},{"name":"Chequers Micro Pub","lat":53.84306,"lon":-0.43101,"postcode":"HU17 9BZ","la":"East Riding of Yorkshire","era":"other","nn":59,"risk":17,"cat":"green"},{"name":"Club House Sandy Beaches","lat":53.62212,"lon":0.12858,"postcode":"HU12 0UB","la":"East Riding of Yorkshire","era":"mod","nn":0,"risk":36,"cat":"amber"},{"name":"Cock & Bell","lat":53.75742,"lon":-0.20076,"postcode":"HU12 8UB","la":"East Riding of Yorkshire","era":"other","nn":475,"risk":40,"cat":"amber"},{"name":"Constable Arms","lat":53.79482,"lon":-0.19115,"postcode":"HU11 4PA","la":"East Riding of Yorkshire","era":"trad","nn":0,"risk":34,"cat":"amber"},{"name":"Cottingham Memorial Club","lat":53.78087,"lon":-0.41853,"postcode":"HU16 4AU","la":"East Riding of Yorkshire","era":"other","nn":179,"risk":18,"cat":"green"},{"name":"Cowden Caravan Park and Lesiure Club","lat":53.86606,"lon":-0.13171,"postcode":"HU11 4UL","la":"East Riding of Yorkshire","era":"other","nn":179,"risk":38,"cat":"amber"},{"name":"Cross Keys","lat":53.84293,"lon":-0.43337,"postcode":"HU17 8EE","la":"East Riding of Yorkshire","era":"trad","nn":32,"risk":17,"cat":"green"},{"name":"Cross Keys","lat":53.86527,"lon":-0.13409,"postcode":"HU11 4UJ","la":"East Riding of Yorkshire","era":"trad","nn":179,"risk":38,"cat":"amber"},{"name":"Cross Keys Inn","lat":53.78477,"lon":-0.41315,"postcode":"HU16 4EH","la":"East Riding of Yorkshire","era":"trad","nn":0,"risk":16,"cat":"green"},{"name":"Cross Keys Inn","lat":53.75403,"lon":-0.74542,"postcode":"HU15 2SP","la":"East Riding of Yorkshire","era":"trad","nn":1494,"risk":49,"cat":"amber"},{"name":"Crown & Anchor","lat":53.86058,"lon":-0.39352,"postcode":"HU17 9RY","la":"East Riding of Yorkshire","era":"trad","nn":1341,"risk":48,"cat":"amber"},{"name":"Crown And Anchor","lat":53.62212,"lon":0.12858,"postcode":"HU12 0UB","la":"East Riding of Yorkshire","era":"trad","nn":0,"risk":36,"cat":"amber"},{"name":"Darleys","lat":53.73209,"lon":-0.43752,"postcode":"HU13 9AR","la":"East Riding of Yorkshire","era":"other","nn":243,"risk":18,"cat":"green"},{"name":"Dog and Duck Inn","lat":53.84354,"lon":-0.43231,"postcode":"HU17 8BH","la":"East Riding of Yorkshire","era":"trad","nn":42,"risk":17,"cat":"green"},{"name":"Duke Of Cumberland","lat":53.72302,"lon":-0.50488,"postcode":"HU14 3JP","la":"East Riding of Yorkshire","era":"trad","nn":585,"risk":41,"cat":"amber"},{"name":"Duke Of York","lat":53.84081,"lon":-0.26816,"postcode":"HU11 5DT","la":"East Riding of Yorkshire","era":"trad","nn":1451,"risk":49,"cat":"amber"},{"name":"Durham Ox","lat":53.85029,"lon":-0.4268,"postcode":"HU17 9HU","la":"East Riding of Yorkshire","era":"other","nn":270,"risk":18,"cat":"green"},{"name":"East Yorkshire Clay Shooting Ground","lat":53.8751,"lon":-0.48013,"postcode":"HU17 7RB","la":"East Riding of Yorkshire","era":"other","nn":1075,"risk":46,"cat":"amber"},{"name":"Eastside Community Sports","lat":53.74649,"lon":-0.23029,"postcode":"HU12 8DX","la":"East Riding of Yorkshire","era":"other","nn":819,"risk":42,"cat":"amber"},{"name":"Ferry Inn","lat":53.72994,"lon":-0.5807,"postcode":"HU15 1DY","la":"East Riding of Yorkshire","era":"trad","nn":173,"risk":18,"cat":"green"},{"name":"Foresters Arms","lat":53.83969,"lon":-0.41194,"postcode":"HU17 0PR","la":"East Riding of Yorkshire","era":"trad","nn":135,"risk":17,"cat":"green"},{"name":"Fox & Coney","lat":53.76998,"lon":-0.60067,"postcode":"HU15 2AT","la":"East Riding of Yorkshire","era":"trad","nn":36,"risk":34,"cat":"amber"},{"name":"Game Bird","lat":53.84165,"lon":-0.41177,"postcode":"HU17 0QL","la":"East Riding of Yorkshire","era":"other","nn":65,"risk":17,"cat":"green"},{"name":"Ganstead Park Golf Club Limited","lat":53.79462,"lon":-0.24993,"postcode":"HU11 4LB","la":"East Riding of Yorkshire","era":"other","nn":663,"risk":41,"cat":"amber"},{"name":"George and Dragon","lat":53.82853,"lon":-0.11408,"postcode":"HU11 4RP","la":"East Riding of Yorkshire","era":"trad","nn":1247,"risk":48,"cat":"amber"},{"name":"Green Dragon","lat":53.84238,"lon":-0.43214,"postcode":"HU17 8AA","la":"East Riding of Yorkshire","era":"trad","nn":80,"risk":17,"cat":"green"},{"name":"Half Moon Inn","lat":53.78973,"lon":-0.45747,"postcode":"HU16 5TG","la":"East Riding of Yorkshire","era":"trad","nn":862,"risk":42,"cat":"amber"},{"name":"Hallgate Tavern","lat":53.78203,"lon":-0.4131,"postcode":"HU16 4DA","la":"East Riding of Yorkshire","era":"other","nn":72,"risk":17,"cat":"green"},{"name":"Haltemprice Leisure Centre","lat":53.74854,"lon":-0.43432,"postcode":"HU10 6QJ","la":"East Riding of Yorkshire","era":"other","nn":306,"risk":19,"cat":"green"},{"name":"Hare & Hounds","lat":53.89332,"lon":-0.31779,"postcode":"HU17 5NF","la":"East Riding of Yorkshire","era":"trad","nn":303,"risk":39,"cat":"amber"},{"name":"Hare and Hounds Burstwick","lat":53.73365,"lon":-0.13766,"postcode":"HU12 9EA","la":"East Riding of Yorkshire","era":"trad","nn":639,"risk":41,"cat":"amber"},{"name":"Harry's Bar","lat":53.72392,"lon":-0.43507,"postcode":"HU13 0RB","la":"East Riding of Yorkshire","era":"other","nn":62,"risk":17,"cat":"green"},{"name":"Haven Arms","lat":53.73484,"lon":-0.20015,"postcode":"HU12 8HH","la":"East Riding of Yorkshire","era":"trad","nn":598,"risk":21,"cat":"green"},{"name":"Hed On Inn","lat":53.74017,"lon":-0.19859,"postcode":"HU12 8EZ","la":"East Riding of Yorkshire","era":"trad","nn":10,"risk":17,"cat":"green"},{"name":"Hessle Ex Servicemens Club","lat":53.72284,"lon":-0.43317,"postcode":"HU13 0AH","la":"East Riding of Yorkshire","era":"other","nn":173,"risk":18,"cat":"green"},{"name":"Hessle Lawn Tennis Club","lat":53.73086,"lon":-0.44057,"postcode":"HU13 0NG","la":"East Riding of Yorkshire","era":"other","nn":243,"risk":18,"cat":"green"},{"name":"Hessle RUFC & Cricket Club","lat":53.71875,"lon":-0.42879,"postcode":"HU13 0EG","la":"East Riding of Yorkshire","era":"other","nn":539,"risk":20,"cat":"green"},{"name":"Home Farm Hotel","lat":53.72161,"lon":-0.46092,"postcode":"HU13 0JA","la":"East Riding of Yorkshire","era":"other","nn":1502,"risk":49,"cat":"amber"},{"name":"Hornsea & Distict Indoor Bowling Club","lat":53.92628,"lon":-0.18388,"postcode":"HU18 1EL","la":"East Riding of Yorkshire","era":"other","nn":1606,"risk":50,"cat":"amber"},{"name":"Hornsea Ex Servicemen's Club","lat":53.90964,"lon":-0.17309,"postcode":"HU18 1BA","la":"East Riding of Yorkshire","era":"other","nn":99,"risk":17,"cat":"green"},{"name":"Hornsea Floral Hall (club/bar only)","lat":54.13347,"lon":-1.31588,"postcode":"HU18 1NQ","la":"East Riding of Yorkshire","era":"mod","nn":0,"risk":16,"cat":"green"},{"name":"House of Bevs","lat":53.83908,"lon":-0.41372,"postcode":"HU17 0PD","la":"East Riding of Yorkshire","era":"mod","nn":0,"risk":16,"cat":"green"},{"name":"Hull Aero Club","lat":53.84154,"lon":-0.4108,"postcode":"HU17 0PY","la":"East Riding of Yorkshire","era":"other","nn":65,"risk":17,"cat":"green"},{"name":"Hull Golf Club","lat":53.75481,"lon":-0.4564,"postcode":"HU10 7TL","la":"East Riding of Yorkshire","era":"other","nn":0,"risk":16,"cat":"green"},{"name":"Hull Ionians R.U.F.C.","lat":53.74291,"lon":-0.56821,"postcode":"HU15 1HX","la":"East Riding of Yorkshire","era":"other","nn":188,"risk":38,"cat":"amber"},{"name":"Hullensians","lat":53.74492,"lon":-0.41792,"postcode":"HU4 7RU","la":"East Riding of Yorkshire","era":"other","nn":306,"risk":21,"cat":"green"},{"name":"Humber Tavern","lat":53.72103,"lon":-0.2353,"postcode":"HU12 8AL","la":"East Riding of Yorkshire","era":"other","nn":0,"risk":36,"cat":"amber"},{"name":"Humber Yawl Club","lat":53.72665,"lon":-0.58302,"postcode":"HU15 1ED","la":"East Riding of Yorkshire","era":"other","nn":396,"risk":19,"cat":"green"},{"name":"i-bar and grill","lat":53.72779,"lon":-0.57345,"postcode":"HU15 1BA","la":"East Riding of Yorkshire","era":"mod","nn":0,"risk":16,"cat":"green"},{"name":"King William IV Clarke @ CO (cottingham)","lat":53.78216,"lon":-0.41545,"postcode":"HU16 4BD","la":"East Riding of Yorkshire","era":"trad","nn":34,"risk":17,"cat":"green"},{"name":"Kings Head","lat":53.74241,"lon":-0.19881,"postcode":"HU12 8JS","la":"East Riding of Yorkshire","era":"trad","nn":137,"risk":17,"cat":"green"},{"name":"Kings Head Hotel","lat":53.84253,"lon":-0.43092,"postcode":"HU17 9AG","la":"East Riding of Yorkshire","era":"trad","nn":59,"risk":17,"cat":"green"},{"name":"Kingstown Hotel","lat":53.74437,"lon":-0.24222,"postcode":"HU12 8DZ","la":"East Riding of Yorkshire","era":"trad","nn":819,"risk":42,"cat":"amber"},{"name":"Leconfield Recreation","lat":53.88001,"lon":-0.466,"postcode":"HU17 7NW","la":"East Riding of Yorkshire","era":"other","nn":1075,"risk":46,"cat":"amber"},{"name":"Longbeach Club","lat":53.65028,"lon":0.1193,"postcode":"HU12 0TY","la":"East Riding of Yorkshire","era":"other","nn":253,"risk":36,"cat":"amber"},{"name":"Marine Hotel","lat":53.91445,"lon":-0.16157,"postcode":"HU18 1NJ","la":"East Riding of Yorkshire","era":"other","nn":379,"risk":19,"cat":"green"},{"name":"Marquis Of Granby","lat":53.72349,"lon":-0.43575,"postcode":"HU13 0AD","la":"East Riding of Yorkshire","era":"other","nn":65,"risk":17,"cat":"green"},{"name":"Masonic Hall","lat":53.84148,"lon":-0.42412,"postcode":"HU17 0DZ","la":"East Riding of Yorkshire","era":"trad","nn":152,"risk":18,"cat":"green"},{"name":"Molescroft Inn","lat":53.85185,"lon":-0.44944,"postcode":"HU17 7EG","la":"East Riding of Yorkshire","era":"trad","nn":1023,"risk":46,"cat":"amber"},{"name":"Monk's Walk Inn Ltd","lat":53.84029,"lon":-0.42568,"postcode":"HU17 0DN","la":"East Riding of Yorkshire","era":"trad","nn":130,"risk":17,"cat":"green"},{"name":"Moulders Arms","lat":53.84263,"lon":-0.42621,"postcode":"HU17 0AG","la":"East Riding of Yorkshire","era":"trad","nn":133,"risk":17,"cat":"green"},{"name":"Nags Head","lat":53.76168,"lon":-0.20028,"postcode":"HU12 8TT","la":"East Riding of Yorkshire","era":"trad","nn":475,"risk":40,"cat":"amber"},{"name":"Nags Head","lat":53.86854,"lon":-0.3466,"postcode":"HU17 9SL","la":"East Riding of Yorkshire","era":"trad","nn":1861,"risk":52,"cat":"amber"},{"name":"Nancy Inn","lat":53.76141,"lon":-0.10282,"postcode":"HU12 9AU","la":"East Riding of Yorkshire","era":"trad","nn":306,"risk":39,"cat":"amber"},{"name":"New Hilltop Recreation Club","lat":53.77157,"lon":-0.44094,"postcode":"HU10 6EF","la":"East Riding of Yorkshire","era":"other","nn":771,"risk":42,"cat":"amber"},{"name":"New Inn","lat":53.91072,"lon":-0.17437,"postcode":"HU18 1AN","la":"East Riding of Yorkshire","era":"trad","nn":0,"risk":16,"cat":"green"},{"name":"North Cave Indoor Bowls Club","lat":53.78206,"lon":-0.6519,"postcode":"HU15 2LZ","la":"East Riding of Yorkshire","era":"other","nn":322,"risk":36,"cat":"amber"},{"name":"North Cave Sports & Social Club","lat":53.78183,"lon":-0.64426,"postcode":"HU15 2LJ","la":"East Riding of Yorkshire","era":"mod","nn":375,"risk":37,"cat":"amber"},{"name":"North Ferriby Football Club Limited","lat":53.71801,"lon":-0.50218,"postcode":"HU14 3AB","la":"East Riding of Yorkshire","era":"other","nn":585,"risk":41,"cat":"amber"},{"name":"Northfield Country Club","lat":53.73839,"lon":0.02311,"postcode":"HU19 2BT","la":"East Riding of Yorkshire","era":"other","nn":179,"risk":23,"cat":"green"},{"name":"Northmen Craft Bottle Shop","lat":53.84154,"lon":-0.42903,"postcode":"HU17 9AX","la":"East Riding of Yorkshire","era":"mod","nn":92,"risk":17,"cat":"green"},{"name":"Nu Bar","lat":53.75492,"lon":-0.43651,"postcode":"HU10 6AL","la":"East Riding of Yorkshire","era":"other","nn":66,"risk":17,"cat":"green"},{"name":"Olympic Sports Bar","lat":53.73046,"lon":0.03297,"postcode":"HU19 2JR","la":"East Riding of Yorkshire","era":"other","nn":40,"risk":17,"cat":"green"},{"name":"Pipe and Glass","lat":53.89553,"lon":-0.53302,"postcode":"HU17 7PN","la":"East Riding of Yorkshire","era":"other","nn":2733,"risk":58,"cat":"amber"},{"name":"Pourhouse","lat":53.7228,"lon":-0.43775,"postcode":"HU13 0RD","la":"East Riding of Yorkshire","era":"other","nn":70,"risk":17,"cat":"green"},{"name":"Queens Head","lat":53.74015,"lon":-0.19874,"postcode":"HU12 8EX","la":"East Riding of Yorkshire","era":"trad","nn":10,"risk":17,"cat":"green"},{"name":"Queens Head Hotel","lat":53.84137,"lon":-0.42644,"postcode":"HU17 0DG","la":"East Riding of Yorkshire","era":"trad","nn":101,"risk":17,"cat":"green"},{"name":"Railway Inn","lat":53.83628,"lon":-0.22371,"postcode":"HU11 5AP","la":"East Riding of Yorkshire","era":"trad","nn":2109,"risk":54,"cat":"amber"},{"name":"Red Hawk","lat":53.72967,"lon":-0.56957,"postcode":"HU15 1BH","la":"East Riding of Yorkshire","era":"other","nn":288,"risk":18,"cat":"green"},{"name":"Roos Arms","lat":53.75576,"lon":-0.04444,"postcode":"HU12 0HB","la":"East Riding of Yorkshire","era":"trad","nn":0,"risk":36,"cat":"amber"},{"name":"Rose & Crown","lat":53.84608,"lon":-0.43728,"postcode":"HU17 7AB","la":"East Riding of Yorkshire","era":"trad","nn":161,"risk":18,"cat":"green"},{"name":"Rose and Crown","lat":53.91072,"lon":-0.17437,"postcode":"HU18 1AN","la":"East Riding of Yorkshire","era":"trad","nn":0,"risk":16,"cat":"green"},{"name":"Royal British Legion","lat":53.74142,"lon":-0.19758,"postcode":"HU12 8JP","la":"East Riding of Yorkshire","era":"trad","nn":133,"risk":17,"cat":"green"},{"name":"Royal British Legion","lat":53.77882,"lon":-0.24728,"postcode":"HU11 4AA","la":"East Riding of Yorkshire","era":"trad","nn":1345,"risk":48,"cat":"amber"},{"name":"Royal Standard","lat":53.8449,"lon":-0.43536,"postcode":"HU17 8DL","la":"East Riding of Yorkshire","era":"trad","nn":116,"risk":17,"cat":"green"},{"name":"Sand Le Mere Holiday Park","lat":53.76307,"lon":-0.00729,"postcode":"HU12 0JN","la":"East Riding of Yorkshire","era":"other","nn":2574,"risk":57,"cat":"amber"},{"name":"Santis","lat":53.74588,"lon":-0.4331,"postcode":"HU10 7AN","la":"East Riding of Yorkshire","era":"other","nn":306,"risk":21,"cat":"green"},{"name":"Sellwood Arms","lat":53.83476,"lon":-0.09828,"postcode":"HU11 4SA","la":"East Riding of Yorkshire","era":"trad","nn":17,"risk":37,"cat":"amber"},{"name":"Sheriff Bar","lat":53.84321,"lon":-0.43324,"postcode":"HU17 8AJ","la":"East Riding of Yorkshire","era":"other","nn":32,"risk":17,"cat":"green"},{"name":"Ship Inn","lat":53.80265,"lon":-0.37202,"postcode":"HU6 0AJ","la":"East Riding of Yorkshire","era":"trad","nn":1609,"risk":50,"cat":"amber"},{"name":"Shorewood Leisure Group Ltd","lat":53.83482,"lon":-0.09804,"postcode":"HU11 4SA","la":"East Riding of Yorkshire","era":"other","nn":17,"risk":37,"cat":"amber"},{"name":"Skidby Lakes Golf Club","lat":53.79328,"lon":-0.4458,"postcode":"HU16 5SX","la":"East Riding of Yorkshire","era":"other","nn":862,"risk":42,"cat":"amber"},{"name":"Spring Valley Campsite","lat":53.77088,"lon":-0.19454,"postcode":"HU12 8TU","la":"East Riding of Yorkshire","era":"other","nn":1090,"risk":47,"cat":"amber"},{"name":"Stackhouse Bar","lat":53.91053,"lon":-0.17307,"postcode":"HU18 1AG","la":"East Riding of Yorkshire","era":"mod","nn":88,"risk":17,"cat":"green"},{"name":"Star Inn","lat":53.76029,"lon":-0.44842,"postcode":"HU10 6BY","la":"East Riding of Yorkshire","era":"trad","nn":92,"risk":20,"cat":"green"},{"name":"Station Hotel","lat":53.68677,"lon":-0.01915,"postcode":"HU12 0NE","la":"East Riding of Yorkshire","era":"other","nn":674,"risk":41,"cat":"amber"},{"name":"Sun Inn","lat":53.8393,"lon":-0.42283,"postcode":"HU17 0NP","la":"East Riding of Yorkshire","era":"trad","nn":0,"risk":16,"cat":"green"},{"name":"Swan & Cygnet","lat":53.74047,"lon":-0.48816,"postcode":"HU14 3QP","la":"East Riding of Yorkshire","era":"trad","nn":2230,"risk":55,"cat":"amber"},{"name":"The Alexandra","lat":53.73049,"lon":0.03237,"postcode":"HU19 2HB","la":"East Riding of Yorkshire","era":"other","nn":0,"risk":16,"cat":"green"},{"name":"The Angel","lat":53.84185,"lon":-0.42774,"postcode":"HU17 0AA","la":"East Riding of Yorkshire","era":"trad","nn":92,"risk":17,"cat":"green"},{"name":"The Back Room","lat":53.78187,"lon":-0.41556,"postcode":"HU16 4BB","la":"East Riding of Yorkshire","era":"other","nn":34,"risk":17,"cat":"green"},{"name":"The Barn","lat":53.90467,"lon":-0.15882,"postcode":"HU18 1TL","la":"East Riding of Yorkshire","era":"other","nn":903,"risk":43,"cat":"amber"},{"name":"The Bay Horse","lat":53.86603,"lon":-0.49582,"postcode":"HU17 7RF","la":"East Riding of Yorkshire","era":"trad","nn":1441,"risk":49,"cat":"amber"},{"name":"The Bear Inn","lat":53.76978,"lon":-0.6011,"postcode":"HU15 2AS","la":"East Riding of Yorkshire","era":"trad","nn":36,"risk":34,"cat":"amber"},{"name":"The Beaver","lat":53.84367,"lon":-0.43346,"postcode":"HU17 8AX","la":"East Riding of Yorkshire","era":"other","nn":53,"risk":17,"cat":"green"},{"name":"The Blue Bell","lat":53.78129,"lon":-0.42116,"postcode":"HU16 4BH","la":"East Riding of Yorkshire","era":"other","nn":122,"risk":17,"cat":"green"},{"name":"The Boathouse","lat":53.74,"lon":0.02285,"postcode":"HU19 2BS","la":"East Riding of Yorkshire","era":"other","nn":179,"risk":35,"cat":"amber"},{"name":"The Burns Head Inn Ltd","lat":53.67063,"lon":-0.02468,"postcode":"HU12 0QJ","la":"East Riding of Yorkshire","era":"trad","nn":112,"risk":37,"cat":"amber"},{"name":"The Camerton","lat":53.72036,"lon":-0.16914,"postcode":"HU12 9NE","la":"East Riding of Yorkshire","era":"other","nn":288,"risk":38,"cat":"amber"},{"name":"The Coach and Horses","lat":53.66816,"lon":0.03183,"postcode":"HU12 0RY","la":"East Riding of Yorkshire","era":"trad","nn":3270,"risk":62,"cat":"red"},{"name":"The Commercial","lat":53.73049,"lon":0.03237,"postcode":"HU19 2HB","la":"East Riding of Yorkshire","era":"other","nn":0,"risk":16,"cat":"green"},{"name":"The Cornerhouse","lat":53.84541,"lon":-0.43036,"postcode":"HU17 9EY","la":"East Riding of Yorkshire","era":"other","nn":109,"risk":17,"cat":"green"},{"name":"The Country Club","lat":53.67162,"lon":-0.02506,"postcode":"HU12 0PT","la":"East Riding of Yorkshire","era":"other","nn":112,"risk":37,"cat":"amber"},{"name":"The Crown & Anchor","lat":53.76155,"lon":-0.7032,"postcode":"HU15 2PR","la":"East Riding of Yorkshire","era":"trad","nn":244,"risk":38,"cat":"amber"},{"name":"The Dog & Duck Inn","lat":53.82205,"lon":-0.48249,"postcode":"HU17 8RX","la":"East Riding of Yorkshire","era":"trad","nn":0,"risk":34,"cat":"amber"},{"name":"The Duck & Rabbit","lat":53.71856,"lon":0.04643,"postcode":"HU19 2QF","la":"East Riding of Yorkshire","era":"other","nn":444,"risk":25,"cat":"green"},{"name":"The Duke Of Cumberland","lat":53.78153,"lon":-0.41456,"postcode":"HU16 5QG","la":"East Riding of Yorkshire","era":"trad","nn":76,"risk":17,"cat":"green"},{"name":"The Fair Maid","lat":53.78049,"lon":-0.42243,"postcode":"HU16 5AB","la":"East Riding of Yorkshire","era":"other","nn":122,"risk":17,"cat":"green"},{"name":"The Falcon Inn","lat":53.84796,"lon":-0.18439,"postcode":"HU11 4TA","la":"East Riding of Yorkshire","era":"trad","nn":2888,"risk":59,"cat":"amber"},{"name":"The Ferguson Fawsitt","lat":53.82205,"lon":-0.48249,"postcode":"HU17 8RX","la":"East Riding of Yorkshire","era":"other","nn":0,"risk":34,"cat":"amber"},{"name":"The Gardeners Country Inn","lat":53.8299,"lon":-0.25603,"postcode":"HU11 5AE","la":"East Riding of Yorkshire","era":"trad","nn":1451,"risk":49,"cat":"amber"},{"name":"The Grapes","lat":53.84318,"lon":-0.43245,"postcode":"HU17 8BB","la":"East Riding of Yorkshire","era":"other","nn":42,"risk":17,"cat":"green"},{"name":"The Half Moon","lat":53.74129,"lon":-0.5674,"postcode":"HU15 1HU","la":"East Riding of Yorkshire","era":"other","nn":188,"risk":38,"cat":"amber"},{"name":"The Hase","lat":53.72443,"lon":-0.43544,"postcode":"HU13 9LG","la":"East Riding of Yorkshire","era":"other","nn":62,"risk":17,"cat":"green"},{"name":"The Hayride","lat":53.85835,"lon":-0.43439,"postcode":"HU17 9GP","la":"East Riding of Yorkshire","era":"other","nn":1025,"risk":46,"cat":"amber"},{"name":"The Highfield","lat":53.85368,"lon":-0.41869,"postcode":"HU17 9QN","la":"East Riding of Yorkshire","era":"other","nn":652,"risk":39,"cat":"amber"},{"name":"The Hop Pole","lat":53.75438,"lon":-0.43691,"postcode":"HU10 6LN","la":"East Riding of Yorkshire","era":"other","nn":66,"risk":17,"cat":"green"},{"name":"The Hugh Fitz-Baldric","lat":53.7822,"lon":-0.41416,"postcode":"HU16 4BD","la":"East Riding of Yorkshire","era":"other","nn":72,"risk":17,"cat":"green"},{"name":"The Jolly Sailor","lat":53.76217,"lon":-0.69964,"postcode":"HU15 2RG","la":"East Riding of Yorkshire","era":"other","nn":244,"risk":38,"cat":"amber"},{"name":"The Lord Nelson","lat":53.8393,"lon":-0.42283,"postcode":"HU17 0NP","la":"East Riding of Yorkshire","era":"trad","nn":0,"risk":16,"cat":"green"},{"name":"The Lounge","lat":53.749,"lon":-0.4453,"postcode":"HU10 7LS","la":"East Riding of Yorkshire","era":"mod","nn":0,"risk":16,"cat":"green"},{"name":"The Marquis Of Granby","lat":53.6508,"lon":0.11435,"postcode":"HU12 0TN","la":"East Riding of Yorkshire","era":"other","nn":116,"risk":35,"cat":"amber"},{"name":"The Micro Pig Bar","lat":53.86429,"lon":-0.37405,"postcode":"HU17 9SH","la":"East Riding of Yorkshire","era":"other","nn":1341,"risk":48,"cat":"amber"},{"name":"The Micro Pig Bar","lat":53.86471,"lon":-0.28848,"postcode":"HU11 5JF","la":"East Riding of Yorkshire","era":"other","nn":592,"risk":41,"cat":"amber"},{"name":"The New Inn","lat":53.89064,"lon":-0.31698,"postcode":"HU17 5NZ","la":"East Riding of Yorkshire","era":"trad","nn":303,"risk":39,"cat":"amber"},{"name":"The New Royal Mail","lat":53.72108,"lon":-0.17334,"postcode":"HU12 9LN","la":"East Riding of Yorkshire","era":"trad","nn":288,"risk":38,"cat":"amber"},{"name":"The Norland","lat":53.72538,"lon":-0.42314,"postcode":"HU13 9ED","la":"East Riding of Yorkshire","era":"other","nn":718,"risk":21,"cat":"green"},{"name":"The Old Boatshed","lat":53.73131,"lon":0.0328,"postcode":"HU19 2DL","la":"East Riding of Yorkshire","era":"other","nn":0,"risk":16,"cat":"green"},{"name":"The Ozone Club Limited","lat":53.72507,"lon":0.03837,"postcode":"HU19 2JA","la":"East Riding of Yorkshire","era":"other","nn":324,"risk":19,"cat":"green"},{"name":"The Pavilion Leisure Centre","lat":53.72786,"lon":0.03236,"postcode":"HU19 2QA","la":"East Riding of Yorkshire","era":"trad","nn":292,"risk":18,"cat":"green"},{"name":"The Pier","lat":53.73132,"lon":0.0328,"postcode":"HU19 2DL","la":"East Riding of Yorkshire","era":"other","nn":0,"risk":16,"cat":"green"},{"name":"The Plough Inn","lat":53.70663,"lon":0.03349,"postcode":"HU19 2RS","la":"East Riding of Yorkshire","era":"trad","nn":1255,"risk":48,"cat":"amber"},{"name":"The Potting Shed","lat":53.83869,"lon":-0.41877,"postcode":"HU17 0NT","la":"East Riding of Yorkshire","era":"other","nn":275,"risk":18,"cat":"green"},{"name":"The Royal Oak","lat":53.72103,"lon":-0.2353,"postcode":"HU12 8AL","la":"East Riding of Yorkshire","era":"trad","nn":0,"risk":36,"cat":"amber"},{"name":"The Sandpiper","lat":53.7231,"lon":-0.52275,"postcode":"HU14 3FQ","la":"East Riding of Yorkshire","era":"other","nn":1176,"risk":47,"cat":"amber"},{"name":"The Shakespeare Inn","lat":53.74066,"lon":-0.19602,"postcode":"HU12 8JN","la":"East Riding of Yorkshire","era":"trad","nn":133,"risk":17,"cat":"green"},{"name":"The Ship","lat":53.70964,"lon":-0.11201,"postcode":"HU12 9RD","la":"East Riding of Yorkshire","era":"trad","nn":31,"risk":37,"cat":"amber"},{"name":"The Sloop Inn","lat":53.83908,"lon":-0.41372,"postcode":"HU17 0PD","la":"East Riding of Yorkshire","era":"trad","nn":0,"risk":16,"cat":"green"},{"name":"The Spread Eagle","lat":53.73154,"lon":0.03092,"postcode":"HU19 2HA","la":"East Riding of Yorkshire","era":"trad","nn":126,"risk":17,"cat":"green"},{"name":"The Stags Head Inn","lat":53.77531,"lon":-0.16675,"postcode":"HU12 8SN","la":"East Riding of Yorkshire","era":"trad","nn":1892,"risk":52,"cat":"amber"},{"name":"The Swan Inn","lat":53.9032,"lon":-0.2293,"postcode":"HU11 5RA","la":"East Riding of Yorkshire","era":"trad","nn":3694,"risk":65,"cat":"red"},{"name":"The Triton Inn","lat":53.75252,"lon":-0.57726,"postcode":"HU15 1QE","la":"East Riding of Yorkshire","era":"trad","nn":1223,"risk":47,"cat":"amber"},{"name":"The Victoria","lat":53.91072,"lon":-0.17437,"postcode":"HU18 1AN","la":"East Riding of Yorkshire","era":"trad","nn":0,"risk":16,"cat":"green"},{"name":"The Watts Arms","lat":53.70087,"lon":-0.07966,"postcode":"HU12 0AG","la":"East Riding of Yorkshire","era":"trad","nn":236,"risk":38,"cat":"amber"},{"name":"The West Bulls","lat":53.77066,"lon":-0.39191,"postcode":"HU5 4QD","la":"East Riding of Yorkshire","era":"trad","nn":439,"risk":22,"cat":"green"},{"name":"The White Horse Inn","lat":54.13347,"lon":-1.31588,"postcode":"HU17 8BN","la":"East Riding of Yorkshire","era":"trad","nn":0,"risk":16,"cat":"green"},{"name":"The White Horse Inn","lat":53.65001,"lon":0.11549,"postcode":"HU12 0TR","la":"East Riding of Yorkshire","era":"trad","nn":116,"risk":35,"cat":"amber"},{"name":"The Wolfpack","lat":53.68351,"lon":-0.01052,"postcode":"HU12 0RE","la":"East Riding of Yorkshire","era":"other","nn":674,"risk":41,"cat":"amber"},{"name":"Tiger Inn","lat":53.7809,"lon":-0.41366,"postcode":"HU16 5QE","la":"East Riding of Yorkshire","era":"trad","nn":92,"risk":17,"cat":"green"},{"name":"Tiger Inn","lat":53.83798,"lon":-0.43016,"postcode":"HU17 8JG","la":"East Riding of Yorkshire","era":"trad","nn":390,"risk":19,"cat":"green"},{"name":"Toby Carvery Willerby","lat":53.7724,"lon":-0.4526,"postcode":"HU10 6NT","la":"East Riding of Yorkshire","era":"other","nn":771,"risk":42,"cat":"amber"},{"name":"Treehouse","lat":53.7235,"lon":-0.43831,"postcode":"HU13 0SB","la":"East Riding of Yorkshire","era":"other","nn":86,"risk":17,"cat":"green"},{"name":"Venue Training Partner Limited","lat":53.78807,"lon":-0.40909,"postcode":"HU16 4HB","la":"East Riding of Yorkshire","era":"other","nn":454,"risk":20,"cat":"green"},{"name":"Villa D'Este","lat":53.75332,"lon":-0.60388,"postcode":"HU15 2DN","la":"East Riding of Yorkshire","era":"other","nn":1625,"risk":50,"cat":"amber"},{"name":"Warton Arms","lat":53.82509,"lon":-0.39596,"postcode":"HU17 0TH","la":"East Riding of Yorkshire","era":"trad","nn":1933,"risk":52,"cat":"amber"},{"name":"Welton Cricket Club","lat":53.72756,"lon":-0.5523,"postcode":"HU15 1PT","la":"East Riding of Yorkshire","era":"other","nn":723,"risk":41,"cat":"amber"},{"name":"Welton Memorial Club","lat":53.73372,"lon":-0.54878,"postcode":"HU15 1ND","la":"East Riding of Yorkshire","era":"other","nn":723,"risk":41,"cat":"amber"},{"name":"Wheatsheaf","lat":53.75481,"lon":-0.4564,"postcode":"HU10 7TL","la":"East Riding of Yorkshire","era":"trad","nn":0,"risk":16,"cat":"green"},{"name":"White Hart Inn","lat":53.77981,"lon":-0.64883,"postcode":"HU15 2NJ","la":"East Riding of Yorkshire","era":"trad","nn":322,"risk":36,"cat":"amber"},{"name":"White Horse Inn","lat":53.75691,"lon":-0.72322,"postcode":"HU15 2UP","la":"East Riding of Yorkshire","era":"trad","nn":1414,"risk":49,"cat":"amber"},{"name":"Willerby & Kirkella Soc. Club","lat":53.75948,"lon":-0.44813,"postcode":"HU10 6BY","la":"East Riding of Yorkshire","era":"other","nn":92,"risk":17,"cat":"green"},{"name":"Willows Bar & Kitchen","lat":53.71722,"lon":0.04007,"postcode":"HU19 2PN","la":"East Riding of Yorkshire","era":"other","nn":0,"risk":19,"cat":"green"},{"name":"Willows Club","lat":53.71722,"lon":0.04007,"postcode":"HU19 2PN","la":"East Riding of Yorkshire","era":"trad","nn":0,"risk":19,"cat":"green"},{"name":"Windmill Inn","lat":53.84166,"lon":-0.43209,"postcode":"HU17 8ET","la":"East Riding of Yorkshire","era":"trad","nn":80,"risk":17,"cat":"green"},{"name":"Withernsea Boating Club","lat":53.72798,"lon":0.03802,"postcode":"HU19 2HN","la":"East Riding of Yorkshire","era":"other","nn":324,"risk":19,"cat":"green"},{"name":"Withernsea Golf Club House","lat":53.72242,"lon":0.03005,"postcode":"HU19 2NA","la":"East Riding of Yorkshire","era":"other","nn":622,"risk":21,"cat":"green"},{"name":"Woolpack","lat":53.84103,"lon":-0.4373,"postcode":"HU17 8EN","la":"East Riding of Yorkshire","era":"trad","nn":333,"risk":19,"cat":"green"},{"name":"Zara's","lat":53.70251,"lon":-0.08194,"postcode":"HU12 0AL","la":"East Riding of Yorkshire","era":"other","nn":236,"risk":38,"cat":"amber"},{"name":"80 Days Bier Haus","lat":53.75331,"lon":-0.35996,"postcode":"HU5 3QA","la":"Kingston upon Hull, City of","era":"other","nn":0,"risk":24,"cat":"green"},{"name":"Admiral of the Humber","lat":53.74317,"lon":-0.3438,"postcode":"HU1 2NR","la":"Kingston upon Hull, City of","era":"other","nn":24,"risk":24,"cat":"green"},{"name":"Alexandra Hotel","lat":53.73744,"lon":-0.35362,"postcode":"HU3 2AB","la":"Kingston upon Hull, City of","era":"other","nn":307,"risk":26,"cat":"green"},{"name":"Apollo","lat":53.77219,"lon":-0.26953,"postcode":"HU9 4AH","la":"Kingston upon Hull, City of","era":"other","nn":535,"risk":32,"cat":"amber"},{"name":"Asylum, University House","lat":53.76965,"lon":-0.36718,"postcode":"HU6 7RX","la":"Kingston upon Hull, City of","era":"other","nn":709,"risk":29,"cat":"green"},{"name":"Banks Harbour","lat":53.7534,"lon":-0.34854,"postcode":"HU3 1XR","la":"Kingston upon Hull, City of","era":"other","nn":90,"risk":24,"cat":"green"},{"name":"Big Bunz @ The Albert Hotel & Sports Bar Ltd","lat":53.74398,"lon":-0.37669,"postcode":"HU3 6PB","la":"Kingston upon Hull, City of","era":"mod","nn":61,"risk":24,"cat":"green"},{"name":"Bonny Boat Inn","lat":53.74233,"lon":-0.33484,"postcode":"HU1 2JA","la":"Kingston upon Hull, City of","era":"trad","nn":4,"risk":24,"cat":"green"},{"name":"Botanic Hotel","lat":53.75139,"lon":-0.36016,"postcode":"HU3 1LR","la":"Kingston upon Hull, City of","era":"other","nn":21,"risk":24,"cat":"green"},{"name":"Burlington Tavern (incorporating Maytree Catering)","lat":53.74404,"lon":-0.3347,"postcode":"HU1 1YP","la":"Kingston upon Hull, City of","era":"other","nn":94,"risk":24,"cat":"green"},{"name":"City Hotel","lat":53.74499,"lon":-0.33066,"postcode":"HU1 1EP","la":"Kingston upon Hull, City of","era":"other","nn":179,"risk":25,"cat":"green"},{"name":"Clarence Snooker Club","lat":53.74672,"lon":-0.32401,"postcode":"HU9 1DN","la":"Kingston upon Hull, City of","era":"other","nn":45,"risk":24,"cat":"green"},{"name":"Clarendon and Zorbas","lat":53.74645,"lon":-0.35395,"postcode":"HU3 1DS","la":"Kingston upon Hull, City of","era":"other","nn":154,"risk":25,"cat":"green"},{"name":"Comedy Lounge","lat":53.74634,"lon":-0.33562,"postcode":"HU1 3AA","la":"Kingston upon Hull, City of","era":"mod","nn":89,"risk":24,"cat":"green"},{"name":"County Hotel","lat":53.74896,"lon":-0.34008,"postcode":"HU2 8DT","la":"Kingston upon Hull, City of","era":"other","nn":257,"risk":25,"cat":"green"},{"name":"Criterion Hotel","lat":53.73609,"lon":-0.36133,"postcode":"HU3 3DB","la":"Kingston upon Hull, City of","era":"other","nn":192,"risk":25,"cat":"green"},{"name":"Crooked Billet","lat":53.76691,"lon":-0.28831,"postcode":"HU8 0SA","la":"Kingston upon Hull, City of","era":"other","nn":320,"risk":28,"cat":"green"},{"name":"Cross Keys Hotel","lat":53.77911,"lon":-0.35764,"postcode":"HU6 7UP","la":"Kingston upon Hull, City of","era":"trad","nn":278,"risk":43,"cat":"amber"},{"name":"Crown Hotel","lat":53.75674,"lon":-0.27291,"postcode":"HU9 5TF","la":"Kingston upon Hull, City of","era":"trad","nn":1129,"risk":54,"cat":"amber"},{"name":"Crows Nest","lat":53.77685,"lon":-0.26748,"postcode":"HU8 9QP","la":"Kingston upon Hull, City of","era":"other","nn":535,"risk":45,"cat":"amber"},{"name":"Cuban Pete's","lat":53.73949,"lon":-0.33508,"postcode":"HU1 1TG","la":"Kingston upon Hull, City of","era":"other","nn":53,"risk":24,"cat":"green"},{"name":"Dairycoates Inn","lat":53.73372,"lon":-0.37836,"postcode":"HU3 5JA","la":"Kingston upon Hull, City of","era":"trad","nn":286,"risk":28,"cat":"green"},{"name":"Disco Chicken","lat":53.7622,"lon":-0.35854,"postcode":"HU5 3AB","la":"Kingston upon Hull, City of","era":"other","nn":193,"risk":25,"cat":"green"},{"name":"Dive HU5","lat":53.75332,"lon":-0.36076,"postcode":"HU5 3QY","la":"Kingston upon Hull, City of","era":"other","nn":53,"risk":24,"cat":"green"},{"name":"Dram Shop","lat":53.74551,"lon":-0.33786,"postcode":"HU1 3AJ","la":"Kingston upon Hull, City of","era":"trad","nn":104,"risk":24,"cat":"green"},{"name":"Drum & Cymbals","lat":53.73793,"lon":-0.41201,"postcode":"HU4 7NH","la":"Kingston upon Hull, City of","era":"other","nn":750,"risk":31,"cat":"amber"},{"name":"Duke Of York","lat":53.77996,"lon":-0.3026,"postcode":"HU7 4TD","la":"Kingston upon Hull, City of","era":"trad","nn":195,"risk":43,"cat":"amber"},{"name":"Ebenezer Morley","lat":53.74351,"lon":-0.34365,"postcode":"HU1 2PA","la":"Kingston upon Hull, City of","era":"other","nn":6,"risk":24,"cat":"green"},{"name":"Empress Hotel","lat":53.74363,"lon":-0.33726,"postcode":"HU1 2BP","la":"Kingston upon Hull, City of","era":"other","nn":144,"risk":25,"cat":"green"},{"name":"Fiveways Hotel","lat":53.73729,"lon":-0.39861,"postcode":"HU4 6EZ","la":"Kingston upon Hull, City of","era":"other","nn":809,"risk":34,"cat":"amber"},{"name":"Four In Hand","lat":53.76993,"lon":-0.27937,"postcode":"HU8 9DR","la":"Kingston upon Hull, City of","era":"other","nn":584,"risk":28,"cat":"green"},{"name":"Fretwells","lat":53.74262,"lon":-0.33139,"postcode":"HU1 1LF","la":"Kingston upon Hull, City of","era":"other","nn":18,"risk":24,"cat":"green"},{"name":"Fuel","lat":53.74721,"lon":-0.34353,"postcode":"HU2 8HP","la":"Kingston upon Hull, City of","era":"other","nn":142,"risk":25,"cat":"green"},{"name":"G W Horners","lat":53.74303,"lon":-0.34578,"postcode":"HU1 2PJ","la":"Kingston upon Hull, City of","era":"other","nn":131,"risk":25,"cat":"green"},{"name":"Gardeners Arms","lat":53.7683,"lon":-0.35663,"postcode":"HU5 2PP","la":"Kingston upon Hull, City of","era":"trad","nn":154,"risk":25,"cat":"green"},{"name":"Go Local Extra","lat":53.74386,"lon":-0.3807,"postcode":"HU3 6QR","la":"Kingston upon Hull, City of","era":"other","nn":75,"risk":24,"cat":"green"},{"name":"Goodfellowship Inn","lat":53.76961,"lon":-0.38183,"postcode":"HU5 4AT","la":"Kingston upon Hull, City of","era":"trad","nn":672,"risk":28,"cat":"green"},{"name":"Grafton Hotel","lat":53.76379,"lon":-0.35655,"postcode":"HU5 2NP","la":"Kingston upon Hull, City of","era":"other","nn":117,"risk":25,"cat":"green"},{"name":"Grange","lat":53.76353,"lon":-0.25767,"postcode":"HU9 4LQ","la":"Kingston upon Hull, City of","era":"other","nn":1085,"risk":54,"cat":"amber"},{"name":"Half Way Public House","lat":53.7341,"lon":-0.37405,"postcode":"HU3 5AA","la":"Kingston upon Hull, City of","era":"other","nn":286,"risk":28,"cat":"green"},{"name":"Halfway House","lat":53.75041,"lon":-0.37835,"postcode":"HU3 6LD","la":"Kingston upon Hull, City of","era":"other","nn":477,"risk":27,"cat":"green"},{"name":"Harry Pursey","lat":53.76384,"lon":-0.3513,"postcode":"HU5 1LN","la":"Kingston upon Hull, City of","era":"other","nn":258,"risk":25,"cat":"green"},{"name":"Hastings Hotel","lat":53.74978,"lon":-0.39321,"postcode":"HU5 5BE","la":"Kingston upon Hull, City of","era":"other","nn":750,"risk":31,"cat":"amber"},{"name":"Haworth Park Sports Facility","lat":53.78817,"lon":-0.35095,"postcode":"HU6 7AB","la":"Kingston upon Hull, City of","era":"other","nn":645,"risk":33,"cat":"amber"},{"name":"Highland Laddie","lat":53.75728,"lon":-0.30537,"postcode":"HU9 3AD","la":"Kingston upon Hull, City of","era":"other","nn":152,"risk":25,"cat":"green"},{"name":"Hop & Vine","lat":53.74681,"lon":-0.34148,"postcode":"HU1 3TG","la":"Kingston upon Hull, City of","era":"other","nn":142,"risk":25,"cat":"green"},{"name":"Hull & East Riding Sports Club","lat":53.7638,"lon":-0.37146,"postcode":"HU5 4ED","la":"Kingston upon Hull, City of","era":"other","nn":709,"risk":29,"cat":"green"},{"name":"Hull Cheese","lat":53.74391,"lon":-0.34151,"postcode":"HU1 3PE","la":"Kingston upon Hull, City of","era":"other","nn":56,"risk":24,"cat":"green"},{"name":"Hull Deaf Centre","lat":53.74914,"lon":-0.35062,"postcode":"HU3 1AG","la":"Kingston upon Hull, City of","era":"other","nn":131,"risk":25,"cat":"green"},{"name":"Humber Dock Bar & Grill","lat":53.73962,"lon":-0.33631,"postcode":"HU1 1TB","la":"Kingston upon Hull, City of","era":"mod","nn":82,"risk":24,"cat":"green"},{"name":"Hustlers Pool Hall","lat":53.74807,"lon":-0.34581,"postcode":"HU1 3RT","la":"Kingston upon Hull, City of","era":"other","nn":177,"risk":25,"cat":"green"},{"name":"Jack Rabbit Slims","lat":53.74819,"lon":-0.32784,"postcode":"HU9 1BY","la":"Kingston upon Hull, City of","era":"other","nn":144,"risk":25,"cat":"green"},{"name":"Jesmond Arms","lat":53.75637,"lon":-0.30905,"postcode":"HU9 3DQ","la":"Kingston upon Hull, City of","era":"trad","nn":143,"risk":25,"cat":"green"},{"name":"Kingston Hotel","lat":53.74221,"lon":-0.33504,"postcode":"HU1 2JA","la":"Kingston upon Hull, City of","era":"trad","nn":7,"risk":24,"cat":"green"},{"name":"Lenny's","lat":53.76115,"lon":-0.30077,"postcode":"HU9 3ES","la":"Kingston upon Hull, City of","era":"other","nn":240,"risk":25,"cat":"green"},{"name":"Lion and Key","lat":53.74244,"lon":-0.33105,"postcode":"HU1 1QE","la":"Kingston upon Hull, City of","era":"trad","nn":30,"risk":24,"cat":"green"},{"name":"Malt Shovel","lat":53.74349,"lon":-0.38165,"postcode":"HU3 6SH","la":"Kingston upon Hull, City of","era":"other","nn":75,"risk":24,"cat":"green"},{"name":"Manchester Arms","lat":53.74252,"lon":-0.33182,"postcode":"HU1 1LA","la":"Kingston upon Hull, City of","era":"trad","nn":24,"risk":24,"cat":"green"},{"name":"Manor Club","lat":53.75333,"lon":-0.40919,"postcode":"HU5 5PB","la":"Kingston upon Hull, City of","era":"other","nn":101,"risk":24,"cat":"green"},{"name":"Masters Bar","lat":53.74448,"lon":-0.34311,"postcode":"HU1 3PY","la":"Kingston upon Hull, City of","era":"other","nn":84,"risk":24,"cat":"green"},{"name":"Moderation","lat":53.74352,"lon":-0.34355,"postcode":"HU1 2PA","la":"Kingston upon Hull, City of","era":"other","nn":6,"risk":24,"cat":"green"},{"name":"Nellies Club","lat":53.75625,"lon":-0.30688,"postcode":"HU9 2LR","la":"Kingston upon Hull, City of","era":"other","nn":143,"risk":25,"cat":"green"},{"name":"New Adelphi Club","lat":53.76233,"lon":-0.35562,"postcode":"HU5 2RU","la":"Kingston upon Hull, City of","era":"other","nn":156,"risk":25,"cat":"green"},{"name":"New Griffin","lat":53.74345,"lon":-0.37689,"postcode":"HU3 6EN","la":"Kingston upon Hull, City of","era":"trad","nn":38,"risk":24,"cat":"green"},{"name":"New King Edward","lat":53.7432,"lon":-0.34343,"postcode":"HU1 2NR","la":"Kingston upon Hull, City of","era":"trad","nn":24,"risk":24,"cat":"green"},{"name":"New Trinity Club","lat":53.75637,"lon":-0.29371,"postcode":"HU9 3TS","la":"Kingston upon Hull, City of","era":"other","nn":247,"risk":25,"cat":"green"},{"name":"Oak Vaults","lat":53.75051,"lon":-0.33641,"postcode":"HU2 8AR","la":"Kingston upon Hull, City of","era":"trad","nn":117,"risk":25,"cat":"green"},{"name":"Old Bull & Bush","lat":53.75156,"lon":-0.33634,"postcode":"HU2 0HH","la":"Kingston upon Hull, City of","era":"trad","nn":117,"risk":25,"cat":"green"},{"name":"Old English Gentleman","lat":53.74748,"lon":-0.33637,"postcode":"HU2 8BG","la":"Kingston upon Hull, City of","era":"other","nn":136,"risk":25,"cat":"green"},{"name":"OLeary's Bar","lat":53.74295,"lon":-0.33269,"postcode":"HU1 1EA","la":"Kingston upon Hull, City of","era":"other","nn":63,"risk":24,"cat":"green"},{"name":"O'Rileys","lat":53.7526,"lon":-0.34872,"postcode":"HU3 1XR","la":"Kingston upon Hull, City of","era":"other","nn":90,"risk":24,"cat":"green"},{"name":"Pac a Snax at the Ping Pong Club","lat":53.75451,"lon":-0.3488,"postcode":"HU3 1TS","la":"Kingston upon Hull, City of","era":"other","nn":125,"risk":25,"cat":"green"},{"name":"Park Hotel Bar and Grill","lat":53.74571,"lon":-0.35197,"postcode":"HU2 8RR","la":"Kingston upon Hull, City of","era":"mod","nn":154,"risk":25,"cat":"green"},{"name":"Parkers","lat":53.74398,"lon":-0.374,"postcode":"HU3 6NS","la":"Kingston upon Hull, City of","era":"other","nn":177,"risk":25,"cat":"green"},{"name":"Pave","lat":53.75361,"lon":-0.35988,"postcode":"HU5 3QA","la":"Kingston upon Hull, City of","era":"other","nn":34,"risk":24,"cat":"green"},{"name":"Pelican","lat":53.76711,"lon":-0.31172,"postcode":"HU8 0EA","la":"Kingston upon Hull, City of","era":"other","nn":978,"risk":51,"cat":"amber"},{"name":"Pink Parrot","lat":53.74319,"lon":-0.3352,"postcode":"HU1 2HU","la":"Kingston upon Hull, City of","era":"other","nn":50,"risk":24,"cat":"green"},{"name":"Pint & Pot","lat":53.78833,"lon":-0.37554,"postcode":"HU6 9RR","la":"Kingston upon Hull, City of","era":"other","nn":707,"risk":46,"cat":"amber"},{"name":"Piper Club","lat":53.76429,"lon":-0.35811,"postcode":"HU5 2NN","la":"Kingston upon Hull, City of","era":"other","nn":117,"risk":25,"cat":"green"},{"name":"Polar Bear","lat":53.75134,"lon":-0.35986,"postcode":"HU3 1LR","la":"Kingston upon Hull, City of","era":"other","nn":21,"risk":24,"cat":"green"},{"name":"Propaganda","lat":53.74553,"lon":-0.34491,"postcode":"HU1 3UN","la":"Kingston upon Hull, City of","era":"other","nn":165,"risk":25,"cat":"green"},{"name":"Punch Bowl","lat":53.75927,"lon":-0.32106,"postcode":"HU8 7TH","la":"Kingston upon Hull, City of","era":"other","nn":853,"risk":47,"cat":"amber"},{"name":"Punch Hotel","lat":53.74339,"lon":-0.33977,"postcode":"HU1 3RA","la":"Kingston upon Hull, City of","era":"other","nn":128,"risk":25,"cat":"green"},{"name":"Rampant Horse","lat":53.78818,"lon":-0.3863,"postcode":"HU6 9DT","la":"Kingston upon Hull, City of","era":"trad","nn":707,"risk":49,"cat":"amber"},{"name":"Ravenser","lat":53.75745,"lon":-0.29699,"postcode":"HU9 3AP","la":"Kingston upon Hull, City of","era":"other","nn":247,"risk":25,"cat":"green"},{"name":"Rayners","lat":53.7345,"lon":-0.36694,"postcode":"HU3 4BL","la":"Kingston upon Hull, City of","era":"other","nn":409,"risk":27,"cat":"green"},{"name":"Red Lion Inn","lat":53.74699,"lon":-0.32349,"postcode":"HU9 1DN","la":"Kingston upon Hull, City of","era":"trad","nn":45,"risk":24,"cat":"green"},{"name":"Rising Sun","lat":53.78858,"lon":-0.36213,"postcode":"HU6 7AG","la":"Kingston upon Hull, City of","era":"other","nn":735,"risk":34,"cat":"amber"},{"name":"Ritz Cabaret Show Bar","lat":53.74921,"lon":-0.32134,"postcode":"HU8 7NA","la":"Kingston upon Hull, City of","era":"other","nn":101,"risk":24,"cat":"green"},{"name":"Robbies is Hull Ltd","lat":53.74502,"lon":-0.32257,"postcode":"HU9 1LN","la":"Kingston upon Hull, City of","era":"other","nn":102,"risk":24,"cat":"green"},{"name":"Ryder Social Club","lat":53.73712,"lon":-0.35826,"postcode":"HU3 2SJ","la":"Kingston upon Hull, City of","era":"mod","nn":186,"risk":25,"cat":"green"},{"name":"Sailmakers Arms","lat":53.74339,"lon":-0.33099,"postcode":"HU1 1NQ","la":"Kingston upon Hull, City of","era":"trad","nn":73,"risk":24,"cat":"green"},{"name":"Savile Row Cafe Bar","lat":53.74475,"lon":-0.33877,"postcode":"HU1 3EA","la":"Kingston upon Hull, City of","era":"other","nn":104,"risk":24,"cat":"green"},{"name":"Savoy Hotel","lat":53.77179,"lon":-0.29008,"postcode":"HU8 0TY","la":"Kingston upon Hull, City of","era":"other","nn":555,"risk":28,"cat":"green"},{"name":"Service Station","lat":53.74672,"lon":-0.33442,"postcode":"HU1 3AA","la":"Kingston upon Hull, City of","era":"other","nn":89,"risk":24,"cat":"green"},{"name":"Ship Inn","lat":53.74964,"lon":-0.32969,"postcode":"HU8 7EY","la":"Kingston upon Hull, City of","era":"trad","nn":202,"risk":25,"cat":"green"},{"name":"Silver Cod","lat":53.74394,"lon":-0.3832,"postcode":"HU3 6SZ","la":"Kingston upon Hull, City of","era":"other","nn":113,"risk":24,"cat":"green"},{"name":"Skippers Tavern","lat":53.80533,"lon":-0.32934,"postcode":"HU7 5BJ","la":"Kingston upon Hull, City of","era":"other","nn":1161,"risk":54,"cat":"amber"},{"name":"Spotted Dog","lat":53.77577,"lon":-0.38645,"postcode":"HU6 8SW","la":"Kingston upon Hull, City of","era":"other","nn":72,"risk":29,"cat":"green"},{"name":"Spring Bank Tavern","lat":53.74878,"lon":-0.34872,"postcode":"HU3 1AF","la":"Kingston upon Hull, City of","era":"other","nn":131,"risk":25,"cat":"green"},{"name":"St Johns Hotel","lat":53.76153,"lon":-0.35161,"postcode":"HU5 2PY","la":"Kingston upon Hull, City of","era":"other","nn":248,"risk":25,"cat":"green"},{"name":"St Vincent's Social Club","lat":53.76094,"lon":-0.35524,"postcode":"HU5 2QP","la":"Kingston upon Hull, City of","era":"mod","nn":156,"risk":25,"cat":"green"},{"name":"Star of the West","lat":53.74227,"lon":-0.33501,"postcode":"HU1 2JA","la":"Kingston upon Hull, City of","era":"other","nn":7,"risk":24,"cat":"green"},{"name":"Stricky Arms","lat":53.73547,"lon":-0.35861,"postcode":"HU3 4AD","la":"Kingston upon Hull, City of","era":"trad","nn":186,"risk":27,"cat":"green"},{"name":"Surf Bar","lat":53.74212,"lon":-0.33635,"postcode":"HU1 2JN","la":"Kingston upon Hull, City of","era":"other","nn":26,"risk":24,"cat":"green"},{"name":"Sutton Fields / 88th Street / Value Mighty / Sin City Burger","lat":53.77819,"lon":-0.33183,"postcode":"HU7 0YN","la":"Kingston upon Hull, City of","era":"other","nn":241,"risk":45,"cat":"amber"},{"name":"Taphouse","lat":53.73905,"lon":-0.33537,"postcode":"HU1 1TU","la":"Kingston upon Hull, City of","era":"other","nn":53,"risk":24,"cat":"green"},{"name":"Telstar 2","lat":53.74325,"lon":-0.33411,"postcode":"HU1 1XR","la":"Kingston upon Hull, City of","era":"other","nn":23,"risk":24,"cat":"green"},{"name":"The Abbey Hotel","lat":53.76082,"lon":-0.40492,"postcode":"HU5 5QP","la":"Kingston upon Hull, City of","era":"trad","nn":478,"risk":30,"cat":"green"},{"name":"The Alley","lat":53.76873,"lon":-0.3544,"postcode":"HU6 7RA","la":"Kingston upon Hull, City of","era":"other","nn":26,"risk":24,"cat":"green"},{"name":"The Avenue","lat":53.75527,"lon":-0.37345,"postcode":"HU5 3TS","la":"Kingston upon Hull, City of","era":"other","nn":628,"risk":28,"cat":"green"},{"name":"The Bank","lat":53.759,"lon":-0.30496,"postcode":"HU9 3DW","la":"Kingston upon Hull, City of","era":"other","nn":193,"risk":25,"cat":"green"},{"name":"The Barrowman","lat":53.76674,"lon":-0.39112,"postcode":"HU5 4RJ","la":"Kingston upon Hull, City of","era":"other","nn":439,"risk":32,"cat":"amber"},{"name":"The Bowery","lat":53.75395,"lon":-0.35951,"postcode":"HU5 3QA","la":"Kingston upon Hull, City of","era":"other","nn":45,"risk":24,"cat":"green"},{"name":"The Falcon","lat":53.7538,"lon":-0.25647,"postcode":"HU9 5HA","la":"Kingston upon Hull, City of","era":"other","nn":1085,"risk":54,"cat":"amber"},{"name":"The George Hotel","lat":53.7432,"lon":-0.33444,"postcode":"HU1 2EA","la":"Kingston upon Hull, City of","era":"trad","nn":23,"risk":24,"cat":"green"},{"name":"The Grandale","lat":53.7841,"lon":-0.34396,"postcode":"HU7 4BL","la":"Kingston upon Hull, City of","era":"other","nn":645,"risk":48,"cat":"amber"},{"name":"The Haworth","lat":53.76867,"lon":-0.35402,"postcode":"HU6 7LD","la":"Kingston upon Hull, City of","era":"other","nn":26,"risk":24,"cat":"green"},{"name":"The Highway","lat":53.75371,"lon":-0.4167,"postcode":"HU5 5LH","la":"Kingston upon Hull, City of","era":"other","nn":496,"risk":30,"cat":"green"},{"name":"The Inglemire","lat":53.77608,"lon":-0.38742,"postcode":"HU6 8SW","la":"Kingston upon Hull, City of","era":"other","nn":72,"risk":29,"cat":"green"},{"name":"The Lair","lat":53.74314,"lon":-0.34981,"postcode":"HU3 2JA","la":"Kingston upon Hull, City of","era":"other","nn":266,"risk":26,"cat":"green"},{"name":"The Lord Nelson","lat":53.77831,"lon":-0.36471,"postcode":"HU6 7UA","la":"Kingston upon Hull, City of","era":"trad","nn":473,"risk":32,"cat":"amber"},{"name":"The Manor Farm","lat":53.75313,"lon":-0.40769,"postcode":"HU5 5JW","la":"Kingston upon Hull, City of","era":"other","nn":101,"risk":24,"cat":"green"},{"name":"The Meadows Public House","lat":53.79518,"lon":-0.32525,"postcode":"HU7 4HA","la":"Kingston upon Hull, City of","era":"other","nn":365,"risk":46,"cat":"amber"},{"name":"The Mill","lat":53.76228,"lon":-0.29764,"postcode":"HU9 3EU","la":"Kingston upon Hull, City of","era":"trad","nn":240,"risk":25,"cat":"green"},{"name":"The Minerva","lat":53.73808,"lon":-0.33496,"postcode":"HU1 1XE","la":"Kingston upon Hull, City of","era":"other","nn":111,"risk":24,"cat":"green"},{"name":"The Mission","lat":53.74219,"lon":-0.33672,"postcode":"HU1 2JN","la":"Kingston upon Hull, City of","era":"other","nn":26,"risk":24,"cat":"green"},{"name":"The National","lat":53.76202,"lon":-0.38258,"postcode":"HU5 4HP","la":"Kingston upon Hull, City of","era":"other","nn":757,"risk":31,"cat":"amber"},{"name":"The New Empress","lat":53.73116,"lon":-0.39198,"postcode":"HU4 6QF","la":"Kingston upon Hull, City of","era":"other","nn":809,"risk":47,"cat":"amber"},{"name":"The Odd Bottle","lat":53.75751,"lon":-0.40955,"postcode":"HU5 5QQ","la":"Kingston upon Hull, City of","era":"other","nn":465,"risk":27,"cat":"green"},{"name":"The Old School House","lat":53.74763,"lon":-0.32587,"postcode":"HU9 1BA","la":"Kingston upon Hull, City of","era":"other","nn":144,"risk":25,"cat":"green"},{"name":"The Pilot","lat":53.7815,"lon":-0.3589,"postcode":"HU6 9NA","la":"Kingston upon Hull, City of","era":"other","nn":278,"risk":28,"cat":"green"},{"name":"The Priory Inn (Tanks Tavern)","lat":53.75583,"lon":-0.39824,"postcode":"HU5 5RY","la":"Kingston upon Hull, City of","era":"trad","nn":690,"risk":29,"cat":"green"},{"name":"The Robin","lat":53.77686,"lon":-0.29529,"postcode":"HU8 0PY","la":"Kingston upon Hull, City of","era":"other","nn":591,"risk":33,"cat":"amber"},{"name":"The Royal Charter","lat":53.775,"lon":-0.27705,"postcode":"HU8 9EQ","la":"Kingston upon Hull, City of","era":"trad","nn":584,"risk":30,"cat":"green"},{"name":"The Sailmakers","lat":53.72746,"lon":-0.37409,"postcode":"HU3 4SA","la":"Kingston upon Hull, City of","era":"other","nn":739,"risk":34,"cat":"amber"},{"name":"The Sandringham","lat":53.74382,"lon":-0.34371,"postcode":"HU1 3QW","la":"Kingston upon Hull, City of","era":"other","nn":34,"risk":24,"cat":"green"},{"name":"The Ship Inn","lat":53.78064,"lon":-0.30534,"postcode":"HU7 4TA","la":"Kingston upon Hull, City of","era":"trad","nn":195,"risk":43,"cat":"amber"},{"name":"The Ship Inn","lat":53.76917,"lon":-0.32942,"postcode":"HU7 0BH","la":"Kingston upon Hull, City of","era":"trad","nn":902,"risk":50,"cat":"amber"},{"name":"The Star","lat":53.7437,"lon":-0.34228,"postcode":"HU1 3RF","la":"Kingston upon Hull, City of","era":"other","nn":56,"risk":24,"cat":"green"},{"name":"The Thomas Strawberry","lat":53.74755,"lon":-0.32007,"postcode":"HU9 1EH","la":"Kingston upon Hull, City of","era":"other","nn":202,"risk":25,"cat":"green"},{"name":"The Three John Scotts","lat":53.74408,"lon":-0.33327,"postcode":"HU1 1AA","la":"Kingston upon Hull, City of","era":"other","nn":63,"risk":24,"cat":"green"},{"name":"The Three Tuns","lat":53.74298,"lon":-0.38919,"postcode":"HU3 6UH","la":"Kingston upon Hull, City of","era":"other","nn":408,"risk":27,"cat":"green"},{"name":"The Vault","lat":53.74865,"lon":-0.32255,"postcode":"HU9 1BL","la":"Kingston upon Hull, City of","era":"other","nn":101,"risk":24,"cat":"green"},{"name":"The Whalebone","lat":53.75226,"lon":-0.3334,"postcode":"HU2 0PA","la":"Kingston upon Hull, City of","era":"other","nn":208,"risk":25,"cat":"green"},{"name":"The Whistling Goose","lat":53.77726,"lon":-0.32851,"postcode":"HU7 0XF","la":"Kingston upon Hull, City of","era":"other","nn":241,"risk":43,"cat":"amber"},{"name":"The Whittington & Cat","lat":53.73976,"lon":-0.34366,"postcode":"HU1 2SA","la":"Kingston upon Hull, City of","era":"other","nn":380,"risk":26,"cat":"green"},{"name":"The William Gemmell","lat":53.74354,"lon":-0.37745,"postcode":"HU3 6EN","la":"Kingston upon Hull, City of","era":"other","nn":38,"risk":24,"cat":"green"},{"name":"Three Crowns","lat":53.74337,"lon":-0.3218,"postcode":"HU9 1PW","la":"Kingston upon Hull, City of","era":"trad","nn":190,"risk":25,"cat":"green"},{"name":"Tiffanys","lat":53.74352,"lon":-0.33304,"postcode":"HU1 1XW","la":"Kingston upon Hull, City of","era":"other","nn":62,"risk":24,"cat":"green"},{"name":"Tigers Trust Arena","lat":53.7475,"lon":-0.37303,"postcode":"HU3 6GA","la":"Kingston upon Hull, City of","era":"other","nn":396,"risk":26,"cat":"green"},{"name":"Tradewell Snooker & American Pool Club","lat":53.75711,"lon":-0.30291,"postcode":"HU9 3AD","la":"Kingston upon Hull, City of","era":"other","nn":163,"risk":25,"cat":"green"},{"name":"Tranby Club","lat":53.74449,"lon":-0.40891,"postcode":"HU4 7RA","la":"Kingston upon Hull, City of","era":"other","nn":289,"risk":26,"cat":"green"},{"name":"Union Mash Up","lat":53.75331,"lon":-0.35996,"postcode":"HU5 3QA","la":"Kingston upon Hull, City of","era":"other","nn":0,"risk":24,"cat":"green"},{"name":"Victoria Dock Tavern","lat":53.74494,"lon":-0.32412,"postcode":"HU9 1UB","la":"Kingston upon Hull, City of","era":"trad","nn":102,"risk":24,"cat":"green"},{"name":"W.M. Hawkes","lat":53.74272,"lon":-0.33167,"postcode":"HU1 1LF","la":"Kingston upon Hull, City of","era":"other","nn":21,"risk":24,"cat":"green"},{"name":"Wawne Ferry","lat":53.79299,"lon":-0.32111,"postcode":"HU7 4WD","la":"Kingston upon Hull, City of","era":"other","nn":365,"risk":46,"cat":"amber"},{"name":"Welly Club","lat":53.75379,"lon":-0.35041,"postcode":"HU3 1SJ","la":"Kingston upon Hull, City of","era":"other","nn":131,"risk":25,"cat":"green"},{"name":"Willows Club","lat":53.76517,"lon":-0.29218,"postcode":"HU8 9AN","la":"Kingston upon Hull, City of","era":"trad","nn":320,"risk":26,"cat":"green"},{"name":"Yates/KTown/ChikBox/Locked&Loaded/88thStreet/ValueMighty/SinCityBurger","lat":53.74234,"lon":-0.33479,"postcode":"HU1 2JA","la":"Kingston upon Hull, City of","era":"other","nn":4,"risk":24,"cat":"green"},{"name":"Ye Olde Black Boy","lat":53.74275,"lon":-0.33121,"postcode":"HU1 1PS","la":"Kingston upon Hull, City of","era":"other","nn":18,"risk":24,"cat":"green"},{"name":"Ye Olde Blue Bell","lat":53.74234,"lon":-0.33384,"postcode":"HU1 1RQ","la":"Kingston upon Hull, City of","era":"other","nn":62,"risk":24,"cat":"green"},{"name":"Ye Olde White Harte","lat":53.74309,"lon":-0.33363,"postcode":"HU1 1JG","la":"Kingston upon Hull, City of","era":"trad","nn":36,"risk":24,"cat":"green"}]