[{"name":"Admiral Boscarn","lat":50.35282,"lon":-4.4521,"postcode":"PL13 1BU","la":"Cornwall","era":"other","nn":146,"risk":17,"cat":"green"},{"name":"Archer Arms","lat":50.60075,"lon":-4.43894,"postcode":"PL15 7QD","la":"Cornwall","era":"trad","nn":2284,"risk":55,"cat":"amber"},{"name":"Bettle & Chisel Inn","lat":50.62371,"lon":-4.73163,"postcode":"PL33 9AQ","la":"Cornwall","era":"trad","nn":830,"risk":42,"cat":"amber"},{"name":"Black Swan","lat":50.35521,"lon":-4.45439,"postcode":"PL13 1DT","la":"Cornwall","era":"trad","nn":105,"risk":17,"cat":"green"},{"name":"Blue Peter","lat":50.33105,"lon":-4.51742,"postcode":"PL13 2QZ","la":"Cornwall","era":"other","nn":10,"risk":21,"cat":"green"},{"name":"Bodmin Bowls Club","lat":50.46571,"lon":-4.71501,"postcode":"PL31 1DU","la":"Cornwall","era":"other","nn":562,"risk":20,"cat":"green"},{"name":"Bodmin Rugby Football Club","lat":50.45724,"lon":-4.688,"postcode":"PL30 4AW","la":"Cornwall","era":"other","nn":2132,"risk":54,"cat":"amber"},{"name":"Bodmin Town Afc & Social Club","lat":50.47076,"lon":-4.71519,"postcode":"PL31 2AE","la":"Cornwall","era":"mod","nn":228,"risk":18,"cat":"green"},{"name":"Bowood Park Hotel & Golf Course","lat":50.61037,"lon":-4.70117,"postcode":"PL32 9RF","la":"Cornwall","era":"other","nn":1,"risk":36,"cat":"amber"},{"name":"Britannia Inn","lat":50.34718,"lon":-4.73653,"postcode":"PL24 2SL","la":"Cornwall","era":"trad","nn":736,"risk":42,"cat":"amber"},{"name":"Callington Bowling Club","lat":50.50211,"lon":-4.31619,"postcode":"PL17 7JF","la":"Cornwall","era":"other","nn":147,"risk":35,"cat":"amber"},{"name":"Callington Social Club","lat":50.50343,"lon":-4.31444,"postcode":"PL17 7AU","la":"Cornwall","era":"mod","nn":48,"risk":34,"cat":"amber"},{"name":"Camelford Conservative Club","lat":50.62343,"lon":-4.67854,"postcode":"PL32 9PB","la":"Cornwall","era":"other","nn":2158,"risk":54,"cat":"amber"},{"name":"Carbeile Inn","lat":50.3759,"lon":-4.20803,"postcode":"PL11 2NJ","la":"Cornwall","era":"trad","nn":919,"risk":43,"cat":"amber"},{"name":"Cargreen Yacht Club","lat":50.44315,"lon":-4.20707,"postcode":"PL12 6PB","la":"Cornwall","era":"other","nn":2492,"risk":56,"cat":"amber"},{"name":"Carlyon Bay Golf Club","lat":50.33764,"lon":-4.73711,"postcode":"PL25 3SQ","la":"Cornwall","era":"other","nn":1061,"risk":46,"cat":"amber"},{"name":"Carnmoggas Holiday Park","lat":50.31422,"lon":-4.81409,"postcode":"PL26 7DD","la":"Cornwall","era":"other","nn":437,"risk":39,"cat":"amber"},{"name":"Cellar Bar","lat":50.27032,"lon":-4.78728,"postcode":"PL26 6UB","la":"Cornwall","era":"other","nn":29,"risk":17,"cat":"green"},{"name":"Cobweb Inn","lat":50.68998,"lon":-4.69233,"postcode":"PL35 0HE","la":"Cornwall","era":"trad","nn":710,"risk":41,"cat":"amber"},{"name":"Colin Park Club","lat":50.58094,"lon":-4.43036,"postcode":"PL15 7PN","la":"Cornwall","era":"other","nn":2284,"risk":55,"cat":"amber"},{"name":"Commercial Inn","lat":50.38536,"lon":-4.88272,"postcode":"PL26 8AX","la":"Cornwall","era":"trad","nn":508,"risk":40,"cat":"amber"},{"name":"Cornish Arms","lat":50.52905,"lon":-4.98402,"postcode":"PL28 8ND","la":"Cornwall","era":"trad","nn":1013,"risk":46,"cat":"amber"},{"name":"Devon & Cornwall Inn","lat":50.34755,"lon":-4.2176,"postcode":"PL10 1AA","la":"Cornwall","era":"trad","nn":898,"risk":43,"cat":"amber"},{"name":"Duke Of Cornwall","lat":50.33811,"lon":-4.7762,"postcode":"PL25 4QD","la":"Cornwall","era":"trad","nn":698,"risk":39,"cat":"amber"},{"name":"Earl Of Chatham","lat":50.40692,"lon":-4.66305,"postcode":"PL22 0EP","la":"Cornwall","era":"other","nn":396,"risk":37,"cat":"amber"},{"name":"Fishermans Arms","lat":50.36249,"lon":-4.64117,"postcode":"PL23 1LN","la":"Cornwall","era":"trad","nn":2804,"risk":59,"cat":"amber"},{"name":"Fountain Inn","lat":50.27053,"lon":-4.78704,"postcode":"PL26 6QH","la":"Cornwall","era":"trad","nn":29,"risk":17,"cat":"green"},{"name":"Fourways Inn","lat":50.55833,"lon":-4.8736,"postcode":"PL27 6QH","la":"Cornwall","era":"trad","nn":1435,"risk":49,"cat":"amber"},{"name":"Foxhole AFC Social Club","lat":50.36188,"lon":-4.86436,"postcode":"PL26 7UR","la":"Cornwall","era":"other","nn":872,"risk":42,"cat":"amber"},{"name":"Globe Inn","lat":50.40752,"lon":-4.66856,"postcode":"PL22 0EG","la":"Cornwall","era":"trad","nn":172,"risk":35,"cat":"amber"},{"name":"Halfway House Inn","lat":50.33389,"lon":-4.20157,"postcode":"PL10 1NA","la":"Cornwall","era":"other","nn":47,"risk":34,"cat":"amber"},{"name":"Halfway House Inn","lat":50.48994,"lon":-4.9024,"postcode":"PL27 7RE","la":"Cornwall","era":"other","nn":2682,"risk":58,"cat":"amber"},{"name":"Halfway House Pub & Kitchen","lat":50.38826,"lon":-4.32498,"postcode":"PL11 3EY","la":"Cornwall","era":"mod","nn":1279,"risk":48,"cat":"amber"},{"name":"Haveners Bar And Grill","lat":50.33515,"lon":-4.63464,"postcode":"PL23 1AT","la":"Cornwall","era":"mod","nn":16,"risk":16,"cat":"green"},{"name":"Hengar Manor Bar & Restaurant","lat":50.56356,"lon":-4.70917,"postcode":"PL30 3PL","la":"Cornwall","era":"mod","nn":1477,"risk":49,"cat":"amber"},{"name":"Hewas Inn","lat":50.31699,"lon":-4.83965,"postcode":"PL26 7HB","la":"Cornwall","era":"trad","nn":1841,"risk":52,"cat":"amber"},{"name":"Hole In The Wall","lat":50.47152,"lon":-4.71894,"postcode":"PL31 2DS","la":"Cornwall","era":"other","nn":14,"risk":16,"cat":"green"},{"name":"Inn On The Shore","lat":50.36151,"lon":-4.37038,"postcode":"PL11 3JY","la":"Cornwall","era":"trad","nn":1048,"risk":46,"cat":"amber"},{"name":"Jubilee Inn","lat":50.36666,"lon":-4.526,"postcode":"PL13 2JZ","la":"Cornwall","era":"trad","nn":3388,"risk":63,"cat":"red"},{"name":"Kernow The Old Inn","lat":50.56418,"lon":-4.68828,"postcode":"PL30 4PP","la":"Cornwall","era":"trad","nn":1334,"risk":48,"cat":"amber"},{"name":"King Arthurs Arms","lat":50.66351,"lon":-4.75133,"postcode":"PL34 0DA","la":"Cornwall","era":"trad","nn":0,"risk":21,"cat":"green"},{"name":"Kings Head Hotel","lat":50.59938,"lon":-4.50926,"postcode":"PL15 7RX","la":"Cornwall","era":"trad","nn":2902,"risk":59,"cat":"amber"},{"name":"Knight Of The Round Table Pub And Restaurant","lat":50.61036,"lon":-4.70116,"postcode":"PL32 9RF","la":"Cornwall","era":"other","nn":1,"risk":36,"cat":"amber"},{"name":"Lanivet Inn","lat":50.4455,"lon":-4.7656,"postcode":"PL30 5ET","la":"Cornwall","era":"trad","nn":3628,"risk":64,"cat":"red"},{"name":"Launceston Football & Social Club","lat":50.62736,"lon":-4.37426,"postcode":"PL15 7ED","la":"Cornwall","era":"mod","nn":1281,"risk":48,"cat":"amber"},{"name":"Launceston Rugby Football Club","lat":50.63695,"lon":-4.3323,"postcode":"PL15 9QT","la":"Cornwall","era":"other","nn":1891,"risk":52,"cat":"amber"},{"name":"Liskeard Constitutional Club","lat":50.45492,"lon":-4.46317,"postcode":"PL14 3JH","la":"Cornwall","era":"other","nn":142,"risk":35,"cat":"amber"},{"name":"Liskeard Royal British Legion Club","lat":50.45246,"lon":-4.4654,"postcode":"PL14 4BJ","la":"Cornwall","era":"trad","nn":212,"risk":35,"cat":"amber"},{"name":"Liskeard Tavern And Premier Inn","lat":50.44863,"lon":-4.45021,"postcode":"PL14 3FG","la":"Cornwall","era":"trad","nn":1154,"risk":47,"cat":"amber"},{"name":"London Inn","lat":50.48219,"lon":-4.56065,"postcode":"PL14 6NG","la":"Cornwall","era":"trad","nn":3509,"risk":63,"cat":"red"},{"name":"Looe Sailing Club","lat":50.35318,"lon":-4.45409,"postcode":"PL13 1AS","la":"Cornwall","era":"other","nn":43,"risk":17,"cat":"green"},{"name":"Manor House Inn","lat":50.53417,"lon":-4.40449,"postcode":"PL17 7NT","la":"Cornwall","era":"other","nn":1899,"risk":52,"cat":"amber"},{"name":"Market Inn","lat":50.48638,"lon":-4.47073,"postcode":"PL14 5DG","la":"Cornwall","era":"trad","nn":2045,"risk":53,"cat":"amber"},{"name":"Masons Arms","lat":50.47154,"lon":-4.72821,"postcode":"PL31 1JS","la":"Cornwall","era":"trad","nn":77,"risk":17,"cat":"green"},{"name":"Millbrook Football Club","lat":50.34954,"lon":-4.20534,"postcode":"PL10 1EN","la":"Cornwall","era":"trad","nn":898,"risk":43,"cat":"amber"},{"name":"Molesworth Arms","lat":50.51653,"lon":-4.838,"postcode":"PL27 7DP","la":"Cornwall","era":"trad","nn":50,"risk":22,"cat":"green"},{"name":"Nanpean AFC","lat":50.36898,"lon":-4.86954,"postcode":"PL26 7YE","la":"Cornwall","era":"other","nn":872,"risk":42,"cat":"amber"},{"name":"Napoleon Inn","lat":50.68364,"lon":-4.69109,"postcode":"PL35 0BD","la":"Cornwall","era":"trad","nn":710,"risk":41,"cat":"amber"},{"name":"New Inn","lat":50.35812,"lon":-4.69167,"postcode":"PL24 2QP","la":"Cornwall","era":"trad","nn":693,"risk":26,"cat":"green"},{"name":"Newmarket Inn","lat":50.63605,"lon":-4.35907,"postcode":"PL15 9BA","la":"Cornwall","era":"trad","nn":182,"risk":38,"cat":"amber"},{"name":"Notter Bridge Inn","lat":50.42558,"lon":-4.2766,"postcode":"PL12 4RW","la":"Cornwall","era":"trad","nn":865,"risk":42,"cat":"amber"},{"name":"Old Custom House Inn/Pescadou Restaurant","lat":50.53847,"lon":-4.93493,"postcode":"PL28 8BL","la":"Cornwall","era":"other","nn":382,"risk":19,"cat":"green"},{"name":"Pack Horse Inn","lat":50.36269,"lon":-4.71717,"postcode":"PL24 2NH","la":"Cornwall","era":"trad","nn":1150,"risk":47,"cat":"amber"},{"name":"Padstow Social Club","lat":50.53904,"lon":-4.94026,"postcode":"PL28 8DT","la":"Cornwall","era":"mod","nn":226,"risk":18,"cat":"green"},{"name":"Par Inn","lat":50.34963,"lon":-4.7073,"postcode":"PL24 2BD","la":"Cornwall","era":"trad","nn":286,"risk":23,"cat":"green"},{"name":"Pearl And Trawl","lat":50.51848,"lon":-4.853,"postcode":"PL27 7HR","la":"Cornwall","era":"other","nn":1083,"risk":46,"cat":"amber"},{"name":"Pickwick Inn","lat":50.51731,"lon":-4.92534,"postcode":"PL27 7QQ","la":"Cornwall","era":"trad","nn":816,"risk":42,"cat":"amber"},{"name":"Plonk'd","lat":50.51639,"lon":-4.83733,"postcode":"PL27 7NW","la":"Cornwall","era":"other","nn":50,"risk":22,"cat":"green"},{"name":"Poldark Inn","lat":50.62286,"lon":-4.74332,"postcode":"PL33 9DQ","la":"Cornwall","era":"trad","nn":830,"risk":42,"cat":"amber"},{"name":"Polgooth Inn","lat":50.31791,"lon":-4.812,"postcode":"PL26 7DA","la":"Cornwall","era":"trad","nn":437,"risk":39,"cat":"amber"},{"name":"Porthpean Golf Club","lat":50.32158,"lon":-4.77048,"postcode":"PL26 6AY","la":"Cornwall","era":"other","nn":1531,"risk":50,"cat":"amber"},{"name":"Public House","lat":50.52634,"lon":-4.8334,"postcode":"PL27 6EG","la":"Cornwall","era":"other","nn":720,"risk":39,"cat":"amber"},{"name":"Rashleigh Arms Hotel","lat":50.3325,"lon":-4.75664,"postcode":"PL25 3NX","la":"Cornwall","era":"trad","nn":842,"risk":42,"cat":"amber"},{"name":"Rhubarb & Bloom","lat":50.51555,"lon":-4.8367,"postcode":"PL27 7NS","la":"Cornwall","era":"mod","nn":104,"risk":22,"cat":"green"},{"name":"Ring O Bells","lat":50.51009,"lon":-4.92324,"postcode":"PL27 7QA","la":"Cornwall","era":"other","nn":816,"risk":42,"cat":"amber"},{"name":"Rising Sun Inn","lat":50.51755,"lon":-4.21219,"postcode":"PL18 9BX","la":"Cornwall","era":"trad","nn":684,"risk":41,"cat":"amber"},{"name":"Rock And District Sports Club","lat":50.54787,"lon":-4.90447,"postcode":"PL27 6LY","la":"Cornwall","era":"other","nn":996,"risk":43,"cat":"amber"},{"name":"Rock Sailing And Water Ski Club","lat":50.54411,"lon":-4.91727,"postcode":"PL27 6LB","la":"Cornwall","era":"other","nn":996,"risk":43,"cat":"amber"},{"name":"Royal Oak Inn","lat":50.40814,"lon":-4.67077,"postcode":"PL22 0AG","la":"Cornwall","era":"trad","nn":172,"risk":35,"cat":"amber"},{"name":"Russell Inn","lat":50.32879,"lon":-4.63473,"postcode":"PL23 1PJ","la":"Cornwall","era":"trad","nn":40,"risk":17,"cat":"green"},{"name":"Safe Harbour Hotel","lat":50.33615,"lon":-4.63778,"postcode":"PL23 1BQ","la":"Cornwall","era":"other","nn":230,"risk":18,"cat":"green"},{"name":"Saint Andrew Lodge (1151), Masonic Hall","lat":50.35771,"lon":-4.70142,"postcode":"PL24 2PT","la":"Cornwall","era":"trad","nn":189,"risk":20,"cat":"green"},{"name":"Saltash Sailing Club","lat":50.40639,"lon":-4.20712,"postcode":"PL12 4EL","la":"Cornwall","era":"other","nn":449,"risk":22,"cat":"green"},{"name":"Saltash Social Club","lat":50.40916,"lon":-4.21173,"postcode":"PL12 6JL","la":"Cornwall","era":"mod","nn":78,"risk":19,"cat":"green"},{"name":"Salutation Inn","lat":50.35356,"lon":-4.45404,"postcode":"PL13 1AE","la":"Cornwall","era":"trad","nn":43,"risk":17,"cat":"green"},{"name":"Seven Bays Holiday Park","lat":50.51203,"lon":-4.98265,"postcode":"PL28 8TE","la":"Cornwall","era":"other","nn":108,"risk":37,"cat":"amber"},{"name":"Sharps Brewery","lat":50.55211,"lon":-4.8914,"postcode":"PL27 6NU","la":"Cornwall","era":"other","nn":1037,"risk":46,"cat":"amber"},{"name":"Ship Hotel","lat":50.35431,"lon":-4.45392,"postcode":"PL13 1AD","la":"Cornwall","era":"trad","nn":84,"risk":17,"cat":"green"},{"name":"Ship Inn","lat":50.26992,"lon":-4.78759,"postcode":"PL26 6UQ","la":"Cornwall","era":"trad","nn":0,"risk":16,"cat":"green"},{"name":"Ship Inn","lat":50.38282,"lon":-4.61779,"postcode":"PL22 0PT","la":"Cornwall","era":"trad","nn":2804,"risk":59,"cat":"amber"},{"name":"Ship Inn","lat":50.52203,"lon":-4.82526,"postcode":"PL27 6DF","la":"Cornwall","era":"trad","nn":155,"risk":22,"cat":"green"},{"name":"Ship Inn Pentewan","lat":50.29216,"lon":-4.78371,"postcode":"PL26 6BX","la":"Cornwall","era":"trad","nn":2417,"risk":56,"cat":"amber"},{"name":"Sladeshouse Country Inn","lat":50.50912,"lon":-4.80519,"postcode":"PL27 6JB","la":"Cornwall","era":"other","nn":1197,"risk":47,"cat":"amber"},{"name":"Sportsmans Arms Hotel","lat":50.42475,"lon":-4.40941,"postcode":"PL14 3PJ","la":"Cornwall","era":"trad","nn":1828,"risk":52,"cat":"amber"},{"name":"St Austell Football & Social Club","lat":50.34087,"lon":-4.78503,"postcode":"PL25 4LR","la":"Cornwall","era":"mod","nn":244,"risk":18,"cat":"green"},{"name":"St Austell Golf Club","lat":50.32778,"lon":-4.81357,"postcode":"PL26 7DS","la":"Cornwall","era":"other","nn":1104,"risk":47,"cat":"amber"},{"name":"St Austell Royal British Legion Club","lat":50.33787,"lon":-4.79221,"postcode":"PL25 5PQ","la":"Cornwall","era":"trad","nn":41,"risk":17,"cat":"green"},{"name":"St Austell Rugby Club","lat":50.32685,"lon":-4.7904,"postcode":"PL26 7AG","la":"Cornwall","era":"other","nn":1218,"risk":47,"cat":"amber"},{"name":"St Breward Afc And Social Club","lat":50.55219,"lon":-4.68896,"postcode":"PL30 4NY","la":"Cornwall","era":"mod","nn":1334,"risk":48,"cat":"amber"},{"name":"St Kew Inn","lat":50.55869,"lon":-4.79363,"postcode":"PL30 3HB","la":"Cornwall","era":"trad","nn":2902,"risk":59,"cat":"amber"},{"name":"St Mabyn Inn","lat":50.52622,"lon":-4.76349,"postcode":"PL30 3BA","la":"Cornwall","era":"trad","nn":3509,"risk":63,"cat":"red"},{"name":"St Stephen Social Club","lat":50.34573,"lon":-4.89088,"postcode":"PL26 7NS","la":"Cornwall","era":"mod","nn":271,"risk":38,"cat":"amber"},{"name":"St Tudy Inn","lat":50.55479,"lon":-4.73065,"postcode":"PL30 3NN","la":"Cornwall","era":"trad","nn":1804,"risk":52,"cat":"amber"},{"name":"St. Austell Brewery Visitor Centre","lat":50.34192,"lon":-4.78805,"postcode":"PL25 4BY","la":"Cornwall","era":"other","nn":244,"risk":18,"cat":"green"},{"name":"Steam Pipe Company Ltd","lat":50.61136,"lon":-4.38835,"postcode":"PL15 7LP","la":"Cornwall","era":"other","nn":2038,"risk":53,"cat":"amber"},{"name":"Stoke Climsland Sports And Social Club","lat":50.54675,"lon":-4.31617,"postcode":"PL17 8NY","la":"Cornwall","era":"mod","nn":2883,"risk":59,"cat":"amber"},{"name":"Surfside","lat":50.57342,"lon":-4.91741,"postcode":"PL27 6TB","la":"Cornwall","era":"other","nn":279,"risk":38,"cat":"amber"},{"name":"The Barbican Inn","lat":50.36055,"lon":-4.44889,"postcode":"PL13 1EY","la":"Cornwall","era":"trad","nn":710,"risk":21,"cat":"green"},{"name":"The Barley Sheaf","lat":50.24662,"lon":-4.80791,"postcode":"PL26 6HN","la":"Cornwall","era":"trad","nn":2928,"risk":59,"cat":"amber"},{"name":"The Blisland Inn","lat":50.52821,"lon":-4.68063,"postcode":"PL30 4JF","la":"Cornwall","era":"trad","nn":2731,"risk":58,"cat":"amber"},{"name":"The Boot Inn","lat":50.49624,"lon":-4.20602,"postcode":"PL18 9RN","la":"Cornwall","era":"trad","nn":40,"risk":37,"cat":"amber"},{"name":"The Borough Arms","lat":50.47697,"lon":-4.75211,"postcode":"PL31 2RD","la":"Cornwall","era":"trad","nn":1727,"risk":51,"cat":"amber"},{"name":"The Brunel Inn","lat":50.40895,"lon":-4.21279,"postcode":"PL12 6JW","la":"Cornwall","era":"trad","nn":78,"risk":19,"cat":"green"},{"name":"The Bugle Inn","lat":50.39667,"lon":-4.79365,"postcode":"PL26 8PB","la":"Cornwall","era":"trad","nn":2861,"risk":59,"cat":"amber"},{"name":"The Bullers Arms Landrake","lat":50.42258,"lon":-4.29011,"postcode":"PL12 5DY","la":"Cornwall","era":"trad","nn":1014,"risk":46,"cat":"amber"},{"name":"The Bulls Head","lat":50.50304,"lon":-4.31472,"postcode":"PL17 7AQ","la":"Cornwall","era":"trad","nn":48,"risk":34,"cat":"amber"},{"name":"The Callywith","lat":50.47458,"lon":-4.70506,"postcode":"PL31 2RW","la":"Cornwall","era":"other","nn":833,"risk":42,"cat":"amber"},{"name":"The Caradon Inn","lat":50.52612,"lon":-4.42819,"postcode":"PL14 5AZ","la":"Cornwall","era":"trad","nn":1899,"risk":52,"cat":"amber"},{"name":"The Carew Arms","lat":50.37016,"lon":-4.25122,"postcode":"PL11 3AB","la":"Cornwall","era":"trad","nn":3129,"risk":61,"cat":"red"},{"name":"The Cecil Arms","lat":50.4035,"lon":-4.2306,"postcode":"PL12 4AR","la":"Cornwall","era":"trad","nn":1220,"risk":47,"cat":"amber"},{"name":"The Copley Arms","lat":50.39188,"lon":-4.38191,"postcode":"PL11 3HJ","la":"Cornwall","era":"trad","nn":3031,"risk":60,"cat":"amber"},{"name":"The Cornish Inn","lat":50.52358,"lon":-4.21403,"postcode":"PL18 9BW","la":"Cornwall","era":"trad","nn":684,"risk":41,"cat":"amber"},{"name":"The Crooked Inn","lat":50.42168,"lon":-4.26603,"postcode":"PL12 4RZ","la":"Cornwall","era":"trad","nn":865,"risk":42,"cat":"amber"},{"name":"The Crown Inn","lat":50.28013,"lon":-4.83859,"postcode":"PL26 6EY","la":"Cornwall","era":"trad","nn":3798,"risk":65,"cat":"red"},{"name":"The Crows Nest","lat":50.49842,"lon":-4.44886,"postcode":"PL14 5JQ","la":"Cornwall","era":"other","nn":2045,"risk":53,"cat":"amber"},{"name":"The Crumplehorn Inn","lat":50.33622,"lon":-4.52395,"postcode":"PL13 2RJ","la":"Cornwall","era":"trad","nn":584,"risk":25,"cat":"green"},{"name":"The Devonport Inn","lat":50.33399,"lon":-4.20054,"postcode":"PL10 1NF","la":"Cornwall","era":"trad","nn":61,"risk":34,"cat":"amber"},{"name":"The Dragon","lat":50.47591,"lon":-4.98336,"postcode":"PL27 7TU","la":"Cornwall","era":"trad","nn":2609,"risk":57,"cat":"amber"},{"name":"The Earl Of St Vincent","lat":50.51349,"lon":-4.82065,"postcode":"PL27 6HT","la":"Cornwall","era":"other","nn":890,"risk":43,"cat":"amber"},{"name":"The Edgcumbe Arms","lat":50.36059,"lon":-4.17606,"postcode":"PL10 1HX","la":"Cornwall","era":"trad","nn":931,"risk":25,"cat":"green"},{"name":"The Eliot Arms","lat":50.62904,"lon":-4.40739,"postcode":"PL15 7EU","la":"Cornwall","era":"trad","nn":2344,"risk":55,"cat":"amber"},{"name":"The Eliot Arms","lat":50.39754,"lon":-4.31434,"postcode":"PL12 5NR","la":"Cornwall","era":"trad","nn":1108,"risk":47,"cat":"amber"},{"name":"The Farmers Arms","lat":50.52378,"lon":-4.99571,"postcode":"PL28 8NP","la":"Cornwall","era":"trad","nn":1013,"risk":46,"cat":"amber"},{"name":"The Finnygook Inn","lat":50.36528,"lon":-4.2987,"postcode":"PL11 3BQ","la":"Cornwall","era":"trad","nn":2860,"risk":59,"cat":"amber"},{"name":"The Four Lords","lat":50.35085,"lon":-4.7279,"postcode":"PL24 2EE","la":"Cornwall","era":"other","nn":736,"risk":42,"cat":"amber"},{"name":"The Galleon Inn","lat":50.3359,"lon":-4.63422,"postcode":"PL23 1AQ","la":"Cornwall","era":"trad","nn":24,"risk":17,"cat":"green"},{"name":"The Garland Ox","lat":50.47147,"lon":-4.7293,"postcode":"PL31 1JS","la":"Cornwall","era":"other","nn":77,"risk":17,"cat":"green"},{"name":"The Golden Lion","lat":50.59236,"lon":-4.83174,"postcode":"PL29 3RB","la":"Cornwall","era":"trad","nn":4611,"risk":71,"cat":"red"},{"name":"The Golden Lion","lat":50.54101,"lon":-4.93945,"postcode":"PL28 8AN","la":"Cornwall","era":"trad","nn":11,"risk":16,"cat":"green"},{"name":"The Halfway House","lat":50.45883,"lon":-4.59399,"postcode":"PL14 6HR","la":"Cornwall","era":"other","nn":3509,"risk":63,"cat":"red"},{"name":"The Harbour Moon","lat":50.35496,"lon":-4.4566,"postcode":"PL13 2BU","la":"Cornwall","era":"other","nn":159,"risk":17,"cat":"green"},{"name":"The Highwayman","lat":50.45733,"lon":-4.51918,"postcode":"PL14 6JD","la":"Cornwall","era":"other","nn":3846,"risk":66,"cat":"red"},{"name":"The Hive","lat":50.4715,"lon":-4.71875,"postcode":"PL31 2DR","la":"Cornwall","era":"other","nn":14,"risk":16,"cat":"green"},{"name":"The Holmbush Inn","lat":50.34003,"lon":-4.75788,"postcode":"PL25 3LL","la":"Cornwall","era":"trad","nn":842,"risk":42,"cat":"amber"},{"name":"The Honicombe Arms","lat":50.5114,"lon":-4.24136,"postcode":"PL17 8JW","la":"Cornwall","era":"trad","nn":601,"risk":41,"cat":"amber"},{"name":"The Horseshoe Inn","lat":50.69625,"lon":-4.62843,"postcode":"PL32 9ST","la":"Cornwall","era":"trad","nn":4555,"risk":71,"cat":"red"},{"name":"The Jolly Sailor","lat":50.3529,"lon":-4.45682,"postcode":"PL13 2EP","la":"Cornwall","era":"other","nn":43,"risk":17,"cat":"green"},{"name":"The King Doniert","lat":50.45435,"lon":-4.46497,"postcode":"PL14 6AB","la":"Cornwall","era":"trad","nn":142,"risk":35,"cat":"amber"},{"name":"The King Of Prussia","lat":50.33529,"lon":-4.63467,"postcode":"PL23 1AT","la":"Cornwall","era":"trad","nn":16,"risk":16,"cat":"green"},{"name":"The Kings Arms","lat":50.38959,"lon":-4.74758,"postcode":"PL30 5EF","la":"Cornwall","era":"trad","nn":3360,"risk":62,"cat":"red"},{"name":"The Kings Arms","lat":50.26992,"lon":-4.78758,"postcode":"PL26 6UQ","la":"Cornwall","era":"trad","nn":0,"risk":16,"cat":"green"},{"name":"The London Inn","lat":50.5411,"lon":-4.93949,"postcode":"PL28 8AN","la":"Cornwall","era":"trad","nn":11,"risk":16,"cat":"green"},{"name":"The Lugger Inn","lat":50.33594,"lon":-4.63455,"postcode":"PL23 1AH","la":"Cornwall","era":"trad","nn":24,"risk":17,"cat":"green"},{"name":"The Lugger Inn","lat":50.32915,"lon":-4.63468,"postcode":"PL23 1PA","la":"Cornwall","era":"trad","nn":40,"risk":17,"cat":"green"},{"name":"The Maltsters Arms","lat":50.54481,"lon":-4.82841,"postcode":"PL27 6EU","la":"Cornwall","era":"trad","nn":2084,"risk":53,"cat":"amber"},{"name":"The Old Malthouse Inn","lat":50.66351,"lon":-4.75133,"postcode":"PL34 0DA","la":"Cornwall","era":"other","nn":0,"risk":21,"cat":"green"},{"name":"The Old Ship Hotel","lat":50.5418,"lon":-4.93879,"postcode":"PL28 8AE","la":"Cornwall","era":"trad","nn":92,"risk":17,"cat":"green"},{"name":"The Oystercatcher","lat":50.57097,"lon":-4.91657,"postcode":"PL27 6TG","la":"Cornwall","era":"other","nn":279,"risk":38,"cat":"amber"},{"name":"The Pitch Sports Bar","lat":50.38392,"lon":-4.88952,"postcode":"PL26 8DT","la":"Cornwall","era":"other","nn":508,"risk":40,"cat":"amber"},{"name":"The Ploughboy Inn","lat":50.41363,"lon":-4.23719,"postcode":"PL12 4HG","la":"Cornwall","era":"trad","nn":1220,"risk":47,"cat":"amber"},{"name":"The Port William","lat":50.64487,"lon":-4.75757,"postcode":"PL34 0HB","la":"Cornwall","era":"other","nn":2080,"risk":53,"cat":"amber"},{"name":"The Quarryman Inn","lat":50.51872,"lon":-4.8723,"postcode":"PL27 7JA","la":"Cornwall","era":"trad","nn":1365,"risk":48,"cat":"amber"},{"name":"The Quay Sailing CLub","lat":50.39088,"lon":-4.30272,"postcode":"PL12 5NA","la":"Cornwall","era":"other","nn":1108,"risk":47,"cat":"amber"},{"name":"The Queens Head","lat":50.34348,"lon":-4.8894,"postcode":"PL26 7SQ","la":"Cornwall","era":"trad","nn":271,"risk":38,"cat":"amber"},{"name":"The Queens Head","lat":50.51214,"lon":-4.22479,"postcode":"PL18 9AJ","la":"Cornwall","era":"trad","nn":1075,"risk":46,"cat":"amber"},{"name":"The Rann Wartha","lat":50.33864,"lon":-4.79368,"postcode":"PL25 5EW","la":"Cornwall","era":"other","nn":135,"risk":17,"cat":"green"},{"name":"The Rashleigh Inn","lat":50.33886,"lon":-4.68,"postcode":"PL24 2TL","la":"Cornwall","era":"trad","nn":1344,"risk":48,"cat":"amber"},{"name":"The Rifle Volunteer","lat":50.51671,"lon":-4.23977,"postcode":"PL18 9HL","la":"Cornwall","era":"other","nn":601,"risk":41,"cat":"amber"},{"name":"The Rising Sun","lat":50.33427,"lon":-4.20127,"postcode":"PL10 1NH","la":"Cornwall","era":"other","nn":47,"risk":34,"cat":"amber"},{"name":"The Rising Sun Inn","lat":50.61925,"lon":-4.53592,"postcode":"PL15 7SN","la":"Cornwall","era":"trad","nn":2902,"risk":59,"cat":"amber"},{"name":"The Rock Inn","lat":50.40562,"lon":-4.83303,"postcode":"PL26 8EP","la":"Cornwall","era":"trad","nn":2962,"risk":60,"cat":"amber"},{"name":"The Rod And Line","lat":50.41497,"lon":-4.32699,"postcode":"PL12 5HW","la":"Cornwall","era":"other","nn":0,"risk":36,"cat":"amber"},{"name":"The Royal Inn","lat":50.35688,"lon":-4.70375,"postcode":"PL24 2AJ","la":"Cornwall","era":"trad","nn":189,"risk":20,"cat":"green"},{"name":"The Sawles Arms","lat":50.37252,"lon":-4.80757,"postcode":"PL26 8XH","la":"Cornwall","era":"trad","nn":2861,"risk":59,"cat":"amber"},{"name":"The Sharksfin","lat":50.26966,"lon":-4.78722,"postcode":"PL26 6QU","la":"Cornwall","era":"other","nn":28,"risk":17,"cat":"green"},{"name":"The Ship Inn","lat":50.33154,"lon":-4.5202,"postcode":"PL13 2QR","la":"Cornwall","era":"trad","nn":195,"risk":23,"cat":"green"},{"name":"The Ship Inn","lat":50.3496,"lon":-4.68868,"postcode":"PL24 2AR","la":"Cornwall","era":"trad","nn":970,"risk":43,"cat":"amber"},{"name":"The Ship Inn","lat":50.33491,"lon":-4.635,"postcode":"PL23 1AZ","la":"Cornwall","era":"trad","nn":37,"risk":17,"cat":"green"},{"name":"The Shipwrights","lat":50.54312,"lon":-4.93673,"postcode":"PL28 8AF","la":"Cornwall","era":"trad","nn":206,"risk":18,"cat":"green"},{"name":"The Smugglers Inn","lat":50.36467,"lon":-4.3843,"postcode":"PL11 3JD","la":"Cornwall","era":"trad","nn":1048,"risk":46,"cat":"amber"},{"name":"The Springer Spaniel","lat":50.57651,"lon":-4.33422,"postcode":"PL15 9NS","la":"Cornwall","era":"other","nn":3547,"risk":64,"cat":"red"},{"name":"The Swingletree","lat":50.52083,"lon":-4.31684,"postcode":"PL17 8DU","la":"Cornwall","era":"other","nn":1941,"risk":52,"cat":"amber"},{"name":"The Tamar Inn","lat":50.49613,"lon":-4.20657,"postcode":"PL18 9QA","la":"Cornwall","era":"trad","nn":40,"risk":37,"cat":"amber"},{"name":"The Three Pilchards","lat":50.33107,"lon":-4.51756,"postcode":"PL13 2QZ","la":"Cornwall","era":"other","nn":10,"risk":21,"cat":"green"},{"name":"The Tipsy Cow","lat":50.38645,"lon":-4.56339,"postcode":"PL13 2NX","la":"Cornwall","era":"other","nn":3446,"risk":63,"cat":"red"},{"name":"The Venue","lat":50.51144,"lon":-4.98143,"postcode":"PL28 8QA","la":"Cornwall","era":"other","nn":108,"risk":37,"cat":"amber"},{"name":"The Weary Friar","lat":50.45514,"lon":-4.30426,"postcode":"PL12 6QS","la":"Cornwall","era":"other","nn":3757,"risk":65,"cat":"red"},{"name":"The Weavers","lat":50.47129,"lon":-4.71831,"postcode":"PL31 2DL","la":"Cornwall","era":"other","nn":39,"risk":17,"cat":"green"},{"name":"The Welcome Inn","lat":50.35108,"lon":-4.70398,"postcode":"PL24 2AF","la":"Cornwall","era":"trad","nn":286,"risk":23,"cat":"green"},{"name":"The Western Inn","lat":50.3367,"lon":-4.79789,"postcode":"PL25 5EY","la":"Cornwall","era":"trad","nn":369,"risk":21,"cat":"green"},{"name":"The White Hart Hotel","lat":50.44111,"lon":-4.41193,"postcode":"PL14 3QZ","la":"Cornwall","era":"trad","nn":1828,"risk":52,"cat":"amber"},{"name":"The Wilcove Inn Antony Hospitality","lat":50.38601,"lon":-4.20964,"postcode":"PL11 2PG","la":"Cornwall","era":"trad","nn":1130,"risk":47,"cat":"amber"},{"name":"The Wootons Inn","lat":50.66481,"lon":-4.75364,"postcode":"PL34 0DD","la":"Cornwall","era":"trad","nn":217,"risk":23,"cat":"green"},{"name":"Thyme","lat":50.52331,"lon":-4.8244,"postcode":"PL27 6BN","la":"Cornwall","era":"other","nn":155,"risk":22,"cat":"green"},{"name":"Tideford & St Germans Royal British Legion Club","lat":50.41497,"lon":-4.32699,"postcode":"PL12 5HW","la":"Cornwall","era":"trad","nn":0,"risk":36,"cat":"amber"},{"name":"Wadebridge Camels Rugby Club","lat":50.51666,"lon":-4.8322,"postcode":"PL27 6AD","la":"Cornwall","era":"other","nn":342,"risk":19,"cat":"green"},{"name":"Werrington Cricket Club","lat":50.66882,"lon":-4.37773,"postcode":"PL15 8TN","la":"Cornwall","era":"other","nn":3867,"risk":66,"cat":"red"},{"name":"Westgate Inn","lat":50.6356,"lon":-4.36155,"postcode":"PL15 7AD","la":"Cornwall","era":"trad","nn":182,"risk":38,"cat":"amber"},{"name":"Wheelers Food Bar","lat":50.37553,"lon":-4.19508,"postcode":"PL11 2AD","la":"Cornwall","era":"other","nn":919,"risk":43,"cat":"amber"},{"name":"Wheelhouse","lat":50.26941,"lon":-4.78726,"postcode":"PL26 6UJ","la":"Cornwall","era":"other","nn":28,"risk":17,"cat":"green"},{"name":"White Hart","lat":50.47253,"lon":-4.71894,"postcode":"PL31 2HA","la":"Cornwall","era":"trad","nn":112,"risk":17,"cat":"green"},{"name":"White Hart Hotel","lat":50.33812,"lon":-4.79179,"postcode":"PL25 4AT","la":"Cornwall","era":"trad","nn":41,"risk":17,"cat":"green"},{"name":"White Hart Inn","lat":50.59358,"lon":-4.73682,"postcode":"PL30 3JT","la":"Cornwall","era":"trad","nn":3133,"risk":61,"cat":"red"},{"name":"Who'd Have Thought It","lat":50.48478,"lon":-4.24694,"postcode":"PL12 6TG","la":"Cornwall","era":"other","nn":2986,"risk":60,"cat":"amber"},{"name":"Wine Dide & Co","lat":50.6631,"lon":-4.75093,"postcode":"PL34 0DB","la":"Cornwall","era":"other","nn":54,"risk":22,"cat":"green"},{"name":"Ye Olde Grog And Ale House","lat":50.35314,"lon":-4.45634,"postcode":"PL13 1AP","la":"Cornwall","era":"other","nn":43,"risk":17,"cat":"green"},{"name":"Air","lat":50.37515,"lon":-4.13673,"postcode":"PL4 8LH","la":"Plymouth","era":"other","nn":15,"risk":24,"cat":"green"},{"name":"Avondale Arms","lat":50.38335,"lon":-4.18028,"postcode":"PL2 1RD","la":"Plymouth","era":"trad","nn":158,"risk":25,"cat":"green"},{"name":"Barbican Botanics Gin Room","lat":50.36691,"lon":-4.1357,"postcode":"PL1 2NA","la":"Plymouth","era":"other","nn":52,"risk":24,"cat":"green"},{"name":"Beggars Banquet","lat":50.37416,"lon":-4.13703,"postcode":"PL4 8AX","la":"Plymouth","era":"other","nn":55,"risk":24,"cat":"green"},{"name":"Bluebird","lat":50.39221,"lon":-4.11947,"postcode":"PL3 5JU","la":"Plymouth","era":"other","nn":112,"risk":42,"cat":"amber"},{"name":"Boom Battle Bar","lat":50.37071,"lon":-4.13694,"postcode":"PL4 0FE","la":"Plymouth","era":"other","nn":134,"risk":25,"cat":"green"},{"name":"Boringdon Arms","lat":50.35849,"lon":-4.11717,"postcode":"PL9 9TQ","la":"Plymouth","era":"trad","nn":162,"risk":25,"cat":"green"},{"name":"Britannia Inn","lat":50.38591,"lon":-4.15754,"postcode":"PL2 3BH","la":"Plymouth","era":"trad","nn":46,"risk":24,"cat":"green"},{"name":"BulletProof Brewing Ltd","lat":50.38358,"lon":-4.13392,"postcode":"PL4 6JJ","la":"Plymouth","era":"trad","nn":83,"risk":24,"cat":"green"},{"name":"Cherry Tree","lat":50.3966,"lon":-4.14609,"postcode":"PL2 3NH","la":"Plymouth","era":"other","nn":812,"risk":50,"cat":"amber"},{"name":"Cider Press","lat":50.36762,"lon":-4.13554,"postcode":"PL1 2JZ","la":"Plymouth","era":"other","nn":19,"risk":24,"cat":"green"},{"name":"Clovelly Bay Inn","lat":50.35773,"lon":-4.11911,"postcode":"PL9 9TB","la":"Plymouth","era":"trad","nn":162,"risk":25,"cat":"green"},{"name":"Club Inferno (SW) Ltd","lat":50.3687,"lon":-4.14369,"postcode":"PL1 2QW","la":"Plymouth","era":"other","nn":103,"risk":25,"cat":"green"},{"name":"Colebrook Inn","lat":50.39285,"lon":-4.05413,"postcode":"PL7 4AA","la":"Plymouth","era":"trad","nn":378,"risk":27,"cat":"green"},{"name":"Cornwall Gates Sports Bar","lat":50.40702,"lon":-4.18975,"postcode":"PL5 1SR","la":"Plymouth","era":"other","nn":272,"risk":26,"cat":"green"},{"name":"Crown and Anchor","lat":50.36702,"lon":-4.1348,"postcode":"PL1 2LS","la":"Plymouth","era":"trad","nn":13,"risk":24,"cat":"green"},{"name":"Crownhill Family Centre","lat":50.41297,"lon":-4.13024,"postcode":"PL6 5BX","la":"Plymouth","era":"trad","nn":255,"risk":28,"cat":"green"},{"name":"Desire","lat":50.36846,"lon":-4.13858,"postcode":"PL1 2AG","la":"Plymouth","era":"other","nn":55,"risk":24,"cat":"green"},{"name":"Devonport Services RFC","lat":50.37235,"lon":-4.16523,"postcode":"PL1 5QD","la":"Plymouth","era":"other","nn":260,"risk":26,"cat":"green"},{"name":"Drakes Drum","lat":50.35901,"lon":-4.0951,"postcode":"PL9 9DN","la":"Plymouth","era":"other","nn":656,"risk":48,"cat":"amber"},{"name":"Elburton Inn","lat":50.36089,"lon":-4.06449,"postcode":"PL9 8HX","la":"Plymouth","era":"trad","nn":228,"risk":43,"cat":"amber"},{"name":"Embassy Club","lat":50.38591,"lon":-4.15818,"postcode":"PL2 3AA","la":"Plymouth","era":"other","nn":46,"risk":24,"cat":"green"},{"name":"Falstaff","lat":50.42829,"lon":-4.13482,"postcode":"PL6 6DT","la":"Plymouth","era":"other","nn":1432,"risk":56,"cat":"amber"},{"name":"Fawn Private Members Club","lat":50.37541,"lon":-4.13353,"postcode":"PL4 8NY","la":"Plymouth","era":"other","nn":148,"risk":25,"cat":"green"},{"name":"Ferry House Inn","lat":50.40532,"lon":-4.20065,"postcode":"PL5 1LA","la":"Plymouth","era":"other","nn":150,"risk":25,"cat":"green"},{"name":"Fever","lat":50.36938,"lon":-4.14603,"postcode":"PL1 2SW","la":"Plymouth","era":"other","nn":14,"risk":24,"cat":"green"},{"name":"Fleet Street","lat":50.37313,"lon":-4.1454,"postcode":"PL1 1SD","la":"Plymouth","era":"other","nn":44,"risk":24,"cat":"green"},{"name":"Fortescue","lat":50.38177,"lon":-4.13349,"postcode":"PL4 6JQ","la":"Plymouth","era":"other","nn":77,"risk":24,"cat":"green"},{"name":"Freemason's Hall, Plympton","lat":50.38751,"lon":-4.04903,"postcode":"PL7 2HJ","la":"Plymouth","era":"trad","nn":0,"risk":24,"cat":"green"},{"name":"Fresher & Professor","lat":50.37404,"lon":-4.13628,"postcode":"PL4 8BZ","la":"Plymouth","era":"other","nn":55,"risk":24,"cat":"green"},{"name":"Friary Vaults","lat":50.37197,"lon":-4.11777,"postcode":"PL4 9QD","la":"Plymouth","era":"other","nn":240,"risk":31,"cat":"amber"},{"name":"George Inn","lat":50.38751,"lon":-4.04903,"postcode":"PL7 2HJ","la":"Plymouth","era":"trad","nn":0,"risk":24,"cat":"green"},{"name":"Gog & Magog","lat":50.36782,"lon":-4.13738,"postcode":"PL1 2LA","la":"Plymouth","era":"other","nn":0,"risk":24,"cat":"green"},{"name":"Grenville Hotel","lat":50.3719,"lon":-4.12115,"postcode":"PL4 9PZ","la":"Plymouth","era":"other","nn":240,"risk":26,"cat":"green"},{"name":"GWRSA","lat":50.38438,"lon":-4.10412,"postcode":"PL3 6AW","la":"Plymouth","era":"other","nn":1303,"risk":55,"cat":"amber"},{"name":"Half Moon","lat":50.36884,"lon":-4.17222,"postcode":"PL1 4JR","la":"Plymouth","era":"other","nn":100,"risk":25,"cat":"green"},{"name":"Hyde Park Social Club","lat":50.38535,"lon":-4.14006,"postcode":"PL3 4JQ","la":"Plymouth","era":"mod","nn":341,"risk":26,"cat":"green"},{"name":"Indian Inn","lat":50.38042,"lon":-4.16684,"postcode":"PL3 4DF","la":"Plymouth","era":"trad","nn":6,"risk":24,"cat":"green"},{"name":"Jack Rabbit","lat":50.41823,"lon":-4.12048,"postcode":"PL6 8BB","la":"Plymouth","era":"other","nn":905,"risk":50,"cat":"amber"},{"name":"James Street Vaults","lat":50.37646,"lon":-4.14013,"postcode":"PL4 6EQ","la":"Plymouth","era":"other","nn":278,"risk":26,"cat":"green"},{"name":"Ker Street Social Club","lat":50.36922,"lon":-4.17579,"postcode":"PL1 4EH","la":"Plymouth","era":"mod","nn":129,"risk":25,"cat":"green"},{"name":"Keyham Barton Conservative Clu","lat":50.38612,"lon":-4.17506,"postcode":"PL2 1NQ","la":"Plymouth","era":"other","nn":263,"risk":26,"cat":"green"},{"name":"Keyham Vaults","lat":50.37855,"lon":-4.1782,"postcode":"PL2 1AW","la":"Plymouth","era":"other","nn":360,"risk":26,"cat":"green"},{"name":"Kings Arms","lat":50.36147,"lon":-4.10924,"postcode":"PL9 7NE","la":"Plymouth","era":"trad","nn":652,"risk":28,"cat":"green"},{"name":"Kings Tamerton Community Centre (Social side)","lat":50.40732,"lon":-4.17604,"postcode":"PL5 2BU","la":"Plymouth","era":"other","nn":789,"risk":32,"cat":"amber"},{"name":"Kitty O'Hanlons","lat":50.36941,"lon":-4.13911,"postcode":"PL1 2AH","la":"Plymouth","era":"other","nn":63,"risk":24,"cat":"green"},{"name":"Lockyers Quay Cookhouse and Pub","lat":50.36735,"lon":-4.12749,"postcode":"PL4 0DX","la":"Plymouth","era":"mod","nn":325,"risk":26,"cat":"green"},{"name":"Lord Louis","lat":50.39175,"lon":-4.04909,"postcode":"PL7 2DE","la":"Plymouth","era":"other","nn":378,"risk":27,"cat":"green"},{"name":"Manadon Masonic Hall","lat":50.41068,"lon":-4.1305,"postcode":"PL6 5EL","la":"Plymouth","era":"trad","nn":255,"risk":31,"cat":"amber"},{"name":"Maritime Inn","lat":50.36763,"lon":-4.13594,"postcode":"PL1 2LD","la":"Plymouth","era":"trad","nn":29,"risk":24,"cat":"green"},{"name":"Minerva Inn","lat":50.36954,"lon":-4.13654,"postcode":"PL4 0EA","la":"Plymouth","era":"trad","nn":134,"risk":25,"cat":"green"},{"name":"Mount Batten Bar & Carvery","lat":50.35872,"lon":-4.12683,"postcode":"PL9 9SJ","la":"Plymouth","era":"mod","nn":558,"risk":28,"cat":"green"},{"name":"No 10 Social Club","lat":50.3754,"lon":-4.15011,"postcode":"PL1 5DG","la":"Plymouth","era":"mod","nn":169,"risk":25,"cat":"green"},{"name":"Nowhere Inn","lat":50.37435,"lon":-4.13547,"postcode":"PL4 8BU","la":"Plymouth","era":"trad","nn":67,"risk":24,"cat":"green"},{"name":"Old Plymothians and Mannameadians Members Club","lat":50.38354,"lon":-4.13617,"postcode":"PL4 6RN","la":"Plymouth","era":"other","nn":133,"risk":25,"cat":"green"},{"name":"Old Toms","lat":50.37667,"lon":-4.13606,"postcode":"PL4 8ET","la":"Plymouth","era":"other","nn":53,"risk":24,"cat":"green"},{"name":"OMG Nightclub","lat":50.36828,"lon":-4.13599,"postcode":"PL1 2JL","la":"Plymouth","era":"other","nn":29,"risk":24,"cat":"green"},{"name":"OPM Rugby","lat":50.36291,"lon":-4.06507,"postcode":"PL9 8HR","la":"Plymouth","era":"other","nn":228,"risk":43,"cat":"amber"},{"name":"Play","lat":50.37528,"lon":-4.13668,"postcode":"PL4 8LH","la":"Plymouth","era":"other","nn":0,"risk":24,"cat":"green"},{"name":"Plaza Snooker Club","lat":50.37052,"lon":-4.1341,"postcode":"PL4 0AU","la":"Plymouth","era":"other","nn":54,"risk":24,"cat":"green"},{"name":"Plym Yacht Club","lat":50.73246,"lon":-3.79749,"postcode":"PL9 7NE","la":"Plymouth","era":"other","nn":0,"risk":41,"cat":"amber"},{"name":"Plymouth Cricket & Community Centre Limited","lat":50.36773,"lon":-4.16918,"postcode":"PL1 4PR","la":"Plymouth","era":"other","nn":248,"risk":26,"cat":"green"},{"name":"Plymouth Hoe Club","lat":50.36611,"lon":-4.14387,"postcode":"PL1 2PU","la":"Plymouth","era":"other","nn":206,"risk":25,"cat":"green"},{"name":"Plympton Conservative Club","lat":50.38787,"lon":-4.05148,"postcode":"PL7 2AA","la":"Plymouth","era":"other","nn":98,"risk":25,"cat":"green"},{"name":"Popworld","lat":50.37009,"lon":-4.14818,"postcode":"PL1 2SR","la":"Plymouth","era":"other","nn":76,"risk":24,"cat":"green"},{"name":"Post Office Inn","lat":50.38804,"lon":-4.05284,"postcode":"PL7 2AW","la":"Plymouth","era":"trad","nn":5,"risk":24,"cat":"green"},{"name":"Queen and Constitution","lat":50.36929,"lon":-4.17791,"postcode":"PL1 4EF","la":"Plymouth","era":"trad","nn":82,"risk":24,"cat":"green"},{"name":"Queen Victoria Masonic Hall","lat":50.40546,"lon":-4.18678,"postcode":"PL5 1RD","la":"Plymouth","era":"trad","nn":272,"risk":26,"cat":"green"},{"name":"Queens Arms","lat":50.36782,"lon":-4.13738,"postcode":"PL1 2LA","la":"Plymouth","era":"trad","nn":0,"risk":24,"cat":"green"},{"name":"Queens Dock","lat":50.38227,"lon":-4.17884,"postcode":"PL2 1RL","la":"Plymouth","era":"trad","nn":138,"risk":25,"cat":"green"},{"name":"Raffles","lat":50.38121,"lon":-4.13565,"postcode":"PL4 6QG","la":"Plymouth","era":"other","nn":165,"risk":25,"cat":"green"},{"name":"Revolution","lat":50.36948,"lon":-4.14614,"postcode":"PL1 2SW","la":"Plymouth","era":"other","nn":14,"risk":24,"cat":"green"},{"name":"Riverside Caravan Park Pub/Takeaway/Shop","lat":50.40008,"lon":-4.08816,"postcode":"PL6 8LL","la":"Plymouth","era":"other","nn":1017,"risk":53,"cat":"amber"},{"name":"Royal Albert Bridge Inn","lat":50.40666,"lon":-4.20045,"postcode":"PL5 1LB","la":"Plymouth","era":"trad","nn":150,"risk":25,"cat":"green"},{"name":"Royal British Legion","lat":50.40816,"lon":-4.12715,"postcode":"PL6 5DH","la":"Plymouth","era":"trad","nn":367,"risk":31,"cat":"amber"},{"name":"Royal British Legion","lat":50.3873,"lon":-4.05947,"postcode":"PL7 1QW","la":"Plymouth","era":"trad","nn":195,"risk":25,"cat":"green"},{"name":"Royal Naval Arms","lat":50.38935,"lon":-4.17998,"postcode":"PL2 2BD","la":"Plymouth","era":"trad","nn":140,"risk":25,"cat":"green"},{"name":"Royal Oak Inn","lat":50.35451,"lon":-4.11205,"postcode":"PL9 9QY","la":"Plymouth","era":"trad","nn":220,"risk":25,"cat":"green"},{"name":"Royal Western Yacht Club","lat":50.36462,"lon":-4.12914,"postcode":"PL4 0TW","la":"Plymouth","era":"trad","nn":325,"risk":26,"cat":"green"},{"name":"Saltram Club","lat":50.37587,"lon":-4.12281,"postcode":"PL4 8SY","la":"Plymouth","era":"trad","nn":457,"risk":27,"cat":"green"},{"name":"Shakespeare Hotel","lat":50.36964,"lon":-4.17286,"postcode":"PL1 4HT","la":"Plymouth","era":"other","nn":100,"risk":25,"cat":"green"},{"name":"Sir Francis Drake Bowling","lat":50.38919,"lon":-4.13337,"postcode":"PL3 5LU","la":"Plymouth","era":"other","nn":563,"risk":28,"cat":"green"},{"name":"Sir Joshua Reynolds","lat":50.38806,"lon":-4.0529,"postcode":"PL7 2AW","la":"Plymouth","era":"other","nn":5,"risk":24,"cat":"green"},{"name":"Slug and Lettuce","lat":50.36874,"lon":-4.14192,"postcode":"PL1 2EU","la":"Plymouth","era":"other","nn":126,"risk":25,"cat":"green"},{"name":"St Aubyn Masonic Club","lat":50.38138,"lon":-4.16497,"postcode":"PL3 4DJ","la":"Plymouth","era":"trad","nn":72,"risk":24,"cat":"green"},{"name":"St Budeaux Members Bar Ltd","lat":50.40048,"lon":-4.18494,"postcode":"PL5 1UD","la":"Plymouth","era":"mod","nn":397,"risk":27,"cat":"green"},{"name":"St Johnston Sports & Social Club","lat":50.38812,"lon":-4.18037,"postcode":"PL2 2BE","la":"Plymouth","era":"mod","nn":140,"risk":25,"cat":"green"},{"name":"St Levan Inn","lat":50.3836,"lon":-4.17286,"postcode":"PL2 1JJ","la":"Plymouth","era":"trad","nn":140,"risk":25,"cat":"green"},{"name":"Staddiscombe Park","lat":50.34563,"lon":-4.08459,"postcode":"PL9 9LT","la":"Plymouth","era":"other","nn":1664,"risk":58,"cat":"amber"},{"name":"Stoke Bar","lat":50.3804,"lon":-4.16675,"postcode":"PL3 4DF","la":"Plymouth","era":"other","nn":6,"risk":24,"cat":"green"},{"name":"Stoke Inn","lat":50.38088,"lon":-4.16561,"postcode":"PL3 4DL","la":"Plymouth","era":"trad","nn":51,"risk":24,"cat":"green"},{"name":"Stuart Social Club","lat":50.37735,"lon":-4.14822,"postcode":"PL3 4EB","la":"Plymouth","era":"mod","nn":255,"risk":26,"cat":"green"},{"name":"Swan","lat":50.36884,"lon":-4.13908,"postcode":"PL1 2AX","la":"Plymouth","era":"trad","nn":55,"risk":24,"cat":"green"},{"name":"Switch","lat":50.37528,"lon":-4.13668,"postcode":"PL4 8LH","la":"Plymouth","era":"other","nn":0,"risk":24,"cat":"green"},{"name":"The Admiral MacBride","lat":50.36624,"lon":-4.13426,"postcode":"PL1 2LR","la":"Plymouth","era":"other","nn":73,"risk":24,"cat":"green"},{"name":"The Albemarle","lat":50.41845,"lon":-4.15527,"postcode":"PL5 4DA","la":"Plymouth","era":"other","nn":990,"risk":51,"cat":"amber"},{"name":"The Anchorage","lat":50.36563,"lon":-4.0838,"postcode":"PL9 7HG","la":"Plymouth","era":"trad","nn":1021,"risk":54,"cat":"amber"},{"name":"The Artillery Arms","lat":50.36486,"lon":-4.16082,"postcode":"PL1 3RH","la":"Plymouth","era":"trad","nn":148,"risk":25,"cat":"green"},{"name":"The Bank","lat":50.36952,"lon":-4.14436,"postcode":"PL1 2TG","la":"Plymouth","era":"other","nn":103,"risk":25,"cat":"green"},{"name":"The Bar","lat":50.35517,"lon":-4.11941,"postcode":"PL9 9TU","la":"Plymouth","era":"other","nn":286,"risk":26,"cat":"green"},{"name":"The Blue Peter","lat":50.36459,"lon":-4.0981,"postcode":"PL9 7BN","la":"Plymouth","era":"other","nn":656,"risk":46,"cat":"amber"},{"name":"The Brass Monkey","lat":50.37065,"lon":-4.13976,"postcode":"PL1 1DS","la":"Plymouth","era":"trad","nn":145,"risk":25,"cat":"green"},{"name":"The Brook Inn","lat":50.38249,"lon":-4.04617,"postcode":"PL7 1NJ","la":"Plymouth","era":"trad","nn":112,"risk":25,"cat":"green"},{"name":"The Bull & Bush","lat":50.41885,"lon":-4.17629,"postcode":"PL5 2SE","la":"Plymouth","era":"trad","nn":1282,"risk":55,"cat":"amber"},{"name":"The Chaddlewood Inn","lat":50.38727,"lon":-4.02447,"postcode":"PL7 2XS","la":"Plymouth","era":"trad","nn":1628,"risk":58,"cat":"amber"},{"name":"The Clarence","lat":50.37114,"lon":-4.15504,"postcode":"PL1 3JP","la":"Plymouth","era":"other","nn":331,"risk":26,"cat":"green"},{"name":"The Corinthian","lat":50.36312,"lon":-4.13636,"postcode":"PL1 2NY","la":"Plymouth","era":"other","nn":317,"risk":26,"cat":"green"},{"name":"The Crafty Half","lat":50.37711,"lon":-4.13577,"postcode":"PL4 8EU","la":"Plymouth","era":"mod","nn":53,"risk":24,"cat":"green"},{"name":"The Dolphin Hotel","lat":50.36691,"lon":-4.13473,"postcode":"PL1 2LS","la":"Plymouth","era":"other","nn":13,"risk":24,"cat":"green"},{"name":"The Eagle","lat":50.3725,"lon":-4.14661,"postcode":"PL1 1NJ","la":"Plymouth","era":"trad","nn":69,"risk":24,"cat":"green"},{"name":"The Firkin Scholar","lat":50.37466,"lon":-4.16583,"postcode":"PL1 5QU","la":"Plymouth","era":"other","nn":260,"risk":26,"cat":"green"},{"name":"The Fishermans Arms","lat":50.36586,"lon":-4.1351,"postcode":"PL1 2NN","la":"Plymouth","era":"trad","nn":73,"risk":24,"cat":"green"},{"name":"The Ford Inn","lat":50.38474,"lon":-4.17205,"postcode":"PL2 1JY","la":"Plymouth","era":"trad","nn":140,"risk":25,"cat":"green"},{"name":"The Gipsy Moth","lat":50.36706,"lon":-4.14061,"postcode":"PL1 2HU","la":"Plymouth","era":"other","nn":208,"risk":25,"cat":"green"},{"name":"The Golden Hind","lat":50.39954,"lon":-4.1356,"postcode":"PL3 5RJ","la":"Plymouth","era":"other","nn":812,"risk":47,"cat":"amber"},{"name":"The Herbert","lat":50.38171,"lon":-4.17711,"postcode":"PL2 1RX","la":"Plymouth","era":"other","nn":138,"risk":25,"cat":"green"},{"name":"The Hyde Park Hotel","lat":50.38419,"lon":-4.1346,"postcode":"PL4 6LG","la":"Plymouth","era":"other","nn":83,"risk":24,"cat":"green"},{"name":"The Jolly Miller","lat":50.40959,"lon":-4.09621,"postcode":"PL6 8UD","la":"Plymouth","era":"trad","nn":1201,"risk":55,"cat":"amber"},{"name":"The King Billy Inn","lat":50.3699,"lon":-4.17727,"postcode":"PL1 4EP","la":"Plymouth","era":"trad","nn":82,"risk":24,"cat":"green"},{"name":"The Kings Arms","lat":50.42735,"lon":-4.15515,"postcode":"PL5 4NH","la":"Plymouth","era":"trad","nn":124,"risk":42,"cat":"amber"},{"name":"The Kings Head","lat":50.37089,"lon":-4.13459,"postcode":"PL4 0BB","la":"Plymouth","era":"trad","nn":54,"risk":24,"cat":"green"},{"name":"The London Inn","lat":50.38325,"lon":-4.0472,"postcode":"PL7 1NH","la":"Plymouth","era":"trad","nn":112,"risk":25,"cat":"green"},{"name":"The Lord High Admiral","lat":50.36846,"lon":-4.16015,"postcode":"PL1 3PE","la":"Plymouth","era":"other","nn":271,"risk":26,"cat":"green"},{"name":"The Lounge Public House","lat":50.37662,"lon":-4.16968,"postcode":"PL1 4QT","la":"Plymouth","era":"mod","nn":348,"risk":26,"cat":"green"},{"name":"The Lugger","lat":50.37236,"lon":-4.18004,"postcode":"PL1 4NT","la":"Plymouth","era":"other","nn":337,"risk":26,"cat":"green"},{"name":"The Mannamead","lat":50.38245,"lon":-4.13366,"postcode":"PL4 6JH","la":"Plymouth","era":"other","nn":77,"risk":24,"cat":"green"},{"name":"The Marsh Mill","lat":50.39095,"lon":-4.08891,"postcode":"PL3 6RW","la":"Plymouth","era":"trad","nn":1017,"risk":53,"cat":"amber"},{"name":"The Masonic Inn","lat":50.38057,"lon":-4.16615,"postcode":"PL3 4DL","la":"Plymouth","era":"trad","nn":47,"risk":24,"cat":"green"},{"name":"The Melbourne","lat":50.37419,"lon":-4.15156,"postcode":"PL1 5HP","la":"Plymouth","era":"other","nn":169,"risk":25,"cat":"green"},{"name":"The Millbridge Inn","lat":50.37512,"lon":-4.15899,"postcode":"PL1 5LZ","la":"Plymouth","era":"trad","nn":474,"risk":27,"cat":"green"},{"name":"The Navy Inn","lat":50.36729,"lon":-4.13526,"postcode":"PL1 2LE","la":"Plymouth","era":"trad","nn":40,"risk":24,"cat":"green"},{"name":"The Newmarket Inn","lat":50.3728,"lon":-4.14576,"postcode":"PL1 1PB","la":"Plymouth","era":"trad","nn":44,"risk":24,"cat":"green"},{"name":"The Noahs Ark","lat":50.37075,"lon":-4.14535,"postcode":"PL1 1EP","la":"Plymouth","era":"other","nn":152,"risk":25,"cat":"green"},{"name":"The Office","lat":50.37088,"lon":-4.15969,"postcode":"PL1 3SJ","la":"Plymouth","era":"other","nn":271,"risk":26,"cat":"green"},{"name":"The Penguin","lat":50.38279,"lon":-4.12438,"postcode":"PL3 5AA","la":"Plymouth","era":"other","nn":656,"risk":28,"cat":"green"},{"name":"The Pit and Pendulum","lat":50.37255,"lon":-4.13442,"postcode":"PL4 9AF","la":"Plymouth","era":"other","nn":133,"risk":25,"cat":"green"},{"name":"The Prince Maurice","lat":50.40035,"lon":-4.11487,"postcode":"PL6 5RJ","la":"Plymouth","era":"trad","nn":962,"risk":48,"cat":"amber"},{"name":"The Queens Arms","lat":50.42846,"lon":-4.15504,"postcode":"PL5 4NN","la":"Plymouth","era":"trad","nn":124,"risk":45,"cat":"amber"},{"name":"The Rising Sun","lat":50.39241,"lon":-4.12101,"postcode":"PL3 5JT","la":"Plymouth","era":"other","nn":112,"risk":30,"cat":"green"},{"name":"The Roundabout","lat":50.37355,"lon":-4.13805,"postcode":"PL4 8AQ","la":"Plymouth","era":"other","nn":99,"risk":25,"cat":"green"},{"name":"The Seymour Arms","lat":50.37411,"lon":-4.1331,"postcode":"PL4 8DT","la":"Plymouth","era":"trad","nn":148,"risk":25,"cat":"green"},{"name":"The Ship","lat":50.36765,"lon":-4.13528,"postcode":"PL1 2JZ","la":"Plymouth","era":"trad","nn":19,"risk":24,"cat":"green"},{"name":"The Ships Tavern & Kings Head","lat":50.35802,"lon":-4.06579,"postcode":"PL9 8EG","la":"Plymouth","era":"trad","nn":333,"risk":44,"cat":"amber"},{"name":"The Tamar","lat":50.40774,"lon":-4.13291,"postcode":"PL6 5AD","la":"Plymouth","era":"other","nn":369,"risk":29,"cat":"green"},{"name":"The Toby Carvery","lat":50.42899,"lon":-4.1131,"postcode":"PL6 7HB","la":"Plymouth","era":"other","nn":1306,"risk":56,"cat":"amber"},{"name":"The Unicorn Harvester","lat":50.3912,"lon":-4.0721,"postcode":"PL7 4NE","la":"Plymouth","era":"trad","nn":995,"risk":51,"cat":"amber"},{"name":"The Walrus","lat":50.36769,"lon":-4.1454,"postcode":"PL1 2RH","la":"Plymouth","era":"other","nn":165,"risk":25,"cat":"green"},{"name":"The West Hoe","lat":50.36563,"lon":-4.1509,"postcode":"PL1 3BW","la":"Plymouth","era":"other","nn":451,"risk":27,"cat":"green"},{"name":"Three Crowns","lat":50.3682,"lon":-4.13639,"postcode":"PL1 2JL","la":"Plymouth","era":"trad","nn":29,"risk":24,"cat":"green"},{"name":"Union Inn","lat":50.38564,"lon":-4.06035,"postcode":"PL7 1SY","la":"Plymouth","era":"trad","nn":195,"risk":25,"cat":"green"},{"name":"Union Rooms","lat":50.36961,"lon":-4.14742,"postcode":"PL1 2SU","la":"Plymouth","era":"mod","nn":0,"risk":24,"cat":"green"},{"name":"Victoria Inn","lat":50.35293,"lon":-4.11017,"postcode":"PL9 9QS","la":"Plymouth","era":"trad","nn":220,"risk":25,"cat":"green"},{"name":"Victory Inn","lat":50.40931,"lon":-4.15674,"postcode":"PL5 3PQ","la":"Plymouth","era":"trad","nn":1022,"risk":54,"cat":"amber"},{"name":"Victualling Office Tavern","lat":50.36384,"lon":-4.16215,"postcode":"PL1 3RB","la":"Plymouth","era":"other","nn":148,"risk":25,"cat":"green"},{"name":"Walkabout","lat":50.36961,"lon":-4.14742,"postcode":"PL1 2SU","la":"Plymouth","era":"other","nn":0,"risk":24,"cat":"green"},{"name":"Weston Mill Oak Villa Association","lat":50.39689,"lon":-4.17681,"postcode":"PL2 2EL","la":"Plymouth","era":"trad","nn":314,"risk":31,"cat":"amber"},{"name":"Weston Mill Pub","lat":50.39891,"lon":-4.17991,"postcode":"PL5 1AB","la":"Plymouth","era":"trad","nn":314,"risk":29,"cat":"green"},{"name":"Woodside","lat":50.37253,"lon":-4.13254,"postcode":"PL4 8DQ","la":"Plymouth","era":"other","nn":133,"risk":25,"cat":"green"},{"name":"California Inn","lat":50.36201,"lon":-3.82321,"postcode":"PL21 0SG","la":"South Hams","era":"trad","nn":3957,"risk":77,"cat":"red"},{"name":"Dolphin Inn","lat":50.31371,"lon":-4.0378,"postcode":"PL8 1AE","la":"South Hams","era":"trad","nn":2818,"risk":69,"cat":"red"},{"name":"Duke of Cornwall Inn","lat":50.38749,"lon":-3.92389,"postcode":"PL21 9DH","la":"South Hams","era":"trad","nn":139,"risk":28,"cat":"green"},{"name":"Eddystone Inn","lat":50.3206,"lon":-4.11299,"postcode":"PL9 0BN","la":"South Hams","era":"trad","nn":1371,"risk":59,"cat":"amber"},{"name":"Exeter Inn","lat":50.34933,"lon":-3.88758,"postcode":"PL21 0QR","la":"South Hams","era":"trad","nn":13,"risk":45,"cat":"amber"},{"name":"Imperial Inn","lat":50.38789,"lon":-3.92574,"postcode":"PL21 9AN","la":"South Hams","era":"trad","nn":139,"risk":28,"cat":"green"},{"name":"Ivybridge Constitutional Club","lat":50.39134,"lon":-3.92244,"postcode":"PL21 0AD","la":"South Hams","era":"other","nn":236,"risk":29,"cat":"green"},{"name":"Lopes Arms","lat":50.44137,"lon":-4.10822,"postcode":"PL6 7BD","la":"South Hams","era":"trad","nn":1419,"risk":60,"cat":"amber"},{"name":"Modbury Club","lat":50.34924,"lon":-3.88769,"postcode":"PL21 0QR","la":"South Hams","era":"other","nn":13,"risk":45,"cat":"amber"},{"name":"Modbury Inn","lat":50.3507,"lon":-3.88617,"postcode":"PL21 0RQ","la":"South Hams","era":"trad","nn":182,"risk":46,"cat":"amber"},{"name":"Mussel Inn","lat":50.3313,"lon":-4.1034,"postcode":"PL9 0AQ","la":"South Hams","era":"trad","nn":1371,"risk":59,"cat":"amber"},{"name":"Sportsmans Inn","lat":50.3905,"lon":-3.91837,"postcode":"PL21 0BQ","la":"South Hams","era":"trad","nn":156,"risk":28,"cat":"green"},{"name":"The Anchor Inn","lat":50.3876,"lon":-3.86198,"postcode":"PL21 0NG","la":"South Hams","era":"trad","nn":3453,"risk":74,"cat":"red"},{"name":"The Crooked Spire Pub Ltd","lat":50.36179,"lon":-3.91721,"postcode":"PL21 9LP","la":"South Hams","era":"other","nn":2517,"risk":67,"cat":"red"},{"name":"The Exchange","lat":50.38975,"lon":-3.92023,"postcode":"PL21 9AB","la":"South Hams","era":"other","nn":106,"risk":28,"cat":"green"},{"name":"The Mildmay Colours","lat":50.33516,"lon":-3.94935,"postcode":"PL8 1NA","la":"South Hams","era":"other","nn":3738,"risk":76,"cat":"red"},{"name":"The Odd Wheel Pub","lat":50.32823,"lon":-4.07033,"postcode":"PL9 0JD","la":"South Hams","era":"other","nn":2183,"risk":65,"cat":"red"},{"name":"The Old Smithy","lat":50.38928,"lon":-3.92154,"postcode":"PL21 9AE","la":"South Hams","era":"trad","nn":106,"risk":28,"cat":"green"},{"name":"Trehill Arms","lat":50.39066,"lon":-3.91045,"postcode":"PL21 0BJ","la":"South Hams","era":"trad","nn":562,"risk":34,"cat":"amber"},{"name":"Volunteer Inn","lat":50.34881,"lon":-4.00138,"postcode":"PL8 2JN","la":"South Hams","era":"trad","nn":3992,"risk":78,"cat":"red"},{"name":"Pint And Post","lat":50.68792,"lon":-4.32177,"postcode":"PL15 9SA","la":"Torridge","era":"other","nn":4479,"risk":80,"cat":"red"},{"name":"Bere Ferrers Social Club","lat":50.45156,"lon":-4.17445,"postcode":"PL20 7JJ","la":"West Devon","era":"mod","nn":2492,"risk":72,"cat":"red"},{"name":"Copper Penny Inn","lat":50.55469,"lon":-4.20808,"postcode":"PL19 8NT","la":"West Devon","era":"trad","nn":3485,"risk":79,"cat":"red"},{"name":"HQ Cafe Bar","lat":50.54897,"lon":-4.14605,"postcode":"PL19 8AY","la":"West Devon","era":"other","nn":96,"risk":33,"cat":"amber"},{"name":"London Inn","lat":50.50937,"lon":-4.09892,"postcode":"PL20 7ST","la":"West Devon","era":"trad","nn":137,"risk":53,"cat":"amber"},{"name":"Queens Head","lat":50.54973,"lon":-4.14675,"postcode":"PL19 8AQ","la":"West Devon","era":"trad","nn":49,"risk":33,"cat":"amber"},{"name":"Railway Ramblers' Rest","lat":50.54371,"lon":-3.99001,"postcode":"PL20 6QT","la":"West Devon","era":"trad","nn":8048,"risk":90,"cat":"red"},{"name":"Tavistock Golf Club","lat":50.54415,"lon":-4.13422,"postcode":"PL19 9AQ","la":"West Devon","era":"other","nn":993,"risk":59,"cat":"amber"},{"name":"Tavistock Inn","lat":50.55168,"lon":-4.14235,"postcode":"PL19 0HD","la":"West Devon","era":"trad","nn":336,"risk":35,"cat":"amber"},{"name":"The Arundell Arms Hotel","lat":50.64322,"lon":-4.28518,"postcode":"PL16 0AA","la":"West Devon","era":"trad","nn":3395,"risk":79,"cat":"red"},{"name":"The Burrator Inn","lat":50.4973,"lon":-4.07736,"postcode":"PL20 6NP","la":"West Devon","era":"trad","nn":786,"risk":58,"cat":"amber"},{"name":"The Cornish Arms","lat":50.54937,"lon":-4.14725,"postcode":"PL19 8AN","la":"West Devon","era":"trad","nn":54,"risk":33,"cat":"amber"},{"name":"The Leaping Salmon","lat":50.51055,"lon":-4.09839,"postcode":"PL20 7TP","la":"West Devon","era":"other","nn":137,"risk":53,"cat":"amber"},{"name":"The Riverside","lat":50.53957,"lon":-4.15172,"postcode":"PL19 8JR","la":"West Devon","era":"other","nn":1120,"risk":63,"cat":"red"},{"name":"The Rock Inn","lat":50.49177,"lon":-4.08427,"postcode":"PL20 6DS","la":"West Devon","era":"trad","nn":786,"risk":58,"cat":"amber"},{"name":"The Stannary Arms","lat":50.55011,"lon":-4.1464,"postcode":"PL19 0DS","la":"West Devon","era":"trad","nn":26,"risk":33,"cat":"amber"},{"name":"The Whitchurch Inn","lat":50.53645,"lon":-4.12648,"postcode":"PL19 9ED","la":"West Devon","era":"trad","nn":1016,"risk":62,"cat":"red"},{"name":"Union Inn","lat":50.55031,"lon":-4.14658,"postcode":"PL19 0DS","la":"West Devon","era":"trad","nn":26,"risk":33,"cat":"amber"},{"name":"Yelverton Golf Club","lat":50.4803,"lon":-4.09456,"postcode":"PL20 6BN","la":"West Devon","era":"other","nn":1468,"risk":65,"cat":"red"}]