[{"name":"Adam And Eve","lat":51.61626,"lon":-0.21828,"postcode":"NW7 1RL","la":"Barnet","era":"other","nn":496,"risk":47,"cat":"amber"},{"name":"Brondesbury Cricket Tennis Bowls & Squash Club","lat":51.55859,"lon":-0.2069,"postcode":"NW2 2EB","la":"Barnet","era":"other","nn":212,"risk":27,"cat":"green"},{"name":"Calderbank Catering At The Greyhound Pub","lat":51.59119,"lon":-0.2271,"postcode":"NW4 4JT","la":"Barnet","era":"trad","nn":0,"risk":26,"cat":"green"},{"name":"Camden Playing Fields Sports And Social Club","lat":51.62062,"lon":-0.21678,"postcode":"NW7 1AS","la":"Barnet","era":"mod","nn":0,"risk":43,"cat":"amber"},{"name":"CHARTWELLS - MDX. BUILDING BAR","lat":51.58972,"lon":-0.22845,"postcode":"NW4 4BT","la":"Barnet","era":"trad","nn":0,"risk":26,"cat":"green"},{"name":"Cricklewood Trades Hall Club And Institute","lat":51.55988,"lon":-0.20916,"postcode":"NW2 2DP","la":"Barnet","era":"other","nn":212,"risk":27,"cat":"green"},{"name":"Finchley Golf Club","lat":51.60986,"lon":-0.20212,"postcode":"NW7 1PU","la":"Barnet","era":"other","nn":438,"risk":31,"cat":"amber"},{"name":"Fitness Pod At Middlesex University","lat":51.58972,"lon":-0.22845,"postcode":"NW4 4BT","la":"Barnet","era":"other","nn":0,"risk":26,"cat":"green"},{"name":"Hendon Golf Club","lat":51.60702,"lon":-0.22018,"postcode":"NW7 1DG","la":"Barnet","era":"other","nn":459,"risk":34,"cat":"amber"},{"name":"Hendon Rifle Club","lat":51.57296,"lon":-0.25028,"postcode":"NW9 7NB","la":"Barnet","era":"other","nn":321,"risk":31,"cat":"amber"},{"name":"Hendon Rugby Football Club","lat":51.60387,"lon":-0.22642,"postcode":"NW4 1RL","la":"Barnet","era":"other","nn":408,"risk":31,"cat":"amber"},{"name":"Hendon Sea Training Corps","lat":51.57413,"lon":-0.24603,"postcode":"NW9 7ND","la":"Barnet","era":"other","nn":321,"risk":48,"cat":"amber"},{"name":"Laboratory Spa & Health Club","lat":51.59997,"lon":-0.23575,"postcode":"NW4 4TJ","la":"Barnet","era":"other","nn":596,"risk":35,"cat":"amber"},{"name":"Lounge 4:04","lat":51.55734,"lon":-0.21405,"postcode":"NW2 1HB","la":"Barnet","era":"mod","nn":65,"risk":26,"cat":"green"},{"name":"Lucky 7 - Wine Bar","lat":51.55734,"lon":-0.21498,"postcode":"NW2 1ET","la":"Barnet","era":"other","nn":65,"risk":26,"cat":"green"},{"name":"Mill Hill Golf Club","lat":51.62871,"lon":-0.25316,"postcode":"NW7 3AL","la":"Barnet","era":"trad","nn":799,"risk":51,"cat":"amber"},{"name":"Mill Hill Rugby Club","lat":51.60484,"lon":-0.23214,"postcode":"NW7 2EQ","la":"Barnet","era":"trad","nn":410,"risk":31,"cat":"amber"},{"name":"Mill Hill Services Club","lat":51.6151,"lon":-0.24348,"postcode":"NW7 2HX","la":"Barnet","era":"trad","nn":389,"risk":46,"cat":"amber"},{"name":"Mill Hill Village Sports Club","lat":51.62062,"lon":-0.21678,"postcode":"NW7 1AS","la":"Barnet","era":"trad","nn":0,"risk":43,"cat":"amber"},{"name":"Powerleague Fives Limited","lat":51.60754,"lon":-0.22678,"postcode":"NW7 2BB","la":"Barnet","era":"other","nn":408,"risk":34,"cat":"amber"},{"name":"The Arena Club","lat":51.58314,"lon":-0.22675,"postcode":"NW4 3AS","la":"Barnet","era":"other","nn":126,"risk":27,"cat":"green"},{"name":"The Beaufort","lat":51.59653,"lon":-0.24286,"postcode":"NW9 5AA","la":"Barnet","era":"other","nn":622,"risk":48,"cat":"amber"},{"name":"The Bodhran PH","lat":51.58248,"lon":-0.22823,"postcode":"NW4 3UT","la":"Barnet","era":"other","nn":126,"risk":27,"cat":"green"},{"name":"The Bridge Tavern","lat":51.61424,"lon":-0.24895,"postcode":"NW7 3LN","la":"Barnet","era":"other","nn":389,"risk":34,"cat":"amber"},{"name":"The Chandos Arms","lat":51.59326,"lon":-0.25545,"postcode":"NW9 5DS","la":"Barnet","era":"trad","nn":338,"risk":28,"cat":"green"},{"name":"The Claddagh Ring","lat":51.59017,"lon":-0.22613,"postcode":"NW4 4EA","la":"Barnet","era":"other","nn":131,"risk":27,"cat":"green"},{"name":"The Gower Club","lat":51.55831,"lon":-0.20097,"postcode":"NW2 2BS","la":"Barnet","era":"other","nn":411,"risk":29,"cat":"green"},{"name":"The Greyhound","lat":51.59119,"lon":-0.2271,"postcode":"NW4 4JT","la":"Barnet","era":"trad","nn":0,"risk":26,"cat":"green"},{"name":"The Moon Under  Water","lat":51.58736,"lon":-0.2509,"postcode":"NW9 6RR","la":"Barnet","era":"other","nn":53,"risk":26,"cat":"green"},{"name":"The Railway","lat":51.6164,"lon":-0.25892,"postcode":"NW7 3SB","la":"Barnet","era":"trad","nn":175,"risk":45,"cat":"amber"},{"name":"The Refectory","lat":51.57392,"lon":-0.19635,"postcode":"NW11 7PE","la":"Barnet","era":"other","nn":1188,"risk":57,"cat":"amber"},{"name":"The Rising Sun","lat":51.62716,"lon":-0.24185,"postcode":"NW7 4EY","la":"Barnet","era":"other","nn":799,"risk":49,"cat":"amber"},{"name":"The Spaniards Inn","lat":51.56974,"lon":-0.17417,"postcode":"NW3 7JJ","la":"Barnet","era":"trad","nn":259,"risk":45,"cat":"amber"},{"name":"The Temple Fortune Club","lat":51.58651,"lon":-0.20613,"postcode":"NW11 9JS","la":"Barnet","era":"other","nn":1440,"risk":58,"cat":"amber"},{"name":"Three Hammers Public House","lat":51.62094,"lon":-0.23426,"postcode":"NW7 4EA","la":"Barnet","era":"other","nn":868,"risk":49,"cat":"amber"},{"name":"Angie's","lat":51.53544,"lon":-0.24357,"postcode":"NW10 4TR","la":"Brent","era":"other","nn":99,"risk":27,"cat":"green"},{"name":"Angie's Bar","lat":51.54799,"lon":-0.22389,"postcode":"NW2 5SJ","la":"Brent","era":"other","nn":277,"risk":33,"cat":"amber"},{"name":"Bar 117","lat":51.54692,"lon":-0.23012,"postcode":"NW10 2SL","la":"Brent","era":"mod","nn":171,"risk":27,"cat":"green"},{"name":"Bar Lula's","lat":51.54749,"lon":-0.22781,"postcode":"NW10 2QA","la":"Brent","era":"mod","nn":172,"risk":27,"cat":"green"},{"name":"Barretts","lat":51.558,"lon":-0.21728,"postcode":"NW2 3HP","la":"Brent","era":"other","nn":175,"risk":28,"cat":"green"},{"name":"Carlton Lounge/Tiger Bay","lat":51.58345,"lon":-0.26305,"postcode":"NW9 0BH","la":"Brent","era":"mod","nn":75,"risk":27,"cat":"green"},{"name":"Club Marina","lat":51.58378,"lon":-0.264,"postcode":"NW9 0BG","la":"Brent","era":"other","nn":75,"risk":27,"cat":"green"},{"name":"Crystals of London Bar & Restaurant","lat":51.53271,"lon":-0.2854,"postcode":"NW10 7FJ","la":"Brent","era":"mod","nn":581,"risk":35,"cat":"amber"},{"name":"Earl Derby","lat":51.5407,"lon":-0.19679,"postcode":"NW6 7HU","la":"Brent","era":"other","nn":39,"risk":27,"cat":"green"},{"name":"Erins Hope","lat":51.58715,"lon":-0.25159,"postcode":"NW9 6LP","la":"Brent","era":"other","nn":53,"risk":27,"cat":"green"},{"name":"George Public House","lat":51.57305,"lon":-0.2619,"postcode":"NW9 8SN","la":"Brent","era":"trad","nn":0,"risk":26,"cat":"green"},{"name":"Grand Junction Arms","lat":51.53446,"lon":-0.2606,"postcode":"NW10 7AD","la":"Brent","era":"trad","nn":700,"risk":31,"cat":"amber"},{"name":"J J Moons","lat":51.5846,"lon":-0.28042,"postcode":"NW9 9EL","la":"Brent","era":"other","nn":34,"risk":44,"cat":"amber"},{"name":"JoNo's","lat":51.58119,"lon":-0.26234,"postcode":"NW9 8UA","la":"Brent","era":"other","nn":256,"risk":28,"cat":"green"},{"name":"Kabul City Restaurant","lat":51.5884,"lon":-0.25286,"postcode":"NW9 6LU","la":"Brent","era":"other","nn":0,"risk":26,"cat":"green"},{"name":"Katie's","lat":51.56016,"lon":-0.25114,"postcode":"NW10 0AD","la":"Brent","era":"other","nn":97,"risk":44,"cat":"amber"},{"name":"Kilburn Arms","lat":51.5406,"lon":-0.2037,"postcode":"NW6 7SD","la":"Brent","era":"trad","nn":210,"risk":28,"cat":"green"},{"name":"Kilburn Bridge Pub","lat":51.53743,"lon":-0.19328,"postcode":"NW6 6HY","la":"Brent","era":"other","nn":95,"risk":27,"cat":"green"},{"name":"Le Junction Pub","lat":51.53388,"lon":-0.24728,"postcode":"NW10 4UP","la":"Brent","era":"other","nn":36,"risk":27,"cat":"green"},{"name":"Maggies Bar","lat":51.53489,"lon":-0.21999,"postcode":"NW10 3JN","la":"Brent","era":"other","nn":150,"risk":27,"cat":"green"},{"name":"Maloney's","lat":51.54895,"lon":-0.24227,"postcode":"NW10 2JN","la":"Brent","era":"other","nn":63,"risk":27,"cat":"green"},{"name":"Masons Arms","lat":51.53004,"lon":-0.22731,"postcode":"NW10 5NU","la":"Brent","era":"trad","nn":587,"risk":30,"cat":"green"},{"name":"McDonaghs Bar","lat":51.57877,"lon":-0.26346,"postcode":"NW9 8QL","la":"Brent","era":"other","nn":280,"risk":28,"cat":"green"},{"name":"McGlynn's Bar","lat":51.54118,"lon":-0.20081,"postcode":"NW6 7SX","la":"Brent","era":"other","nn":185,"risk":28,"cat":"green"},{"name":"No 8 Public House and Hostel","lat":51.5487,"lon":-0.239,"postcode":"NW10 2JT","la":"Brent","era":"mod","nn":165,"risk":27,"cat":"green"},{"name":"North London Tavern","lat":51.54514,"lon":-0.20214,"postcode":"NW6 7QB","la":"Brent","era":"other","nn":42,"risk":27,"cat":"green"},{"name":"Parlour","lat":51.52869,"lon":-0.21664,"postcode":"NW10 5LG","la":"Brent","era":"mod","nn":49,"risk":27,"cat":"green"},{"name":"Peggies Bar","lat":51.56092,"lon":-0.25367,"postcode":"NW10 0BT","la":"Brent","era":"other","nn":194,"risk":45,"cat":"amber"},{"name":"Power's Bar","lat":51.58829,"lon":-0.26337,"postcode":"NW9 0NH","la":"Brent","era":"other","nn":504,"risk":30,"cat":"green"},{"name":"Prince of Wales PH","lat":51.53409,"lon":-0.19421,"postcode":"NW6 5AE","la":"Brent","era":"trad","nn":322,"risk":29,"cat":"green"},{"name":"Prodigy Lounge","lat":51.57305,"lon":-0.2619,"postcode":"NW9 8SN","la":"Brent","era":"mod","nn":0,"risk":26,"cat":"green"},{"name":"Rising Sun","lat":51.54538,"lon":-0.23018,"postcode":"NW10 2BY","la":"Brent","era":"other","nn":171,"risk":27,"cat":"green"},{"name":"Royal Oak","lat":51.53607,"lon":-0.24458,"postcode":"NW10 4TS","la":"Brent","era":"trad","nn":0,"risk":26,"cat":"green"},{"name":"Sportsman","lat":51.53381,"lon":-0.24778,"postcode":"NW10 4UA","la":"Brent","era":"other","nn":36,"risk":27,"cat":"green"},{"name":"Station 57","lat":51.53325,"lon":-0.24655,"postcode":"NW10 4UX","la":"Brent","era":"other","nn":86,"risk":27,"cat":"green"},{"name":"The Burren","lat":51.54713,"lon":-0.25017,"postcode":"NW10 9NH","la":"Brent","era":"other","nn":583,"risk":35,"cat":"amber"},{"name":"The Chamberlayne","lat":51.53388,"lon":-0.21854,"postcode":"NW10 3ND","la":"Brent","era":"other","nn":150,"risk":27,"cat":"green"},{"name":"The Cricklewood Club","lat":51.56231,"lon":-0.22202,"postcode":"NW2 6JP","la":"Brent","era":"other","nn":580,"risk":33,"cat":"amber"},{"name":"The Fiddler","lat":51.54211,"lon":-0.19858,"postcode":"NW6 7JG","la":"Brent","era":"other","nn":185,"risk":28,"cat":"green"},{"name":"The Green Man","lat":51.58347,"lon":-0.26744,"postcode":"NW9 8YG","la":"Brent","era":"other","nn":240,"risk":28,"cat":"green"},{"name":"The Green Man Pub,  Restaurant & Tapas Bar","lat":51.53607,"lon":-0.24458,"postcode":"NW10 4TS","la":"Brent","era":"mod","nn":0,"risk":26,"cat":"green"},{"name":"The Island","lat":51.5353,"lon":-0.22662,"postcode":"NW10 5HA","la":"Brent","era":"other","nn":461,"risk":30,"cat":"green"},{"name":"The Juniper Brasserie & Bar","lat":51.53881,"lon":-0.19486,"postcode":"NW6 6JH","la":"Brent","era":"other","nn":188,"risk":28,"cat":"green"},{"name":"The Pearl Lounge","lat":51.59362,"lon":-0.2603,"postcode":"NW9 0FH","la":"Brent","era":"mod","nn":338,"risk":29,"cat":"green"},{"name":"The Roisin","lat":51.58445,"lon":-0.28085,"postcode":"NW9 9ER","la":"Brent","era":"other","nn":34,"risk":44,"cat":"amber"},{"name":"The Salusbury","lat":51.53556,"lon":-0.2055,"postcode":"NW6 6NN","la":"Brent","era":"other","nn":575,"risk":30,"cat":"green"},{"name":"The Shanakee","lat":51.5884,"lon":-0.25286,"postcode":"NW9 6LU","la":"Brent","era":"other","nn":0,"risk":26,"cat":"green"},{"name":"The Shawl","lat":51.53649,"lon":-0.24755,"postcode":"NW10 4NE","la":"Brent","era":"other","nn":205,"risk":28,"cat":"green"},{"name":"The Whippet Inn","lat":51.53235,"lon":-0.21812,"postcode":"NW10 3JJ","la":"Brent","era":"trad","nn":172,"risk":27,"cat":"green"},{"name":"The William","lat":51.529,"lon":-0.21893,"postcode":"NW10 5JX","la":"Brent","era":"other","nn":162,"risk":27,"cat":"green"},{"name":"The Windmill Guest House Bar","lat":51.55313,"lon":-0.21154,"postcode":"NW2 3JX","la":"Brent","era":"other","nn":66,"risk":27,"cat":"green"},{"name":"The Wishing Well (Breezy Wind Ltd)","lat":51.57368,"lon":-0.26254,"postcode":"NW9 8JS","la":"Brent","era":"other","nn":83,"risk":27,"cat":"green"},{"name":"Tiffty Tom's","lat":51.55947,"lon":-0.25027,"postcode":"NW10 1QG","la":"Brent","era":"other","nn":97,"risk":44,"cat":"amber"},{"name":"Tonys Freehouse","lat":51.54893,"lon":-0.24136,"postcode":"NW10 2EG","la":"Brent","era":"other","nn":63,"risk":27,"cat":"green"},{"name":"Triangle Club","lat":51.53317,"lon":-0.24091,"postcode":"NW10 4TD","la":"Brent","era":"other","nn":312,"risk":28,"cat":"green"},{"name":"Villa Country Club","lat":51.5364,"lon":-0.24458,"postcode":"NW10 4HT","la":"Brent","era":"other","nn":37,"risk":27,"cat":"green"},{"name":"3 Locks Brewery","lat":51.5421,"lon":-0.14326,"postcode":"NW1 8NZ","la":"Camden","era":"other","nn":146,"risk":22,"cat":"green"},{"name":"Abbey Tavern","lat":51.54619,"lon":-0.14155,"postcode":"NW1 9QB","la":"Camden","era":"trad","nn":279,"risk":23,"cat":"green"},{"name":"Aces and Eights Saloon Bar","lat":51.55616,"lon":-0.1387,"postcode":"NW5 2HP","la":"Camden","era":"other","nn":358,"risk":23,"cat":"green"},{"name":"Acol Bridge Club","lat":51.54565,"lon":-0.191,"postcode":"NW6 2LX","la":"Camden","era":"other","nn":71,"risk":21,"cat":"green"},{"name":"Alice House","lat":51.55135,"lon":-0.1922,"postcode":"NW6 1RD","la":"Camden","era":"other","nn":3,"risk":21,"cat":"green"},{"name":"Backstage Bar","lat":51.54433,"lon":-0.17418,"postcode":"NW3 3HY","la":"Camden","era":"trad","nn":174,"risk":22,"cat":"green"},{"name":"Bannatyne Health Club","lat":51.53611,"lon":-0.19086,"postcode":"NW6 5HZ","la":"Camden","era":"other","nn":138,"risk":22,"cat":"green"},{"name":"Be At One Limited","lat":51.53577,"lon":-0.1401,"postcode":"NW1 7JH","la":"Camden","era":"other","nn":53,"risk":21,"cat":"green"},{"name":"Belushi's","lat":51.5361,"lon":-0.13956,"postcode":"NW1 0LT","la":"Camden","era":"other","nn":53,"risk":21,"cat":"green"},{"name":"Brewdog","lat":51.53833,"lon":-0.14102,"postcode":"NW1 0AG","la":"Camden","era":"other","nn":79,"risk":21,"cat":"green"},{"name":"Brondes Age","lat":51.54521,"lon":-0.20154,"postcode":"NW6 2QN","la":"Camden","era":"other","nn":42,"risk":21,"cat":"green"},{"name":"Bucks Head","lat":51.54027,"lon":-0.14348,"postcode":"NW1 8QR","la":"Camden","era":"trad","nn":58,"risk":21,"cat":"green"},{"name":"Bull & Bush","lat":51.56754,"lon":-0.18256,"postcode":"NW3 7HE","la":"Camden","era":"trad","nn":629,"risk":43,"cat":"amber"},{"name":"Bull and Gate","lat":51.5504,"lon":-0.14119,"postcode":"NW5 2TJ","la":"Camden","era":"trad","nn":88,"risk":21,"cat":"green"},{"name":"Callum Smith Catering Ltd","lat":51.54528,"lon":-0.14619,"postcode":"NW1 8SU","la":"Camden","era":"other","nn":11,"risk":21,"cat":"green"},{"name":"Camden Eye","lat":51.53954,"lon":-0.1422,"postcode":"NW1 9NX","la":"Camden","era":"other","nn":26,"risk":21,"cat":"green"},{"name":"Camden People's Theatre","lat":51.52616,"lon":-0.1383,"postcode":"NW1 2PY","la":"Camden","era":"other","nn":124,"risk":22,"cat":"green"},{"name":"Camden Road Arms","lat":51.54154,"lon":-0.13831,"postcode":"NW1 9EA","la":"Camden","era":"trad","nn":32,"risk":21,"cat":"green"},{"name":"CATERING SIR RICHARD STEELE","lat":51.5468,"lon":-0.15885,"postcode":"NW3 4RL","la":"Camden","era":"other","nn":0,"risk":21,"cat":"green"},{"name":"Coopers Arms","lat":51.54075,"lon":-0.19623,"postcode":"NW6 4JD","la":"Camden","era":"trad","nn":39,"risk":21,"cat":"green"},{"name":"Coyote Ugly Saloon Ltd","lat":51.54234,"lon":-0.14774,"postcode":"NW1 8AH","la":"Camden","era":"other","nn":56,"risk":21,"cat":"green"},{"name":"Crown & Anchor","lat":51.5269,"lon":-0.13696,"postcode":"NW1 2HL","la":"Camden","era":"trad","nn":116,"risk":22,"cat":"green"},{"name":"DEGUSTO","lat":51.54129,"lon":-0.13855,"postcode":"NW1 9EA","la":"Camden","era":"other","nn":32,"risk":21,"cat":"green"},{"name":"Disappearing Dining Club at Dartmouth Arms","lat":51.55849,"lon":-0.14379,"postcode":"NW5 1SP","la":"Camden","era":"trad","nn":248,"risk":23,"cat":"green"},{"name":"Doric Arch","lat":51.52867,"lon":-0.13327,"postcode":"NW1 2HS","la":"Camden","era":"other","nn":0,"risk":21,"cat":"green"},{"name":"Earl of Camden","lat":51.53788,"lon":-0.14441,"postcode":"NW1 7PN","la":"Camden","era":"other","nn":45,"risk":21,"cat":"green"},{"name":"Edinboro Castle","lat":51.53606,"lon":-0.14499,"postcode":"NW1 7RU","la":"Camden","era":"other","nn":97,"risk":21,"cat":"green"},{"name":"Escape Bar & Restaurant","lat":51.53264,"lon":-0.13745,"postcode":"NW1 2JU","la":"Camden","era":"mod","nn":257,"risk":23,"cat":"green"},{"name":"Euston Tap","lat":51.52713,"lon":-0.13215,"postcode":"NW1 2EF","la":"Camden","era":"mod","nn":35,"risk":21,"cat":"green"},{"name":"Euston Tap","lat":51.52698,"lon":-0.1326,"postcode":"NW1 2EF","la":"Camden","era":"mod","nn":35,"risk":21,"cat":"green"},{"name":"Exmouth Arms Euston","lat":51.52793,"lon":-0.13669,"postcode":"NW1 2HR","la":"Camden","era":"trad","nn":116,"risk":22,"cat":"green"},{"name":"Freemasons Arms","lat":51.5569,"lon":-0.16894,"postcode":"NW3 1NT","la":"Camden","era":"trad","nn":342,"risk":23,"cat":"green"},{"name":"Globe Lawn Tennis Club Bar","lat":51.55049,"lon":-0.16421,"postcode":"NW3 2AL","la":"Camden","era":"other","nn":298,"risk":23,"cat":"green"},{"name":"Green Note Ltd","lat":51.53726,"lon":-0.1459,"postcode":"NW1 7AN","la":"Camden","era":"other","nn":30,"risk":21,"cat":"green"},{"name":"Green Village Deli","lat":51.54146,"lon":-0.17989,"postcode":"NW6 4BE","la":"Camden","era":"other","nn":391,"risk":24,"cat":"green"},{"name":"Hampstead Theatre","lat":51.54527,"lon":-0.16307,"postcode":"NW3 3EL","la":"Camden","era":"other","nn":58,"risk":21,"cat":"green"},{"name":"HAVERSTOCK TAVERN","lat":51.54683,"lon":-0.15762,"postcode":"NW3 2BD","la":"Camden","era":"other","nn":85,"risk":21,"cat":"green"},{"name":"King William IV","lat":51.55547,"lon":-0.17623,"postcode":"NW3 1RE","la":"Camden","era":"trad","nn":142,"risk":22,"cat":"green"},{"name":"Lock Tavern","lat":51.54284,"lon":-0.14772,"postcode":"NW1 8AJ","la":"Camden","era":"other","nn":56,"risk":21,"cat":"green"},{"name":"Lyttleton Arms","lat":51.53462,"lon":-0.13939,"postcode":"NW1 7JE","la":"Camden","era":"trad","nn":15,"risk":21,"cat":"green"},{"name":"MILLER CLARK LTD AT THE OLD WHITE BEAR","lat":51.55871,"lon":-0.17564,"postcode":"NW3 1LJ","la":"Camden","era":"trad","nn":128,"risk":22,"cat":"green"},{"name":"North Star","lat":51.54592,"lon":-0.17811,"postcode":"NW3 5JJ","la":"Camden","era":"other","nn":324,"risk":23,"cat":"green"},{"name":"One75","lat":51.54632,"lon":-0.19139,"postcode":"NW6 2LH","la":"Camden","era":"other","nn":52,"risk":21,"cat":"green"},{"name":"O'Neill's","lat":51.52886,"lon":-0.12617,"postcode":"NW1 2QS","la":"Camden","era":"other","nn":46,"risk":21,"cat":"green"},{"name":"Oxford Arms","lat":51.54059,"lon":-0.14428,"postcode":"NW1 7BU","la":"Camden","era":"trad","nn":28,"risk":21,"cat":"green"},{"name":"Prince Albert PH","lat":51.53997,"lon":-0.13712,"postcode":"NW1 0SG","la":"Camden","era":"trad","nn":131,"risk":22,"cat":"green"},{"name":"Prince Arthur","lat":51.52994,"lon":-0.13339,"postcode":"NW1 1BX","la":"Camden","era":"trad","nn":142,"risk":22,"cat":"green"},{"name":"Princess of Wales","lat":51.54042,"lon":-0.15396,"postcode":"NW1 8LL","la":"Camden","era":"trad","nn":126,"risk":22,"cat":"green"},{"name":"Queens Head & Artichoke","lat":51.52577,"lon":-0.14407,"postcode":"NW1 4EA","la":"Camden","era":"trad","nn":396,"risk":24,"cat":"green"},{"name":"Railway","lat":51.54625,"lon":-0.19065,"postcode":"NW6 2LU","la":"Camden","era":"trad","nn":46,"risk":21,"cat":"green"},{"name":"Rose and Crown","lat":51.55026,"lon":-0.13293,"postcode":"NW5 2SG","la":"Camden","era":"trad","nn":275,"risk":23,"cat":"green"},{"name":"Royal George","lat":51.5283,"lon":-0.1315,"postcode":"NW1 1DG","la":"Camden","era":"trad","nn":129,"risk":22,"cat":"green"},{"name":"Salt Lounge","lat":51.55053,"lon":-0.19169,"postcode":"NW6 1QS","la":"Camden","era":"mod","nn":98,"risk":21,"cat":"green"},{"name":"Simmons","lat":51.53961,"lon":-0.14256,"postcode":"NW1 8NH","la":"Camden","era":"other","nn":26,"risk":21,"cat":"green"},{"name":"Simmons Bar","lat":51.53472,"lon":-0.13925,"postcode":"NW1 7JE","la":"Camden","era":"other","nn":15,"risk":21,"cat":"green"},{"name":"SIR RICHARD STEELE PUB","lat":51.5468,"lon":-0.15885,"postcode":"NW3 4RL","la":"Camden","era":"other","nn":0,"risk":21,"cat":"green"},{"name":"Sir Robert Peel","lat":51.54914,"lon":-0.15264,"postcode":"NW5 4DA","la":"Camden","era":"other","nn":73,"risk":21,"cat":"green"},{"name":"Slatterys Bar","lat":51.54243,"lon":-0.13809,"postcode":"NW1 9EU","la":"Camden","era":"other","nn":100,"risk":22,"cat":"green"},{"name":"Spiritual Bar","lat":51.54324,"lon":-0.1489,"postcode":"NW1 8ER","la":"Camden","era":"other","nn":29,"risk":21,"cat":"green"},{"name":"Spread Eagle","lat":51.53761,"lon":-0.14489,"postcode":"NW1 7NB","la":"Camden","era":"trad","nn":45,"risk":21,"cat":"green"},{"name":"Tapping the Admiral","lat":51.54536,"lon":-0.1463,"postcode":"NW1 8SU","la":"Camden","era":"other","nn":11,"risk":21,"cat":"green"},{"name":"The Assembly House","lat":51.55099,"lon":-0.14028,"postcode":"NW5 2TG","la":"Camden","era":"mod","nn":91,"risk":21,"cat":"green"},{"name":"The Beaten Docket","lat":51.55373,"lon":-0.21155,"postcode":"NW2 3ET","la":"Camden","era":"other","nn":66,"risk":21,"cat":"green"},{"name":"The Black Heart & LD's Kitchen","lat":51.53883,"lon":-0.14184,"postcode":"NW1 0AP","la":"Camden","era":"mod","nn":41,"risk":21,"cat":"green"},{"name":"The Black Lion","lat":51.55136,"lon":-0.19224,"postcode":"NW6 1RD","la":"Camden","era":"trad","nn":3,"risk":21,"cat":"green"},{"name":"The Black Lion","lat":51.5438,"lon":-0.19984,"postcode":"NW6 2BY","la":"Camden","era":"trad","nn":196,"risk":22,"cat":"green"},{"name":"The Blue Sea Fish Bar","lat":51.54977,"lon":-0.15234,"postcode":"NW5 4ED","la":"Camden","era":"other","nn":73,"risk":21,"cat":"green"},{"name":"The Blues Kitchen","lat":51.53708,"lon":-0.14125,"postcode":"NW1 7JN","la":"Camden","era":"mod","nn":50,"risk":21,"cat":"green"},{"name":"The Bull And Last Pub","lat":51.55895,"lon":-0.14865,"postcode":"NW5 1QS","la":"Camden","era":"trad","nn":312,"risk":23,"cat":"green"},{"name":"The Camden Assembley","lat":51.54312,"lon":-0.14928,"postcode":"NW1 8AN","la":"Camden","era":"other","nn":29,"risk":21,"cat":"green"},{"name":"The Camden Head","lat":51.53752,"lon":-0.14118,"postcode":"NW1 0LU","la":"Camden","era":"trad","nn":50,"risk":21,"cat":"green"},{"name":"The Cobden Arms","lat":51.53548,"lon":-0.13903,"postcode":"NW1 0JH","la":"Camden","era":"trad","nn":78,"risk":21,"cat":"green"},{"name":"The Cock Tavern","lat":51.53116,"lon":-0.13132,"postcode":"NW1 1HB","la":"Camden","era":"other","nn":197,"risk":22,"cat":"green"},{"name":"The Colonel Fawcett","lat":51.5417,"lon":-0.13604,"postcode":"NW1 0SS","la":"Camden","era":"other","nn":158,"risk":22,"cat":"green"},{"name":"The Dublin Castle","lat":51.53745,"lon":-0.14557,"postcode":"NW1 7AN","la":"Camden","era":"other","nn":30,"risk":21,"cat":"green"},{"name":"The Duke of Hamilton","lat":51.5589,"lon":-0.17746,"postcode":"NW3 1JD","la":"Camden","era":"trad","nn":128,"risk":22,"cat":"green"},{"name":"The Electric Ballroom","lat":51.53969,"lon":-0.14296,"postcode":"NW1 8QP","la":"Camden","era":"other","nn":29,"risk":21,"cat":"green"},{"name":"The Elephants Head","lat":51.54071,"lon":-0.14392,"postcode":"NW1 8QR","la":"Camden","era":"trad","nn":28,"risk":21,"cat":"green"},{"name":"The Engineer","lat":51.54001,"lon":-0.1508,"postcode":"NW1 8JH","la":"Camden","era":"other","nn":223,"risk":22,"cat":"green"},{"name":"The Enterprise","lat":51.54425,"lon":-0.15305,"postcode":"NW3 2BL","la":"Camden","era":"other","nn":229,"risk":22,"cat":"green"},{"name":"The Euston Flyer","lat":51.52867,"lon":-0.12675,"postcode":"NW1 2RA","la":"Camden","era":"other","nn":46,"risk":21,"cat":"green"},{"name":"The Fiddlers Elbow","lat":51.54607,"lon":-0.15113,"postcode":"NW5 3HS","la":"Camden","era":"other","nn":242,"risk":23,"cat":"green"},{"name":"The Flask Public House","lat":51.55656,"lon":-0.17731,"postcode":"NW3 1HE","la":"Camden","era":"other","nn":142,"risk":22,"cat":"green"},{"name":"The Gallery","lat":51.54657,"lon":-0.19024,"postcode":"NW6 3AY","la":"Camden","era":"other","nn":46,"risk":21,"cat":"green"},{"name":"The Garden Gate","lat":51.55466,"lon":-0.16556,"postcode":"NW3 2QE","la":"Camden","era":"other","nn":166,"risk":22,"cat":"green"},{"name":"The George","lat":51.55244,"lon":-0.16718,"postcode":"NW3 2AE","la":"Camden","era":"trad","nn":159,"risk":22,"cat":"green"},{"name":"The Gipsy Queen","lat":51.55083,"lon":-0.15478,"postcode":"NW5 4BS","la":"Camden","era":"trad","nn":206,"risk":22,"cat":"green"},{"name":"The Golden Lion","lat":51.53915,"lon":-0.13577,"postcode":"NW1 0TH","la":"Camden","era":"trad","nn":131,"risk":22,"cat":"green"},{"name":"The Good Mixer","lat":51.53951,"lon":-0.14462,"postcode":"NW1 7HJ","la":"Camden","era":"other","nn":115,"risk":22,"cat":"green"},{"name":"The Hawley Arms","lat":51.54194,"lon":-0.14536,"postcode":"NW1 8QU","la":"Camden","era":"trad","nn":146,"risk":22,"cat":"green"},{"name":"The Holly Bush","lat":51.55788,"lon":-0.17932,"postcode":"NW3 6SG","la":"Camden","era":"trad","nn":172,"risk":22,"cat":"green"},{"name":"The Ice Wharf","lat":51.54018,"lon":-0.14742,"postcode":"NW1 7BY","la":"Camden","era":"other","nn":207,"risk":22,"cat":"green"},{"name":"The Lansdowne","lat":51.54148,"lon":-0.15332,"postcode":"NW1 8HX","la":"Camden","era":"other","nn":126,"risk":22,"cat":"green"},{"name":"The Lion and Unicorn","lat":51.54809,"lon":-0.13892,"postcode":"NW5 2ED","la":"Camden","era":"trad","nn":213,"risk":22,"cat":"green"},{"name":"The Lord Palmerston","lat":51.55945,"lon":-0.14055,"postcode":"NW5 1HU","la":"Camden","era":"other","nn":248,"risk":23,"cat":"green"},{"name":"The Lord Stanley","lat":51.5472,"lon":-0.1296,"postcode":"NW1 9BH","la":"Camden","era":"other","nn":192,"risk":22,"cat":"green"},{"name":"The Mill","lat":51.55096,"lon":-0.20138,"postcode":"NW6 1NR","la":"Camden","era":"trad","nn":633,"risk":25,"cat":"green"},{"name":"The Old Bell","lat":51.53712,"lon":-0.192,"postcode":"NW6 5UA","la":"Camden","era":"other","nn":95,"risk":21,"cat":"green"},{"name":"The Old Eagle Public House","lat":51.54278,"lon":-0.13946,"postcode":"NW1 9LU","la":"Camden","era":"trad","nn":103,"risk":22,"cat":"green"},{"name":"The Old Oak","lat":51.55484,"lon":-0.15114,"postcode":"NW3 2JD","la":"Camden","era":"trad","nn":470,"risk":24,"cat":"green"},{"name":"The Oxford","lat":51.54973,"lon":-0.14052,"postcode":"NW5 2AA","la":"Camden","era":"other","nn":88,"risk":21,"cat":"green"},{"name":"The Pembroke Castle","lat":51.54254,"lon":-0.15491,"postcode":"NW1 8JA","la":"Camden","era":"other","nn":161,"risk":22,"cat":"green"},{"name":"The Pineapple Public House","lat":51.55299,"lon":-0.13966,"postcode":"NW5 2NX","la":"Camden","era":"other","nn":227,"risk":22,"cat":"green"},{"name":"The Queens","lat":51.54062,"lon":-0.15777,"postcode":"NW1 8XD","la":"Camden","era":"trad","nn":265,"risk":23,"cat":"green"},{"name":"The Rocket","lat":51.52831,"lon":-0.1289,"postcode":"NW1 2AL","la":"Camden","era":"other","nn":109,"risk":22,"cat":"green"},{"name":"The Roebuck","lat":51.55385,"lon":-0.16757,"postcode":"NW3 2PN","la":"Camden","era":"other","nn":159,"risk":22,"cat":"green"},{"name":"The Sheephaven Bay","lat":51.53518,"lon":-0.14169,"postcode":"NW1 7QD","la":"Camden","era":"other","nn":128,"risk":22,"cat":"green"},{"name":"The Signal Box PH","lat":51.52867,"lon":-0.13327,"postcode":"NW1 2HS","la":"Camden","era":"other","nn":0,"risk":21,"cat":"green"},{"name":"The Stag","lat":51.55336,"lon":-0.1616,"postcode":"NW3 2QU","la":"Camden","era":"trad","nn":310,"risk":23,"cat":"green"},{"name":"The Unicorn","lat":51.54893,"lon":-0.12957,"postcode":"NW1 9AA","la":"Camden","era":"other","nn":192,"risk":22,"cat":"green"},{"name":"The Vine","lat":51.55484,"lon":-0.14435,"postcode":"NW5 1PB","la":"Camden","era":"other","nn":383,"risk":23,"cat":"green"},{"name":"The Washington","lat":51.54577,"lon":-0.16286,"postcode":"NW3 4UE","la":"Camden","era":"other","nn":58,"risk":21,"cat":"green"},{"name":"The Wells Tavern","lat":51.55873,"lon":-0.1736,"postcode":"NW3 1BX","la":"Camden","era":"other","nn":141,"risk":22,"cat":"green"},{"name":"The World's End","lat":51.53919,"lon":-0.14197,"postcode":"NW1 0NE","la":"Camden","era":"other","nn":41,"risk":21,"cat":"green"},{"name":"The York & Albany P.H","lat":51.53624,"lon":-0.14637,"postcode":"NW1 7PS","la":"Camden","era":"other","nn":97,"risk":21,"cat":"green"},{"name":"Ye Olde Swiss Cottage","lat":51.54279,"lon":-0.17466,"postcode":"NW3 5EL","la":"Camden","era":"other","nn":174,"risk":22,"cat":"green"},{"name":"Zodiac Bar","lat":51.52807,"lon":-0.13903,"postcode":"NW1 3EE","la":"Camden","era":"other","nn":163,"risk":22,"cat":"green"},{"name":"Exchange At The Collective","lat":51.529,"lon":-0.25037,"postcode":"NW10 6FF","la":"Ealing","era":"mod","nn":223,"risk":27,"cat":"green"},{"name":"The Fishermans Arms","lat":51.53064,"lon":-0.24849,"postcode":"NW10 6UB","la":"Ealing","era":"trad","nn":223,"risk":27,"cat":"green"},{"name":"Uncle Mo Lounge","lat":51.5298,"lon":-0.26741,"postcode":"NW10 7NR","la":"Ealing","era":"mod","nn":700,"risk":50,"cat":"amber"},{"name":"Crocker'S Folly","lat":51.52578,"lon":-0.17499,"postcode":"NW8 8JR","la":"Westminster","era":"other","nn":773,"risk":34,"cat":"amber"},{"name":"The Sir John Balcombe Pub","lat":51.5235,"lon":-0.16178,"postcode":"NW1 6HE","la":"Westminster","era":"other","nn":785,"risk":34,"cat":"amber"}]