[{"name":"147 Snooker Club","lat":56.0402,"lon":-3.42177,"postcode":"KY11 2PP","la":"Fife","era":"other","nn":105,"risk":18,"cat":"green"},{"name":"35 Social Club","lat":56.2518,"lon":-3.20098,"postcode":"KY15 7AP","la":"Fife","era":"mod","nn":321,"risk":24,"cat":"green"},{"name":"Abbeyview Bowling Club","lat":56.06631,"lon":-3.42535,"postcode":"KY11 4HA","la":"Fife","era":"trad","nn":1879,"risk":52,"cat":"amber"},{"name":"Abbotshall","lat":56.10553,"lon":-3.16169,"postcode":"KY1 1TH","la":"Fife","era":"other","nn":160,"risk":18,"cat":"green"},{"name":"Abdie Hall","lat":56.33572,"lon":-3.20754,"postcode":"KY14 6HY","la":"Fife","era":"other","nn":2299,"risk":55,"cat":"amber"},{"name":"Aberdour Bowling Club","lat":56.05344,"lon":-3.30118,"postcode":"KY3 0TR","la":"Fife","era":"other","nn":87,"risk":35,"cat":"amber"},{"name":"Aberdour Hotel","lat":56.05343,"lon":-3.30308,"postcode":"KY3 0SW","la":"Fife","era":"other","nn":32,"risk":35,"cat":"amber"},{"name":"Agenda Bar And Restaurant","lat":56.20287,"lon":-2.99664,"postcode":"KY8 4SE","la":"Fife","era":"mod","nn":436,"risk":20,"cat":"green"},{"name":"Aikmans Bar-Bistro","lat":56.33962,"lon":-2.79884,"postcode":"KY16 9UX","la":"Fife","era":"other","nn":74,"risk":17,"cat":"green"},{"name":"Albert Tavern","lat":56.24794,"lon":-3.15683,"postcode":"KY15 7EX","la":"Fife","era":"other","nn":127,"risk":35,"cat":"amber"},{"name":"Alhambra Theatre","lat":56.06981,"lon":-3.45799,"postcode":"KY12 7NX","la":"Fife","era":"other","nn":109,"risk":18,"cat":"green"},{"name":"Anstruther Bowling Club","lat":56.22491,"lon":-2.70097,"postcode":"KY10 3EP","la":"Fife","era":"other","nn":227,"risk":18,"cat":"green"},{"name":"Anstruther Golf Club","lat":56.22048,"lon":-2.70552,"postcode":"KY10 3DZ","la":"Fife","era":"other","nn":192,"risk":21,"cat":"green"},{"name":"Argyle Bar","lat":56.1855,"lon":-3.01826,"postcode":"KY8 3LR","la":"Fife","era":"other","nn":152,"risk":18,"cat":"green"},{"name":"Auchterderran Golf Club","lat":56.15333,"lon":-3.27201,"postcode":"KY5 0NH","la":"Fife","era":"other","nn":586,"risk":38,"cat":"amber"},{"name":"Auchtermuchty Bowling Club","lat":56.29449,"lon":-3.23489,"postcode":"KY14 7BX","la":"Fife","era":"other","nn":325,"risk":39,"cat":"amber"},{"name":"Auld Hoose","lat":56.16991,"lon":-3.03387,"postcode":"KY8 1AL","la":"Fife","era":"other","nn":82,"risk":17,"cat":"green"},{"name":"Auld Hoose","lat":56.14899,"lon":-3.26663,"postcode":"KY5 0NA","la":"Fife","era":"other","nn":345,"risk":19,"cat":"green"},{"name":"Balbirnie Park Golf Club","lat":56.21081,"lon":-3.14678,"postcode":"KY7 6NR","la":"Fife","era":"other","nn":1159,"risk":47,"cat":"amber"},{"name":"Balcomie Golf Club","lat":56.2794,"lon":-2.59525,"postcode":"KY10 3XN","la":"Fife","era":"other","nn":2881,"risk":59,"cat":"amber"},{"name":"Balgonie Bowling Club","lat":56.18554,"lon":-3.12449,"postcode":"KY7 6HS","la":"Fife","era":"other","nn":1341,"risk":49,"cat":"amber"},{"name":"Ballingry Rovers Sports And Social Club","lat":56.14388,"lon":-3.32357,"postcode":"KY5 8AB","la":"Fife","era":"mod","nn":623,"risk":41,"cat":"amber"},{"name":"Balmullo Bowling Club","lat":56.37719,"lon":-2.92623,"postcode":"KY16 0AE","la":"Fife","era":"other","nn":0,"risk":37,"cat":"amber"},{"name":"Balmullo Inn","lat":56.37719,"lon":-2.92623,"postcode":"KY16 0AE","la":"Fife","era":"trad","nn":0,"risk":37,"cat":"amber"},{"name":"Baxters","lat":56.12558,"lon":-3.12153,"postcode":"KY1 2UG","la":"Fife","era":"other","nn":119,"risk":18,"cat":"green"},{"name":"Bayview Bar","lat":56.18673,"lon":-3.01451,"postcode":"KY8 3NA","la":"Fife","era":"other","nn":270,"risk":19,"cat":"green"},{"name":"Bayview Club","lat":56.18419,"lon":-3.01753,"postcode":"KY8 3BT","la":"Fife","era":"other","nn":152,"risk":18,"cat":"green"},{"name":"Bear Tavern","lat":56.3508,"lon":-3.23762,"postcode":"KY14 6AH","la":"Fife","era":"other","nn":286,"risk":24,"cat":"green"},{"name":"Betty Nicols","lat":56.1133,"lon":-3.15494,"postcode":"KY1 1JL","la":"Fife","era":"other","nn":0,"risk":17,"cat":"green"},{"name":"Beveridge Park Bowling Club","lat":56.11243,"lon":-3.166,"postcode":"KY1 1YG","la":"Fife","era":"other","nn":199,"risk":18,"cat":"green"},{"name":"Blairhall Village Bar","lat":56.08645,"lon":-3.60296,"postcode":"KY12 9PJ","la":"Fife","era":"other","nn":1589,"risk":50,"cat":"amber"},{"name":"Blue Mondays","lat":56.10875,"lon":-3.15957,"postcode":"KY1 1NB","la":"Fife","era":"other","nn":0,"risk":17,"cat":"green"},{"name":"Bogarts","lat":56.12206,"lon":-3.14407,"postcode":"KY1 2NS","la":"Fife","era":"other","nn":133,"risk":18,"cat":"green"},{"name":"Bowling Club","lat":56.14673,"lon":-3.26282,"postcode":"KY5 0BN","la":"Fife","era":"other","nn":139,"risk":18,"cat":"green"},{"name":"Braefoot Tavern","lat":56.17294,"lon":-3.24458,"postcode":"KY5 0XB","la":"Fife","era":"other","nn":238,"risk":36,"cat":"amber"},{"name":"Braehead Social Club","lat":56.20444,"lon":-2.7689,"postcode":"KY10 2AL","la":"Fife","era":"other","nn":2370,"risk":56,"cat":"amber"},{"name":"Brig Tavern","lat":56.18782,"lon":-3.00559,"postcode":"KY8 3EA","la":"Fife","era":"other","nn":206,"risk":18,"cat":"green"},{"name":"British Legion","lat":56.25939,"lon":-2.62488,"postcode":"KY10 3TZ","la":"Fife","era":"other","nn":434,"risk":40,"cat":"amber"},{"name":"British Legion Club","lat":56.19071,"lon":-3.15667,"postcode":"KY7 4AH","la":"Fife","era":"other","nn":361,"risk":19,"cat":"green"},{"name":"British Legion Club","lat":56.21003,"lon":-3.04888,"postcode":"KY8 5JS","la":"Fife","era":"other","nn":0,"risk":19,"cat":"green"},{"name":"Broad Street Bowling Club","lat":56.10692,"lon":-3.34393,"postcode":"KY4 8JP","la":"Fife","era":"other","nn":47,"risk":17,"cat":"green"},{"name":"Bruce Tavern","lat":56.07212,"lon":-3.46376,"postcode":"KY12 7AG","la":"Fife","era":"other","nn":0,"risk":17,"cat":"green"},{"name":"Buck 'n' Hind","lat":56.17334,"lon":-3.04152,"postcode":"KY8 1EQ","la":"Fife","era":"other","nn":422,"risk":20,"cat":"green"},{"name":"Buckhaven Bowling Club","lat":56.17265,"lon":-3.03446,"postcode":"KY8 1JW","la":"Fife","era":"other","nn":236,"risk":18,"cat":"green"},{"name":"Burgh Arms","lat":56.03041,"lon":-3.39777,"postcode":"KY11 1NN","la":"Fife","era":"trad","nn":0,"risk":17,"cat":"green"},{"name":"Burns Tavern","lat":56.20295,"lon":-3.20712,"postcode":"KY6 3DB","la":"Fife","era":"other","nn":186,"risk":21,"cat":"green"},{"name":"Burntisland Bowling Club","lat":56.06349,"lon":-3.22313,"postcode":"KY3 9HU","la":"Fife","era":"other","nn":635,"risk":21,"cat":"green"},{"name":"Burntisland Golf Club","lat":56.07216,"lon":-3.20727,"postcode":"KY3 9LQ","la":"Fife","era":"other","nn":1378,"risk":49,"cat":"amber"},{"name":"Burts Bar","lat":56.17009,"lon":-3.03517,"postcode":"KY8 1AT","la":"Fife","era":"other","nn":82,"risk":17,"cat":"green"},{"name":"Cairneyhill Inn","lat":56.06041,"lon":-3.52768,"postcode":"KY12 8QT","la":"Fife","era":"trad","nn":3289,"risk":62,"cat":"red"},{"name":"Cairnsmill Public House","lat":56.31775,"lon":-2.80606,"postcode":"KY16 8NN","la":"Fife","era":"trad","nn":1988,"risk":53,"cat":"amber"},{"name":"Canmore Golf Club","lat":56.08365,"lon":-3.45713,"postcode":"KY12 0PE","la":"Fife","era":"other","nn":454,"risk":25,"cat":"green"},{"name":"Carousel Motel","lat":56.0661,"lon":-3.17472,"postcode":"KY3 9RN","la":"Fife","era":"other","nn":148,"risk":20,"cat":"green"},{"name":"Catering @ Ladybank Golf Club","lat":56.28323,"lon":-3.12546,"postcode":"KY15 7RA","la":"Fife","era":"other","nn":409,"risk":37,"cat":"amber"},{"name":"Central Bar","lat":56.1456,"lon":-3.26185,"postcode":"KY5 0BW","la":"Fife","era":"other","nn":139,"risk":18,"cat":"green"},{"name":"Central Bar","lat":56.03103,"lon":-3.39805,"postcode":"KY11 1NL","la":"Fife","era":"other","nn":71,"risk":17,"cat":"green"},{"name":"Ceres Bowling Club","lat":56.29501,"lon":-2.97204,"postcode":"KY15 5NB","la":"Fife","era":"other","nn":2249,"risk":55,"cat":"amber"},{"name":"Charleton Golf Club","lat":56.22185,"lon":-2.86773,"postcode":"KY9 1HG","la":"Fife","era":"other","nn":1250,"risk":48,"cat":"amber"},{"name":"Charter Masonic Lodge","lat":56.11432,"lon":-3.16805,"postcode":"KY2 5PS","la":"Fife","era":"trad","nn":245,"risk":19,"cat":"green"},{"name":"Citizen","lat":56.07212,"lon":-3.46376,"postcode":"KY12 7AG","la":"Fife","era":"other","nn":0,"risk":17,"cat":"green"},{"name":"CJ's Premier Pool","lat":56.04044,"lon":-3.4234,"postcode":"KY11 2QZ","la":"Fife","era":"other","nn":0,"risk":17,"cat":"green"},{"name":"Clansman","lat":56.20368,"lon":-3.20399,"postcode":"KY6 3DA","la":"Fife","era":"other","nn":210,"risk":21,"cat":"green"},{"name":"Cleikum Inn","lat":56.16312,"lon":-3.33481,"postcode":"KY5 8QA","la":"Fife","era":"trad","nn":603,"risk":41,"cat":"amber"},{"name":"Club Tropicana","lat":56.07195,"lon":-3.45727,"postcode":"KY12 7QE","la":"Fife","era":"other","nn":85,"risk":17,"cat":"green"},{"name":"Coady's Bar","lat":56.07296,"lon":-3.46095,"postcode":"KY12 7AJ","la":"Fife","era":"other","nn":0,"risk":17,"cat":"green"},{"name":"Coaledge Tavern","lat":56.08376,"lon":-3.36014,"postcode":"KY4 8HB","la":"Fife","era":"other","nn":873,"risk":28,"cat":"green"},{"name":"Coaltown Of Wemyss Bowling Club","lat":56.15029,"lon":-3.09128,"postcode":"KY1 4NS","la":"Fife","era":"other","nn":1132,"risk":47,"cat":"amber"},{"name":"Commercial Arms","lat":56.38216,"lon":-2.88659,"postcode":"KY16 0HE","la":"Fife","era":"trad","nn":0,"risk":37,"cat":"amber"},{"name":"Comrie Tavern","lat":56.08709,"lon":-3.57736,"postcode":"KY12 9HD","la":"Fife","era":"other","nn":0,"risk":19,"cat":"green"},{"name":"Coopers Bar","lat":56.18265,"lon":-3.16289,"postcode":"KY7 4RH","la":"Fife","era":"trad","nn":937,"risk":41,"cat":"amber"},{"name":"Cowdenbeath Bowling Club","lat":56.11183,"lon":-3.34889,"postcode":"KY4 9DF","la":"Fife","era":"other","nn":215,"risk":18,"cat":"green"},{"name":"Cowdenbeath Golf Club","lat":56.10888,"lon":-3.33843,"postcode":"KY4 8PD","la":"Fife","era":"other","nn":272,"risk":19,"cat":"green"},{"name":"Craigie Bar","lat":56.16459,"lon":-3.32544,"postcode":"KY5 8NR","la":"Fife","era":"other","nn":603,"risk":26,"cat":"green"},{"name":"Crail Bowling Club","lat":56.26095,"lon":-2.63133,"postcode":"KY10 3UU","la":"Fife","era":"other","nn":434,"risk":40,"cat":"amber"},{"name":"Cross Keys Bar","lat":56.34072,"lon":-2.79588,"postcode":"KY16 9NX","la":"Fife","era":"trad","nn":146,"risk":18,"cat":"green"},{"name":"Crossgates Bowling Club","lat":56.08304,"lon":-3.37533,"postcode":"KY4 8AL","la":"Fife","era":"trad","nn":331,"risk":24,"cat":"green"},{"name":"Crown Hotel","lat":56.05974,"lon":-3.58063,"postcode":"KY12 8ST","la":"Fife","era":"trad","nn":307,"risk":39,"cat":"amber"},{"name":"Crown Inn","lat":56.195,"lon":-2.99734,"postcode":"KY8 4NA","la":"Fife","era":"trad","nn":43,"risk":17,"cat":"green"},{"name":"Crown Tavern","lat":56.05911,"lon":-3.23041,"postcode":"KY3 9DY","la":"Fife","era":"trad","nn":0,"risk":17,"cat":"green"},{"name":"Crown Tavern","lat":56.0698,"lon":-3.17494,"postcode":"KY3 9UW","la":"Fife","era":"trad","nn":136,"risk":20,"cat":"green"},{"name":"Crusoe Social Club","lat":56.21481,"lon":-2.94825,"postcode":"KY8 6DF","la":"Fife","era":"mod","nn":371,"risk":22,"cat":"green"},{"name":"Crystal Bar","lat":56.08587,"lon":-3.37369,"postcode":"KY4 8DA","la":"Fife","era":"other","nn":0,"risk":22,"cat":"green"},{"name":"Cupar Arms Hotel","lat":56.32047,"lon":-3.01136,"postcode":"KY15 4BH","la":"Fife","era":"trad","nn":93,"risk":17,"cat":"green"},{"name":"Cupar Bowling Club","lat":56.32295,"lon":-3.00644,"postcode":"KY15 4HD","la":"Fife","era":"other","nn":410,"risk":20,"cat":"green"},{"name":"Cupar Cricket Club","lat":56.32003,"lon":-3.02709,"postcode":"KY15 4AQ","la":"Fife","era":"other","nn":216,"risk":18,"cat":"green"},{"name":"Cycle Tavern","lat":56.29253,"lon":-3.23098,"postcode":"KY14 7AJ","la":"Fife","era":"other","nn":325,"risk":39,"cat":"amber"},{"name":"Dairsie Inn","lat":56.3451,"lon":-2.94995,"postcode":"KY15 4SR","la":"Fife","era":"trad","nn":2365,"risk":56,"cat":"amber"},{"name":"Dalgety Bay Bowling Club","lat":56.03555,"lon":-3.36578,"postcode":"KY11 9GB","la":"Fife","era":"other","nn":753,"risk":42,"cat":"amber"},{"name":"Dalgety Bay Sailing Club Ltd","lat":56.03385,"lon":-3.34501,"postcode":"KY11 9SJ","la":"Fife","era":"other","nn":1304,"risk":48,"cat":"amber"},{"name":"Denbeath Social Club","lat":56.17773,"lon":-3.03262,"postcode":"KY8 1DG","la":"Fife","era":"mod","nn":514,"risk":20,"cat":"green"},{"name":"Diamonds Bar","lat":56.12869,"lon":-3.3094,"postcode":"KY5 9QN","la":"Fife","era":"other","nn":140,"risk":18,"cat":"green"},{"name":"Douglas Arms","lat":56.18591,"lon":-3.03677,"postcode":"KY8 2DW","la":"Fife","era":"trad","nn":145,"risk":23,"cat":"green"},{"name":"Duffus Park Bowling Club","lat":56.31813,"lon":-3.0278,"postcode":"KY15 4HY","la":"Fife","era":"other","nn":216,"risk":18,"cat":"green"},{"name":"Dukes Course Golf Clubhouse","lat":56.31782,"lon":-2.8383,"postcode":"KY16 8NX","la":"Fife","era":"trad","nn":1988,"risk":53,"cat":"amber"},{"name":"Dundonald Bluebell Jnr FC","lat":56.13824,"lon":-3.26188,"postcode":"KY5 0DA","la":"Fife","era":"other","nn":179,"risk":21,"cat":"green"},{"name":"Dunfermline Bowling Club","lat":56.0687,"lon":-3.46062,"postcode":"KY12 7PG","la":"Fife","era":"other","nn":98,"risk":17,"cat":"green"},{"name":"Dunfermline Sports Club","lat":56.06157,"lon":-3.46653,"postcode":"KY12 7XA","la":"Fife","era":"other","nn":762,"risk":22,"cat":"green"},{"name":"Dunfermline Tennis And Bridge Club","lat":56.06503,"lon":-3.45553,"postcode":"KY11 3AF","la":"Fife","era":"other","nn":252,"risk":19,"cat":"green"},{"name":"Dunfermline West End Bowling Club","lat":56.07718,"lon":-3.47446,"postcode":"KY12 9EH","la":"Fife","era":"other","nn":144,"risk":18,"cat":"green"},{"name":"Dunnikier Park And Homes Social Club","lat":56.13357,"lon":-3.15121,"postcode":"KY1 3ND","la":"Fife","era":"mod","nn":666,"risk":41,"cat":"amber"},{"name":"Dunvegan Bar","lat":56.10728,"lon":-3.34434,"postcode":"KY4 8HY","la":"Fife","era":"other","nn":47,"risk":17,"cat":"green"},{"name":"Dysart Bowling Club","lat":56.12632,"lon":-3.12554,"postcode":"KY1 2TB","la":"Fife","era":"other","nn":147,"risk":18,"cat":"green"},{"name":"Earlsferry Thistle Golf Club","lat":56.19002,"lon":-2.83248,"postcode":"KY9 1AY","la":"Fife","era":"other","nn":307,"risk":36,"cat":"amber"},{"name":"East Dock Bar/Kitchen","lat":56.18514,"lon":-3.00995,"postcode":"KY8 3EQ","la":"Fife","era":"mod","nn":0,"risk":17,"cat":"green"},{"name":"East Fife Indoor Bowling Club","lat":56.18891,"lon":-3.00925,"postcode":"KY8 3AB","la":"Fife","era":"other","nn":51,"risk":17,"cat":"green"},{"name":"East Port Bar","lat":56.07151,"lon":-3.45839,"postcode":"KY12 7JG","la":"Fife","era":"other","nn":73,"risk":17,"cat":"green"},{"name":"East Wemyss Bowling Club","lat":56.15847,"lon":-3.06956,"postcode":"KY1 4RE","la":"Fife","era":"other","nn":294,"risk":39,"cat":"amber"},{"name":"Eddy's Bar","lat":56.13049,"lon":-3.19283,"postcode":"KY2 6NH","la":"Fife","era":"other","nn":591,"risk":26,"cat":"green"},{"name":"Elbow Room","lat":56.13402,"lon":-3.1323,"postcode":"KY1 3HT","la":"Fife","era":"other","nn":76,"risk":17,"cat":"green"},{"name":"Elgins Lodge At Leven No 91","lat":56.19636,"lon":-2.99711,"postcode":"KY8 4LF","la":"Fife","era":"other","nn":115,"risk":18,"cat":"green"},{"name":"Empire Bar","lat":56.18344,"lon":-3.0144,"postcode":"KY8 3QP","la":"Fife","era":"other","nn":211,"risk":18,"cat":"green"},{"name":"Estuary","lat":56.10222,"lon":-3.16164,"postcode":"KY1 1QR","la":"Fife","era":"other","nn":347,"risk":19,"cat":"green"},{"name":"Expressions School Of Dance","lat":56.19081,"lon":-3.01452,"postcode":"KY8 3LG","la":"Fife","era":"other","nn":361,"risk":19,"cat":"green"},{"name":"Fair Isle Bowling Club","lat":56.12719,"lon":-3.18535,"postcode":"KY2 6EU","la":"Fife","era":"other","nn":147,"risk":20,"cat":"green"},{"name":"Fairways Catering Ltd","lat":56.19138,"lon":-2.82816,"postcode":"KY9 1AS","la":"Fife","era":"other","nn":307,"risk":24,"cat":"green"},{"name":"Fairways Restaurant","lat":56.30338,"lon":-3.05687,"postcode":"KY15 5RS","la":"Fife","era":"other","nn":2430,"risk":56,"cat":"amber"},{"name":"Falkland Bowling Club","lat":56.25448,"lon":-3.33421,"postcode":"KY14 7RP","la":"Fife","era":"other","nn":3638,"risk":65,"cat":"red"},{"name":"Falkland Cricket Club","lat":56.25467,"lon":-3.20044,"postcode":"KY15 7DB","la":"Fife","era":"other","nn":272,"risk":24,"cat":"green"},{"name":"Falkland Golf Club","lat":56.25521,"lon":-3.19615,"postcode":"KY15 7AA","la":"Fife","era":"other","nn":272,"risk":24,"cat":"green"},{"name":"Feuars Arms","lat":56.12098,"lon":-3.14623,"postcode":"KY1 2PH","la":"Fife","era":"trad","nn":180,"risk":18,"cat":"green"},{"name":"Fife Arms","lat":56.12888,"lon":-3.13696,"postcode":"KY1 2DB","la":"Fife","era":"trad","nn":395,"risk":20,"cat":"green"},{"name":"Fife Southern Rugby Club","lat":56.03716,"lon":-3.41078,"postcode":"KY11 2ND","la":"Fife","era":"other","nn":507,"risk":20,"cat":"green"},{"name":"Forester Arms","lat":56.05336,"lon":-3.30258,"postcode":"KY3 0SJ","la":"Fife","era":"trad","nn":32,"risk":35,"cat":"amber"},{"name":"Forth Cruising Club","lat":56.03167,"lon":-3.47788,"postcode":"KY11 3JR","la":"Fife","era":"other","nn":486,"risk":40,"cat":"amber"},{"name":"Freuchie Bowling Club","lat":56.24683,"lon":-3.15725,"postcode":"KY15 7HW","la":"Fife","era":"other","nn":0,"risk":34,"cat":"amber"},{"name":"Freuchie Cricket Club","lat":56.24683,"lon":-3.15725,"postcode":"KY15 7HW","la":"Fife","era":"other","nn":0,"risk":34,"cat":"amber"},{"name":"Gallagher's Bar","lat":56.03184,"lon":-3.39615,"postcode":"KY11 1ND","la":"Fife","era":"other","nn":148,"risk":18,"cat":"green"},{"name":"Gallatown Bowling Club","lat":56.13183,"lon":-3.13257,"postcode":"KY1 3BS","la":"Fife","era":"other","nn":201,"risk":18,"cat":"green"},{"name":"Glen Tavern","lat":56.07172,"lon":-3.47106,"postcode":"KY12 8AN","la":"Fife","era":"other","nn":211,"risk":18,"cat":"green"},{"name":"Glen Tavern","lat":56.11349,"lon":-3.34713,"postcode":"KY4 9AY","la":"Fife","era":"other","nn":208,"risk":18,"cat":"green"},{"name":"Glenrothes Golf Club","lat":56.188,"lon":-3.20749,"postcode":"KY6 2LA","la":"Fife","era":"other","nn":951,"risk":43,"cat":"amber"},{"name":"Glenrothes Rugby Club","lat":56.19127,"lon":-3.14356,"postcode":"KY7 5AH","la":"Fife","era":"other","nn":240,"risk":21,"cat":"green"},{"name":"Glenrothes Snooker Club","lat":56.19063,"lon":-3.19286,"postcode":"KY6 2NR","la":"Fife","era":"other","nn":951,"risk":43,"cat":"amber"},{"name":"Golden Acorn Wetherlodge","lat":56.19649,"lon":-3.16771,"postcode":"KY7 5NA","la":"Fife","era":"other","nn":326,"risk":22,"cat":"green"},{"name":"Golf Inn @ Ladybank","lat":56.2765,"lon":-3.12271,"postcode":"KY15 7LJ","la":"Fife","era":"trad","nn":461,"risk":38,"cat":"amber"},{"name":"Golf Tavern","lat":56.05911,"lon":-3.23041,"postcode":"KY3 9DY","la":"Fife","era":"other","nn":0,"risk":17,"cat":"green"},{"name":"Greenside Bar And Catering","lat":56.20162,"lon":-2.98995,"postcode":"KY8 4SP","la":"Fife","era":"mod","nn":436,"risk":20,"cat":"green"},{"name":"Guardbridge Bowling Club","lat":56.36741,"lon":-2.89449,"postcode":"KY16 0XB","la":"Fife","era":"other","nn":1710,"risk":51,"cat":"amber"},{"name":"Half Crown","lat":56.03041,"lon":-3.39777,"postcode":"KY11 1NN","la":"Fife","era":"trad","nn":0,"risk":17,"cat":"green"},{"name":"Harbour Bar","lat":56.11602,"lon":-3.15213,"postcode":"KY1 2SN","la":"Fife","era":"other","nn":115,"risk":18,"cat":"green"},{"name":"Harlem","lat":56.07212,"lon":-3.46376,"postcode":"KY12 7AG","la":"Fife","era":"other","nn":0,"risk":17,"cat":"green"},{"name":"Harlem","lat":56.10614,"lon":-3.15904,"postcode":"KY1 1RF","la":"Fife","era":"other","nn":178,"risk":18,"cat":"green"},{"name":"Hat And Ribbon","lat":56.02993,"lon":-3.3991,"postcode":"KY11 1NW","la":"Fife","era":"other","nn":81,"risk":17,"cat":"green"},{"name":"Headwell Bowling Club","lat":56.07841,"lon":-3.4511,"postcode":"KY12 0JQ","la":"Fife","era":"trad","nn":692,"risk":22,"cat":"green"},{"name":"Heart And Sound","lat":56.07296,"lon":-3.46095,"postcode":"KY12 7AJ","la":"Fife","era":"other","nn":0,"risk":17,"cat":"green"},{"name":"Heritage Bar","lat":56.1133,"lon":-3.15494,"postcode":"KY1 1JL","la":"Fife","era":"other","nn":0,"risk":17,"cat":"green"},{"name":"Hickory 1887","lat":56.06746,"lon":-3.1798,"postcode":"KY3 9RS","la":"Fife","era":"other","nn":202,"risk":21,"cat":"green"},{"name":"Hill Of Beath Ex Servicemens Club","lat":56.09605,"lon":-3.36737,"postcode":"KY4 8DP","la":"Fife","era":"other","nn":1000,"risk":46,"cat":"amber"},{"name":"Home Farm View","lat":56.13464,"lon":-3.2104,"postcode":"KY2 6QW","la":"Fife","era":"other","nn":1183,"risk":48,"cat":"amber"},{"name":"Howe Function Room","lat":56.28736,"lon":-3.14967,"postcode":"KY15 7UW","la":"Fife","era":"other","nn":1563,"risk":50,"cat":"amber"},{"name":"Imperial Bar","lat":56.31931,"lon":-3.01066,"postcode":"KY15 4LS","la":"Fife","era":"other","nn":81,"risk":17,"cat":"green"},{"name":"Inverkeithing Bowling Club","lat":56.03212,"lon":-3.39218,"postcode":"KY11 1DB","la":"Fife","era":"other","nn":249,"risk":19,"cat":"green"},{"name":"Jamie's Bar","lat":56.20266,"lon":-3.13231,"postcode":"KY7 6DQ","la":"Fife","era":"other","nn":194,"risk":36,"cat":"amber"},{"name":"Johnsons Nightclub","lat":56.07296,"lon":-3.46095,"postcode":"KY12 7AJ","la":"Fife","era":"other","nn":0,"risk":17,"cat":"green"},{"name":"Junction Bar","lat":56.1167,"lon":-3.34282,"postcode":"KY4 9BG","la":"Fife","era":"other","nn":183,"risk":18,"cat":"green"},{"name":"Kelty And Blairadam Ex Servicemen's Club","lat":56.13263,"lon":-3.38083,"postcode":"KY4 0DD","la":"Fife","era":"other","nn":111,"risk":18,"cat":"green"},{"name":"Kelty Bowling Club","lat":56.1334,"lon":-3.37689,"postcode":"KY4 0BL","la":"Fife","era":"other","nn":177,"risk":18,"cat":"green"},{"name":"Kelty Hearts JFC","lat":56.13588,"lon":-3.37854,"postcode":"KY4 0AG","la":"Fife","era":"other","nn":266,"risk":19,"cat":"green"},{"name":"Kemback Bowling Club","lat":56.32431,"lon":-2.94178,"postcode":"KY15 5TS","la":"Fife","era":"other","nn":2365,"risk":56,"cat":"amber"},{"name":"Kennoway Bowling Club","lat":56.21263,"lon":-3.04744,"postcode":"KY8 5LR","la":"Fife","era":"other","nn":303,"risk":21,"cat":"green"},{"name":"Kettlebridge Inn, Bar And Restaurant","lat":56.25546,"lon":-3.11682,"postcode":"KY15 7QD","la":"Fife","era":"other","nn":844,"risk":43,"cat":"amber"},{"name":"Kilt N Keg","lat":56.11228,"lon":-3.34458,"postcode":"KY4 9NF","la":"Fife","era":"other","nn":50,"risk":17,"cat":"green"},{"name":"Kinburn Bowling Club","lat":56.33987,"lon":-2.80423,"postcode":"KY16 9DX","la":"Fife","era":"other","nn":183,"risk":18,"cat":"green"},{"name":"Kingarroch Inn","lat":56.28598,"lon":-3.00465,"postcode":"KY15 5QA","la":"Fife","era":"trad","nn":2249,"risk":55,"cat":"amber"},{"name":"Kinghorn Bowling Club","lat":56.06661,"lon":-3.17692,"postcode":"KY3 9SR","la":"Fife","era":"trad","nn":148,"risk":20,"cat":"green"},{"name":"Kingsbarns Golf Club","lat":56.29237,"lon":-2.65387,"postcode":"KY16 8QD","la":"Fife","era":"trad","nn":3761,"risk":66,"cat":"red"},{"name":"Kingseat Bowling Club","lat":56.09841,"lon":-3.40507,"postcode":"KY12 0TW","la":"Fife","era":"trad","nn":2353,"risk":56,"cat":"amber"},{"name":"Kinneuchar Inn","lat":56.20835,"lon":-2.83252,"postcode":"KY9 1LF","la":"Fife","era":"trad","nn":1636,"risk":51,"cat":"amber"},{"name":"Kirk And Bear","lat":56.11519,"lon":-3.15321,"postcode":"KY1 2SG","la":"Fife","era":"other","nn":115,"risk":18,"cat":"green"},{"name":"Kirkcaldy Bowling Club","lat":56.10907,"lon":-3.16556,"postcode":"KY1 1UR","la":"Fife","era":"other","nn":282,"risk":19,"cat":"green"},{"name":"Kirkcaldy Golf Club","lat":56.10233,"lon":-3.17256,"postcode":"KY2 5LT","la":"Fife","era":"other","nn":0,"risk":17,"cat":"green"},{"name":"Kirkcaldy Rugby Club","lat":56.10233,"lon":-3.17256,"postcode":"KY2 5LT","la":"Fife","era":"other","nn":0,"risk":17,"cat":"green"},{"name":"Kirkland Bar","lat":56.19062,"lon":-3.02454,"postcode":"KY8 2AL","la":"Fife","era":"other","nn":620,"risk":21,"cat":"green"},{"name":"Kittys","lat":56.11089,"lon":-3.16076,"postcode":"KY1 1ED","la":"Fife","era":"other","nn":165,"risk":18,"cat":"green"},{"name":"KUSI","lat":56.11172,"lon":-3.16305,"postcode":"KY1 1ET","la":"Fife","era":"other","nn":170,"risk":18,"cat":"green"},{"name":"Ladybank Youth Club","lat":56.27972,"lon":-3.12741,"postcode":"KY15 7LR","la":"Fife","era":"other","nn":409,"risk":37,"cat":"amber"},{"name":"Leslie Bowling Club","lat":56.20153,"lon":-3.20871,"postcode":"KY6 3AG","la":"Fife","era":"other","nn":173,"risk":21,"cat":"green"},{"name":"Leven Bowling Club","lat":56.19766,"lon":-2.98986,"postcode":"KY8 4HS","la":"Fife","era":"other","nn":0,"risk":17,"cat":"green"},{"name":"Leven Golfing Society","lat":56.19766,"lon":-2.98986,"postcode":"KY8 4HS","la":"Fife","era":"mod","nn":0,"risk":17,"cat":"green"},{"name":"Life Nightclub","lat":56.07064,"lon":-3.46437,"postcode":"KY12 7NA","la":"Fife","era":"other","nn":0,"risk":17,"cat":"green"},{"name":"Lochgelly Bowling Club","lat":56.12744,"lon":-3.31182,"postcode":"KY5 9NH","la":"Fife","era":"other","nn":0,"risk":17,"cat":"green"},{"name":"Lochore Miners Welfare Club","lat":56.15614,"lon":-3.32185,"postcode":"KY5 8DA","la":"Fife","era":"other","nn":0,"risk":22,"cat":"green"},{"name":"Lochore Welfare Junior Football Club","lat":56.14946,"lon":-3.32456,"postcode":"KY5 8AN","la":"Fife","era":"other","nn":623,"risk":26,"cat":"green"},{"name":"Lodge Balcarres","lat":56.2204,"lon":-2.84768,"postcode":"KY9 1LS","la":"Fife","era":"other","nn":0,"risk":37,"cat":"amber"},{"name":"Lodge Balfour Melville","lat":56.18975,"lon":-3.00899,"postcode":"KY8 3AB","la":"Fife","era":"other","nn":94,"risk":17,"cat":"green"},{"name":"Lodge Dunearn No. 400","lat":56.05866,"lon":-3.23458,"postcode":"KY3 9DN","la":"Fife","era":"other","nn":51,"risk":17,"cat":"green"},{"name":"Lodge Minto 385","lat":56.12744,"lon":-3.31182,"postcode":"KY5 9NH","la":"Fife","era":"other","nn":0,"risk":17,"cat":"green"},{"name":"Lodge Oak","lat":56.13716,"lon":-3.38215,"postcode":"KY4 0AL","la":"Fife","era":"trad","nn":142,"risk":18,"cat":"green"},{"name":"Lodge St Clair Of Dysart","lat":56.12609,"lon":-3.1232,"postcode":"KY1 2TZ","la":"Fife","era":"other","nn":119,"risk":18,"cat":"green"},{"name":"Lodge St Fothads","lat":56.14734,"lon":-3.25824,"postcode":"KY5 0JW","la":"Fife","era":"other","nn":292,"risk":21,"cat":"green"},{"name":"Lodge St John No 60","lat":56.02924,"lon":-3.39948,"postcode":"KY11 1LW","la":"Fife","era":"other","nn":81,"risk":17,"cat":"green"},{"name":"Lodge St Kenneth","lat":56.20856,"lon":-3.04958,"postcode":"KY8 5JX","la":"Fife","era":"other","nn":169,"risk":20,"cat":"green"},{"name":"Lodge Union No 250","lat":56.07087,"lon":-3.45818,"postcode":"KY12 7EF","la":"Fife","era":"other","nn":0,"risk":17,"cat":"green"},{"name":"Lourenzos","lat":56.06946,"lon":-3.46145,"postcode":"KY12 7PE","la":"Fife","era":"other","nn":98,"risk":17,"cat":"green"},{"name":"Lumphinnans Bowling Club","lat":56.11838,"lon":-3.3391,"postcode":"KY4 9HG","la":"Fife","era":"trad","nn":113,"risk":18,"cat":"green"},{"name":"Lumphinnans United AFC Clubhouse","lat":56.12016,"lon":-3.33416,"postcode":"KY4 9HW","la":"Fife","era":"trad","nn":365,"risk":24,"cat":"green"},{"name":"Lundin Golf Club","lat":56.21099,"lon":-2.95358,"postcode":"KY8 6BA","la":"Fife","era":"other","nn":258,"risk":21,"cat":"green"},{"name":"Lundin Links Bowling Club","lat":56.21377,"lon":-2.95581,"postcode":"KY8 6AH","la":"Fife","era":"other","nn":146,"risk":20,"cat":"green"},{"name":"Lundin Sports Club","lat":56.21331,"lon":-2.9536,"postcode":"KY8 6AY","la":"Fife","era":"other","nn":146,"risk":20,"cat":"green"},{"name":"Lupos","lat":56.34175,"lon":-2.79744,"postcode":"KY16 9AD","la":"Fife","era":"other","nn":150,"risk":18,"cat":"green"},{"name":"Madras College Former Pupils Rugby Club","lat":56.3448,"lon":-2.8265,"postcode":"KY16 9SF","la":"Fife","era":"other","nn":1390,"risk":49,"cat":"amber"},{"name":"Man I The Rock","lat":56.12839,"lon":-3.11901,"postcode":"KY1 2UL","la":"Fife","era":"other","nn":350,"risk":22,"cat":"green"},{"name":"Markinch Bowling Club","lat":56.20133,"lon":-3.13692,"postcode":"KY7 6BD","la":"Fife","era":"other","nn":162,"risk":35,"cat":"amber"},{"name":"Masonic Arms","lat":56.2229,"lon":-2.70032,"postcode":"KY10 3EA","la":"Fife","era":"trad","nn":130,"risk":18,"cat":"green"},{"name":"Masonic Lodge","lat":56.20237,"lon":-3.21105,"postcode":"KY6 3AF","la":"Fife","era":"trad","nn":173,"risk":21,"cat":"green"},{"name":"Masonic Lodge","lat":56.20253,"lon":-3.13543,"postcode":"KY7 6AA","la":"Fife","era":"trad","nn":162,"risk":35,"cat":"amber"},{"name":"McAndrews Bar","lat":56.12785,"lon":-3.15441,"postcode":"KY1 2LS","la":"Fife","era":"other","nn":666,"risk":21,"cat":"green"},{"name":"McPhails","lat":56.19536,"lon":-2.99759,"postcode":"KY8 4LY","la":"Fife","era":"other","nn":0,"risk":17,"cat":"green"},{"name":"Methil And District Ex-Servicemens Club","lat":56.18514,"lon":-3.00995,"postcode":"KY8 3EQ","la":"Fife","era":"other","nn":0,"risk":17,"cat":"green"},{"name":"Methilhill Bowling Club","lat":56.18607,"lon":-3.03444,"postcode":"KY8 2DP","la":"Fife","era":"other","nn":145,"risk":20,"cat":"green"},{"name":"Milton House Pub","lat":56.06315,"lon":-3.23924,"postcode":"KY3 0HA","la":"Fife","era":"mod","nn":242,"risk":19,"cat":"green"},{"name":"Miners Welfare Club","lat":56.17415,"lon":-3.2414,"postcode":"KY5 0XA","la":"Fife","era":"other","nn":0,"risk":34,"cat":"amber"},{"name":"Minto Lounge Bar","lat":56.12702,"lon":-3.30898,"postcode":"KY5 9QQ","la":"Fife","era":"mod","nn":62,"risk":17,"cat":"green"},{"name":"Mitchell Hall","lat":56.17415,"lon":-3.2414,"postcode":"KY5 0XA","la":"Fife","era":"other","nn":0,"risk":34,"cat":"amber"},{"name":"Molly Malones","lat":56.3399,"lon":-2.80125,"postcode":"KY16 9XD","la":"Fife","era":"other","nn":94,"risk":17,"cat":"green"},{"name":"Molly Malones","lat":56.19436,"lon":-2.9993,"postcode":"KY8 4LX","la":"Fife","era":"other","nn":0,"risk":17,"cat":"green"},{"name":"Montagues","lat":56.10921,"lon":-3.15995,"postcode":"KY1 1LW","la":"Fife","era":"other","nn":56,"risk":17,"cat":"green"},{"name":"Monty's","lat":56.07086,"lon":-3.4619,"postcode":"KY12 7NR","la":"Fife","era":"other","nn":0,"risk":17,"cat":"green"},{"name":"Nethertown Bowling Club","lat":56.06667,"lon":-3.45834,"postcode":"KY12 7DS","la":"Fife","era":"other","nn":214,"risk":18,"cat":"green"},{"name":"Newburgh Bowling Club","lat":56.3492,"lon":-3.24803,"postcode":"KY14 6DS","la":"Fife","era":"other","nn":275,"risk":24,"cat":"green"},{"name":"No. 1 Goth","lat":56.13342,"lon":-3.37973,"postcode":"KY4 0AA","la":"Fife","era":"other","nn":111,"risk":18,"cat":"green"},{"name":"North Lodge Caravan Park (Pub)","lat":56.14138,"lon":-3.12424,"postcode":"KY1 2YS","la":"Fife","era":"other","nn":959,"risk":44,"cat":"amber"},{"name":"Northern Bowling Club","lat":56.07322,"lon":-3.46896,"postcode":"KY12 8AD","la":"Fife","era":"other","nn":211,"risk":18,"cat":"green"},{"name":"Novar Bar","lat":56.10688,"lon":-3.16327,"postcode":"KY1 1NY","la":"Fife","era":"other","nn":179,"risk":18,"cat":"green"},{"name":"Oakley Club","lat":56.08695,"lon":-3.57218,"postcode":"KY12 9QG","la":"Fife","era":"trad","nn":0,"risk":19,"cat":"green"},{"name":"Oakley United Football Club","lat":56.08695,"lon":-3.57218,"postcode":"KY12 9QG","la":"Fife","era":"trad","nn":0,"risk":19,"cat":"green"},{"name":"Old Cross Guns Inn","lat":56.10754,"lon":-3.3421,"postcode":"KY4 8LS","la":"Fife","era":"trad","nn":132,"risk":18,"cat":"green"},{"name":"Old Port Bar","lat":56.06,"lon":-3.23124,"postcode":"KY3 9AQ","la":"Fife","era":"other","nn":112,"risk":18,"cat":"green"},{"name":"Old Ship Inn","lat":56.12434,"lon":-3.30584,"postcode":"KY5 9LW","la":"Fife","era":"trad","nn":150,"risk":18,"cat":"green"},{"name":"P J Molloys","lat":56.07034,"lon":-3.46066,"postcode":"KY12 7NU","la":"Fife","era":"other","nn":97,"risk":17,"cat":"green"},{"name":"Palace Nightspot","lat":56.04044,"lon":-3.4234,"postcode":"KY11 2QZ","la":"Fife","era":"other","nn":0,"risk":17,"cat":"green"},{"name":"Parsonage Bar","lat":56.31824,"lon":-3.01214,"postcode":"KY15 5AS","la":"Fife","era":"other","nn":100,"risk":18,"cat":"green"},{"name":"Partners Bar","lat":56.10997,"lon":-3.34352,"postcode":"KY4 9NP","la":"Fife","era":"other","nn":0,"risk":17,"cat":"green"},{"name":"Partners Nite Spot","lat":56.10997,"lon":-3.34352,"postcode":"KY4 9NP","la":"Fife","era":"other","nn":0,"risk":17,"cat":"green"},{"name":"Peoples Club And Institute","lat":56.10786,"lon":-3.15954,"postcode":"KY1 1RL","la":"Fife","era":"other","nn":56,"risk":17,"cat":"green"},{"name":"Pinkertons","lat":56.19145,"lon":-3.1746,"postcode":"KY7 4JH","la":"Fife","era":"other","nn":335,"risk":24,"cat":"green"},{"name":"Pittenweem Bowling And Tennis Club","lat":56.2144,"lon":-2.73501,"postcode":"KY10 2PZ","la":"Fife","era":"other","nn":197,"risk":36,"cat":"amber"},{"name":"Pittenweem Inn","lat":56.21601,"lon":-2.73372,"postcode":"KY10 2QJ","la":"Fife","era":"trad","nn":197,"risk":36,"cat":"amber"},{"name":"Prinlaws","lat":56.1996,"lon":-3.21804,"postcode":"KY6 3BN","la":"Fife","era":"other","nn":531,"risk":23,"cat":"green"},{"name":"Queens Hall","lat":56.03631,"lon":-3.49661,"postcode":"KY11 3EG","la":"Fife","era":"trad","nn":817,"risk":43,"cat":"amber"},{"name":"RAA And Gunners Club","lat":56.13359,"lon":-3.13325,"postcode":"KY1 3HQ","la":"Fife","era":"other","nn":76,"risk":17,"cat":"green"},{"name":"Raffles Bar","lat":56.07173,"lon":-3.46653,"postcode":"KY12 8AT","la":"Fife","era":"other","nn":110,"risk":18,"cat":"green"},{"name":"Railway Club","lat":56.12457,"lon":-3.14188,"postcode":"KY1 2BH","la":"Fife","era":"trad","nn":310,"risk":19,"cat":"green"},{"name":"Raith Rovers Football Club","lat":56.10109,"lon":-3.1686,"postcode":"KY1 1SA","la":"Fife","era":"other","nn":282,"risk":19,"cat":"green"},{"name":"Red Lion Inn","lat":56.05482,"lon":-3.62869,"postcode":"KY12 8HN","la":"Fife","era":"trad","nn":2078,"risk":54,"cat":"amber"},{"name":"Rosyth Bowling Club","lat":56.04045,"lon":-3.42507,"postcode":"KY11 2SD","la":"Fife","era":"other","nn":104,"risk":18,"cat":"green"},{"name":"Rosyth Ex Servicemens Club","lat":56.03642,"lon":-3.41887,"postcode":"KY11 2BP","la":"Fife","era":"other","nn":457,"risk":20,"cat":"green"},{"name":"Royal And Ancient Golf Club Of St Andrews","lat":56.34357,"lon":-2.80235,"postcode":"KY16 9JD","la":"Fife","era":"trad","nn":133,"risk":18,"cat":"green"},{"name":"Royal And Ancient Golf Club Of St Andrews","lat":56.34269,"lon":-2.8038,"postcode":"KY16 9JB","la":"Fife","era":"trad","nn":0,"risk":17,"cat":"green"},{"name":"Royal British Legion","lat":56.08587,"lon":-3.37369,"postcode":"KY4 8DA","la":"Fife","era":"trad","nn":0,"risk":22,"cat":"green"},{"name":"Royal British Legion","lat":56.07087,"lon":-3.45818,"postcode":"KY12 7EF","la":"Fife","era":"trad","nn":0,"risk":17,"cat":"green"},{"name":"Royal British Legion Leven Branch","lat":56.19436,"lon":-2.9993,"postcode":"KY8 4LX","la":"Fife","era":"trad","nn":0,"risk":17,"cat":"green"},{"name":"Royal Oak Social Club","lat":56.12565,"lon":-3.31039,"postcode":"KY5 9AA","la":"Fife","era":"other","nn":176,"risk":18,"cat":"green"},{"name":"Ruddons Bar","lat":56.19413,"lon":-2.86207,"postcode":"KY9 1HB","la":"Fife","era":"other","nn":1887,"risk":53,"cat":"amber"},{"name":"Rumblingwell","lat":56.07706,"lon":-3.47677,"postcode":"KY12 9EG","la":"Fife","era":"other","nn":144,"risk":18,"cat":"green"},{"name":"Rumours Cafe Bar","lat":56.11181,"lon":-3.15828,"postcode":"KY1 1EH","la":"Fife","era":"other","nn":0,"risk":17,"cat":"green"},{"name":"Saline Golf Club And Bar","lat":56.11293,"lon":-3.56369,"postcode":"KY12 9NF","la":"Fife","era":"other","nn":812,"risk":42,"cat":"amber"},{"name":"Shardy's","lat":56.12744,"lon":-3.30965,"postcode":"KY5 9QG","la":"Fife","era":"other","nn":62,"risk":17,"cat":"green"},{"name":"Silver Birch","lat":56.10137,"lon":-3.35436,"postcode":"KY4 8LG","la":"Fife","era":"other","nn":740,"risk":27,"cat":"green"},{"name":"Silver Tassie","lat":56.05877,"lon":-3.23537,"postcode":"KY3 9AS","la":"Fife","era":"other","nn":51,"risk":17,"cat":"green"},{"name":"Smugglers Inn","lat":56.05809,"lon":-3.23587,"postcode":"KY3 9DP","la":"Fife","era":"trad","nn":81,"risk":17,"cat":"green"},{"name":"Society Bar And Nightclub","lat":56.10836,"lon":-3.15967,"postcode":"KY1 1RN","la":"Fife","era":"mod","nn":44,"risk":17,"cat":"green"},{"name":"Somewhere Else","lat":56.07086,"lon":-3.4619,"postcode":"KY12 7NR","la":"Fife","era":"other","nn":0,"risk":17,"cat":"green"},{"name":"Sportsman Bar","lat":56.04158,"lon":-3.41283,"postcode":"KY11 2NX","la":"Fife","era":"other","nn":507,"risk":20,"cat":"green"},{"name":"St Andrews Bowling Club","lat":56.3359,"lon":-2.79648,"postcode":"KY16 8JA","la":"Fife","era":"other","nn":118,"risk":18,"cat":"green"},{"name":"St Andrews Golf Club","lat":56.34269,"lon":-2.8038,"postcode":"KY16 9JB","la":"Fife","era":"other","nn":0,"risk":17,"cat":"green"},{"name":"St Andrews Ladies Bridge Club","lat":56.33684,"lon":-2.79558,"postcode":"KY16 9QF","la":"Fife","era":"other","nn":118,"risk":18,"cat":"green"},{"name":"St Andrews Sailing Club","lat":56.26973,"lon":-3.09062,"postcode":"KY16 9RG","la":"Fife","era":"other","nn":2087,"risk":54,"cat":"amber"},{"name":"St Andrews United Social And Recreation Club","lat":56.33484,"lon":-2.79266,"postcode":"KY16 8BN","la":"Fife","era":"mod","nn":264,"risk":19,"cat":"green"},{"name":"St Clair Bowling Club","lat":56.12553,"lon":-3.13485,"postcode":"KY1 3DB","la":"Fife","era":"other","nn":395,"risk":20,"cat":"green"},{"name":"St Clair Tavern","lat":56.12169,"lon":-3.14204,"postcode":"KY1 2QE","la":"Fife","era":"other","nn":133,"risk":18,"cat":"green"},{"name":"St Michaels Golf Club House","lat":56.34006,"lon":-2.79975,"postcode":"KY16 9UY","la":"Fife","era":"other","nn":0,"risk":17,"cat":"green"},{"name":"Starks Bar","lat":56.09913,"lon":-3.16431,"postcode":"KY1 1SG","la":"Fife","era":"other","nn":343,"risk":19,"cat":"green"},{"name":"Station Bar","lat":56.1975,"lon":-3.00254,"postcode":"KY8 4QU","la":"Fife","era":"other","nn":359,"risk":19,"cat":"green"},{"name":"Station Hotel","lat":56.16619,"lon":-3.14593,"postcode":"KY1 4AG","la":"Fife","era":"other","nn":440,"risk":40,"cat":"amber"},{"name":"Steelend Miners Welfare Club","lat":56.11297,"lon":-3.55058,"postcode":"KY12 9LX","la":"Fife","era":"other","nn":812,"risk":42,"cat":"amber"},{"name":"Strathmiglo Bowling Club","lat":56.27764,"lon":-3.26901,"postcode":"KY14 7PZ","la":"Fife","era":"other","nn":252,"risk":39,"cat":"amber"},{"name":"Styx","lat":56.11688,"lon":-3.15938,"postcode":"KY1 1DS","la":"Fife","era":"other","nn":249,"risk":19,"cat":"green"},{"name":"Sunbeam Inn","lat":56.20948,"lon":-3.04664,"postcode":"KY8 5JZ","la":"Fife","era":"trad","nn":151,"risk":20,"cat":"green"},{"name":"Swan Hotel","lat":56.21003,"lon":-3.04888,"postcode":"KY8 5JS","la":"Fife","era":"trad","nn":0,"risk":19,"cat":"green"},{"name":"Tappie Toories","lat":56.07091,"lon":-3.46354,"postcode":"KY12 7NB","la":"Fife","era":"other","nn":59,"risk":17,"cat":"green"},{"name":"Tayview Bar","lat":56.35065,"lon":-3.24441,"postcode":"KY14 6DZ","la":"Fife","era":"other","nn":275,"risk":24,"cat":"green"},{"name":"The Abbey Inn","lat":56.35085,"lon":-3.23298,"postcode":"KY14 6HA","la":"Fife","era":"trad","nn":286,"risk":24,"cat":"green"},{"name":"The Auld Classic Bar","lat":56.07638,"lon":-3.4642,"postcode":"KY12 9DP","la":"Fife","era":"other","nn":405,"risk":20,"cat":"green"},{"name":"The Auld Hoose","lat":56.06999,"lon":-3.17278,"postcode":"KY3 9SY","la":"Fife","era":"other","nn":136,"risk":20,"cat":"green"},{"name":"The Auld Hoose","lat":56.19275,"lon":-3.05618,"postcode":"KY8 5DF","la":"Fife","era":"other","nn":0,"risk":34,"cat":"amber"},{"name":"The Auld Hoose","lat":56.19275,"lon":-3.05618,"postcode":"KY8 5DF","la":"Fife","era":"other","nn":0,"risk":34,"cat":"amber"},{"name":"The Auld Inn","lat":56.2204,"lon":-2.84768,"postcode":"KY9 1LS","la":"Fife","era":"trad","nn":0,"risk":37,"cat":"amber"},{"name":"The Bakers Field","lat":56.1108,"lon":-3.15706,"postcode":"KY1 1RW","la":"Fife","era":"other","nn":0,"risk":17,"cat":"green"},{"name":"The Beath Inn","lat":56.11263,"lon":-3.34408,"postcode":"KY4 9QE","la":"Fife","era":"trad","nn":0,"risk":17,"cat":"green"},{"name":"The Boudingait","lat":56.31968,"lon":-3.01274,"postcode":"KY15 4BU","la":"Fife","era":"other","nn":58,"risk":17,"cat":"green"},{"name":"The Brass House","lat":56.07286,"lon":-3.46256,"postcode":"KY12 7AN","la":"Fife","era":"other","nn":100,"risk":18,"cat":"green"},{"name":"The Brown Bear","lat":56.04348,"lon":-3.42625,"postcode":"KY11 2JF","la":"Fife","era":"other","nn":345,"risk":19,"cat":"green"},{"name":"The Bruce Arms","lat":56.03448,"lon":-3.48388,"postcode":"KY11 3HL","la":"Fife","era":"trad","nn":486,"risk":38,"cat":"amber"},{"name":"The Bruce Inn","lat":56.25335,"lon":-3.20658,"postcode":"KY15 7BZ","la":"Fife","era":"trad","nn":387,"risk":25,"cat":"green"},{"name":"The Coastal Inn","lat":56.22332,"lon":-2.68833,"postcode":"KY10 3BB","la":"Fife","era":"trad","nn":432,"risk":22,"cat":"green"},{"name":"The Cottars Bar","lat":56.04212,"lon":-3.43499,"postcode":"KY11 2TX","la":"Fife","era":"other","nn":563,"risk":21,"cat":"green"},{"name":"The Creepy Wee Pub","lat":56.07064,"lon":-3.46437,"postcode":"KY12 7NA","la":"Fife","era":"other","nn":0,"risk":17,"cat":"green"},{"name":"The Criterion","lat":56.33979,"lon":-2.79421,"postcode":"KY16 9QW","la":"Fife","era":"other","nn":146,"risk":18,"cat":"green"},{"name":"The Dreel Tavern","lat":56.2222,"lon":-2.70555,"postcode":"KY10 3DL","la":"Fife","era":"other","nn":192,"risk":21,"cat":"green"},{"name":"The Drop Inn","lat":56.11775,"lon":-3.34054,"postcode":"KY4 9HD","la":"Fife","era":"trad","nn":113,"risk":18,"cat":"green"},{"name":"The Exchequer","lat":56.10875,"lon":-3.15957,"postcode":"KY1 1NB","la":"Fife","era":"other","nn":0,"risk":17,"cat":"green"},{"name":"The Family, The Polish Club","lat":56.11906,"lon":-3.17217,"postcode":"KY2 5TA","la":"Fife","era":"other","nn":169,"risk":18,"cat":"green"},{"name":"The Friendship Cabin","lat":56.19193,"lon":-3.15126,"postcode":"KY7 5DF","la":"Fife","era":"trad","nn":258,"risk":21,"cat":"green"},{"name":"The Golf Tavern","lat":56.31351,"lon":-3.01027,"postcode":"KY15 5JF","la":"Fife","era":"other","nn":438,"risk":20,"cat":"green"},{"name":"The Goth Tavern","lat":56.05959,"lon":-3.58557,"postcode":"KY12 8SS","la":"Fife","era":"other","nn":307,"risk":21,"cat":"green"},{"name":"The Greyhound","lat":56.08415,"lon":-3.56582,"postcode":"KY12 9RU","la":"Fife","era":"trad","nn":502,"risk":23,"cat":"green"},{"name":"The Guildhall And Linen Exchange","lat":56.07124,"lon":-3.46012,"postcode":"KY12 7DR","la":"Fife","era":"other","nn":106,"risk":18,"cat":"green"},{"name":"The Haberdashery","lat":56.06848,"lon":-3.45715,"postcode":"KY12 7DZ","la":"Fife","era":"other","nn":49,"risk":17,"cat":"green"},{"name":"The Haven Bar And Restaurant","lat":56.22595,"lon":-2.68317,"postcode":"KY10 3BD","la":"Fife","era":"mod","nn":432,"risk":40,"cat":"amber"},{"name":"The Hillend Tavern","lat":56.041,"lon":-3.37297,"postcode":"KY11 9ND","la":"Fife","era":"other","nn":753,"risk":42,"cat":"amber"},{"name":"The Inn At Lathones","lat":56.26809,"lon":-2.85024,"postcode":"KY9 1JE","la":"Fife","era":"trad","nn":5255,"risk":74,"cat":"red"},{"name":"The Jubilee Tavern","lat":56.0632,"lon":-3.23534,"postcode":"KY3 0EN","la":"Fife","era":"other","nn":242,"risk":19,"cat":"green"},{"name":"The Kings","lat":56.13817,"lon":-3.38357,"postcode":"KY4 0AN","la":"Fife","era":"trad","nn":142,"risk":18,"cat":"green"},{"name":"The Kings Arms","lat":56.13043,"lon":-3.3061,"postcode":"KY5 9DJ","la":"Fife","era":"trad","nn":282,"risk":19,"cat":"green"},{"name":"The Malt Barn Inn","lat":56.24873,"lon":-3.18447,"postcode":"KY15 7RZ","la":"Fife","era":"trad","nn":1019,"risk":46,"cat":"amber"},{"name":"The Monarch Bar","lat":56.07213,"lon":-3.45528,"postcode":"KY12 7QF","la":"Fife","era":"other","nn":125,"risk":18,"cat":"green"},{"name":"The New Club","lat":56.11009,"lon":-3.15851,"postcode":"KY1 1NQ","la":"Fife","era":"other","nn":120,"risk":18,"cat":"green"},{"name":"The New Inn","lat":56.33499,"lon":-2.78359,"postcode":"KY16 8AZ","la":"Fife","era":"trad","nn":559,"risk":21,"cat":"green"},{"name":"The Otters Head","lat":56.19215,"lon":-3.14711,"postcode":"KY7 5DQ","la":"Fife","era":"trad","nn":240,"risk":21,"cat":"green"},{"name":"The Path Tavern","lat":56.11989,"lon":-3.14874,"postcode":"KY1 2PE","la":"Fife","era":"other","nn":197,"risk":18,"cat":"green"},{"name":"The Penny Farthing Public House","lat":56.10778,"lon":-3.16049,"postcode":"KY1 1LL","la":"Fife","era":"other","nn":59,"risk":17,"cat":"green"},{"name":"The Phoenix","lat":56.19569,"lon":-3.17278,"postcode":"KY7 5NT","la":"Fife","era":"other","nn":326,"risk":24,"cat":"green"},{"name":"The Railway Inn","lat":56.21234,"lon":-2.94082,"postcode":"KY8 6BU","la":"Fife","era":"trad","nn":536,"risk":23,"cat":"green"},{"name":"The Railway Tavern","lat":56.17082,"lon":-3.03642,"postcode":"KY8 1BQ","la":"Fife","era":"trad","nn":113,"risk":18,"cat":"green"},{"name":"The Railway Tavern (Public House Bar)","lat":56.14366,"lon":-3.25846,"postcode":"KY5 0PA","la":"Fife","era":"other","nn":301,"risk":19,"cat":"green"},{"name":"The Red Goth","lat":56.15614,"lon":-3.32185,"postcode":"KY5 8DA","la":"Fife","era":"other","nn":0,"risk":22,"cat":"green"},{"name":"The Robert Nairn - Lloyds No 1","lat":56.11181,"lon":-3.15828,"postcode":"KY1 1EH","la":"Fife","era":"other","nn":0,"risk":17,"cat":"green"},{"name":"The Rule","lat":56.33902,"lon":-2.79667,"postcode":"KY16 9QD","la":"Fife","era":"other","nn":149,"risk":18,"cat":"green"},{"name":"The Seven Kings","lat":56.07143,"lon":-3.46485,"postcode":"KY12 8DA","la":"Fife","era":"trad","nn":92,"risk":17,"cat":"green"},{"name":"The Ship Inn","lat":56.18867,"lon":-2.81626,"postcode":"KY9 1DT","la":"Fife","era":"trad","nn":278,"risk":36,"cat":"amber"},{"name":"The Ship Tavern","lat":56.2225,"lon":-2.69835,"postcode":"KY10 3AQ","la":"Fife","era":"trad","nn":130,"risk":18,"cat":"green"},{"name":"The St Rule Club","lat":56.34269,"lon":-2.8038,"postcode":"KY16 9JB","la":"Fife","era":"other","nn":0,"risk":17,"cat":"green"},{"name":"The Stanes","lat":56.20794,"lon":-3.16985,"postcode":"KY7 6RU","la":"Fife","era":"other","nn":1279,"risk":48,"cat":"amber"},{"name":"The Star","lat":56.05894,"lon":-3.23615,"postcode":"KY3 9BD","la":"Fife","era":"other","nn":51,"risk":17,"cat":"green"},{"name":"The Station Bar","lat":56.31737,"lon":-3.0117,"postcode":"KY15 5HQ","la":"Fife","era":"other","nn":100,"risk":18,"cat":"green"},{"name":"The Station Buffet","lat":56.19073,"lon":-2.8188,"postcode":"KY9 1BZ","la":"Fife","era":"other","nn":278,"risk":24,"cat":"green"},{"name":"The Station Inn","lat":56.26252,"lon":-3.12182,"postcode":"KY15 7PY","la":"Fife","era":"trad","nn":844,"risk":43,"cat":"amber"},{"name":"The Steadings","lat":56.1179,"lon":-3.17393,"postcode":"KY2 5RB","la":"Fife","era":"other","nn":169,"risk":18,"cat":"green"},{"name":"The Strath Tavern","lat":56.27718,"lon":-3.27301,"postcode":"KY14 7PT","la":"Fife","era":"other","nn":252,"risk":39,"cat":"amber"},{"name":"The Tavern","lat":56.12589,"lon":-3.18571,"postcode":"KY2 6EY","la":"Fife","era":"other","nn":96,"risk":20,"cat":"green"},{"name":"The Tavern","lat":56.12571,"lon":-3.18419,"postcode":"KY2 6EY","la":"Fife","era":"other","nn":96,"risk":20,"cat":"green"},{"name":"The Venue","lat":56.18149,"lon":-3.02067,"postcode":"KY8 3PD","la":"Fife","era":"other","nn":358,"risk":19,"cat":"green"},{"name":"The Vic","lat":56.34006,"lon":-2.79975,"postcode":"KY16 9UY","la":"Fife","era":"other","nn":0,"risk":17,"cat":"green"},{"name":"The Village Inn","lat":56.13779,"lon":-3.2591,"postcode":"KY5 0DJ","la":"Fife","era":"trad","nn":179,"risk":23,"cat":"green"},{"name":"The Watering Hole","lat":56.06887,"lon":-3.45749,"postcode":"KY12 7DZ","la":"Fife","era":"other","nn":49,"risk":17,"cat":"green"},{"name":"The White Heather","lat":56.12485,"lon":-3.17083,"postcode":"KY2 5DE","la":"Fife","era":"other","nn":649,"risk":21,"cat":"green"},{"name":"The Yard Social Club","lat":56.03629,"lon":-3.42705,"postcode":"KY11 2BN","la":"Fife","era":"mod","nn":478,"risk":20,"cat":"green"},{"name":"Thornton Bowling Club","lat":56.16719,"lon":-3.13905,"postcode":"KY1 4AY","la":"Fife","era":"other","nn":440,"risk":37,"cat":"amber"},{"name":"Thornton Golf Club","lat":56.16701,"lon":-3.12845,"postcode":"KY1 4DW","la":"Fife","era":"other","nn":657,"risk":41,"cat":"amber"},{"name":"Torleys Bar","lat":56.1255,"lon":-3.30707,"postcode":"KY5 9JP","la":"Fife","era":"other","nn":150,"risk":18,"cat":"green"},{"name":"Tower Bar","lat":56.18874,"lon":-3.00848,"postcode":"KY8 3AE","la":"Fife","era":"other","nn":51,"risk":17,"cat":"green"},{"name":"Townhill Bowling Club","lat":56.09017,"lon":-3.4409,"postcode":"KY12 0HE","la":"Fife","era":"other","nn":236,"risk":38,"cat":"amber"},{"name":"Truth","lat":56.19536,"lon":-2.99759,"postcode":"KY8 4LY","la":"Fife","era":"other","nn":0,"risk":17,"cat":"green"},{"name":"Valley Bar","lat":56.06182,"lon":-3.59678,"postcode":"KY12 8SJ","la":"Fife","era":"other","nn":76,"risk":22,"cat":"green"},{"name":"Valleyfield Community Centre","lat":56.06249,"lon":-3.59706,"postcode":"KY12 8UA","la":"Fife","era":"other","nn":76,"risk":22,"cat":"green"},{"name":"Valleyfield Sports And Social Club","lat":56.06388,"lon":-3.59942,"postcode":"KY12 8RT","la":"Fife","era":"mod","nn":213,"risk":23,"cat":"green"},{"name":"Victoria Bowling Club","lat":56.11504,"lon":-3.16165,"postcode":"KY1 1DJ","la":"Fife","era":"trad","nn":249,"risk":19,"cat":"green"},{"name":"Village Inn","lat":56.08805,"lon":-3.44098,"postcode":"KY12 0HP","la":"Fife","era":"trad","nn":236,"risk":38,"cat":"amber"},{"name":"Walker Tavern","lat":56.31967,"lon":-3.0118,"postcode":"KY15 4BP","la":"Fife","era":"other","nn":58,"risk":17,"cat":"green"},{"name":"Wallaces Bar And Restaurant","lat":56.19705,"lon":-2.99517,"postcode":"KY8 4HA","la":"Fife","era":"mod","nn":143,"risk":18,"cat":"green"},{"name":"Warout Stadium","lat":56.19018,"lon":-3.16969,"postcode":"KY7 4JY","la":"Fife","era":"other","nn":335,"risk":19,"cat":"green"},{"name":"Watts","lat":56.31891,"lon":-3.00727,"postcode":"KY15 5YQ","la":"Fife","era":"other","nn":214,"risk":18,"cat":"green"},{"name":"Weavers","lat":56.1195,"lon":-3.16418,"postcode":"KY2 5JZ","la":"Fife","era":"other","nn":416,"risk":20,"cat":"green"},{"name":"Wee Jimmies","lat":56.11263,"lon":-3.34408,"postcode":"KY4 9QE","la":"Fife","era":"other","nn":0,"risk":17,"cat":"green"},{"name":"Wellesley Inn","lat":56.17821,"lon":-3.02435,"postcode":"KY8 3PQ","la":"Fife","era":"trad","nn":429,"risk":20,"cat":"green"},{"name":"Wellwood Social Club","lat":56.08576,"lon":-3.4634,"postcode":"KY12 0NP","la":"Fife","era":"mod","nn":454,"risk":40,"cat":"amber"},{"name":"Wemyss Central Hotel","lat":56.15895,"lon":-3.06489,"postcode":"KY1 4RX","la":"Fife","era":"other","nn":294,"risk":39,"cat":"amber"},{"name":"West End Bar","lat":56.2136,"lon":-2.73187,"postcode":"KY10 2QB","la":"Fife","era":"other","nn":214,"risk":36,"cat":"amber"},{"name":"West End Bowling Club","lat":56.10502,"lon":-3.1641,"postcode":"KY1 1TL","la":"Fife","era":"other","nn":160,"risk":18,"cat":"green"},{"name":"West Wemyss Community Pub","lat":56.14082,"lon":-3.08454,"postcode":"KY1 4SP","la":"Fife","era":"other","nn":1132,"risk":47,"cat":"amber"},{"name":"Westport Tavern","lat":56.31905,"lon":-3.01682,"postcode":"KY15 4LF","la":"Fife","era":"other","nn":261,"risk":19,"cat":"green"},{"name":"Wheatsheaf Inn","lat":56.1108,"lon":-3.15706,"postcode":"KY1 1RW","la":"Fife","era":"trad","nn":0,"risk":17,"cat":"green"},{"name":"Whey Pat Tavern","lat":56.33846,"lon":-2.80131,"postcode":"KY16 9EX","la":"Fife","era":"other","nn":160,"risk":18,"cat":"green"},{"name":"White Gates","lat":56.08709,"lon":-3.57736,"postcode":"KY12 9HD","la":"Fife","era":"other","nn":0,"risk":19,"cat":"green"},{"name":"Windygates Bowling Club","lat":56.19301,"lon":-3.05275,"postcode":"KY8 5DA","la":"Fife","era":"other","nn":214,"risk":36,"cat":"amber"},{"name":"Woodside Hotel","lat":56.10592,"lon":-3.34564,"postcode":"KY4 8JR","la":"Fife","era":"other","nn":155,"risk":18,"cat":"green"},{"name":"Woodside Inn","lat":56.18901,"lon":-3.14971,"postcode":"KY7 5DP","la":"Fife","era":"trad","nn":339,"risk":22,"cat":"green"},{"name":"Wyvern","lat":56.34206,"lon":-2.8045,"postcode":"KY16 9HP","la":"Fife","era":"other","nn":82,"risk":17,"cat":"green"},{"name":"Ye Olde Hotel","lat":56.38216,"lon":-2.88659,"postcode":"KY16 0HE","la":"Fife","era":"other","nn":0,"risk":37,"cat":"amber"},{"name":"Balgedie Toll Tavern","lat":56.22251,"lon":-3.34674,"postcode":"KY13 9HE","la":"Perth and Kinross","era":"other","nn":3638,"risk":75,"cat":"red"}]