[{"name":"Admiral Casino","lat":53.71416,"lon":-1.63219,"postcode":"WF17 5DS","la":"Kirklees","era":"other","nn":172,"risk":16,"cat":"green"},{"name":"Airedale Heifer","lat":53.68045,"lon":-1.71059,"postcode":"WF14 9QB","la":"Kirklees","era":"other","nn":0,"risk":14,"cat":"green"},{"name":"Arrow Squash Ltd","lat":53.69039,"lon":-1.63252,"postcode":"WF13 1NB","la":"Kirklees","era":"other","nn":235,"risk":16,"cat":"green"},{"name":"Bath Hotel","lat":53.69559,"lon":-1.63485,"postcode":"WF13 2AL","la":"Kirklees","era":"other","nn":220,"risk":16,"cat":"green"},{"name":"Beer Street","lat":53.69027,"lon":-1.63897,"postcode":"WF13 2RE","la":"Kirklees","era":"other","nn":397,"risk":17,"cat":"green"},{"name":"Birstall Conservative Club","lat":53.73239,"lon":-1.66322,"postcode":"WF17 9HB","la":"Kirklees","era":"other","nn":0,"risk":14,"cat":"green"},{"name":"Birstall Cricket Club","lat":53.73371,"lon":-1.65056,"postcode":"WF17 0EJ","la":"Kirklees","era":"other","nn":627,"risk":19,"cat":"green"},{"name":"Black Bull Hotel","lat":53.69206,"lon":-1.62875,"postcode":"WF13 1AE","la":"Kirklees","era":"trad","nn":134,"risk":15,"cat":"green"},{"name":"Black Bull Inn","lat":53.7326,"lon":-1.66794,"postcode":"WF17 9HE","la":"Kirklees","era":"trad","nn":311,"risk":17,"cat":"green"},{"name":"Black Horse Hotel","lat":53.66215,"lon":-1.63615,"postcode":"WF12 0BE","la":"Kirklees","era":"trad","nn":375,"risk":22,"cat":"green"},{"name":"Black Horse Inn","lat":53.72186,"lon":-1.66633,"postcode":"WF17 9AJ","la":"Kirklees","era":"trad","nn":827,"risk":40,"cat":"amber"},{"name":"Blacksmiths Arms","lat":53.6348,"lon":-1.66819,"postcode":"WF4 4DS","la":"Kirklees","era":"trad","nn":855,"risk":40,"cat":"amber"},{"name":"Blenheim House","lat":53.72014,"lon":-1.63223,"postcode":"WF17 0BG","la":"Kirklees","era":"other","nn":560,"risk":18,"cat":"green"},{"name":"Bradford Road Central Club","lat":53.71341,"lon":-1.62729,"postcode":"WF17 5LS","la":"Kirklees","era":"other","nn":129,"risk":15,"cat":"green"},{"name":"Brighton Street Working Mens Club","lat":53.71261,"lon":-1.67255,"postcode":"WF16 9EY","la":"Kirklees","era":"trad","nn":299,"risk":17,"cat":"green"},{"name":"Bronte Lounge","lat":53.73247,"lon":-1.6623,"postcode":"WF17 9HA","la":"Kirklees","era":"mod","nn":57,"risk":15,"cat":"green"},{"name":"Butchers Arms","lat":53.70675,"lon":-1.65484,"postcode":"WF13 4AZ","la":"Kirklees","era":"trad","nn":41,"risk":15,"cat":"green"},{"name":"Common Road WMC","lat":53.71022,"lon":-1.65919,"postcode":"WF17 7QL","la":"Kirklees","era":"other","nn":459,"risk":18,"cat":"green"},{"name":"Comrades Club","lat":53.70738,"lon":-1.67642,"postcode":"WF16 0HD","la":"Kirklees","era":"other","nn":23,"risk":15,"cat":"green"},{"name":"Crackenedge Hotel","lat":53.69726,"lon":-1.62969,"postcode":"WF13 1RW","la":"Kirklees","era":"other","nn":141,"risk":15,"cat":"green"},{"name":"Crown Hotel","lat":53.69475,"lon":-1.62045,"postcode":"WF12 7BU","la":"Kirklees","era":"trad","nn":277,"risk":16,"cat":"green"},{"name":"Crown Hotel","lat":53.7071,"lon":-1.65463,"postcode":"WF17 7RB","la":"Kirklees","era":"trad","nn":41,"risk":15,"cat":"green"},{"name":"Dewsbury District Golf Club, The Pinnacle","lat":53.66958,"lon":-1.67145,"postcode":"WF14 8HJ","la":"Kirklees","era":"trad","nn":1154,"risk":45,"cat":"amber"},{"name":"Dewsbury Moor A R L F C and C A S P","lat":53.69624,"lon":-1.65914,"postcode":"WF13 3NU","la":"Kirklees","era":"other","nn":623,"risk":36,"cat":"amber"},{"name":"Dewsbury Rugby League Football Club","lat":53.70016,"lon":-1.60289,"postcode":"WF12 7RH","la":"Kirklees","era":"other","nn":424,"risk":17,"cat":"green"},{"name":"Dewsbury Socialist Club","lat":53.69699,"lon":-1.63178,"postcode":"WF13 2EG","la":"Kirklees","era":"mod","nn":141,"risk":15,"cat":"green"},{"name":"Earlsheaton Central Working Mens Club","lat":53.68727,"lon":-1.61168,"postcode":"WF12 8JF","la":"Kirklees","era":"trad","nn":67,"risk":15,"cat":"green"},{"name":"Earlsheaton Conservative Club","lat":53.68759,"lon":-1.61464,"postcode":"WF12 8BE","la":"Kirklees","era":"other","nn":0,"risk":14,"cat":"green"},{"name":"Edge Top Working Mens Club","lat":53.66226,"lon":-1.6457,"postcode":"WF12 0LT","la":"Kirklees","era":"trad","nn":629,"risk":36,"cat":"amber"},{"name":"Flockton Cricket Club","lat":53.63353,"lon":-1.63492,"postcode":"WF4 4AF","la":"Kirklees","era":"other","nn":310,"risk":22,"cat":"green"},{"name":"Flockton Green Working Mens Club","lat":53.63074,"lon":-1.63503,"postcode":"WF4 4AA","la":"Kirklees","era":"trad","nn":310,"risk":22,"cat":"green"},{"name":"Flower Pot","lat":53.66812,"lon":-1.69436,"postcode":"WF14 8NN","la":"Kirklees","era":"other","nn":448,"risk":18,"cat":"green"},{"name":"Flush Snooker And Social Club","lat":53.70921,"lon":-1.68238,"postcode":"WF15 6AU","la":"Kirklees","era":"mod","nn":329,"risk":17,"cat":"green"},{"name":"Fox And Hounds","lat":53.70291,"lon":-1.61508,"postcode":"WF17 6DB","la":"Kirklees","era":"trad","nn":0,"risk":14,"cat":"green"},{"name":"George Hotel","lat":53.70252,"lon":-1.65752,"postcode":"WF13 4PD","la":"Kirklees","era":"trad","nn":502,"risk":18,"cat":"green"},{"name":"Hanging Heaton Cricket Club","lat":53.70291,"lon":-1.61508,"postcode":"WF17 6DB","la":"Kirklees","era":"other","nn":0,"risk":14,"cat":"green"},{"name":"Hanging Heaton Golf Club","lat":53.69831,"lon":-1.61563,"postcode":"WF12 7DT","la":"Kirklees","era":"other","nn":507,"risk":18,"cat":"green"},{"name":"Hanging Heaton Working Mens Club","lat":53.70376,"lon":-1.60671,"postcode":"WF12 7HF","la":"Kirklees","era":"trad","nn":194,"risk":16,"cat":"green"},{"name":"Hare And Hounds Inn","lat":53.6519,"lon":-1.69148,"postcode":"WF14 8EE","la":"Kirklees","era":"trad","nn":1564,"risk":48,"cat":"amber"},{"name":"Hartshead Social Club","lat":53.69836,"lon":-1.71739,"postcode":"WF15 8AY","la":"Kirklees","era":"other","nn":675,"risk":19,"cat":"green"},{"name":"Heckmondwike Bowling Club","lat":53.71065,"lon":-1.66694,"postcode":"WF16 9LD","la":"Kirklees","era":"other","nn":271,"risk":16,"cat":"green"},{"name":"Heckmondwike Masonic Hall","lat":53.70573,"lon":-1.67378,"postcode":"WF16 0JU","la":"Kirklees","era":"trad","nn":165,"risk":16,"cat":"green"},{"name":"Heckmondwike Sports Club","lat":53.7101,"lon":-1.67095,"postcode":"WF16 9ED","la":"Kirklees","era":"other","nn":271,"risk":16,"cat":"green"},{"name":"Hightown Sports Club","lat":53.7145,"lon":-1.72485,"postcode":"WF15 8HU","la":"Kirklees","era":"other","nn":797,"risk":38,"cat":"amber"},{"name":"Horse And Jockey","lat":53.73239,"lon":-1.66322,"postcode":"WF17 9HB","la":"Kirklees","era":"trad","nn":0,"risk":14,"cat":"green"},{"name":"Irish Democratic League Club","lat":53.71543,"lon":-1.63574,"postcode":"WF17 5DL","la":"Kirklees","era":"other","nn":273,"risk":16,"cat":"green"},{"name":"Irish National Club","lat":53.68784,"lon":-1.64338,"postcode":"WF13 2QG","la":"Kirklees","era":"other","nn":293,"risk":17,"cat":"green"},{"name":"Knowl Club","lat":53.67501,"lon":-1.69128,"postcode":"WF14 8DQ","la":"Kirklees","era":"other","nn":143,"risk":15,"cat":"green"},{"name":"Leggers Inn","lat":53.68363,"lon":-1.62385,"postcode":"WF12 9BD","la":"Kirklees","era":"trad","nn":715,"risk":19,"cat":"green"},{"name":"Liversedge A F C","lat":53.71717,"lon":-1.71361,"postcode":"WF15 8DF","la":"Kirklees","era":"other","nn":544,"risk":18,"cat":"green"},{"name":"Liversedge Cricket Club","lat":53.7003,"lon":-1.7022,"postcode":"WF15 7NP","la":"Kirklees","era":"other","nn":42,"risk":15,"cat":"green"},{"name":"Liversedge Tennis Club","lat":53.70227,"lon":-1.69588,"postcode":"WF15 7BZ","la":"Kirklees","era":"other","nn":226,"risk":16,"cat":"green"},{"name":"Lonsdale Hotel","lat":53.71007,"lon":-1.69328,"postcode":"WF15 6LF","la":"Kirklees","era":"other","nn":162,"risk":16,"cat":"green"},{"name":"Lower Hopton Working Mens Club","lat":53.67163,"lon":-1.69935,"postcode":"WF14 8PN","la":"Kirklees","era":"trad","nn":353,"risk":17,"cat":"green"},{"name":"Masonic Lodge","lat":53.67706,"lon":-1.63489,"postcode":"WF12 9BP","la":"Kirklees","era":"trad","nn":664,"risk":39,"cat":"amber"},{"name":"Mirfield Constitutional Club","lat":53.67494,"lon":-1.69485,"postcode":"WF14 8AX","la":"Kirklees","era":"other","nn":65,"risk":15,"cat":"green"},{"name":"Mirfield Cricket Club","lat":53.67451,"lon":-1.68686,"postcode":"WF14 8AE","la":"Kirklees","era":"other","nn":244,"risk":16,"cat":"green"},{"name":"Mirfield Masonic Lodge","lat":53.67441,"lon":-1.69443,"postcode":"WF14 8AW","la":"Kirklees","era":"trad","nn":65,"risk":15,"cat":"green"},{"name":"Mirfield Parish Cricket Club","lat":53.68399,"lon":-1.68596,"postcode":"WF14 0PN","la":"Kirklees","era":"other","nn":177,"risk":16,"cat":"green"},{"name":"Mirfield Working Mens Club","lat":53.68045,"lon":-1.71059,"postcode":"WF14 9QB","la":"Kirklees","era":"trad","nn":0,"risk":14,"cat":"green"},{"name":"Moorlands Cricket Club","lat":53.67384,"lon":-1.69038,"postcode":"WF14 8AE","la":"Kirklees","era":"other","nn":143,"risk":15,"cat":"green"},{"name":"Morton House Club And Institute","lat":53.67167,"lon":-1.63922,"postcode":"WF12 9HB","la":"Kirklees","era":"mod","nn":664,"risk":37,"cat":"amber"},{"name":"Navigation Tavern","lat":53.67215,"lon":-1.69398,"postcode":"WF14 8NL","la":"Kirklees","era":"other","nn":253,"risk":16,"cat":"green"},{"name":"New Inn","lat":53.70507,"lon":-1.6497,"postcode":"WF17 7BE","la":"Kirklees","era":"trad","nn":43,"risk":15,"cat":"green"},{"name":"Northorpe Working Mens Club And Institute","lat":53.68464,"lon":-1.67487,"postcode":"WF14 0QR","la":"Kirklees","era":"trad","nn":227,"risk":21,"cat":"green"},{"name":"Old Bank WMC","lat":53.68816,"lon":-1.69357,"postcode":"WF14 0HY","la":"Kirklees","era":"other","nn":380,"risk":20,"cat":"green"},{"name":"Old Colonial Club","lat":53.6824,"lon":-1.68611,"postcode":"WF14 9JJ","la":"Kirklees","era":"other","nn":177,"risk":16,"cat":"green"},{"name":"Old Wine And Spirit Vaults","lat":53.73086,"lon":-1.6588,"postcode":"WF17 9AB","la":"Kirklees","era":"other","nn":149,"risk":16,"cat":"green"},{"name":"Overthorpe Sports Club","lat":53.66552,"lon":-1.63602,"postcode":"WF12 0PG","la":"Kirklees","era":"other","nn":375,"risk":20,"cat":"green"},{"name":"Park Earlsheaton","lat":53.68759,"lon":-1.61464,"postcode":"WF12 8BE","la":"Kirklees","era":"other","nn":0,"risk":14,"cat":"green"},{"name":"Pheasant Inn","lat":53.7396,"lon":-1.65251,"postcode":"WF17 9LP","la":"Kirklees","era":"trad","nn":668,"risk":39,"cat":"amber"},{"name":"Plastic Ivy, Amber Court","lat":53.69363,"lon":-1.62422,"postcode":"WF12 7BB","la":"Kirklees","era":"other","nn":230,"risk":16,"cat":"green"},{"name":"Priestley's Sports Bar","lat":53.73233,"lon":-1.66147,"postcode":"WF17 9EY","la":"Kirklees","era":"other","nn":57,"risk":15,"cat":"green"},{"name":"Ravenswharf Hotel","lat":53.68169,"lon":-1.65153,"postcode":"WF13 3EH","la":"Kirklees","era":"other","nn":638,"risk":36,"cat":"amber"},{"name":"Rising Sun","lat":53.70059,"lon":-1.68632,"postcode":"WF15 7AN","la":"Kirklees","era":"other","nn":244,"risk":16,"cat":"green"},{"name":"Roberttown Working Mens Club","lat":53.69988,"lon":-1.7042,"postcode":"WF15 7LT","la":"Kirklees","era":"trad","nn":98,"risk":15,"cat":"green"},{"name":"Rose Of York","lat":53.71524,"lon":-1.63031,"postcode":"WF17 5LW","la":"Kirklees","era":"trad","nn":172,"risk":16,"cat":"green"},{"name":"Savile Arms","lat":53.6646,"lon":-1.61708,"postcode":"WF12 0JZ","la":"Kirklees","era":"trad","nn":333,"risk":19,"cat":"green"},{"name":"Saville Arms","lat":53.68518,"lon":-1.6964,"postcode":"WF14 0AA","la":"Kirklees","era":"trad","nn":361,"risk":19,"cat":"green"},{"name":"Shaw Cross Sharks Arlfc","lat":53.70394,"lon":-1.60378,"postcode":"WF12 7HP","la":"Kirklees","era":"trad","nn":194,"risk":16,"cat":"green"},{"name":"Shepherds Boy","lat":53.68522,"lon":-1.64389,"postcode":"WF13 2RP","la":"Kirklees","era":"other","nn":293,"risk":19,"cat":"green"},{"name":"Shoulder Of Mutton","lat":53.65335,"lon":-1.64838,"postcode":"WF12 0PA","la":"Kirklees","era":"other","nn":1007,"risk":44,"cat":"amber"},{"name":"Shoulder Of Mutton Inn","lat":53.68448,"lon":-1.69104,"postcode":"WF14 0AE","la":"Kirklees","era":"trad","nn":339,"risk":17,"cat":"green"},{"name":"Soothill Working Mens Club","lat":53.71392,"lon":-1.61496,"postcode":"WF17 6HW","la":"Kirklees","era":"trad","nn":800,"risk":25,"cat":"green"},{"name":"South Pennine Boat Club","lat":53.67948,"lon":-1.71507,"postcode":"WF14 0ED","la":"Kirklees","era":"other","nn":135,"risk":18,"cat":"green"},{"name":"Spangled Bull","lat":53.68588,"lon":-1.61367,"postcode":"WF12 8BQ","la":"Kirklees","era":"trad","nn":164,"risk":16,"cat":"green"},{"name":"St Andrews Community Hall","lat":53.70829,"lon":-1.63681,"postcode":"WF17 7NU","la":"Kirklees","era":"other","nn":508,"risk":18,"cat":"green"},{"name":"St Johns Lodge","lat":53.69687,"lon":-1.6374,"postcode":"WF13 2BS","la":"Kirklees","era":"other","nn":220,"risk":16,"cat":"green"},{"name":"St Marys Hall","lat":53.71655,"lon":-1.63967,"postcode":"WF17 8PT","la":"Kirklees","era":"other","nn":259,"risk":16,"cat":"green"},{"name":"St Pauls Church Hall","lat":53.70447,"lon":-1.6114,"postcode":"WF17 6DJ","la":"Kirklees","era":"other","nn":298,"risk":17,"cat":"green"},{"name":"Staincliffe Working Mens Club","lat":53.70535,"lon":-1.65016,"postcode":"WF17 7BA","la":"Kirklees","era":"trad","nn":43,"risk":15,"cat":"green"},{"name":"Station Hotel","lat":53.69347,"lon":-1.6277,"postcode":"WF13 1QY","la":"Kirklees","era":"other","nn":171,"risk":16,"cat":"green"},{"name":"The Ark","lat":53.63287,"lon":-1.6265,"postcode":"WF4 4AL","la":"Kirklees","era":"other","nn":560,"risk":36,"cat":"amber"},{"name":"The Black Bull","lat":53.70997,"lon":-1.69083,"postcode":"WF15 6JR","la":"Kirklees","era":"trad","nn":162,"risk":16,"cat":"green"},{"name":"The Cellar Bar","lat":53.71047,"lon":-1.62563,"postcode":"WF17 5SU","la":"Kirklees","era":"other","nn":331,"risk":17,"cat":"green"},{"name":"The Commercial","lat":53.68667,"lon":-1.61158,"postcode":"WF12 8JE","la":"Kirklees","era":"other","nn":67,"risk":15,"cat":"green"},{"name":"The Cross Keys","lat":53.71147,"lon":-1.71068,"postcode":"WF15 6NE","la":"Kirklees","era":"trad","nn":455,"risk":23,"cat":"green"},{"name":"The Flatt Top","lat":53.65884,"lon":-1.6207,"postcode":"WF12 0HD","la":"Kirklees","era":"other","nn":0,"risk":17,"cat":"green"},{"name":"The George Inn","lat":53.7129,"lon":-1.65255,"postcode":"WF17 8BH","la":"Kirklees","era":"trad","nn":529,"risk":18,"cat":"green"},{"name":"The Gray Ox","lat":53.70007,"lon":-1.72724,"postcode":"WF15 8AL","la":"Kirklees","era":"other","nn":675,"risk":39,"cat":"amber"},{"name":"The Greyhound","lat":53.72873,"lon":-1.66151,"postcode":"WF17 9BA","la":"Kirklees","era":"trad","nn":297,"risk":17,"cat":"green"},{"name":"The Kaye Arms","lat":53.63712,"lon":-1.65583,"postcode":"WF4 4BG","la":"Kirklees","era":"trad","nn":855,"risk":40,"cat":"amber"},{"name":"The Liversedge","lat":53.71217,"lon":-1.68245,"postcode":"WF15 6HX","la":"Kirklees","era":"other","nn":329,"risk":17,"cat":"green"},{"name":"The New Inn","lat":53.70014,"lon":-1.70277,"postcode":"WF15 7NP","la":"Kirklees","era":"trad","nn":42,"risk":15,"cat":"green"},{"name":"The Norristhorpe Ltd","lat":53.70071,"lon":-1.69002,"postcode":"WF15 7AE","la":"Kirklees","era":"other","nn":244,"risk":16,"cat":"green"},{"name":"The Office","lat":53.67441,"lon":-1.69675,"postcode":"WF14 8BE","la":"Kirklees","era":"other","nn":138,"risk":15,"cat":"green"},{"name":"The Pear Tree Inn Pub","lat":53.68024,"lon":-1.71348,"postcode":"WF14 9DL","la":"Kirklees","era":"trad","nn":135,"risk":18,"cat":"green"},{"name":"The Plough","lat":53.68431,"lon":-1.67828,"postcode":"WF14 0QA","la":"Kirklees","era":"trad","nn":227,"risk":19,"cat":"green"},{"name":"The Princess Ballroom","lat":53.73159,"lon":-1.6607,"postcode":"WF17 9EN","la":"Kirklees","era":"trad","nn":97,"risk":15,"cat":"green"},{"name":"The Railway","lat":53.67578,"lon":-1.69812,"postcode":"WF14 9PX","la":"Kirklees","era":"trad","nn":177,"risk":16,"cat":"green"},{"name":"The Red Lion","lat":53.70734,"lon":-1.67433,"postcode":"WF16 0HX","la":"Kirklees","era":"trad","nn":64,"risk":15,"cat":"green"},{"name":"The Royal Air Forces Association","lat":53.7127,"lon":-1.63476,"postcode":"WF17 5JH","la":"Kirklees","era":"trad","nn":235,"risk":16,"cat":"green"},{"name":"The Scarborough","lat":53.66372,"lon":-1.62374,"postcode":"WF12 0QX","la":"Kirklees","era":"other","nn":450,"risk":18,"cat":"green"},{"name":"The Scotland Inn","lat":53.73554,"lon":-1.67743,"postcode":"WF17 9HZ","la":"Kirklees","era":"trad","nn":705,"risk":19,"cat":"green"},{"name":"The Shears Inn","lat":53.71056,"lon":-1.70394,"postcode":"WF15 6NR","la":"Kirklees","era":"trad","nn":455,"risk":20,"cat":"green"},{"name":"The Star Inn","lat":53.69817,"lon":-1.70654,"postcode":"WF15 7LQ","la":"Kirklees","era":"trad","nn":244,"risk":16,"cat":"green"},{"name":"The Sun Inn","lat":53.6298,"lon":-1.64522,"postcode":"WF4 4DW","la":"Kirklees","era":"trad","nn":680,"risk":37,"cat":"amber"},{"name":"The Union Rooms","lat":53.71274,"lon":-1.62888,"postcode":"WF17 5HW","la":"Kirklees","era":"mod","nn":129,"risk":15,"cat":"green"},{"name":"The Victoria","lat":53.71874,"lon":-1.641,"postcode":"WF17 8LL","la":"Kirklees","era":"trad","nn":259,"risk":16,"cat":"green"},{"name":"The Yew Tree (FORMER)","lat":53.70026,"lon":-1.69546,"postcode":"WF15 7PL","la":"Kirklees","era":"other","nn":226,"risk":16,"cat":"green"},{"name":"Thornhill Cricket And Bowling Club","lat":53.66666,"lon":-1.6134,"postcode":"WF12 0QL","la":"Kirklees","era":"other","nn":333,"risk":19,"cat":"green"},{"name":"Thornhill Edge Working Mens Club","lat":53.65884,"lon":-1.6207,"postcode":"WF12 0HD","la":"Kirklees","era":"trad","nn":0,"risk":17,"cat":"green"},{"name":"Travellers Rest","lat":53.66607,"lon":-1.71391,"postcode":"WF14 8EJ","la":"Kirklees","era":"other","nn":516,"risk":23,"cat":"green"},{"name":"Upper Hopton Cricket Club","lat":53.6624,"lon":-1.70726,"postcode":"WF14 8HU","la":"Kirklees","era":"other","nn":0,"risk":19,"cat":"green"},{"name":"Upper Hopton Working Mens Club","lat":53.6624,"lon":-1.70726,"postcode":"WF14 8HU","la":"Kirklees","era":"trad","nn":0,"risk":19,"cat":"green"},{"name":"Wellington Tavern","lat":53.69087,"lon":-1.62904,"postcode":"WF13 1JQ","la":"Kirklees","era":"trad","nn":134,"risk":15,"cat":"green"},{"name":"West Riding","lat":53.69246,"lon":-1.63115,"postcode":"WF13 1HF","la":"Kirklees","era":"other","nn":164,"risk":16,"cat":"green"},{"name":"Westborough Ratepayers Club","lat":53.69776,"lon":-1.65002,"postcode":"WF13 4ND","la":"Kirklees","era":"other","nn":623,"risk":19,"cat":"green"},{"name":"Westgate 23 Ltd","lat":53.70754,"lon":-1.67665,"postcode":"WF16 0HE","la":"Kirklees","era":"other","nn":23,"risk":15,"cat":"green"},{"name":"White Rose Pool And Snooker Club","lat":53.69124,"lon":-1.59389,"postcode":"WF5 9QJ","la":"Kirklees","era":"trad","nn":504,"risk":18,"cat":"green"},{"name":"Whitegate","lat":53.69047,"lon":-1.71285,"postcode":"WF14 0DB","la":"Kirklees","era":"other","nn":926,"risk":38,"cat":"amber"},{"name":"Wike Horse","lat":53.70699,"lon":-1.67511,"postcode":"WF16 0EZ","la":"Kirklees","era":"trad","nn":64,"risk":15,"cat":"green"},{"name":"Woodman Inn","lat":53.69814,"lon":-1.63409,"postcode":"WF13 2BJ","la":"Kirklees","era":"trad","nn":199,"risk":16,"cat":"green"},{"name":"Woolpack Country Inn","lat":53.65661,"lon":-1.6672,"postcode":"WF12 0LZ","la":"Kirklees","era":"trad","nn":1293,"risk":46,"cat":"amber"},{"name":"Anchor Inn","lat":53.74298,"lon":-1.36792,"postcode":"WF10 2DF","la":"Leeds","era":"trad","nn":128,"risk":32,"cat":"amber"},{"name":"Bedford Arms","lat":53.72479,"lon":-1.53699,"postcode":"WF3 2AT","la":"Leeds","era":"trad","nn":395,"risk":34,"cat":"amber"},{"name":"British Oak","lat":53.72401,"lon":-1.57719,"postcode":"WF3 1AF","la":"Leeds","era":"trad","nn":0,"risk":13,"cat":"green"},{"name":"Bulls Head Inn","lat":53.72513,"lon":-1.5854,"postcode":"WF3 1LY","la":"Leeds","era":"trad","nn":554,"risk":20,"cat":"green"},{"name":"Carlton Social Club","lat":53.74068,"lon":-1.48836,"postcode":"WF3 3RW","la":"Leeds","era":"mod","nn":50,"risk":19,"cat":"green"},{"name":"East And West Ardsley Social Club","lat":53.72772,"lon":-1.55177,"postcode":"WF3 2EP","la":"Leeds","era":"mod","nn":1017,"risk":43,"cat":"amber"},{"name":"East Ardsley Conservative Club","lat":53.72174,"lon":-1.54007,"postcode":"WF3 2AA","la":"Leeds","era":"other","nn":254,"risk":33,"cat":"amber"},{"name":"East Ardsley United Cricket And Athletic Club","lat":53.71967,"lon":-1.53846,"postcode":"WF3 2HB","la":"Leeds","era":"other","nn":254,"risk":20,"cat":"green"},{"name":"Edward Vii Working Mens Club","lat":53.75291,"lon":-1.38322,"postcode":"WF10 2HE","la":"Leeds","era":"trad","nn":990,"risk":38,"cat":"amber"},{"name":"Halfway House","lat":53.74111,"lon":-1.50821,"postcode":"WF3 3AB","la":"Leeds","era":"other","nn":637,"risk":23,"cat":"green"},{"name":"Hare And Hounds","lat":53.71596,"lon":-1.57976,"postcode":"WF3 1DU","la":"Leeds","era":"trad","nn":910,"risk":37,"cat":"amber"},{"name":"New Scarborough Inn","lat":53.72965,"lon":-1.57985,"postcode":"WF3 1LH","la":"Leeds","era":"trad","nn":232,"risk":18,"cat":"green"},{"name":"The Boat Inn","lat":53.74066,"lon":-1.36738,"postcode":"WF10 2BX","la":"Leeds","era":"trad","nn":260,"risk":33,"cat":"amber"},{"name":"The British Oak","lat":53.72401,"lon":-1.57719,"postcode":"WF3 1AF","la":"Leeds","era":"trad","nn":0,"risk":13,"cat":"green"},{"name":"The Castle Inn","lat":53.72675,"lon":-1.49541,"postcode":"WF3 3LR","la":"Leeds","era":"trad","nn":1146,"risk":44,"cat":"amber"},{"name":"The Nook","lat":53.72587,"lon":-1.51863,"postcode":"WF3 3JU","la":"Leeds","era":"other","nn":1214,"risk":44,"cat":"amber"},{"name":"The Unicorn Bar And Kitchen","lat":53.74102,"lon":-1.48888,"postcode":"WF3 3RW","la":"Leeds","era":"mod","nn":50,"risk":16,"cat":"green"},{"name":"The White Horse","lat":53.75308,"lon":-1.3437,"postcode":"WF10 2AB","la":"Leeds","era":"trad","nn":1780,"risk":48,"cat":"amber"},{"name":"Tingley Working Mens Club","lat":53.73174,"lon":-1.58003,"postcode":"WF3 1JZ","la":"Leeds","era":"trad","nn":232,"risk":18,"cat":"green"},{"name":"Victoria Hotel","lat":53.74401,"lon":-1.36875,"postcode":"WF10 2BZ","la":"Leeds","era":"trad","nn":128,"risk":32,"cat":"amber"},{"name":"Byram Park Social Club & Institiute","lat":53.72618,"lon":-1.2642,"postcode":"WF11 9FF","la":"North Yorkshire","era":"other","nn":200,"risk":36,"cat":"amber"},{"name":"Rally House","lat":53.72439,"lon":-1.26434,"postcode":"WF11 9EY","la":"North Yorkshire","era":"other","nn":200,"risk":36,"cat":"amber"},{"name":"Wagon & Horses","lat":53.74583,"lon":-1.28472,"postcode":"WF11 9JY","la":"North Yorkshire","era":"trad","nn":1995,"risk":51,"cat":"amber"},{"name":"Ackworth Village Social Club","lat":53.64102,"lon":-1.34686,"postcode":"WF7 7AB","la":"Wakefield","era":"mod","nn":0,"risk":19,"cat":"green"},{"name":"After Dark Wakefield","lat":53.68212,"lon":-1.5009,"postcode":"WF1 1BW","la":"Wakefield","era":"other","nn":0,"risk":19,"cat":"green"},{"name":"Albion Street Working Mens Club","lat":53.72496,"lon":-1.35833,"postcode":"WF10 1EN","la":"Wakefield","era":"trad","nn":177,"risk":20,"cat":"green"},{"name":"Alpha Working Mens Club","lat":53.60925,"lon":-1.3517,"postcode":"WF9 4LT","la":"Wakefield","era":"trad","nn":104,"risk":20,"cat":"green"},{"name":"Altofts Sports Club","lat":53.71407,"lon":-1.42539,"postcode":"WF6 2QJ","la":"Wakefield","era":"other","nn":284,"risk":38,"cat":"amber"},{"name":"Alverthorpe Working Mens Club","lat":53.6854,"lon":-1.53358,"postcode":"WF2 9JG","la":"Wakefield","era":"trad","nn":159,"risk":23,"cat":"green"},{"name":"Ancient Borough Arms","lat":53.69141,"lon":-1.31046,"postcode":"WF8 1AG","la":"Wakefield","era":"trad","nn":0,"risk":19,"cat":"green"},{"name":"Anglers Retreat","lat":53.6367,"lon":-1.4232,"postcode":"WF4 2EB","la":"Wakefield","era":"other","nn":1446,"risk":52,"cat":"amber"},{"name":"Balne Lane Wmc","lat":53.68456,"lon":-1.51435,"postcode":"WF2 9AT","la":"Wakefield","era":"other","nn":321,"risk":21,"cat":"green"},{"name":"Bar Deuce","lat":53.69123,"lon":-1.31274,"postcode":"WF8 1AL","la":"Wakefield","era":"mod","nn":0,"risk":19,"cat":"green"},{"name":"Bar Liquid","lat":53.6918,"lon":-1.31261,"postcode":"WF8 1AP","la":"Wakefield","era":"mod","nn":32,"risk":19,"cat":"green"},{"name":"Barley Mow Hotel","lat":53.69205,"lon":-1.31388,"postcode":"WF8 1BJ","la":"Wakefield","era":"other","nn":0,"risk":19,"cat":"green"},{"name":"Bay Horse Public House","lat":53.6346,"lon":-1.51551,"postcode":"WF4 3JN","la":"Wakefield","era":"trad","nn":835,"risk":45,"cat":"amber"},{"name":"Beastfair Vaults","lat":53.69152,"lon":-1.31251,"postcode":"WF8 1AW","la":"Wakefield","era":"other","nn":32,"risk":19,"cat":"green"},{"name":"Belle Vue Conservative Club Ltd","lat":53.67062,"lon":-1.48057,"postcode":"WF1 5HL","la":"Wakefield","era":"other","nn":565,"risk":25,"cat":"green"},{"name":"Bier Huis","lat":53.68025,"lon":-1.57789,"postcode":"WF5 9BL","la":"Wakefield","era":"other","nn":67,"risk":19,"cat":"green"},{"name":"Bigfellas @ 13","lat":53.69123,"lon":-1.31274,"postcode":"WF8 1AL","la":"Wakefield","era":"other","nn":0,"risk":19,"cat":"green"},{"name":"Black Bull","lat":53.72146,"lon":-1.36612,"postcode":"WF10 5LH","la":"Wakefield","era":"trad","nn":537,"risk":23,"cat":"green"},{"name":"Black Horse","lat":53.68195,"lon":-1.50317,"postcode":"WF1 1XR","la":"Wakefield","era":"trad","nn":35,"risk":19,"cat":"green"},{"name":"Black Swan","lat":53.70038,"lon":-1.41441,"postcode":"WF6 2DP","la":"Wakefield","era":"trad","nn":304,"risk":21,"cat":"green"},{"name":"Black Swan","lat":53.64727,"lon":-1.60837,"postcode":"WF4 4RF","la":"Wakefield","era":"trad","nn":526,"risk":28,"cat":"green"},{"name":"Blue Bell","lat":53.61364,"lon":-1.35437,"postcode":"WF9 4LQ","la":"Wakefield","era":"other","nn":2,"risk":19,"cat":"green"},{"name":"Blue Bell Inn/Blue Smoke Pizza","lat":53.64824,"lon":-1.26338,"postcode":"WF8 3JP","la":"Wakefield","era":"trad","nn":1193,"risk":50,"cat":"amber"},{"name":"Boons","lat":53.65965,"lon":-1.55493,"postcode":"WF4 6LP","la":"Wakefield","era":"other","nn":88,"risk":20,"cat":"green"},{"name":"Boot And Shoe","lat":53.6948,"lon":-1.5885,"postcode":"WF5 9QS","la":"Wakefield","era":"other","nn":0,"risk":19,"cat":"green"},{"name":"Boot And Shoe","lat":53.64037,"lon":-1.3431,"postcode":"WF7 7DF","la":"Wakefield","era":"other","nn":258,"risk":21,"cat":"green"},{"name":"Bowling Club","lat":53.72622,"lon":-1.30677,"postcode":"WF10 3SB","la":"Wakefield","era":"other","nn":712,"risk":41,"cat":"amber"},{"name":"Bradley Arms","lat":53.69484,"lon":-1.35942,"postcode":"WF7 6BG","la":"Wakefield","era":"trad","nn":1480,"risk":52,"cat":"amber"},{"name":"Brewers Pride","lat":53.66789,"lon":-1.59039,"postcode":"WF5 8ND","la":"Wakefield","era":"other","nn":0,"risk":39,"cat":"amber"},{"name":"Brick & Liquor","lat":53.68225,"lon":-1.50179,"postcode":"WF1 1XQ","la":"Wakefield","era":"other","nn":0,"risk":19,"cat":"green"},{"name":"Bridge Inn","lat":53.67444,"lon":-1.48933,"postcode":"WF1 5RT","la":"Wakefield","era":"trad","nn":127,"risk":20,"cat":"green"},{"name":"British Oak","lat":53.64339,"lon":-1.54615,"postcode":"WF4 3DL","la":"Wakefield","era":"trad","nn":629,"risk":43,"cat":"amber"},{"name":"Brookside Commercial And Social Club","lat":53.59476,"lon":-1.29002,"postcode":"WF9 2RN","la":"Wakefield","era":"mod","nn":140,"risk":20,"cat":"green"},{"name":"Butchers Arms","lat":53.6867,"lon":-1.48882,"postcode":"WF1 4LH","la":"Wakefield","era":"trad","nn":0,"risk":19,"cat":"green"},{"name":"Calder & Hops","lat":53.68421,"lon":-1.49907,"postcode":"WF1 3AP","la":"Wakefield","era":"other","nn":0,"risk":19,"cat":"green"},{"name":"Caldervale Hotel","lat":53.65411,"lon":-1.54302,"postcode":"WF4 5EB","la":"Wakefield","era":"other","nn":689,"risk":24,"cat":"green"},{"name":"Carleton","lat":53.68082,"lon":-1.31265,"postcode":"WF8 3PQ","la":"Wakefield","era":"other","nn":279,"risk":38,"cat":"amber"},{"name":"Carleton Community Centre","lat":53.67737,"lon":-1.2958,"postcode":"WF8 3RJ","la":"Wakefield","era":"other","nn":974,"risk":46,"cat":"amber"},{"name":"Castleford Bowling Club","lat":53.72016,"lon":-1.35371,"postcode":"WF10 5AG","la":"Wakefield","era":"other","nn":125,"risk":20,"cat":"green"},{"name":"Castleford Rugby Union Fc","lat":53.71423,"lon":-1.38464,"postcode":"WF10 5PD","la":"Wakefield","era":"other","nn":163,"risk":40,"cat":"amber"},{"name":"Castleford Sports & Social Club","lat":53.7251,"lon":-1.35409,"postcode":"WF10 1EL","la":"Wakefield","era":"mod","nn":0,"risk":19,"cat":"green"},{"name":"Chequerfield Hotel","lat":53.686,"lon":-1.2983,"postcode":"WF8 2AY","la":"Wakefield","era":"other","nn":974,"risk":26,"cat":"green"},{"name":"Church House Public House","lat":53.5947,"lon":-1.31604,"postcode":"WF9 3LA","la":"Wakefield","era":"mod","nn":180,"risk":25,"cat":"green"},{"name":"Cock And Bottle","lat":53.67891,"lon":-1.58016,"postcode":"WF5 8PS","la":"Wakefield","era":"other","nn":96,"risk":20,"cat":"green"},{"name":"Cock And Crown","lat":53.66342,"lon":-1.43135,"postcode":"WF4 1PP","la":"Wakefield","era":"trad","nn":814,"risk":45,"cat":"amber"},{"name":"College Inn Kitchen","lat":53.68734,"lon":-1.50107,"postcode":"WF1 3QT","la":"Wakefield","era":"other","nn":372,"risk":22,"cat":"green"},{"name":"Cosa Nostra Lounge","lat":53.68212,"lon":-1.5009,"postcode":"WF1 1BW","la":"Wakefield","era":"mod","nn":0,"risk":19,"cat":"green"},{"name":"Cricketers Arms","lat":53.65924,"lon":-1.55251,"postcode":"WF4 5AG","la":"Wakefield","era":"trad","nn":114,"risk":20,"cat":"green"},{"name":"Crigglestone All Blacks Arlfc","lat":53.63721,"lon":-1.5331,"postcode":"WF4 3HN","la":"Wakefield","era":"other","nn":559,"risk":28,"cat":"green"},{"name":"Crigglestone W M C and Institute Ltd","lat":53.64279,"lon":-1.52405,"postcode":"WF4 3EB","la":"Wakefield","era":"other","nn":856,"risk":42,"cat":"amber"},{"name":"Crofton Working Mens Club","lat":53.65657,"lon":-1.42701,"postcode":"WF4 1HJ","la":"Wakefield","era":"trad","nn":692,"risk":41,"cat":"amber"},{"name":"Cross Keys Hotel","lat":53.68734,"lon":-1.39319,"postcode":"WF7 6HB","la":"Wakefield","era":"trad","nn":1810,"risk":54,"cat":"amber"},{"name":"Cutsyke Working Mens Club","lat":53.71431,"lon":-1.36489,"postcode":"WF10 5JB","la":"Wakefield","era":"trad","nn":799,"risk":29,"cat":"green"},{"name":"Devorar","lat":53.66789,"lon":-1.59039,"postcode":"WF5 8ND","la":"Wakefield","era":"other","nn":0,"risk":39,"cat":"amber"},{"name":"Devorar @ Star Inn","lat":53.64933,"lon":-1.49395,"postcode":"WF2 7DY","la":"Wakefield","era":"trad","nn":0,"risk":19,"cat":"green"},{"name":"Di Bosco Coffee and Champagne Bar","lat":53.65792,"lon":-1.5769,"postcode":"WF4 5PR","la":"Wakefield","era":"other","nn":35,"risk":24,"cat":"green"},{"name":"Duke of Milan","lat":53.69184,"lon":-1.31471,"postcode":"WF8 1DA","la":"Wakefield","era":"trad","nn":7,"risk":19,"cat":"green"},{"name":"Eastmoor Arlfc","lat":53.68597,"lon":-1.47832,"postcode":"WF1 4RD","la":"Wakefield","era":"other","nn":316,"risk":26,"cat":"green"},{"name":"Ego @","lat":53.64129,"lon":-1.33585,"postcode":"WF7 7BX","la":"Wakefield","era":"other","nn":285,"risk":23,"cat":"green"},{"name":"Elephant & Castle","lat":53.68127,"lon":-1.50401,"postcode":"WF1 1EW","la":"Wakefield","era":"other","nn":52,"risk":19,"cat":"green"},{"name":"Elephant Hotel","lat":53.69141,"lon":-1.31046,"postcode":"WF8 1AG","la":"Wakefield","era":"other","nn":0,"risk":19,"cat":"green"},{"name":"Elliots Bar","lat":53.68309,"lon":-1.50007,"postcode":"WF1 1UQ","la":"Wakefield","era":"other","nn":0,"risk":19,"cat":"green"},{"name":"Featherstone Hotel","lat":53.68087,"lon":-1.35923,"postcode":"WF7 6EW","la":"Wakefield","era":"other","nn":87,"risk":20,"cat":"green"},{"name":"Featherstone Lions ARLFC","lat":53.67555,"lon":-1.36643,"postcode":"WF7 5BP","la":"Wakefield","era":"trad","nn":462,"risk":22,"cat":"green"},{"name":"Featherstone Rovers Rlfc","lat":53.67853,"lon":-1.35394,"postcode":"WF7 5EN","la":"Wakefield","era":"other","nn":280,"risk":21,"cat":"green"},{"name":"Fernandes Brewery Tap And Bier Keller, The Old Malt House","lat":53.68026,"lon":-1.49287,"postcode":"WF1 1UA","la":"Wakefield","era":"mod","nn":100,"risk":20,"cat":"green"},{"name":"Ferrybridge Progressive Club","lat":53.71061,"lon":-1.26199,"postcode":"WF11 8JX","la":"Wakefield","era":"other","nn":407,"risk":24,"cat":"green"},{"name":"Fleece Inn","lat":53.65973,"lon":-1.55644,"postcode":"WF4 5LG","la":"Wakefield","era":"trad","nn":100,"risk":20,"cat":"green"},{"name":"Foundry Lane Club and Institute","lat":53.70846,"lon":-1.23689,"postcode":"WF11 8AZ","la":"Wakefield","era":"mod","nn":226,"risk":23,"cat":"green"},{"name":"Fox And Grapes","lat":53.6867,"lon":-1.48882,"postcode":"WF1 4LH","la":"Wakefield","era":"trad","nn":0,"risk":19,"cat":"green"},{"name":"Fox and Hounds","lat":53.63573,"lon":-1.50299,"postcode":"WF2 6QQ","la":"Wakefield","era":"trad","nn":450,"risk":25,"cat":"green"},{"name":"Fox And Hounds","lat":53.64232,"lon":-1.27849,"postcode":"WF8 3EL","la":"Wakefield","era":"trad","nn":1193,"risk":50,"cat":"amber"},{"name":"Fryston Welfare Club","lat":53.73255,"lon":-1.30514,"postcode":"WF10 2NY","la":"Wakefield","era":"other","nn":712,"risk":44,"cat":"amber"},{"name":"Galileos Show Bar","lat":53.69053,"lon":-1.312,"postcode":"WF8 1LL","la":"Wakefield","era":"other","nn":41,"risk":19,"cat":"green"},{"name":"Gawthorpe Conservative Club","lat":53.6948,"lon":-1.5885,"postcode":"WF5 9QS","la":"Wakefield","era":"other","nn":0,"risk":19,"cat":"green"},{"name":"George And Dragon","lat":53.61362,"lon":-1.35436,"postcode":"WF9 4LQ","la":"Wakefield","era":"trad","nn":2,"risk":19,"cat":"green"},{"name":"George V Working Mens Club","lat":53.71536,"lon":-1.3357,"postcode":"WF10 4RN","la":"Wakefield","era":"trad","nn":130,"risk":20,"cat":"green"},{"name":"Girnhill Lane WMC","lat":53.67188,"lon":-1.3604,"postcode":"WF7 5NW","la":"Wakefield","era":"other","nn":507,"risk":22,"cat":"green"},{"name":"Glasshoughton Cricket Club","lat":53.71563,"lon":-1.34474,"postcode":"WF10 4PD","la":"Wakefield","era":"other","nn":0,"risk":19,"cat":"green"},{"name":"Glasshoughton Working Mens Club","lat":53.71563,"lon":-1.34474,"postcode":"WF10 4PD","la":"Wakefield","era":"trad","nn":0,"risk":19,"cat":"green"},{"name":"Golden Ball Public House","lat":53.69244,"lon":-1.30858,"postcode":"WF8 1NX","la":"Wakefield","era":"other","nn":15,"risk":19,"cat":"green"},{"name":"Hammer & Stithy","lat":53.69008,"lon":-1.5865,"postcode":"WF5 9PE","la":"Wakefield","era":"other","nn":338,"risk":21,"cat":"green"},{"name":"Harewood And Upton Recreation Club","lat":53.61645,"lon":-1.27569,"postcode":"WF9 1JS","la":"Wakefield","era":"other","nn":117,"risk":25,"cat":"green"},{"name":"Harewood Arms","lat":53.68113,"lon":-1.49248,"postcode":"WF1 1JG","la":"Wakefield","era":"trad","nn":100,"risk":20,"cat":"green"},{"name":"Hark to Mopsey Inn","lat":53.6925,"lon":-1.42254,"postcode":"WF6 1BB","la":"Wakefield","era":"trad","nn":392,"risk":24,"cat":"green"},{"name":"Harrys","lat":53.68158,"lon":-1.50342,"postcode":"WF1 1EL","la":"Wakefield","era":"other","nn":0,"risk":19,"cat":"green"},{"name":"Havercroft & Ryhill Sports & Youth","lat":53.62222,"lon":-1.41325,"postcode":"WF4 2BB","la":"Wakefield","era":"other","nn":224,"risk":25,"cat":"green"},{"name":"Havercroft Sports & Social Club","lat":53.62411,"lon":-1.40452,"postcode":"WF4 2HF","la":"Wakefield","era":"mod","nn":613,"risk":41,"cat":"amber"},{"name":"Head Hunters Gentlemen Quarters","lat":53.69196,"lon":-1.31054,"postcode":"WF8 1AX","la":"Wakefield","era":"other","nn":8,"risk":19,"cat":"green"},{"name":"Hemsworth Albion Working Mens Club","lat":53.60726,"lon":-1.34651,"postcode":"WF9 4BU","la":"Wakefield","era":"trad","nn":387,"risk":22,"cat":"green"},{"name":"Hemsworth Conservative  Club","lat":53.61073,"lon":-1.3518,"postcode":"WF9 4LR","la":"Wakefield","era":"other","nn":134,"risk":20,"cat":"green"},{"name":"Hemsworth Miners Social Club","lat":53.63339,"lon":-1.37249,"postcode":"WF9 5AA","la":"Wakefield","era":"mod","nn":412,"risk":27,"cat":"green"},{"name":"Hilltop Brewery Tap","lat":53.60983,"lon":-1.35045,"postcode":"WF9 4BA","la":"Wakefield","era":"mod","nn":104,"risk":20,"cat":"green"},{"name":"Hogarth's","lat":53.68212,"lon":-1.5009,"postcode":"WF1 1BW","la":"Wakefield","era":"other","nn":0,"risk":19,"cat":"green"},{"name":"Holmfield Arms","lat":53.67151,"lon":-1.50641,"postcode":"WF2 8DY","la":"Wakefield","era":"trad","nn":207,"risk":20,"cat":"green"},{"name":"Hope And Anchor","lat":53.69659,"lon":-1.30475,"postcode":"WF8 1ES","la":"Wakefield","era":"trad","nn":146,"risk":20,"cat":"green"},{"name":"Hopetown Liberal Club","lat":53.70248,"lon":-1.40774,"postcode":"WF6 2ET","la":"Wakefield","era":"other","nn":275,"risk":21,"cat":"green"},{"name":"Hoptimist, Hemsworth","lat":53.61341,"lon":-1.35367,"postcode":"WF9 4LD","la":"Wakefield","era":"other","nn":52,"risk":19,"cat":"green"},{"name":"Horbury Conservative Club","lat":53.6602,"lon":-1.55312,"postcode":"WF4 6NA","la":"Wakefield","era":"other","nn":114,"risk":20,"cat":"green"},{"name":"Horbury Working Members Club","lat":53.65934,"lon":-1.54865,"postcode":"WF4 5DB","la":"Wakefield","era":"trad","nn":109,"risk":20,"cat":"green"},{"name":"Horse & Jockey","lat":53.681,"lon":-1.57902,"postcode":"WF5 9BT","la":"Wakefield","era":"trad","nn":112,"risk":20,"cat":"green"},{"name":"Horse & Jockey","lat":53.65814,"lon":-1.57729,"postcode":"WF4 5PP","la":"Wakefield","era":"trad","nn":35,"risk":24,"cat":"green"},{"name":"Horsevaults Public House","lat":53.69257,"lon":-1.30852,"postcode":"WF8 1PD","la":"Wakefield","era":"trad","nn":15,"risk":19,"cat":"green"},{"name":"Icon","lat":53.68248,"lon":-1.50086,"postcode":"WF1 1XH","la":"Wakefield","era":"other","nn":41,"risk":19,"cat":"green"},{"name":"Inns Of Court","lat":53.68337,"lon":-1.5014,"postcode":"WF1 2SR","la":"Wakefield","era":"trad","nn":58,"risk":19,"cat":"green"},{"name":"Iron Dram","lat":53.69022,"lon":-1.3126,"postcode":"WF8 1LG","la":"Wakefield","era":"trad","nn":46,"risk":19,"cat":"green"},{"name":"Jack's Bar","lat":53.67341,"lon":-1.4446,"postcode":"WF1 5SG","la":"Wakefield","era":"other","nn":1134,"risk":49,"cat":"amber"},{"name":"Kettlethorpe Hotel","lat":53.64451,"lon":-1.50213,"postcode":"WF2 7HB","la":"Wakefield","era":"other","nn":410,"risk":22,"cat":"green"},{"name":"Kings Arms","lat":53.66118,"lon":-1.5521,"postcode":"WF4 6NB","la":"Wakefield","era":"trad","nn":128,"risk":20,"cat":"green"},{"name":"King's Arms","lat":53.67611,"lon":-1.4612,"postcode":"WF1 5SL","la":"Wakefield","era":"trad","nn":1134,"risk":49,"cat":"amber"},{"name":"Kinsley Coronation Working Mens Club","lat":53.62477,"lon":-1.36692,"postcode":"WF9 5ED","la":"Wakefield","era":"trad","nn":64,"risk":37,"cat":"amber"},{"name":"Kinsley Hotel","lat":53.6243,"lon":-1.36747,"postcode":"WF9 5EB","la":"Wakefield","era":"other","nn":64,"risk":37,"cat":"amber"},{"name":"Kirklands Hotel","lat":53.7128,"lon":-1.49969,"postcode":"WF1 2LU","la":"Wakefield","era":"other","nn":0,"risk":19,"cat":"green"},{"name":"Knottingley Club","lat":53.70958,"lon":-1.24905,"postcode":"WF11 8EX","la":"Wakefield","era":"other","nn":511,"risk":22,"cat":"green"},{"name":"Lamplighters","lat":53.72549,"lon":-1.35466,"postcode":"WF10 1DX","la":"Wakefield","era":"other","nn":57,"risk":19,"cat":"green"},{"name":"Liquid Spirit","lat":53.7251,"lon":-1.35409,"postcode":"WF10 1EL","la":"Wakefield","era":"other","nn":0,"risk":19,"cat":"green"},{"name":"Liquid Spirit","lat":53.62858,"lon":-1.37247,"postcode":"WF9 5JF","la":"Wakefield","era":"other","nn":535,"risk":25,"cat":"green"},{"name":"Lobby 1867","lat":53.68173,"lon":-1.50231,"postcode":"WF1 1EP","la":"Wakefield","era":"other","nn":12,"risk":19,"cat":"green"},{"name":"Lofthouse Gate And District Working Mens Club","lat":53.71632,"lon":-1.49443,"postcode":"WF3 3HN","la":"Wakefield","era":"other","nn":158,"risk":23,"cat":"green"},{"name":"Lounge 20 Limited","lat":53.72673,"lon":-1.35263,"postcode":"WF10 1AE","la":"Wakefield","era":"mod","nn":85,"risk":20,"cat":"green"},{"name":"Magnet Inn","lat":53.71387,"lon":-1.26784,"postcode":"WF11 8NB","la":"Wakefield","era":"trad","nn":50,"risk":24,"cat":"green"},{"name":"Malt Shovel","lat":53.71253,"lon":-1.52972,"postcode":"WF2 0QW","la":"Wakefield","era":"other","nn":980,"risk":46,"cat":"amber"},{"name":"Malt Shovel Inn","lat":53.71589,"lon":-1.33746,"postcode":"WF10 4QF","la":"Wakefield","era":"trad","nn":117,"risk":20,"cat":"green"},{"name":"Masonic Lodge","lat":53.7247,"lon":-1.35408,"postcode":"WF10 1DZ","la":"Wakefield","era":"trad","nn":44,"risk":19,"cat":"green"},{"name":"Mecca Bingo","lat":53.67716,"lon":-1.50612,"postcode":"WF2 9SH","la":"Wakefield","era":"other","nn":392,"risk":22,"cat":"green"},{"name":"Mex Bar","lat":53.68185,"lon":-1.50114,"postcode":"WF1 1BD","la":"Wakefield","era":"other","nn":34,"risk":19,"cat":"green"},{"name":"Midland Hotel","lat":53.69953,"lon":-1.42184,"postcode":"WF6 2AR","la":"Wakefield","era":"other","nn":86,"risk":20,"cat":"green"},{"name":"Moorthorpe Empire Working Mens Club","lat":53.59447,"lon":-1.29776,"postcode":"WF9 2AE","la":"Wakefield","era":"trad","nn":200,"risk":20,"cat":"green"},{"name":"Moorthorpe Recreation Social Club","lat":53.59268,"lon":-1.29805,"postcode":"WF9 2AG","la":"Wakefield","era":"mod","nn":200,"risk":20,"cat":"green"},{"name":"Morton Collins Brewing Co @ Star Inn","lat":53.64933,"lon":-1.49395,"postcode":"WF2 7DY","la":"Wakefield","era":"trad","nn":0,"risk":19,"cat":"green"},{"name":"Nadss Club","lat":53.70658,"lon":-1.23821,"postcode":"WF11 8AR","la":"Wakefield","era":"other","nn":226,"risk":23,"cat":"green"},{"name":"Netherton Working Mens Club","lat":53.64788,"lon":-1.57584,"postcode":"WF4 4HQ","la":"Wakefield","era":"trad","nn":427,"risk":39,"cat":"amber"},{"name":"New Albion House","lat":53.65052,"lon":-1.60085,"postcode":"WF4 4PA","la":"Wakefield","era":"other","nn":229,"risk":38,"cat":"amber"},{"name":"New Brookhouse Ltd","lat":53.66696,"lon":-1.48652,"postcode":"WF1 5NU","la":"Wakefield","era":"mod","nn":565,"risk":25,"cat":"green"},{"name":"New Carlton Social Club","lat":53.70032,"lon":-1.40979,"postcode":"WF6 2BW","la":"Wakefield","era":"mod","nn":275,"risk":21,"cat":"green"},{"name":"New Inn Public House","lat":53.65048,"lon":-1.52433,"postcode":"WF4 3AX","la":"Wakefield","era":"trad","nn":472,"risk":27,"cat":"green"},{"name":"New Wheel Inn","lat":53.69894,"lon":-1.52498,"postcode":"WF2 0JN","la":"Wakefield","era":"trad","nn":82,"risk":24,"cat":"green"},{"name":"Nocturno","lat":53.68225,"lon":-1.50179,"postcode":"WF1 1XQ","la":"Wakefield","era":"other","nn":0,"risk":19,"cat":"green"},{"name":"Normanton Conservative Club","lat":53.6988,"lon":-1.4214,"postcode":"WF6 2AP","la":"Wakefield","era":"other","nn":86,"risk":20,"cat":"green"},{"name":"Normanton Golf Club","lat":53.70659,"lon":-1.48443,"postcode":"WF3 4JP","la":"Wakefield","era":"other","nn":584,"risk":25,"cat":"green"},{"name":"Northern Social Venue","lat":53.6922,"lon":-1.31428,"postcode":"WF8 1BN","la":"Wakefield","era":"mod","nn":31,"risk":19,"cat":"green"},{"name":"Northfield Hotel","lat":53.59229,"lon":-1.33191,"postcode":"WF9 3HX","la":"Wakefield","era":"other","nn":214,"risk":25,"cat":"green"},{"name":"Old Print Works","lat":53.68158,"lon":-1.50342,"postcode":"WF1 1EL","la":"Wakefield","era":"mod","nn":0,"risk":19,"cat":"green"},{"name":"Old Sharlston Cricket Club","lat":53.66765,"lon":-1.41377,"postcode":"WF4 1DB","la":"Wakefield","era":"other","nn":152,"risk":37,"cat":"amber"},{"name":"Ossett Brewery Tap","lat":53.67599,"lon":-1.57864,"postcode":"WF5 8JS","la":"Wakefield","era":"mod","nn":94,"risk":20,"cat":"green"},{"name":"Ossett Cricket And Athletic Club","lat":53.67564,"lon":-1.57994,"postcode":"WF5 8JT","la":"Wakefield","era":"other","nn":94,"risk":20,"cat":"green"},{"name":"Outwood Working Mens Club","lat":53.71161,"lon":-1.50776,"postcode":"WF1 2NS","la":"Wakefield","era":"trad","nn":399,"risk":22,"cat":"green"},{"name":"Park Tavern","lat":53.67304,"lon":-1.5682,"postcode":"WF5 0JS","la":"Wakefield","era":"other","nn":328,"risk":21,"cat":"green"},{"name":"Pontefract Conservative Club","lat":53.69165,"lon":-1.31034,"postcode":"WF8 1AG","la":"Wakefield","era":"other","nn":22,"risk":19,"cat":"green"},{"name":"Pontefract Masonic Hall Co Ltd","lat":53.68332,"lon":-1.31269,"postcode":"WF8 3PA","la":"Wakefield","era":"trad","nn":279,"risk":21,"cat":"green"},{"name":"Pop World","lat":53.68212,"lon":-1.5009,"postcode":"WF1 1BW","la":"Wakefield","era":"other","nn":0,"risk":19,"cat":"green"},{"name":"Prince of Wales Inn","lat":53.67558,"lon":-1.56144,"postcode":"WF5 0EL","la":"Wakefield","era":"trad","nn":528,"risk":40,"cat":"amber"},{"name":"Prop Ur Baa","lat":53.6796,"lon":-1.57845,"postcode":"WF5 8BH","la":"Wakefield","era":"other","nn":16,"risk":19,"cat":"green"},{"name":"Q Rooms Ltd @ 14","lat":53.68298,"lon":-1.50198,"postcode":"WF1 2SD","la":"Wakefield","era":"mod","nn":58,"risk":19,"cat":"green"},{"name":"Railway Hotel Hill Top","lat":53.70705,"lon":-1.26058,"postcode":"WF11 8RN","la":"Wakefield","era":"trad","nn":407,"risk":22,"cat":"green"},{"name":"Railway Inn","lat":53.69668,"lon":-1.30253,"postcode":"WF8 2NP","la":"Wakefield","era":"trad","nn":146,"risk":20,"cat":"green"},{"name":"RBT Video","lat":53.68391,"lon":-1.49932,"postcode":"WF1 3BJ","la":"Wakefield","era":"other","nn":38,"risk":19,"cat":"green"},{"name":"Red Bar","lat":53.68309,"lon":-1.50007,"postcode":"WF1 1UQ","la":"Wakefield","era":"other","nn":0,"risk":19,"cat":"green"},{"name":"Red Kite","lat":53.65487,"lon":-1.5168,"postcode":"WF4 3BB","la":"Wakefield","era":"other","nn":500,"risk":40,"cat":"amber"},{"name":"Red Lion","lat":53.68575,"lon":-1.52046,"postcode":"WF2 0EE","la":"Wakefield","era":"trad","nn":173,"risk":20,"cat":"green"},{"name":"Red Lion","lat":53.68836,"lon":-1.58228,"postcode":"WF5 9NQ","la":"Wakefield","era":"trad","nn":338,"risk":21,"cat":"green"},{"name":"Redhill Sports & Social Club","lat":53.72081,"lon":-1.32749,"postcode":"WF10 3EB","la":"Wakefield","era":"mod","nn":811,"risk":27,"cat":"green"},{"name":"Redoubt","lat":53.67857,"lon":-1.51442,"postcode":"WF2 8TS","la":"Wakefield","era":"other","nn":94,"risk":20,"cat":"green"},{"name":"Reflections","lat":53.68227,"lon":-1.49914,"postcode":"WF1 1JZ","la":"Wakefield","era":"other","nn":58,"risk":19,"cat":"green"},{"name":"Robin Hood Inn","lat":53.68851,"lon":-1.31584,"postcode":"WF8 4HN","la":"Wakefield","era":"trad","nn":284,"risk":21,"cat":"green"},{"name":"Rocking Horse","lat":53.68435,"lon":-1.47438,"postcode":"WF1 4HP","la":"Wakefield","era":"trad","nn":316,"risk":26,"cat":"green"},{"name":"Rockware Sports And Social Club","lat":53.70709,"lon":-1.24253,"postcode":"WF11 8AQ","la":"Wakefield","era":"mod","nn":290,"risk":23,"cat":"green"},{"name":"Roundhill Working Mens Club","lat":53.71952,"lon":-1.35527,"postcode":"WF10 5AE","la":"Wakefield","era":"trad","nn":125,"risk":20,"cat":"green"},{"name":"Rovers Return","lat":53.67641,"lon":-1.35957,"postcode":"WF7 5BH","la":"Wakefield","era":"other","nn":243,"risk":21,"cat":"green"},{"name":"Royal Oak Inn","lat":53.71594,"lon":-1.33923,"postcode":"WF10 4QE","la":"Wakefield","era":"trad","nn":117,"risk":20,"cat":"green"},{"name":"Rustic Arms","lat":53.65766,"lon":-1.31484,"postcode":"WF7 7EZ","la":"Wakefield","era":"trad","nn":2287,"risk":57,"cat":"amber"},{"name":"Ryhill Village Social Club","lat":53.62372,"lon":-1.4217,"postcode":"WF4 2BS","la":"Wakefield","era":"mod","nn":446,"risk":40,"cat":"amber"},{"name":"S Kirkby Royal British Legion Club A","lat":53.59186,"lon":-1.32875,"postcode":"WF9 3HG","la":"Wakefield","era":"trad","nn":131,"risk":22,"cat":"green"},{"name":"Scarborough Arms","lat":53.68438,"lon":-1.51921,"postcode":"WF2 9PP","la":"Wakefield","era":"trad","nn":173,"risk":20,"cat":"green"},{"name":"Sharlston Villa Club And Institute","lat":53.66666,"lon":-1.41218,"postcode":"WF4 1EJ","la":"Wakefield","era":"other","nn":152,"risk":37,"cat":"amber"},{"name":"Shepherds Arms, Nostalgic Kitchens","lat":53.65933,"lon":-1.5503,"postcode":"WF4 5DA","la":"Wakefield","era":"other","nn":109,"risk":20,"cat":"green"},{"name":"Shooters","lat":53.68248,"lon":-1.49652,"postcode":"WF1 1SP","la":"Wakefield","era":"other","nn":76,"risk":19,"cat":"green"},{"name":"Shoulder of Mutton","lat":53.69654,"lon":-1.5856,"postcode":"WF5 9RB","la":"Wakefield","era":"other","nn":272,"risk":21,"cat":"green"},{"name":"Slazenger Sports And Social Club","lat":53.65544,"lon":-1.55749,"postcode":"WF4 5BH","la":"Wakefield","era":"mod","nn":482,"risk":22,"cat":"green"},{"name":"Smawthorne Lane Working Mens Club","lat":53.72151,"lon":-1.35186,"postcode":"WF10 4EP","la":"Wakefield","era":"trad","nn":193,"risk":20,"cat":"green"},{"name":"South Elmsall Village WMC","lat":53.59359,"lon":-1.28725,"postcode":"WF9 2HX","la":"Wakefield","era":"trad","nn":225,"risk":20,"cat":"green"},{"name":"South Kirkby Independent Club","lat":53.5907,"lon":-1.32915,"postcode":"WF9 3HA","la":"Wakefield","era":"other","nn":131,"risk":22,"cat":"green"},{"name":"South Kirkby Miners Welfare Club","lat":53.58814,"lon":-1.3295,"postcode":"WF9 3DP","la":"Wakefield","era":"other","nn":286,"risk":26,"cat":"green"},{"name":"St Johns Terrace Working Mens Club","lat":53.689,"lon":-1.42321,"postcode":"WF6 1DT","la":"Wakefield","era":"trad","nn":392,"risk":42,"cat":"amber"},{"name":"St Michaels Snooker Club","lat":53.67961,"lon":-1.51422,"postcode":"WF2 9NW","la":"Wakefield","era":"other","nn":116,"risk":20,"cat":"green"},{"name":"Stanley Sports And Social Club","lat":53.63853,"lon":-1.54128,"postcode":"WF4 3EP","la":"Wakefield","era":"mod","nn":510,"risk":27,"cat":"green"},{"name":"Star Inn","lat":53.64465,"lon":-1.57935,"postcode":"WF4 4HJ","la":"Wakefield","era":"trad","nn":427,"risk":42,"cat":"amber"},{"name":"Star Inn","lat":53.64933,"lon":-1.49395,"postcode":"WF2 7DY","la":"Wakefield","era":"trad","nn":0,"risk":19,"cat":"green"},{"name":"Station Hotel","lat":53.7243,"lon":-1.35589,"postcode":"WF10 1DP","la":"Wakefield","era":"other","nn":127,"risk":20,"cat":"green"},{"name":"Station Pub","lat":53.63417,"lon":-1.5437,"postcode":"WF4 3ER","la":"Wakefield","era":"other","nn":510,"risk":40,"cat":"amber"},{"name":"Stereo Bar","lat":53.68159,"lon":-1.50053,"postcode":"WF1 1DH","la":"Wakefield","era":"other","nn":50,"risk":19,"cat":"green"},{"name":"Strafford Arms","lat":53.68337,"lon":-1.49898,"postcode":"WF1 1HA","la":"Wakefield","era":"trad","nn":0,"risk":19,"cat":"green"},{"name":"Swan & Cygnet","lat":53.65472,"lon":-1.52439,"postcode":"WF2 7UA","la":"Wakefield","era":"trad","nn":472,"risk":40,"cat":"amber"},{"name":"Talbot & Falcon","lat":53.68421,"lon":-1.49907,"postcode":"WF1 3AP","la":"Wakefield","era":"trad","nn":0,"risk":19,"cat":"green"},{"name":"Tap & Tackle","lat":53.72608,"lon":-1.35133,"postcode":"WF10 1AN","la":"Wakefield","era":"other","nn":111,"risk":20,"cat":"green"},{"name":"Tap And Barrel","lat":53.69187,"lon":-1.31481,"postcode":"WF8 1DA","la":"Wakefield","era":"other","nn":7,"risk":19,"cat":"green"},{"name":"Thatched House","lat":53.71308,"lon":-1.47068,"postcode":"WF3 4AA","la":"Wakefield","era":"other","nn":298,"risk":23,"cat":"green"},{"name":"The Ale House","lat":53.6827,"lon":-1.49861,"postcode":"WF1 1PB","la":"Wakefield","era":"other","nn":36,"risk":19,"cat":"green"},{"name":"The Angel Inn","lat":53.64102,"lon":-1.34686,"postcode":"WF7 7AB","la":"Wakefield","era":"trad","nn":0,"risk":19,"cat":"green"},{"name":"The Bingley","lat":53.65601,"lon":-1.57957,"postcode":"WF4 5QA","la":"Wakefield","era":"other","nn":276,"risk":26,"cat":"green"},{"name":"The Black Bull","lat":53.62816,"lon":-1.5903,"postcode":"WF4 4JJ","la":"Wakefield","era":"trad","nn":1971,"risk":55,"cat":"amber"},{"name":"The Black Rock","lat":53.68279,"lon":-1.49914,"postcode":"WF1 1PA","la":"Wakefield","era":"other","nn":36,"risk":19,"cat":"green"},{"name":"The Black Swan","lat":53.68265,"lon":-1.50023,"postcode":"WF1 1UY","la":"Wakefield","era":"trad","nn":45,"risk":19,"cat":"green"},{"name":"The Blind Pig","lat":53.68321,"lon":-1.49857,"postcode":"WF1 1HB","la":"Wakefield","era":"other","nn":32,"risk":19,"cat":"green"},{"name":"The Blue Bell","lat":53.69056,"lon":-1.31139,"postcode":"WF8 1LW","la":"Wakefield","era":"other","nn":41,"risk":19,"cat":"green"},{"name":"The Brig WMC","lat":53.705,"lon":-1.42957,"postcode":"WF6 2JH","la":"Wakefield","era":"other","nn":625,"risk":26,"cat":"green"},{"name":"The Broken Bridge","lat":53.69267,"lon":-1.30952,"postcode":"WF8 1PE","la":"Wakefield","era":"other","nn":67,"risk":19,"cat":"green"},{"name":"The Castle","lat":53.65608,"lon":-1.4858,"postcode":"WF2 6AS","la":"Wakefield","era":"other","nn":206,"risk":20,"cat":"green"},{"name":"The Castlefields","lat":53.72479,"lon":-1.35049,"postcode":"WF10 4AB","la":"Wakefield","era":"other","nn":154,"risk":20,"cat":"green"},{"name":"The Catchpenny/Hide Steakhouse","lat":53.6373,"lon":-1.38063,"postcode":"WF9 5AZ","la":"Wakefield","era":"other","nn":313,"risk":39,"cat":"amber"},{"name":"The Cobbler Pub","lat":53.69859,"lon":-1.29191,"postcode":"WF8 2LL","la":"Wakefield","era":"other","nn":719,"risk":29,"cat":"green"},{"name":"The Dam Inn","lat":53.63843,"lon":-1.49791,"postcode":"WF2 6QG","la":"Wakefield","era":"trad","nn":450,"risk":27,"cat":"green"},{"name":"The Deep Drop","lat":53.70625,"lon":-1.50568,"postcode":"WF1 2ND","la":"Wakefield","era":"other","nn":426,"risk":22,"cat":"green"},{"name":"The Distillery Bar","lat":53.67521,"lon":-1.49075,"postcode":"WF1 5FY","la":"Wakefield","era":"other","nn":127,"risk":20,"cat":"green"},{"name":"The Doghouse","lat":53.72676,"lon":-1.34967,"postcode":"WF10 1AY","la":"Wakefield","era":"other","nn":133,"risk":20,"cat":"green"},{"name":"The Eagle","lat":53.72611,"lon":-1.36393,"postcode":"WF10 1LX","la":"Wakefield","era":"trad","nn":172,"risk":20,"cat":"green"},{"name":"The Eagle","lat":53.68409,"lon":-1.53456,"postcode":"WF2 9JF","la":"Wakefield","era":"trad","nn":159,"risk":25,"cat":"green"},{"name":"The Electric Theatre","lat":53.64222,"lon":-1.35463,"postcode":"WF7 7AZ","la":"Wakefield","era":"other","nn":529,"risk":28,"cat":"green"},{"name":"The Establishment, Unity House","lat":53.68184,"lon":-1.50232,"postcode":"WF1 1EP","la":"Wakefield","era":"other","nn":12,"risk":19,"cat":"green"},{"name":"The Gantry","lat":53.61638,"lon":-1.27392,"postcode":"WF9 1JJ","la":"Wakefield","era":"other","nn":117,"risk":25,"cat":"green"},{"name":"The George","lat":53.67841,"lon":-1.58133,"postcode":"WF5 8NW","la":"Wakefield","era":"trad","nn":96,"risk":20,"cat":"green"},{"name":"The Glassblower","lat":53.72688,"lon":-1.35411,"postcode":"WF10 1JD","la":"Wakefield","era":"other","nn":99,"risk":20,"cat":"green"},{"name":"The Golden Lion","lat":53.71419,"lon":-1.26836,"postcode":"WF11 8ND","la":"Wakefield","era":"trad","nn":50,"risk":24,"cat":"green"},{"name":"The Golden Pineapple","lat":53.68316,"lon":-1.49919,"postcode":"WF1 2ED","la":"Wakefield","era":"other","nn":27,"risk":19,"cat":"green"},{"name":"The Graziers","lat":53.70226,"lon":-1.47941,"postcode":"WF3 4NN","la":"Wakefield","era":"other","nn":584,"risk":43,"cat":"amber"},{"name":"The Green Dragon","lat":53.69205,"lon":-1.31388,"postcode":"WF8 1BJ","la":"Wakefield","era":"trad","nn":0,"risk":19,"cat":"green"},{"name":"The Hemsworth","lat":53.60866,"lon":-1.35942,"postcode":"WF9 4EB","la":"Wakefield","era":"other","nn":482,"risk":22,"cat":"green"},{"name":"The Hop","lat":53.68173,"lon":-1.50163,"postcode":"WF1 1EH","la":"Wakefield","era":"other","nn":34,"risk":19,"cat":"green"},{"name":"The Junction","lat":53.72579,"lon":-1.35546,"postcode":"WF10 1EE","la":"Wakefield","era":"other","nn":62,"risk":19,"cat":"green"},{"name":"The Junction","lat":53.58853,"lon":-1.29442,"postcode":"WF9 2JX","la":"Wakefield","era":"other","nn":520,"risk":23,"cat":"green"},{"name":"The Junction Inn","lat":53.70014,"lon":-1.42094,"postcode":"WF6 2AU","la":"Wakefield","era":"trad","nn":90,"risk":20,"cat":"green"},{"name":"The Lee Moor","lat":53.718,"lon":-1.47756,"postcode":"WF3 4EF","la":"Wakefield","era":"other","nn":423,"risk":24,"cat":"green"},{"name":"The Libb","lat":53.62131,"lon":-1.41629,"postcode":"WF4 2AL","la":"Wakefield","era":"other","nn":224,"risk":25,"cat":"green"},{"name":"The Lion Hotel","lat":53.72749,"lon":-1.35249,"postcode":"WF10 1JJ","la":"Wakefield","era":"trad","nn":85,"risk":20,"cat":"green"},{"name":"The Liquor Cabinet","lat":53.66039,"lon":-1.55541,"postcode":"WF4 6LP","la":"Wakefield","era":"other","nn":88,"risk":20,"cat":"green"},{"name":"The Liquorice Bush","lat":53.69196,"lon":-1.31041,"postcode":"WF8 1AX","la":"Wakefield","era":"other","nn":8,"risk":19,"cat":"green"},{"name":"The Little Bull","lat":53.65105,"lon":-1.59749,"postcode":"WF4 4NR","la":"Wakefield","era":"trad","nn":229,"risk":38,"cat":"amber"},{"name":"The Lockwood","lat":53.68337,"lon":-1.49898,"postcode":"WF1 1HA","la":"Wakefield","era":"other","nn":0,"risk":19,"cat":"green"},{"name":"The Magnet","lat":53.67677,"lon":-1.52004,"postcode":"WF2 8DA","la":"Wakefield","era":"other","nn":369,"risk":21,"cat":"green"},{"name":"The Magnet Hotel","lat":53.72227,"lon":-1.345,"postcode":"WF10 4BG","la":"Wakefield","era":"other","nn":457,"risk":22,"cat":"green"},{"name":"The Maltshovel","lat":53.69173,"lon":-1.31368,"postcode":"WF8 1AN","la":"Wakefield","era":"other","nn":37,"risk":19,"cat":"green"},{"name":"The Manor Inn","lat":53.65232,"lon":-1.41935,"postcode":"WF4 1LG","la":"Wakefield","era":"trad","nn":692,"risk":44,"cat":"amber"},{"name":"The Masons Arms","lat":53.64285,"lon":-1.33927,"postcode":"WF7 7JD","la":"Wakefield","era":"trad","nn":285,"risk":23,"cat":"green"},{"name":"The Maypole","lat":53.6797,"lon":-1.57827,"postcode":"WF5 8BJ","la":"Wakefield","era":"other","nn":16,"risk":19,"cat":"green"},{"name":"The Mews Hotel","lat":53.68376,"lon":-1.57766,"postcode":"WF5 9HN","la":"Wakefield","era":"other","nn":319,"risk":21,"cat":"green"},{"name":"The Miners Arms","lat":53.7128,"lon":-1.42164,"postcode":"WF6 2QR","la":"Wakefield","era":"trad","nn":0,"risk":36,"cat":"amber"},{"name":"The New Albion","lat":53.68833,"lon":-1.5311,"postcode":"WF2 9JH","la":"Wakefield","era":"other","nn":365,"risk":24,"cat":"green"},{"name":"The New Inn","lat":53.64977,"lon":-1.46257,"postcode":"WF2 6LA","la":"Wakefield","era":"trad","nn":80,"risk":39,"cat":"amber"},{"name":"The New Pot Oil","lat":53.69823,"lon":-1.52464,"postcode":"WF2 0JG","la":"Wakefield","era":"other","nn":82,"risk":24,"cat":"green"},{"name":"The New Union","lat":53.68185,"lon":-1.49609,"postcode":"WF1 1UZ","la":"Wakefield","era":"other","nn":76,"risk":19,"cat":"green"},{"name":"The Nightingale Public House","lat":53.70737,"lon":-1.4995,"postcode":"WF1 3HY","la":"Wakefield","era":"other","nn":342,"risk":21,"cat":"green"},{"name":"The Number One","lat":53.68153,"lon":-1.35994,"postcode":"WF7 6EH","la":"Wakefield","era":"other","nn":87,"risk":20,"cat":"green"},{"name":"The Oak","lat":53.60355,"lon":-1.28462,"postcode":"WF9 2DT","la":"Wakefield","era":"trad","nn":1040,"risk":49,"cat":"amber"},{"name":"The Old Grocer","lat":53.69149,"lon":-1.31306,"postcode":"WF8 1AL","la":"Wakefield","era":"other","nn":36,"risk":19,"cat":"green"},{"name":"The Olde Tavern","lat":53.69511,"lon":-1.30112,"postcode":"WF8 2JL","la":"Wakefield","era":"other","nn":198,"risk":20,"cat":"green"},{"name":"The Pledwick Well Inn","lat":53.64251,"lon":-1.4969,"postcode":"WF2 6QE","la":"Wakefield","era":"trad","nn":410,"risk":22,"cat":"green"},{"name":"The Polka Hop","lat":53.68031,"lon":-1.50107,"postcode":"WF1 1DL","la":"Wakefield","era":"other","nn":78,"risk":19,"cat":"green"},{"name":"The Ponty Tavern","lat":53.69205,"lon":-1.31388,"postcode":"WF8 1BJ","la":"Wakefield","era":"other","nn":0,"risk":19,"cat":"green"},{"name":"The Poplar","lat":53.7128,"lon":-1.42164,"postcode":"WF6 2QR","la":"Wakefield","era":"other","nn":0,"risk":36,"cat":"amber"},{"name":"The Printer's Draft","lat":53.69148,"lon":-1.31054,"postcode":"WF8 1AG","la":"Wakefield","era":"other","nn":10,"risk":19,"cat":"green"},{"name":"The Priory Bar","lat":53.68266,"lon":-1.50478,"postcode":"WF1 2TJ","la":"Wakefield","era":"other","nn":104,"risk":20,"cat":"green"},{"name":"The Prospect","lat":53.67895,"lon":-1.57828,"postcode":"WF5 8AF","la":"Wakefield","era":"other","nn":73,"risk":19,"cat":"green"},{"name":"The Queens Arms","lat":53.6706,"lon":-1.50367,"postcode":"WF2 8ED","la":"Wakefield","era":"trad","nn":207,"risk":20,"cat":"green"},{"name":"The Railway","lat":53.67843,"lon":-1.3582,"postcode":"WF7 5BA","la":"Wakefield","era":"trad","nn":243,"risk":21,"cat":"green"},{"name":"The Rainbow","lat":53.68339,"lon":-1.4936,"postcode":"WF1 1SA","la":"Wakefield","era":"other","nn":33,"risk":19,"cat":"green"},{"name":"The Raven Public House","lat":53.68335,"lon":-1.49727,"postcode":"WF1 1PJ","la":"Wakefield","era":"other","nn":87,"risk":20,"cat":"green"},{"name":"The Red Lion","lat":53.69205,"lon":-1.31036,"postcode":"WF8 1AX","la":"Wakefield","era":"trad","nn":10,"risk":19,"cat":"green"},{"name":"The Reindeer Inn","lat":53.64457,"lon":-1.61491,"postcode":"WF4 4RL","la":"Wakefield","era":"trad","nn":526,"risk":43,"cat":"amber"},{"name":"The Rhubarb Triangle","lat":53.6988,"lon":-1.50794,"postcode":"WF1 2UJ","la":"Wakefield","era":"mod","nn":841,"risk":42,"cat":"amber"},{"name":"The Rising Sun","lat":53.7133,"lon":-1.38655,"postcode":"WF10 5PT","la":"Wakefield","era":"other","nn":163,"risk":40,"cat":"amber"},{"name":"The Robin Hood","lat":53.70697,"lon":-1.43846,"postcode":"WF6 2NJ","la":"Wakefield","era":"other","nn":625,"risk":43,"cat":"amber"},{"name":"The Roof Top","lat":53.68229,"lon":-1.50179,"postcode":"WF1 1XQ","la":"Wakefield","era":"other","nn":5,"risk":19,"cat":"green"},{"name":"The Saw Mill","lat":53.59478,"lon":-1.29214,"postcode":"WF9 2QW","la":"Wakefield","era":"trad","nn":140,"risk":20,"cat":"green"},{"name":"The Singing Chocker","lat":53.71068,"lon":-1.33363,"postcode":"WF10 4RJ","la":"Wakefield","era":"other","nn":537,"risk":23,"cat":"green"},{"name":"The Six Chimneys","lat":53.68243,"lon":-1.49378,"postcode":"WF1 1HX","la":"Wakefield","era":"other","nn":107,"risk":20,"cat":"green"},{"name":"The Spread Eagle","lat":53.67538,"lon":-1.26876,"postcode":"WF8 3AP","la":"Wakefield","era":"trad","nn":1794,"risk":54,"cat":"amber"},{"name":"The St Leger","lat":53.70992,"lon":-1.5024,"postcode":"WF1 2JL","la":"Wakefield","era":"other","nn":342,"risk":21,"cat":"green"},{"name":"The Sun","lat":53.71648,"lon":-1.49682,"postcode":"WF3 3HF","la":"Wakefield","era":"other","nn":158,"risk":20,"cat":"green"},{"name":"The Swan","lat":53.68098,"lon":-1.50662,"postcode":"WF2 9SR","la":"Wakefield","era":"trad","nn":175,"risk":20,"cat":"green"},{"name":"The Thorn Tree Pub & Kitchen","lat":53.67665,"lon":-1.58014,"postcode":"WF5 8AS","la":"Wakefield","era":"mod","nn":113,"risk":20,"cat":"green"},{"name":"The Three Houses","lat":53.65448,"lon":-1.48737,"postcode":"WF2 6HW","la":"Wakefield","era":"other","nn":206,"risk":20,"cat":"green"},{"name":"The Turnpike","lat":53.70407,"lon":-1.27483,"postcode":"WF11 0BU","la":"Wakefield","era":"other","nn":994,"risk":46,"cat":"amber"},{"name":"The Upton Arms","lat":53.61316,"lon":-1.28489,"postcode":"WF9 1HG","la":"Wakefield","era":"trad","nn":0,"risk":24,"cat":"green"},{"name":"The Vic","lat":53.67173,"lon":-1.57266,"postcode":"WF5 0AU","la":"Wakefield","era":"other","nn":311,"risk":21,"cat":"green"},{"name":"The Wagon","lat":53.67991,"lon":-1.50984,"postcode":"WF2 9RQ","la":"Wakefield","era":"other","nn":120,"risk":20,"cat":"green"},{"name":"The Weavers","lat":53.6694,"lon":-1.57528,"postcode":"WF5 0DL","la":"Wakefield","era":"other","nn":311,"risk":21,"cat":"green"},{"name":"The Well Cafe @ Hemsworth MWFC","lat":53.63488,"lon":-1.37822,"postcode":"WF9 5AJ","la":"Wakefield","era":"other","nn":313,"risk":26,"cat":"green"},{"name":"The Wharf","lat":53.67316,"lon":-1.49286,"postcode":"WF1 5RF","la":"Wakefield","era":"other","nn":267,"risk":21,"cat":"green"},{"name":"The Wheatsheaf","lat":53.71475,"lon":-1.47421,"postcode":"WF3 4HP","la":"Wakefield","era":"trad","nn":152,"risk":22,"cat":"green"},{"name":"The Wheldale Hotel","lat":53.73075,"lon":-1.33989,"postcode":"WF10 2SD","la":"Wakefield","era":"other","nn":782,"risk":24,"cat":"green"},{"name":"The Whinney Moor","lat":53.67132,"lon":-1.52469,"postcode":"WF2 8RE","la":"Wakefield","era":"trad","nn":679,"risk":41,"cat":"amber"},{"name":"The White Hart","lat":53.67942,"lon":-1.51145,"postcode":"WF2 9RL","la":"Wakefield","era":"trad","nn":0,"risk":19,"cat":"green"},{"name":"The Winter Seam","lat":53.71014,"lon":-1.34218,"postcode":"WF10 4TA","la":"Wakefield","era":"other","nn":566,"risk":23,"cat":"green"},{"name":"Theatre Royal Wakefield Cafe Bar","lat":53.68224,"lon":-1.50337,"postcode":"WF1 2TE","la":"Wakefield","era":"trad","nn":35,"risk":19,"cat":"green"},{"name":"Toby Carvery Calder Island Wakefield","lat":53.66383,"lon":-1.50531,"postcode":"WF2 7AW","la":"Wakefield","era":"other","nn":761,"risk":42,"cat":"amber"},{"name":"Tooth & Tiger","lat":53.68988,"lon":-1.31221,"postcode":"WF8 1LN","la":"Wakefield","era":"other","nn":46,"risk":19,"cat":"green"},{"name":"Townville Recreation Club","lat":53.71908,"lon":-1.31383,"postcode":"WF10 3QF","la":"Wakefield","era":"other","nn":919,"risk":43,"cat":"amber"},{"name":"Travellers Inn","lat":53.71287,"lon":-1.47808,"postcode":"WF3 4HZ","la":"Wakefield","era":"trad","nn":178,"risk":20,"cat":"green"},{"name":"Travellers Inn","lat":53.59531,"lon":-1.31352,"postcode":"WF9 3AB","la":"Wakefield","era":"trad","nn":180,"risk":40,"cat":"amber"},{"name":"Travellers Rest","lat":53.67398,"lon":-1.35159,"postcode":"WF7 5AP","la":"Wakefield","era":"other","nn":375,"risk":22,"cat":"green"},{"name":"Union Bank Wakefield","lat":53.68212,"lon":-1.5009,"postcode":"WF1 1BW","la":"Wakefield","era":"other","nn":0,"risk":19,"cat":"green"},{"name":"United Services Wmc","lat":53.61316,"lon":-1.28489,"postcode":"WF9 1HG","la":"Wakefield","era":"other","nn":0,"risk":24,"cat":"green"},{"name":"Velvet","lat":53.68069,"lon":-1.50008,"postcode":"WF1 1DH","la":"Wakefield","era":"other","nn":78,"risk":19,"cat":"green"},{"name":"Venue 23","lat":53.68056,"lon":-1.50254,"postcode":"WF1 1ED","la":"Wakefield","era":"other","nn":100,"risk":20,"cat":"green"},{"name":"Victoria","lat":53.66153,"lon":-1.56456,"postcode":"WF4 6EH","la":"Wakefield","era":"trad","nn":571,"risk":23,"cat":"green"},{"name":"Vortex Bar & Night Club","lat":53.68305,"lon":-1.50036,"postcode":"WF1 2SQ","la":"Wakefield","era":"mod","nn":19,"risk":19,"cat":"green"},{"name":"Waggon and Horses","lat":53.71384,"lon":-1.47593,"postcode":"WF3 4HS","la":"Wakefield","era":"trad","nn":152,"risk":20,"cat":"green"},{"name":"Wakefield Golf Club","lat":53.64897,"lon":-1.48941,"postcode":"WF2 6JH","la":"Wakefield","era":"other","nn":209,"risk":20,"cat":"green"},{"name":"Wakefield Labour Club","lat":53.68365,"lon":-1.49382,"postcode":"WF1 1QX","la":"Wakefield","era":"other","nn":33,"risk":19,"cat":"green"},{"name":"Walnut Tree Inn","lat":53.65022,"lon":-1.49179,"postcode":"WF2 6BH","la":"Wakefield","era":"trad","nn":173,"risk":20,"cat":"green"},{"name":"Walton Arlfc","lat":53.64938,"lon":-1.46358,"postcode":"WF2 6LA","la":"Wakefield","era":"other","nn":80,"risk":39,"cat":"amber"},{"name":"Waterloo","lat":53.67942,"lon":-1.51145,"postcode":"WF2 9RL","la":"Wakefield","era":"other","nn":0,"risk":19,"cat":"green"},{"name":"West End Working Mens Club","lat":53.61297,"lon":-1.36017,"postcode":"WF9 4QZ","la":"Wakefield","era":"trad","nn":390,"risk":22,"cat":"green"},{"name":"Westgate Common Working Mens Club","lat":53.67774,"lon":-1.51468,"postcode":"WF2 8TW","la":"Wakefield","era":"trad","nn":94,"risk":20,"cat":"green"},{"name":"Wheel Inn","lat":53.70353,"lon":-1.51932,"postcode":"WF2 0LY","la":"Wakefield","era":"trad","nn":176,"risk":20,"cat":"green"},{"name":"White Horse","lat":53.66079,"lon":-1.41153,"postcode":"WF4 1EP","la":"Wakefield","era":"trad","nn":653,"risk":41,"cat":"amber"},{"name":"White House Inn","lat":53.6749,"lon":-1.34611,"postcode":"WF7 5AB","la":"Wakefield","era":"other","nn":375,"risk":22,"cat":"green"},{"name":"White Lion Hotel","lat":53.72723,"lon":-1.36574,"postcode":"WF10 1NJ","la":"Wakefield","era":"trad","nn":172,"risk":20,"cat":"green"},{"name":"Winston Hotel","lat":53.70418,"lon":-1.23769,"postcode":"WF11 0DB","la":"Wakefield","era":"other","nn":269,"risk":23,"cat":"green"},{"name":"Woodman Inn","lat":53.7128,"lon":-1.49969,"postcode":"WF1 2LU","la":"Wakefield","era":"trad","nn":0,"risk":19,"cat":"green"},{"name":"Wrenthorpe Sports And Social Club","lat":53.70332,"lon":-1.52197,"postcode":"WF2 0LP","la":"Wakefield","era":"mod","nn":176,"risk":25,"cat":"green"}]