[{"name":"Addison Howard Centre","lat":52.12467,"lon":-0.48743,"postcode":"MK42 8PN","la":"Bedford","era":"other","nn":139,"risk":27,"cat":"green"},{"name":"AFC Kempston Rovers Football Club","lat":52.12795,"lon":-0.49877,"postcode":"MK42 8QG","la":"Bedford","era":"other","nn":823,"risk":37,"cat":"amber"},{"name":"After Hours","lat":52.1388,"lon":-0.46294,"postcode":"MK40 3JG","la":"Bedford","era":"other","nn":80,"risk":27,"cat":"green"},{"name":"Astons","lat":52.1362,"lon":-0.46666,"postcode":"MK40 1SP","la":"Bedford","era":"other","nn":49,"risk":26,"cat":"green"},{"name":"Auction Room Ltd","lat":52.13725,"lon":-0.4653,"postcode":"MK40 3HR","la":"Bedford","era":"other","nn":18,"risk":26,"cat":"green"},{"name":"Bar Citrus","lat":52.13756,"lon":-0.46849,"postcode":"MK40 1LA","la":"Bedford","era":"mod","nn":110,"risk":27,"cat":"green"},{"name":"Barley Mow","lat":52.13848,"lon":-0.47087,"postcode":"MK40 1EZ","la":"Bedford","era":"other","nn":191,"risk":27,"cat":"green"},{"name":"Bedford & County Golf Club Bar","lat":52.1658,"lon":-0.48465,"postcode":"MK41 6ET","la":"Bedford","era":"other","nn":1299,"risk":58,"cat":"amber"},{"name":"Bedford Athletic Rugby Club Bar","lat":52.15896,"lon":-0.44295,"postcode":"MK41 8QA","la":"Bedford","era":"other","nn":571,"risk":47,"cat":"amber"},{"name":"Bedford Borough Bowling Club Bar","lat":52.1401,"lon":-0.46053,"postcode":"MK40 3NF","la":"Bedford","era":"other","nn":0,"risk":26,"cat":"green"},{"name":"Bedford Rowing Club","lat":52.13359,"lon":-0.46537,"postcode":"MK42 0AX","la":"Bedford","era":"other","nn":28,"risk":26,"cat":"green"},{"name":"Bedford Rugby (Ground, Bar & Marquee)","lat":52.1401,"lon":-0.46053,"postcode":"MK40 3NF","la":"Bedford","era":"mod","nn":0,"risk":26,"cat":"green"},{"name":"Bedford Town Football Club","lat":52.12879,"lon":-0.41309,"postcode":"MK44 3LW","la":"Bedford","era":"other","nn":176,"risk":47,"cat":"amber"},{"name":"Bedfordshire Golf Club","lat":52.13013,"lon":-0.55572,"postcode":"MK43 8SR","la":"Bedford","era":"other","nn":2170,"risk":64,"cat":"red"},{"name":"Brewpoint","lat":52.14708,"lon":-0.48517,"postcode":"MK41 7FY","la":"Bedford","era":"other","nn":772,"risk":34,"cat":"amber"},{"name":"Briar Social Club Ltd","lat":52.07401,"lon":-0.44652,"postcode":"MK45 3ES","la":"Bedford","era":"mod","nn":218,"risk":45,"cat":"amber"},{"name":"Club Italia","lat":52.13632,"lon":-0.47514,"postcode":"MK40 1JA","la":"Bedford","era":"other","nn":72,"risk":26,"cat":"green"},{"name":"Club Polska","lat":52.13687,"lon":-0.47571,"postcode":"MK40 1JB","la":"Bedford","era":"other","nn":72,"risk":26,"cat":"green"},{"name":"Colmworth Golf Club","lat":52.20142,"lon":-0.39782,"postcode":"MK44 2AP","la":"Bedford","era":"other","nn":3280,"risk":71,"cat":"red"},{"name":"Colworth Club","lat":52.23156,"lon":-0.56354,"postcode":"MK44 1LQ","la":"Bedford","era":"other","nn":1566,"risk":59,"cat":"amber"},{"name":"Crown Inn","lat":52.25608,"lon":-0.38922,"postcode":"MK44 2BU","la":"Bedford","era":"trad","nn":2329,"risk":65,"cat":"red"},{"name":"Daleys Club","lat":52.12199,"lon":-0.4873,"postcode":"MK42 8BB","la":"Bedford","era":"other","nn":298,"risk":28,"cat":"green"},{"name":"Devonshire Arms","lat":52.13658,"lon":-0.45028,"postcode":"MK40 3TB","la":"Bedford","era":"trad","nn":281,"risk":28,"cat":"green"},{"name":"Esquires","lat":52.1392,"lon":-0.47379,"postcode":"MK40 2QG","la":"Bedford","era":"other","nn":132,"risk":27,"cat":"green"},{"name":"Executive Snooker Club","lat":52.13792,"lon":-0.46505,"postcode":"MK40 3HZ","la":"Bedford","era":"other","nn":77,"risk":27,"cat":"green"},{"name":"Five Bells","lat":52.12226,"lon":-0.38901,"postcode":"MK44 3TU","la":"Bedford","era":"other","nn":1723,"risk":61,"cat":"red"},{"name":"Fox & Duck","lat":52.09597,"lon":-0.52878,"postcode":"MK43 9JT","la":"Bedford","era":"trad","nn":0,"risk":43,"cat":"amber"},{"name":"Fox & Hounds","lat":52.14053,"lon":-0.44773,"postcode":"MK40 3EB","la":"Bedford","era":"trad","nn":293,"risk":28,"cat":"green"},{"name":"Fox and Hounds Riseley","lat":52.25261,"lon":-0.47753,"postcode":"MK44 1DT","la":"Bedford","era":"trad","nn":1827,"risk":61,"cat":"red"},{"name":"Fox Inn","lat":52.1876,"lon":-0.60667,"postcode":"MK43 7LA","la":"Bedford","era":"trad","nn":671,"risk":51,"cat":"amber"},{"name":"Gardeners Arms","lat":52.12563,"lon":-0.47029,"postcode":"MK42 9HS","la":"Bedford","era":"trad","nn":295,"risk":31,"cat":"amber"},{"name":"George & Dragon","lat":52.13683,"lon":-0.46548,"postcode":"MK40 3EU","la":"Bedford","era":"trad","nn":48,"risk":26,"cat":"green"},{"name":"Gordon Arms","lat":52.13715,"lon":-0.45429,"postcode":"MK40 3QY","la":"Bedford","era":"trad","nn":281,"risk":28,"cat":"green"},{"name":"Greyfriars Snooker Centre","lat":52.13647,"lon":-0.47215,"postcode":"MK40 1HP","la":"Bedford","era":"other","nn":68,"risk":26,"cat":"green"},{"name":"Kalooki Club","lat":52.14024,"lon":-0.4832,"postcode":"MK40 2AZ","la":"Bedford","era":"other","nn":395,"risk":29,"cat":"green"},{"name":"Kempston Constitutional Club","lat":52.11918,"lon":-0.49385,"postcode":"MK42 8BL","la":"Bedford","era":"other","nn":546,"risk":30,"cat":"green"},{"name":"Kempston Hammers Sports & Social Club","lat":52.11465,"lon":-0.5077,"postcode":"MK42 7BN","la":"Bedford","era":"mod","nn":324,"risk":33,"cat":"amber"},{"name":"Kempston Park Indoor Bowls Club","lat":52.12591,"lon":-0.48718,"postcode":"MK42 8UB","la":"Bedford","era":"other","nn":139,"risk":27,"cat":"green"},{"name":"Kent Arms","lat":52.14611,"lon":-0.4709,"postcode":"MK41 7RQ","la":"Bedford","era":"trad","nn":273,"risk":28,"cat":"green"},{"name":"King William IV","lat":52.11564,"lon":-0.50325,"postcode":"MK42 7AL","la":"Bedford","era":"trad","nn":324,"risk":31,"cat":"amber"},{"name":"Kings Arms","lat":52.11801,"lon":-0.41328,"postcode":"MK44 3SP","la":"Bedford","era":"trad","nn":1096,"risk":56,"cat":"amber"},{"name":"Kings Arms PH","lat":52.13347,"lon":-0.46573,"postcode":"MK42 0AS","la":"Bedford","era":"trad","nn":28,"risk":26,"cat":"green"},{"name":"Lucky 11","lat":52.14001,"lon":-0.4678,"postcode":"MK40 2TJ","la":"Bedford","era":"other","nn":98,"risk":27,"cat":"green"},{"name":"Meltis Sports and Social Club","lat":52.12398,"lon":-0.4669,"postcode":"MK42 9FS","la":"Bedford","era":"mod","nn":295,"risk":48,"cat":"amber"},{"name":"Mill Theatre","lat":52.22194,"lon":-0.52507,"postcode":"MK44 1NP","la":"Bedford","era":"trad","nn":1269,"risk":57,"cat":"amber"},{"name":"North End Club","lat":52.14238,"lon":-0.47347,"postcode":"MK41 7TW","la":"Bedford","era":"other","nn":232,"risk":28,"cat":"green"},{"name":"Oakley Sports and Social Club","lat":52.16992,"lon":-0.52897,"postcode":"MK43 7RJ","la":"Bedford","era":"other","nn":236,"risk":48,"cat":"amber"},{"name":"Ours","lat":52.13949,"lon":-0.46328,"postcode":"MK40 2NN","la":"Bedford","era":"other","nn":80,"risk":27,"cat":"green"},{"name":"Pavenham Park Golf Club","lat":52.18968,"lon":-0.54583,"postcode":"MK43 7PE","la":"Bedford","era":"other","nn":2068,"risk":63,"cat":"red"},{"name":"Pilgrims Progress","lat":52.1359,"lon":-0.47252,"postcode":"MK40 1QB","la":"Bedford","era":"other","nn":68,"risk":26,"cat":"green"},{"name":"Polhill Arms","lat":52.16184,"lon":-0.42064,"postcode":"MK41 0JP","la":"Bedford","era":"trad","nn":1555,"risk":59,"cat":"amber"},{"name":"Pride of Poland Limited","lat":52.13611,"lon":-0.47839,"postcode":"MK40 1DS","la":"Bedford","era":"other","nn":149,"risk":27,"cat":"green"},{"name":"RAFA Club","lat":52.13783,"lon":-0.47895,"postcode":"MK40 1EA","la":"Bedford","era":"other","nn":149,"risk":27,"cat":"green"},{"name":"Real Bedford FC","lat":52.1278,"lon":-0.41509,"postcode":"MK44 3SB","la":"Bedford","era":"other","nn":176,"risk":47,"cat":"amber"},{"name":"Red Lion","lat":52.16872,"lon":-0.55448,"postcode":"MK43 7QD","la":"Bedford","era":"trad","nn":196,"risk":47,"cat":"amber"},{"name":"Royal Oak","lat":52.11207,"lon":-0.49792,"postcode":"MK42 7QR","la":"Bedford","era":"trad","nn":215,"risk":27,"cat":"green"},{"name":"Russell Park Social Club","lat":52.13983,"lon":-0.45443,"postcode":"MK40 3ND","la":"Bedford","era":"mod","nn":299,"risk":28,"cat":"green"},{"name":"Ship","lat":52.13756,"lon":-0.46284,"postcode":"MK40 3JB","la":"Bedford","era":"trad","nn":80,"risk":27,"cat":"green"},{"name":"Six's","lat":52.13826,"lon":-0.46609,"postcode":"MK40 3HY","la":"Bedford","era":"other","nn":72,"risk":26,"cat":"green"},{"name":"Slug & Lettuce Bedford","lat":52.13652,"lon":-0.46613,"postcode":"MK40 1RZ","la":"Bedford","era":"other","nn":0,"risk":26,"cat":"green"},{"name":"Sport for Bedford Ltd","lat":52.13448,"lon":-0.49224,"postcode":"MK40 4HL","la":"Bedford","era":"other","nn":586,"risk":30,"cat":"green"},{"name":"Sporting Targets Ltd","lat":52.25076,"lon":-0.5042,"postcode":"MK44 1BX","la":"Bedford","era":"other","nn":1827,"risk":61,"cat":"red"},{"name":"St Johns Arms","lat":52.28424,"lon":-0.49175,"postcode":"MK44 1BG","la":"Bedford","era":"trad","nn":1897,"risk":62,"cat":"red"},{"name":"Stewartby Sports & Social Club","lat":52.07068,"lon":-0.51394,"postcode":"MK43 9NU","la":"Bedford","era":"mod","nn":832,"risk":52,"cat":"amber"},{"name":"Swan Inn","lat":52.14461,"lon":-0.52696,"postcode":"MK43 8LS","la":"Bedford","era":"trad","nn":633,"risk":50,"cat":"amber"},{"name":"Swan With Two Nicks","lat":52.22551,"lon":-0.54277,"postcode":"MK44 1PF","la":"Bedford","era":"trad","nn":1269,"risk":57,"cat":"amber"},{"name":"T Bar","lat":52.12493,"lon":-0.48184,"postcode":"MK42 8AH","la":"Bedford","era":"other","nn":381,"risk":31,"cat":"amber"},{"name":"The Anchor","lat":52.14312,"lon":-0.42665,"postcode":"MK41 0DS","la":"Bedford","era":"trad","nn":571,"risk":50,"cat":"amber"},{"name":"The Anchor Inn","lat":52.15242,"lon":-0.34546,"postcode":"MK44 3LF","la":"Bedford","era":"trad","nn":2065,"risk":63,"cat":"red"},{"name":"The Balloon","lat":52.14329,"lon":-0.46858,"postcode":"MK40 2EX","la":"Bedford","era":"other","nn":212,"risk":27,"cat":"green"},{"name":"The Bear","lat":52.13796,"lon":-0.46702,"postcode":"MK40 1NN","la":"Bedford","era":"other","nn":72,"risk":26,"cat":"green"},{"name":"The Bedford Arms","lat":52.17196,"lon":-0.52803,"postcode":"MK43 7RH","la":"Bedford","era":"trad","nn":236,"risk":48,"cat":"amber"},{"name":"The Bedford Club","lat":52.14053,"lon":-0.46643,"postcode":"MK40 2TX","la":"Bedford","era":"other","nn":109,"risk":27,"cat":"green"},{"name":"The Bell","lat":52.20898,"lon":-0.58997,"postcode":"MK43 7AS","la":"Bedford","era":"other","nn":1687,"risk":60,"cat":"amber"},{"name":"The Bell","lat":52.09585,"lon":-0.41741,"postcode":"MK45 3AE","la":"Bedford","era":"other","nn":2480,"risk":66,"cat":"red"},{"name":"The Bluebell","lat":52.15389,"lon":-0.44421,"postcode":"MK41 9AH","la":"Bedford","era":"other","nn":571,"risk":50,"cat":"amber"},{"name":"The Bull","lat":52.12033,"lon":-0.45246,"postcode":"MK42 0PX","la":"Bedford","era":"trad","nn":1066,"risk":56,"cat":"amber"},{"name":"The Burnaby Arms","lat":52.14446,"lon":-0.47385,"postcode":"MK41 7RU","la":"Bedford","era":"trad","nn":232,"risk":28,"cat":"green"},{"name":"The Castle","lat":52.13739,"lon":-0.4617,"postcode":"MK40 3JR","la":"Bedford","era":"other","nn":0,"risk":26,"cat":"green"},{"name":"The Cellar Bar","lat":52.13714,"lon":-0.46634,"postcode":"MK40 1NE","la":"Bedford","era":"other","nn":63,"risk":26,"cat":"green"},{"name":"The chequers Inn","lat":52.10033,"lon":-0.54043,"postcode":"MK43 9HP","la":"Bedford","era":"trad","nn":932,"risk":50,"cat":"amber"},{"name":"The Chequers Inn","lat":52.25857,"lon":-0.4232,"postcode":"MK44 2HR","la":"Bedford","era":"trad","nn":2329,"risk":65,"cat":"red"},{"name":"The Cock Inn","lat":52.09597,"lon":-0.52878,"postcode":"MK43 9JT","la":"Bedford","era":"trad","nn":0,"risk":43,"cat":"amber"},{"name":"The Cross Keys","lat":52.10988,"lon":-0.53884,"postcode":"MK43 9BE","la":"Bedford","era":"trad","nn":1068,"risk":56,"cat":"amber"},{"name":"The Cross Keys","lat":52.13657,"lon":-0.46626,"postcode":"MK40 1RZ","la":"Bedford","era":"trad","nn":11,"risk":26,"cat":"green"},{"name":"The Crown at Willington","lat":52.13699,"lon":-0.37431,"postcode":"MK44 3QH","la":"Bedford","era":"trad","nn":1920,"risk":62,"cat":"red"},{"name":"The Duke Inn","lat":52.1138,"lon":-0.49653,"postcode":"MK42 7QA","la":"Bedford","era":"trad","nn":215,"risk":27,"cat":"green"},{"name":"The Falcon Inn","lat":52.21079,"lon":-0.50904,"postcode":"MK44 1QN","la":"Bedford","era":"trad","nn":1653,"risk":60,"cat":"amber"},{"name":"The Flowerpot","lat":52.14035,"lon":-0.46911,"postcode":"MK40 2RB","la":"Bedford","era":"other","nn":98,"risk":27,"cat":"green"},{"name":"The Foresters Arms","lat":52.14037,"lon":-0.47473,"postcode":"MK40 2SF","la":"Bedford","era":"trad","nn":140,"risk":27,"cat":"green"},{"name":"The Fox And Hounds","lat":52.16498,"lon":-0.50365,"postcode":"MK41 6AP","la":"Bedford","era":"trad","nn":1299,"risk":58,"cat":"amber"},{"name":"The Horse And Jockey","lat":52.17724,"lon":-0.42539,"postcode":"MK44 2RR","la":"Bedford","era":"trad","nn":1743,"risk":61,"cat":"red"},{"name":"The Mill","lat":52.13718,"lon":-0.46507,"postcode":"MK40 3HD","la":"Bedford","era":"trad","nn":18,"risk":26,"cat":"green"},{"name":"The Mulberry Bush Pub","lat":52.11445,"lon":-0.48674,"postcode":"MK42 7PR","la":"Bedford","era":"other","nn":673,"risk":33,"cat":"amber"},{"name":"The Muntjac","lat":52.20202,"lon":-0.61387,"postcode":"MK43 7BJ","la":"Bedford","era":"other","nn":149,"risk":47,"cat":"amber"},{"name":"The New Sportsman","lat":52.1461,"lon":-0.43346,"postcode":"MK41 9HA","la":"Bedford","era":"other","nn":571,"risk":50,"cat":"amber"},{"name":"The Oakley Arms","lat":52.20173,"lon":-0.61173,"postcode":"MK43 7BH","la":"Bedford","era":"trad","nn":149,"risk":47,"cat":"amber"},{"name":"The Park","lat":52.14705,"lon":-0.45608,"postcode":"MK40 2PF","la":"Bedford","era":"other","nn":810,"risk":32,"cat":"amber"},{"name":"The Pheasant","lat":52.16188,"lon":-0.45296,"postcode":"MK41 8YR","la":"Bedford","era":"other","nn":566,"risk":47,"cat":"amber"},{"name":"The Prince of Wales","lat":52.1455,"lon":-0.53612,"postcode":"MK43 8PE","la":"Bedford","era":"trad","nn":633,"risk":50,"cat":"amber"},{"name":"The Queen PH","lat":52.13634,"lon":-0.4842,"postcode":"MK40 4DX","la":"Bedford","era":"trad","nn":395,"risk":29,"cat":"green"},{"name":"The Rose","lat":52.1358,"lon":-0.46521,"postcode":"MK40 1RY","la":"Bedford","era":"other","nn":102,"risk":27,"cat":"green"},{"name":"The Royal George","lat":52.16754,"lon":-0.55661,"postcode":"MK43 7QP","la":"Bedford","era":"trad","nn":196,"risk":47,"cat":"amber"},{"name":"The Royal Oak","lat":52.19283,"lon":-0.60178,"postcode":"MK43 7LP","la":"Bedford","era":"trad","nn":671,"risk":51,"cat":"amber"},{"name":"The Ship","lat":52.13927,"lon":-0.47571,"postcode":"MK40 2QH","la":"Bedford","era":"trad","nn":132,"risk":27,"cat":"green"},{"name":"The Sun Inn","lat":52.20795,"lon":-0.55153,"postcode":"MK43 7EU","la":"Bedford","era":"trad","nn":2042,"risk":63,"cat":"red"},{"name":"The Three Cranes","lat":52.16299,"lon":-0.62542,"postcode":"MK43 8EP","la":"Bedford","era":"other","nn":210,"risk":47,"cat":"amber"},{"name":"The Three Tuns","lat":52.13819,"lon":-0.5075,"postcode":"MK40 4BD","la":"Bedford","era":"other","nn":1120,"risk":56,"cat":"amber"},{"name":"The Tiger Moth","lat":52.15819,"lon":-0.45866,"postcode":"MK41 7AF","la":"Bedford","era":"other","nn":566,"risk":50,"cat":"amber"},{"name":"The White Horse","lat":52.13957,"lon":-0.44373,"postcode":"MK41 9PX","la":"Bedford","era":"trad","nn":293,"risk":31,"cat":"amber"},{"name":"The Willow Tree","lat":52.07524,"lon":-0.449,"postcode":"MK45 3EX","la":"Bedford","era":"trad","nn":218,"risk":45,"cat":"amber"},{"name":"The Woolpack","lat":52.08175,"lon":-0.44956,"postcode":"MK45 3HW","la":"Bedford","era":"trad","nn":724,"risk":49,"cat":"amber"},{"name":"Three Cups Pub","lat":52.13739,"lon":-0.4617,"postcode":"MK40 3JR","la":"Bedford","era":"other","nn":0,"risk":26,"cat":"green"},{"name":"Vogue","lat":52.13652,"lon":-0.46613,"postcode":"MK40 1RZ","la":"Bedford","era":"other","nn":0,"risk":26,"cat":"green"},{"name":"Wellington Arms PH","lat":52.14139,"lon":-0.46889,"postcode":"MK40 2JX","la":"Bedford","era":"trad","nn":117,"risk":27,"cat":"green"},{"name":"West Indian Cultural & Social Society","lat":52.13717,"lon":-0.47706,"postcode":"MK40 1EG","la":"Bedford","era":"mod","nn":98,"risk":27,"cat":"green"},{"name":"Ye Three Fyshes","lat":52.16185,"lon":-0.62788,"postcode":"MK43 8ER","la":"Bedford","era":"other","nn":210,"risk":47,"cat":"amber"},{"name":"Buckingham Athletic Sports & Social Club","lat":52.00249,"lon":-0.98256,"postcode":"MK18 1NY","la":"Buckinghamshire","era":"other","nn":254,"risk":19,"cat":"green"},{"name":"Buckingham Rugby Football Club","lat":52.01396,"lon":-0.97712,"postcode":"MK18 1RF","la":"Buckinghamshire","era":"trad","nn":119,"risk":38,"cat":"amber"},{"name":"Buckingham Town Cricket Club","lat":51.99726,"lon":-0.98237,"postcode":"MK18 1BG","la":"Buckinghamshire","era":"trad","nn":253,"risk":19,"cat":"green"},{"name":"Buckingham West End Bowls Club","lat":52.00116,"lon":-0.99733,"postcode":"MK18 1JD","la":"Buckinghamshire","era":"trad","nn":673,"risk":22,"cat":"green"},{"name":"Chandos Park Bowls Club","lat":51.99463,"lon":-0.98875,"postcode":"MK18 1AL","la":"Buckinghamshire","era":"other","nn":238,"risk":19,"cat":"green"},{"name":"Great Brickhill Cricket Club","lat":51.96643,"lon":-0.68603,"postcode":"MK17 9BA","la":"Buckinghamshire","era":"other","nn":704,"risk":42,"cat":"amber"},{"name":"Great Horwood Cricket Club","lat":51.97779,"lon":-0.87597,"postcode":"MK17 0RA","la":"Buckinghamshire","era":"other","nn":729,"risk":43,"cat":"amber"},{"name":"Great Moor Sailing Club","lat":51.92064,"lon":-1.01066,"postcode":"MK18 2GJ","la":"Buckinghamshire","era":"other","nn":2101,"risk":55,"cat":"amber"},{"name":"Grenville Lodge Masonic Club","lat":51.99594,"lon":-0.9915,"postcode":"MK18 1DQ","la":"Buckinghamshire","era":"trad","nn":195,"risk":19,"cat":"green"},{"name":"Jim's Kitchen at The Crown","lat":51.93127,"lon":-1.03603,"postcode":"MK18 4EG","la":"Buckinghamshire","era":"other","nn":2,"risk":37,"cat":"amber"},{"name":"Mowgli's Beachampton","lat":52.02454,"lon":-0.87556,"postcode":"MK19 6DX","la":"Buckinghamshire","era":"other","nn":2792,"risk":60,"cat":"amber"},{"name":"Mursley Sports Association","lat":51.9534,"lon":-0.81628,"postcode":"MK17 0SA","la":"Buckinghamshire","era":"other","nn":361,"risk":40,"cat":"amber"},{"name":"Royal British Legion","lat":51.9438,"lon":-0.87554,"postcode":"MK18 3JG","la":"Buckinghamshire","era":"trad","nn":350,"risk":25,"cat":"green"},{"name":"Silverstone Golf Club","lat":52.0561,"lon":-1.03786,"postcode":"MK18 5LH","la":"Buckinghamshire","era":"other","nn":3086,"risk":62,"cat":"red"},{"name":"Slade Indoor Bowls Centre","lat":51.98752,"lon":-0.98239,"postcode":"MK18 1RZ","la":"Buckinghamshire","era":"other","nn":903,"risk":44,"cat":"amber"},{"name":"Stoke Hammond Sports Club","lat":51.96915,"lon":-0.71221,"postcode":"MK17 9BD","la":"Buckinghamshire","era":"other","nn":1626,"risk":51,"cat":"amber"},{"name":"Stowe Golf Club","lat":52.03099,"lon":-1.01862,"postcode":"MK18 5EH","la":"Buckinghamshire","era":"other","nn":1963,"risk":54,"cat":"amber"},{"name":"Tangy Mango","lat":52.00098,"lon":-0.98533,"postcode":"MK18 1SB","la":"Buckinghamshire","era":"other","nn":160,"risk":19,"cat":"green"},{"name":"The Betsey Wynne","lat":51.93851,"lon":-0.83185,"postcode":"MK17 0SH","la":"Buckinghamshire","era":"other","nn":1923,"risk":53,"cat":"amber"},{"name":"The Blackbird","lat":51.96893,"lon":-0.9564,"postcode":"MK18 2AY","la":"Buckinghamshire","era":"other","nn":346,"risk":40,"cat":"amber"},{"name":"The Bull & Butcher","lat":52.03332,"lon":-0.96935,"postcode":"MK18 5HP","la":"Buckinghamshire","era":"trad","nn":2186,"risk":55,"cat":"amber"},{"name":"The Crooked Billet","lat":51.97415,"lon":-0.77268,"postcode":"MK17 0DL","la":"Buckinghamshire","era":"other","nn":2111,"risk":55,"cat":"amber"},{"name":"The Crown","lat":51.97823,"lon":-1.00607,"postcode":"MK18 4JF","la":"Buckinghamshire","era":"trad","nn":1923,"risk":53,"cat":"amber"},{"name":"The Crown","lat":51.92024,"lon":-0.88641,"postcode":"MK18 3NJ","la":"Buckinghamshire","era":"trad","nn":2359,"risk":56,"cat":"amber"},{"name":"The Crown P.H.","lat":51.93126,"lon":-1.03601,"postcode":"MK18 4EG","la":"Buckinghamshire","era":"trad","nn":2,"risk":37,"cat":"amber"},{"name":"The Dolphin","lat":51.95488,"lon":-0.71737,"postcode":"MK17 9BB","la":"Buckinghamshire","era":"other","nn":414,"risk":40,"cat":"amber"},{"name":"The Fountain Inn","lat":51.93769,"lon":-0.98832,"postcode":"MK18 2NT","la":"Buckinghamshire","era":"trad","nn":226,"risk":39,"cat":"amber"},{"name":"The George","lat":51.94128,"lon":-0.88191,"postcode":"MK18 3AF","la":"Buckinghamshire","era":"trad","nn":242,"risk":24,"cat":"green"},{"name":"The Green Man","lat":51.95108,"lon":-0.81259,"postcode":"MK17 0RT","la":"Buckinghamshire","era":"other","nn":361,"risk":40,"cat":"amber"},{"name":"The Kings Head","lat":52.00054,"lon":-0.98755,"postcode":"MK18 1JX","la":"Buckinghamshire","era":"trad","nn":103,"risk":18,"cat":"green"},{"name":"The Mitre","lat":51.99455,"lon":-0.99322,"postcode":"MK18 1DW","la":"Buckinghamshire","era":"other","nn":195,"risk":19,"cat":"green"},{"name":"The Mushroom Club","lat":51.91623,"lon":-0.93398,"postcode":"MK18 2LR","la":"Buckinghamshire","era":"other","nn":3293,"risk":63,"cat":"red"},{"name":"The Nags Head PH","lat":51.94118,"lon":-0.87837,"postcode":"MK18 3HL","la":"Buckinghamshire","era":"trad","nn":242,"risk":24,"cat":"green"},{"name":"The New Inn","lat":51.99793,"lon":-0.98591,"postcode":"MK18 1AF","la":"Buckinghamshire","era":"trad","nn":193,"risk":19,"cat":"green"},{"name":"The New Inn","lat":51.97,"lon":-0.95166,"postcode":"MK18 2AW","la":"Buckinghamshire","era":"trad","nn":346,"risk":40,"cat":"amber"},{"name":"The Old Red Lion","lat":51.96019,"lon":-0.68778,"postcode":"MK17 9AH","la":"Buckinghamshire","era":"trad","nn":704,"risk":42,"cat":"amber"},{"name":"The Old Thatched Inn","lat":51.96563,"lon":-0.92999,"postcode":"MK18 2JN","la":"Buckinghamshire","era":"trad","nn":1562,"risk":51,"cat":"amber"},{"name":"The Pilgrim Pub & Restaurant","lat":51.89788,"lon":-0.87569,"postcode":"MK18 3PD","la":"Buckinghamshire","era":"other","nn":1634,"risk":51,"cat":"amber"},{"name":"The Prince Of Wales","lat":51.93575,"lon":-0.9893,"postcode":"MK18 2NP","la":"Buckinghamshire","era":"trad","nn":226,"risk":39,"cat":"amber"},{"name":"The Queen's Head","lat":52.01674,"lon":-1.00169,"postcode":"MK18 5JF","la":"Buckinghamshire","era":"trad","nn":1709,"risk":52,"cat":"amber"},{"name":"The Shoulder Of Mutton","lat":51.97003,"lon":-0.85128,"postcode":"MK17 0PF","la":"Buckinghamshire","era":"other","nn":1899,"risk":53,"cat":"amber"},{"name":"The Swan","lat":51.94759,"lon":-0.88349,"postcode":"MK18 3DY","la":"Buckinghamshire","era":"trad","nn":689,"risk":27,"cat":"green"},{"name":"The Swan Inn","lat":51.97211,"lon":-0.88131,"postcode":"MK17 0QN","la":"Buckinghamshire","era":"trad","nn":729,"risk":43,"cat":"amber"},{"name":"The Three Cups","lat":51.99929,"lon":-0.98768,"postcode":"MK18 1EL","la":"Buckinghamshire","era":"other","nn":42,"risk":18,"cat":"green"},{"name":"The Three Horseshoes","lat":51.95015,"lon":-0.77743,"postcode":"MK17 0JS","la":"Buckinghamshire","era":"trad","nn":2412,"risk":57,"cat":"amber"},{"name":"The Three Locks","lat":51.95138,"lon":-0.71531,"postcode":"MK17 9DD","la":"Buckinghamshire","era":"other","nn":414,"risk":40,"cat":"amber"},{"name":"The Two Brewers P.H.","lat":51.995,"lon":-0.9156,"postcode":"MK18 2DN","la":"Buckinghamshire","era":"other","nn":3320,"risk":63,"cat":"red"},{"name":"The Wheatsheaf","lat":52.01401,"lon":-0.97539,"postcode":"MK18 1QR","la":"Buckinghamshire","era":"trad","nn":119,"risk":38,"cat":"amber"},{"name":"The White Hart","lat":51.99962,"lon":-0.9874,"postcode":"MK18 1NL","la":"Buckinghamshire","era":"trad","nn":42,"risk":18,"cat":"green"},{"name":"The Woolpack","lat":51.99759,"lon":-0.98874,"postcode":"MK18 1EP","la":"Buckinghamshire","era":"trad","nn":198,"risk":19,"cat":"green"},{"name":"Ampthill & District Rugby Union Football Club","lat":52.03208,"lon":-0.49799,"postcode":"MK45 2HX","la":"Central Bedfordshire","era":"other","nn":148,"risk":27,"cat":"green"},{"name":"Ampthill Bowls Club","lat":52.03154,"lon":-0.49244,"postcode":"MK45 2PJ","la":"Central Bedfordshire","era":"other","nn":65,"risk":26,"cat":"green"},{"name":"Ampthill Town Football Club","lat":52.03158,"lon":-0.49598,"postcode":"MK45 2LL","la":"Central Bedfordshire","era":"other","nn":129,"risk":26,"cat":"green"},{"name":"Barton Bowls Club","lat":51.96585,"lon":-0.42959,"postcode":"MK45 4SD","la":"Central Bedfordshire","era":"other","nn":0,"risk":28,"cat":"green"},{"name":"Barton Rovers Football Club","lat":51.96585,"lon":-0.42959,"postcode":"MK45 4SD","la":"Central Bedfordshire","era":"other","nn":0,"risk":28,"cat":"green"},{"name":"Cranfield Students' Association","lat":52.07393,"lon":-0.62877,"postcode":"MK43 0AL","la":"Central Bedfordshire","era":"other","nn":1656,"risk":60,"cat":"amber"},{"name":"Drover's Arms","lat":52.00723,"lon":-0.52442,"postcode":"MK45 5BA","la":"Central Bedfordshire","era":"trad","nn":481,"risk":49,"cat":"amber"},{"name":"Engine & Tender","lat":52.02693,"lon":-0.4951,"postcode":"MK45 2NJ","la":"Central Bedfordshire","era":"other","nn":158,"risk":27,"cat":"green"},{"name":"Flitwick Bowls Club","lat":52.00322,"lon":-0.49186,"postcode":"MK45 1ED","la":"Central Bedfordshire","era":"other","nn":290,"risk":30,"cat":"green"},{"name":"Jolly Coopers","lat":52.00981,"lon":-0.44792,"postcode":"MK45 5ED","la":"Central Bedfordshire","era":"trad","nn":793,"risk":51,"cat":"amber"},{"name":"Maulden Bowls Club","lat":52.0296,"lon":-0.46909,"postcode":"MK45 2DJ","la":"Central Bedfordshire","era":"other","nn":186,"risk":44,"cat":"amber"},{"name":"Stewartby Water Sports Club Ltd","lat":52.07332,"lon":-0.52534,"postcode":"MK43 9LY","la":"Bedford","era":"other","nn":832,"risk":52,"cat":"amber"},{"name":"The Anchor","lat":52.01407,"lon":-0.628,"postcode":"MK17 8DF","la":"Central Bedfordshire","era":"trad","nn":593,"risk":50,"cat":"amber"},{"name":"The Bell","lat":52.06212,"lon":-0.54956,"postcode":"MK43 0ND","la":"Central Bedfordshire","era":"other","nn":2072,"risk":63,"cat":"red"},{"name":"The Bell","lat":51.98238,"lon":-0.49514,"postcode":"MK45 5JH","la":"Central Bedfordshire","era":"other","nn":246,"risk":45,"cat":"amber"},{"name":"The Black Horse","lat":51.99009,"lon":-0.61958,"postcode":"MK17 9QB","la":"Central Bedfordshire","era":"trad","nn":2729,"risk":67,"cat":"red"},{"name":"The Blackbirds","lat":52.00923,"lon":-0.49845,"postcode":"MK45 1DX","la":"Central Bedfordshire","era":"other","nn":806,"risk":36,"cat":"amber"},{"name":"The Bull","lat":51.96727,"lon":-0.42752,"postcode":"MK45 4LL","la":"Central Bedfordshire","era":"trad","nn":212,"risk":30,"cat":"green"},{"name":"The Bumble Bee","lat":52.00164,"lon":-0.49859,"postcode":"MK45 1QH","la":"Central Bedfordshire","era":"other","nn":227,"risk":30,"cat":"green"},{"name":"The Chequers","lat":51.98007,"lon":-0.49804,"postcode":"MK45 5LA","la":"Central Bedfordshire","era":"other","nn":325,"risk":45,"cat":"amber"},{"name":"The Compasses","lat":52.001,"lon":-0.4692,"postcode":"MK45 5DD","la":"Central Bedfordshire","era":"other","nn":1182,"risk":56,"cat":"amber"},{"name":"The Cross Keys","lat":51.99551,"lon":-0.45202,"postcode":"MK45 5HB","la":"Central Bedfordshire","era":"trad","nn":1325,"risk":57,"cat":"amber"},{"name":"The Cross Keys","lat":52.07244,"lon":-0.60467,"postcode":"MK43 0JB","la":"Central Bedfordshire","era":"trad","nn":1656,"risk":60,"cat":"amber"},{"name":"The Crown","lat":52.00168,"lon":-0.48644,"postcode":"MK45 1LA","la":"Central Bedfordshire","era":"trad","nn":409,"risk":33,"cat":"amber"},{"name":"The Flying Horse","lat":52.02725,"lon":-0.42428,"postcode":"MK45 4AD","la":"Central Bedfordshire","era":"trad","nn":367,"risk":48,"cat":"amber"},{"name":"The French Horn","lat":52.00837,"lon":-0.5312,"postcode":"MK45 5AT","la":"Central Bedfordshire","era":"other","nn":481,"risk":49,"cat":"amber"},{"name":"The George Inn","lat":52.03082,"lon":-0.4623,"postcode":"MK45 2DF","la":"Central Bedfordshire","era":"trad","nn":299,"risk":45,"cat":"amber"},{"name":"The Green Man","lat":51.98165,"lon":-0.56835,"postcode":"MK17 9DU","la":"Central Bedfordshire","era":"other","nn":2545,"risk":66,"cat":"red"},{"name":"The Green Man","lat":52.0391,"lon":-0.55675,"postcode":"MK43 0RN","la":"Central Bedfordshire","era":"other","nn":2135,"risk":63,"cat":"red"},{"name":"The Greyhound","lat":52.06246,"lon":-0.38978,"postcode":"MK45 3QD","la":"Central Bedfordshire","era":"trad","nn":2842,"risk":68,"cat":"red"},{"name":"The Guinea","lat":52.12956,"lon":-0.33678,"postcode":"MK44 3RS","la":"Central Bedfordshire","era":"other","nn":2405,"risk":65,"cat":"red"},{"name":"The Hide","lat":52.03183,"lon":-0.49413,"postcode":"MK45 2HP","la":"Central Bedfordshire","era":"other","nn":120,"risk":26,"cat":"green"},{"name":"The Horseshoes","lat":52.14721,"lon":-0.31641,"postcode":"MK44 3NL","la":"Central Bedfordshire","era":"trad","nn":2065,"risk":63,"cat":"red"},{"name":"The Knife & Cleaver","lat":52.06112,"lon":-0.47831,"postcode":"MK45 3LA","la":"Central Bedfordshire","era":"other","nn":2546,"risk":66,"cat":"red"},{"name":"The Millbrook Golf Club Ltd","lat":52.03619,"lon":-0.5259,"postcode":"MK45 2JB","la":"Central Bedfordshire","era":"trad","nn":1963,"risk":62,"cat":"red"},{"name":"The Old Sun","lat":52.02902,"lon":-0.49432,"postcode":"MK45 2NQ","la":"Central Bedfordshire","era":"other","nn":89,"risk":26,"cat":"green"},{"name":"The Ossory Arms","lat":52.02823,"lon":-0.49418,"postcode":"MK45 2QG","la":"Central Bedfordshire","era":"trad","nn":89,"risk":26,"cat":"green"},{"name":"The Prince of Wales","lat":52.03318,"lon":-0.49462,"postcode":"MK45 2NB","la":"Central Bedfordshire","era":"trad","nn":153,"risk":27,"cat":"green"},{"name":"The Red Lion","lat":51.96112,"lon":-0.58476,"postcode":"MK17 9HS","la":"Central Bedfordshire","era":"trad","nn":2545,"risk":66,"cat":"red"},{"name":"The Rose & Crown","lat":52.01558,"lon":-0.57748,"postcode":"MK43 0TY","la":"Central Bedfordshire","era":"trad","nn":2975,"risk":69,"cat":"red"},{"name":"The Royal Oak","lat":52.00807,"lon":-0.64956,"postcode":"MK17 8TA","la":"Central Bedfordshire","era":"trad","nn":391,"risk":46,"cat":"amber"},{"name":"The Royal Oak","lat":51.96522,"lon":-0.42753,"postcode":"MK45 4JX","la":"Central Bedfordshire","era":"trad","nn":157,"risk":29,"cat":"green"},{"name":"The Star & Garter","lat":52.00777,"lon":-0.42447,"postcode":"MK45 4DR","la":"Central Bedfordshire","era":"other","nn":1620,"risk":59,"cat":"amber"},{"name":"The Stone Jug","lat":52.03055,"lon":-0.424,"postcode":"MK45 4BY","la":"Central Bedfordshire","era":"other","nn":367,"risk":48,"cat":"amber"},{"name":"The Swan","lat":52.00167,"lon":-0.49526,"postcode":"MK45 1HP","la":"Central Bedfordshire","era":"trad","nn":227,"risk":30,"cat":"green"},{"name":"The Swan","lat":52.04324,"lon":-0.63762,"postcode":"MK17 8BD","la":"Central Bedfordshire","era":"trad","nn":2805,"risk":68,"cat":"red"},{"name":"The Waggon and Horses","lat":51.97065,"lon":-0.42761,"postcode":"MK45 4LP","la":"Central Bedfordshire","era":"trad","nn":376,"risk":31,"cat":"amber"},{"name":"The Weathercock Inn","lat":52.01309,"lon":-0.64389,"postcode":"MK17 8NP","la":"Central Bedfordshire","era":"trad","nn":289,"risk":33,"cat":"amber"},{"name":"The White Hart","lat":52.03,"lon":-0.46646,"postcode":"MK45 2DH","la":"Central Bedfordshire","era":"trad","nn":186,"risk":44,"cat":"amber"},{"name":"The White Hart","lat":52.01158,"lon":-0.45915,"postcode":"MK45 5EJ","la":"Central Bedfordshire","era":"trad","nn":793,"risk":51,"cat":"amber"},{"name":"The Wingfield Club Ltd","lat":52.032,"lon":-0.49186,"postcode":"MK45 2PL","la":"Central Bedfordshire","era":"other","nn":65,"risk":26,"cat":"green"},{"name":"Westoning Recreation Club","lat":51.98414,"lon":-0.49294,"postcode":"MK45 5JD","la":"Central Bedfordshire","era":"other","nn":246,"risk":45,"cat":"amber"},{"name":"Woburn Sands Bowls Club Ltd","lat":52.01241,"lon":-0.63623,"postcode":"MK17 8DX","la":"Central Bedfordshire","era":"other","nn":530,"risk":34,"cat":"amber"},{"name":"All Bar One","lat":52.03922,"lon":-0.761,"postcode":"MK9 2EA","la":"Milton Keynes","era":"mod","nn":0,"risk":25,"cat":"green"},{"name":"Aspers MK","lat":52.04144,"lon":-0.74871,"postcode":"MK9 3XA","la":"Milton Keynes","era":"other","nn":0,"risk":25,"cat":"green"},{"name":"Be At One Limited","lat":52.03804,"lon":-0.76289,"postcode":"MK9 2FB","la":"Milton Keynes","era":"other","nn":0,"risk":25,"cat":"green"},{"name":"Bletchley Conservative Club","lat":51.99511,"lon":-0.72942,"postcode":"MK2 2DN","la":"Milton Keynes","era":"other","nn":55,"risk":26,"cat":"green"},{"name":"Bletchley Rugby Club","lat":51.99492,"lon":-0.71237,"postcode":"MK2 2HX","la":"Milton Keynes","era":"other","nn":0,"risk":25,"cat":"green"},{"name":"Blossom Room","lat":52.03804,"lon":-0.76289,"postcode":"MK9 2FB","la":"Milton Keynes","era":"other","nn":0,"risk":25,"cat":"green"},{"name":"Bradwell Bowls Club","lat":52.05064,"lon":-0.79185,"postcode":"MK13 9AR","la":"Milton Keynes","era":"other","nn":0,"risk":30,"cat":"green"},{"name":"Bradwell Sports & Social Club","lat":52.05064,"lon":-0.79185,"postcode":"MK13 9AR","la":"Milton Keynes","era":"mod","nn":0,"risk":30,"cat":"green"},{"name":"Brewdog","lat":52.03922,"lon":-0.761,"postcode":"MK9 2EA","la":"Milton Keynes","era":"other","nn":0,"risk":25,"cat":"green"},{"name":"Brewhouse and Kitchen Milton Keynes","lat":52.04383,"lon":-0.74931,"postcode":"MK9 3PU","la":"Milton Keynes","era":"mod","nn":0,"risk":25,"cat":"green"},{"name":"Bull & Butcher","lat":51.99704,"lon":-0.71685,"postcode":"MK2 2BA","la":"Milton Keynes","era":"trad","nn":34,"risk":26,"cat":"green"},{"name":"Cannon Public House","lat":52.08696,"lon":-0.72249,"postcode":"MK16 8AQ","la":"Milton Keynes","era":"other","nn":0,"risk":25,"cat":"green"},{"name":"Captain Ridley's Shooting Party","lat":51.99584,"lon":-0.72596,"postcode":"MK2 2ED","la":"Milton Keynes","era":"other","nn":250,"risk":27,"cat":"green"},{"name":"Chequers","lat":51.99933,"lon":-0.71765,"postcode":"MK2 2BY","la":"Milton Keynes","era":"other","nn":236,"risk":27,"cat":"green"},{"name":"Club 124 LTD","lat":51.9946,"lon":-0.72946,"postcode":"MK2 2RS","la":"Milton Keynes","era":"other","nn":2,"risk":25,"cat":"green"},{"name":"Coachmakers Arms","lat":52.08586,"lon":-0.7255,"postcode":"MK16 8EN","la":"Milton Keynes","era":"trad","nn":186,"risk":27,"cat":"green"},{"name":"Denbigh Hall S & S Club","lat":52.00518,"lon":-0.74668,"postcode":"MK3 6PU","la":"Milton Keynes","era":"other","nn":0,"risk":43,"cat":"amber"},{"name":"Furzton Lake Public House","lat":52.01693,"lon":-0.76888,"postcode":"MK4 1GA","la":"Milton Keynes","era":"other","nn":791,"risk":51,"cat":"amber"},{"name":"Garudaa Gentlemens Club","lat":52.03922,"lon":-0.761,"postcode":"MK9 2EA","la":"Milton Keynes","era":"other","nn":0,"risk":25,"cat":"green"},{"name":"Halley's Comet","lat":52.05904,"lon":-0.785,"postcode":"MK13 7AW","la":"Milton Keynes","era":"other","nn":162,"risk":31,"cat":"amber"},{"name":"Hanslope Working Mens Club","lat":52.11503,"lon":-0.8286,"postcode":"MK19 7LQ","la":"Milton Keynes","era":"trad","nn":0,"risk":43,"cat":"amber"},{"name":"Intervet Walton Manor Club","lat":52.02088,"lon":-0.70402,"postcode":"MK7 7AJ","la":"Milton Keynes","era":"other","nn":1012,"risk":55,"cat":"amber"},{"name":"Kingfisher Public House","lat":52.0785,"lon":-0.72968,"postcode":"MK16 0JR","la":"Milton Keynes","era":"trad","nn":584,"risk":29,"cat":"green"},{"name":"Masonic Hall","lat":52.06126,"lon":-0.8105,"postcode":"MK12 5DG","la":"Milton Keynes","era":"trad","nn":0,"risk":25,"cat":"green"},{"name":"Mercure Milton Keynes Abbey Hill Hotel","lat":52.04448,"lon":-0.80759,"postcode":"MK8 8LY","la":"Milton Keynes","era":"trad","nn":1276,"risk":57,"cat":"amber"},{"name":"Milton Keynes Irish Centre","lat":51.99492,"lon":-0.71237,"postcode":"MK2 2HX","la":"Milton Keynes","era":"other","nn":0,"risk":25,"cat":"green"},{"name":"Milton Keynes Rugby Club","lat":52.0035,"lon":-0.77877,"postcode":"MK4 2DN","la":"Milton Keynes","era":"other","nn":831,"risk":51,"cat":"amber"},{"name":"Milton Keynes Snooker Club","lat":52.06126,"lon":-0.8105,"postcode":"MK12 5DG","la":"Milton Keynes","era":"other","nn":0,"risk":25,"cat":"green"},{"name":"MK Sports Bar & Lounge","lat":52.0796,"lon":-0.70357,"postcode":"MK16 9PY","la":"Milton Keynes","era":"mod","nn":1122,"risk":56,"cat":"amber"},{"name":"Moon Under Water","lat":52.04144,"lon":-0.74871,"postcode":"MK9 3XA","la":"Milton Keynes","era":"other","nn":0,"risk":25,"cat":"green"},{"name":"New Bradwell Sports Association","lat":52.06033,"lon":-0.78612,"postcode":"MK13 7AD","la":"Milton Keynes","era":"other","nn":162,"risk":31,"cat":"amber"},{"name":"Newport Pagnell Town Football and Social Club","lat":52.08098,"lon":-0.72215,"postcode":"MK16 0DF","la":"Milton Keynes","era":"mod","nn":386,"risk":28,"cat":"green"},{"name":"Newport Pagnell Working Mens Club","lat":52.08484,"lon":-0.72321,"postcode":"MK16 0EN","la":"Milton Keynes","era":"trad","nn":129,"risk":26,"cat":"green"},{"name":"Nut & Squirrel","lat":52.0032,"lon":-0.79343,"postcode":"MK4 4DD","la":"Milton Keynes","era":"other","nn":484,"risk":49,"cat":"amber"},{"name":"Olney Rugby Football Club Limited","lat":52.1548,"lon":-0.69852,"postcode":"MK46 4DW","la":"Milton Keynes","era":"other","nn":216,"risk":29,"cat":"green"},{"name":"Olney Town Cricket Club","lat":52.15653,"lon":-0.70054,"postcode":"MK46 4DH","la":"Milton Keynes","era":"other","nn":237,"risk":29,"cat":"green"},{"name":"Ousebank House","lat":52.08741,"lon":-0.71944,"postcode":"MK16 8AP","la":"Milton Keynes","era":"other","nn":214,"risk":27,"cat":"green"},{"name":"Pink Punters","lat":51.99744,"lon":-0.71271,"postcode":"MK2 2BS","la":"Milton Keynes","era":"other","nn":281,"risk":27,"cat":"green"},{"name":"Popworld","lat":52.04337,"lon":-0.74995,"postcode":"MK9 3PY","la":"Milton Keynes","era":"other","nn":67,"risk":26,"cat":"green"},{"name":"Revolution","lat":52.04144,"lon":-0.74871,"postcode":"MK9 3XA","la":"Milton Keynes","era":"other","nn":0,"risk":25,"cat":"green"},{"name":"Rose and Crown","lat":52.08409,"lon":-0.72465,"postcode":"MK16 0EG","la":"Milton Keynes","era":"trad","nn":129,"risk":26,"cat":"green"},{"name":"Royal British Legion","lat":52.00518,"lon":-0.74668,"postcode":"MK3 6PU","la":"Milton Keynes","era":"trad","nn":0,"risk":43,"cat":"amber"},{"name":"Scots Sports and Social Club","lat":51.98909,"lon":-0.75368,"postcode":"MK3 5BX","la":"Milton Keynes","era":"mod","nn":327,"risk":33,"cat":"amber"},{"name":"Slug & LettuceSlug & Lettuce","lat":52.03797,"lon":-0.76404,"postcode":"MK9 2BQ","la":"Milton Keynes","era":"other","nn":79,"risk":26,"cat":"green"},{"name":"St Martins Bowls Club","lat":51.9959,"lon":-0.75331,"postcode":"MK3 6HF","la":"Milton Keynes","era":"other","nn":431,"risk":33,"cat":"amber"},{"name":"Stantonbury Sports and Social Club","lat":52.06486,"lon":-0.79268,"postcode":"MK13 0BJ","la":"Milton Keynes","era":"mod","nn":335,"risk":28,"cat":"green"},{"name":"Stony Stratford Bowls Club","lat":52.05944,"lon":-0.85362,"postcode":"MK11 1AR","la":"Milton Keynes","era":"other","nn":0,"risk":25,"cat":"green"},{"name":"Stony Stratford Conservative Club","lat":52.05748,"lon":-0.85428,"postcode":"MK11 1AY","la":"Milton Keynes","era":"other","nn":0,"risk":25,"cat":"green"},{"name":"Stony Stratford Conservative Club (AHS Catering Services Limited)","lat":52.05748,"lon":-0.85428,"postcode":"MK11 1AY","la":"Milton Keynes","era":"other","nn":0,"risk":25,"cat":"green"},{"name":"Stony Stratford Cricket Club","lat":52.05944,"lon":-0.85362,"postcode":"MK11 1AR","la":"Milton Keynes","era":"other","nn":0,"risk":25,"cat":"green"},{"name":"Tawny Owl","lat":52.02274,"lon":-0.68954,"postcode":"MK7 7AN","la":"Milton Keynes","era":"other","nn":248,"risk":47,"cat":"amber"},{"name":"The Barge Inn","lat":52.04494,"lon":-0.72736,"postcode":"MK15 0AE","la":"Milton Keynes","era":"trad","nn":541,"risk":49,"cat":"amber"},{"name":"The Bell & Bear","lat":52.13674,"lon":-0.70644,"postcode":"MK46 5DH","la":"Milton Keynes","era":"other","nn":1723,"risk":60,"cat":"amber"},{"name":"The Black Horse","lat":52.07616,"lon":-0.76324,"postcode":"MK14 5AJ","la":"Milton Keynes","era":"trad","nn":763,"risk":51,"cat":"amber"},{"name":"The Bull Inn","lat":52.08537,"lon":-0.71856,"postcode":"MK16 9AE","la":"Milton Keynes","era":"trad","nn":108,"risk":26,"cat":"green"},{"name":"The Carlton House Club","lat":52.15422,"lon":-0.70154,"postcode":"MK46 4BB","la":"Milton Keynes","era":"mod","nn":0,"risk":28,"cat":"green"},{"name":"The Carrington Arms also trading as Holy Cow Burgers","lat":52.06798,"lon":-0.667,"postcode":"MK16 0HB","la":"Milton Keynes","era":"trad","nn":2695,"risk":67,"cat":"red"},{"name":"The Chequers PH","lat":52.09332,"lon":-0.64864,"postcode":"MK16 9LH","la":"Milton Keynes","era":"other","nn":35,"risk":46,"cat":"amber"},{"name":"The Chester Arms","lat":52.10433,"lon":-0.68409,"postcode":"MK16 9JE","la":"Milton Keynes","era":"trad","nn":1412,"risk":58,"cat":"amber"},{"name":"The Clocktower","lat":52.00143,"lon":-0.76712,"postcode":"MK4 2AS","la":"Milton Keynes","era":"other","nn":831,"risk":51,"cat":"amber"},{"name":"The Coal Hatch","lat":52.01091,"lon":-0.64618,"postcode":"MK17 8NQ","la":"Milton Keynes","era":"other","nn":289,"risk":32,"cat":"amber"},{"name":"The Cock Inn","lat":52.093,"lon":-0.64868,"postcode":"MK16 9LH","la":"Milton Keynes","era":"trad","nn":35,"risk":46,"cat":"amber"},{"name":"The Cock Inn","lat":52.11503,"lon":-0.8286,"postcode":"MK19 7LQ","la":"Milton Keynes","era":"trad","nn":0,"risk":43,"cat":"amber"},{"name":"The Countryman","lat":52.04461,"lon":-0.77147,"postcode":"MK13 8DY","la":"Milton Keynes","era":"other","nn":785,"risk":31,"cat":"amber"},{"name":"The Craufurd Arms Hotel","lat":52.06245,"lon":-0.81571,"postcode":"MK12 5LT","la":"Milton Keynes","era":"trad","nn":119,"risk":26,"cat":"green"},{"name":"The Cricketers","lat":52.03379,"lon":-0.75295,"postcode":"MK6 2QA","la":"Milton Keynes","era":"other","nn":805,"risk":31,"cat":"amber"},{"name":"The Cross Keys","lat":52.04008,"lon":-0.72696,"postcode":"MK15 0AA","la":"Milton Keynes","era":"trad","nn":541,"risk":49,"cat":"amber"},{"name":"The Crown Inn Public House","lat":52.05619,"lon":-0.85433,"postcode":"MK11 1BE","la":"Milton Keynes","era":"trad","nn":134,"risk":26,"cat":"green"},{"name":"The Dolphin","lat":52.08696,"lon":-0.72249,"postcode":"MK16 8AQ","la":"Milton Keynes","era":"other","nn":0,"risk":25,"cat":"green"},{"name":"The Dolphin Public House","lat":52.00517,"lon":-0.74947,"postcode":"MK3 7JZ","la":"Milton Keynes","era":"other","nn":192,"risk":44,"cat":"amber"},{"name":"The Dove","lat":52.0874,"lon":-0.7436,"postcode":"MK16 8SB","la":"Milton Keynes","era":"other","nn":579,"risk":49,"cat":"amber"},{"name":"The Duke of Wellington","lat":52.05734,"lon":-0.84809,"postcode":"MK11 1ED","la":"Milton Keynes","era":"trad","nn":255,"risk":27,"cat":"green"},{"name":"The Eager Poet Public House","lat":52.06042,"lon":-0.74733,"postcode":"MK14 6JY","la":"Milton Keynes","era":"other","nn":1080,"risk":55,"cat":"amber"},{"name":"The Eagle Public House","lat":52.03212,"lon":-0.74149,"postcode":"MK6 5BZ","la":"Milton Keynes","era":"trad","nn":805,"risk":51,"cat":"amber"},{"name":"The Galleon Inn","lat":52.06712,"lon":-0.8193,"postcode":"MK12 5NL","la":"Milton Keynes","era":"trad","nn":575,"risk":29,"cat":"green"},{"name":"The George at Little Brickhill","lat":51.98192,"lon":-0.67375,"postcode":"MK17 9NB","la":"Milton Keynes","era":"trad","nn":1917,"risk":61,"cat":"red"},{"name":"The Green Man","lat":52.1722,"lon":-0.65875,"postcode":"MK46 4HA","la":"Milton Keynes","era":"other","nn":0,"risk":45,"cat":"amber"},{"name":"The Horseshoe","lat":52.1722,"lon":-0.65875,"postcode":"MK46 4HA","la":"Milton Keynes","era":"trad","nn":0,"risk":45,"cat":"amber"},{"name":"The Kensington","lat":52.03442,"lon":-0.79542,"postcode":"MK8 9AN","la":"Milton Keynes","era":"other","nn":1394,"risk":58,"cat":"amber"},{"name":"The Kings Arms","lat":52.08446,"lon":-0.71797,"postcode":"MK16 9BY","la":"Milton Keynes","era":"trad","nn":108,"risk":26,"cat":"green"},{"name":"The Lamb Inn","lat":52.13074,"lon":-0.77733,"postcode":"MK16 8NR","la":"Milton Keynes","era":"trad","nn":3912,"risk":75,"cat":"red"},{"name":"The Maltsters Arms Public House","lat":51.99722,"lon":-0.71726,"postcode":"MK2 2BQ","la":"Milton Keynes","era":"trad","nn":34,"risk":26,"cat":"green"},{"name":"The MK Biergarten Ltd","lat":52.06438,"lon":-0.80578,"postcode":"MK12 5FJ","la":"Milton Keynes","era":"other","nn":268,"risk":27,"cat":"green"},{"name":"The Nags Head","lat":52.07036,"lon":-0.75727,"postcode":"MK14 5AX","la":"Milton Keynes","era":"trad","nn":763,"risk":51,"cat":"amber"},{"name":"The New Inn","lat":52.06367,"lon":-0.78818,"postcode":"MK13 0EN","la":"Milton Keynes","era":"trad","nn":335,"risk":33,"cat":"amber"},{"name":"The New Queen Victoria","lat":52.06252,"lon":-0.80915,"postcode":"MK12 5JN","la":"Milton Keynes","era":"trad","nn":78,"risk":26,"cat":"green"},{"name":"The North Western Hotel","lat":52.06305,"lon":-0.8099,"postcode":"MK12 5LJ","la":"Milton Keynes","era":"other","nn":78,"risk":26,"cat":"green"},{"name":"The Old Beams","lat":52.01958,"lon":-0.77961,"postcode":"MK5 7AE","la":"Milton Keynes","era":"other","nn":791,"risk":51,"cat":"amber"},{"name":"The Old Swan","lat":51.99203,"lon":-0.75364,"postcode":"MK3 6EZ","la":"Milton Keynes","era":"trad","nn":300,"risk":32,"cat":"amber"},{"name":"The Park Hotel","lat":51.99391,"lon":-0.73444,"postcode":"MK2 2SQ","la":"Milton Keynes","era":"other","nn":347,"risk":30,"cat":"green"},{"name":"The Pavilion","lat":52.0206,"lon":-0.68852,"postcode":"MK7 7WH","la":"Milton Keynes","era":"trad","nn":248,"risk":47,"cat":"amber"},{"name":"The Plough","lat":52.08657,"lon":-0.72305,"postcode":"MK16 8AT","la":"Milton Keynes","era":"trad","nn":57,"risk":26,"cat":"green"},{"name":"The Plough","lat":52.01624,"lon":-0.71752,"postcode":"MK6 3AH","la":"Milton Keynes","era":"trad","nn":1058,"risk":55,"cat":"amber"},{"name":"The Postal Club","lat":51.99461,"lon":-0.72949,"postcode":"MK2 2AA","la":"Milton Keynes","era":"other","nn":2,"risk":25,"cat":"green"},{"name":"The Prince Albert","lat":52.04824,"lon":-0.78792,"postcode":"MK13 9AG","la":"Milton Keynes","era":"trad","nn":66,"risk":31,"cat":"amber"},{"name":"The Prince George","lat":51.99898,"lon":-0.7952,"postcode":"MK4 3DF","la":"Milton Keynes","era":"trad","nn":484,"risk":49,"cat":"amber"},{"name":"The Red House","lat":52.08238,"lon":-0.74137,"postcode":"MK16 8BG","la":"Milton Keynes","era":"other","nn":579,"risk":47,"cat":"amber"},{"name":"The Red Lion","lat":52.00062,"lon":-0.71449,"postcode":"MK1 1BY","la":"Milton Keynes","era":"trad","nn":259,"risk":27,"cat":"green"},{"name":"The Ship Ashore","lat":52.06247,"lon":-0.73189,"postcode":"MK15 9JL","la":"Milton Keynes","era":"trad","nn":1080,"risk":55,"cat":"amber"},{"name":"The Swan Inn","lat":52.04228,"lon":-0.70372,"postcode":"MK10 9AH","la":"Milton Keynes","era":"trad","nn":1609,"risk":59,"cat":"amber"},{"name":"The Swan Inn and Bistro","lat":52.15199,"lon":-0.70191,"postcode":"MK46 4AA","la":"Milton Keynes","era":"trad","nn":249,"risk":30,"cat":"green"},{"name":"The Three Trees","lat":51.99111,"lon":-0.75776,"postcode":"MK3 5JB","la":"Milton Keynes","era":"other","nn":300,"risk":32,"cat":"amber"},{"name":"The Two Brewers","lat":52.15422,"lon":-0.70154,"postcode":"MK46 4BB","la":"Milton Keynes","era":"other","nn":0,"risk":28,"cat":"green"},{"name":"The Watts Arms","lat":52.11514,"lon":-0.83027,"postcode":"MK19 7LG","la":"Milton Keynes","era":"trad","nn":115,"risk":44,"cat":"amber"},{"name":"The White Hart","lat":52.1127,"lon":-0.69963,"postcode":"MK16 9PE","la":"Milton Keynes","era":"trad","nn":1412,"risk":58,"cat":"amber"},{"name":"The White Horse","lat":52.05647,"lon":-0.85243,"postcode":"MK11 1AA","la":"Milton Keynes","era":"trad","nn":104,"risk":26,"cat":"green"},{"name":"Vertigo VR Limited","lat":52.04383,"lon":-0.74931,"postcode":"MK9 3PU","la":"Milton Keynes","era":"other","nn":0,"risk":25,"cat":"green"},{"name":"Victoria Inn","lat":52.04856,"lon":-0.78873,"postcode":"MK13 9AQ","la":"Milton Keynes","era":"trad","nn":66,"risk":31,"cat":"amber"},{"name":"Watling Street Masonic Club","lat":52.05732,"lon":-0.85182,"postcode":"MK11 1BW","la":"Milton Keynes","era":"trad","nn":104,"risk":26,"cat":"green"},{"name":"Wavendon Arms","lat":52.02667,"lon":-0.66855,"postcode":"MK17 8LJ","la":"Milton Keynes","era":"trad","nn":1501,"risk":58,"cat":"amber"},{"name":"Wetherspoons","lat":52.03802,"lon":-0.76735,"postcode":"MK9 1EA","la":"Milton Keynes","era":"other","nn":226,"risk":27,"cat":"green"},{"name":"Wolverton Park Bowls Club","lat":52.06653,"lon":-0.80398,"postcode":"MK12 5TN","la":"Milton Keynes","era":"other","nn":268,"risk":27,"cat":"green"},{"name":"Wolverton Sports Club","lat":52.05865,"lon":-0.81161,"postcode":"MK12 5HH","la":"Milton Keynes","era":"other","nn":92,"risk":26,"cat":"green"},{"name":"Wolverton Town Bowls Club","lat":52.0585,"lon":-0.81292,"postcode":"MK12 5AQ","la":"Milton Keynes","era":"other","nn":92,"risk":26,"cat":"green"},{"name":"Wolverton Workmen's Social Club","lat":52.06258,"lon":-0.81398,"postcode":"MK12 5LS","la":"Milton Keynes","era":"mod","nn":119,"risk":26,"cat":"green"},{"name":"Barley Mow","lat":52.07584,"lon":-0.84528,"postcode":"MK19 7JD","la":"West Northamptonshire","era":"other","nn":1126,"risk":51,"cat":"amber"},{"name":"Conservative Club","lat":52.04965,"lon":-0.89062,"postcode":"MK19 6HF","la":"West Northamptonshire","era":"other","nn":382,"risk":43,"cat":"amber"},{"name":"Navigation Inn","lat":52.08515,"lon":-0.85175,"postcode":"MK19 7BE","la":"West Northamptonshire","era":"trad","nn":1126,"risk":51,"cat":"amber"},{"name":"The Beehive","lat":52.04894,"lon":-0.88515,"postcode":"MK19 6HL","la":"West Northamptonshire","era":"other","nn":382,"risk":43,"cat":"amber"},{"name":"The Swan @ Old Stratford","lat":52.06314,"lon":-0.86434,"postcode":"MK19 6AE","la":"West Northamptonshire","era":"trad","nn":840,"risk":29,"cat":"green"},{"name":"The White Lion","lat":52.04788,"lon":-0.91232,"postcode":"MK19 6BS","la":"West Northamptonshire","era":"trad","nn":1497,"risk":53,"cat":"amber"}]