[{"name":"Alexandra Hotel","lat":53.70068,"lon":-2.47647,"postcode":"BB3 1NL","la":"Blackburn with Darwen","era":"other","nn":285,"risk":28,"cat":"green"},{"name":"Alexandra Hotel","lat":53.75247,"lon":-2.49655,"postcode":"BB2 6EX","la":"Blackburn with Darwen","era":"other","nn":470,"risk":30,"cat":"green"},{"name":"Anchor Hotel","lat":53.71104,"lon":-2.48134,"postcode":"BB3 0AB","la":"Blackburn with Darwen","era":"trad","nn":243,"risk":28,"cat":"green"},{"name":"Audley W M C","lat":53.74497,"lon":-2.46388,"postcode":"BB1 1TG","la":"Blackburn with Darwen","era":"other","nn":826,"risk":52,"cat":"amber"},{"name":"Bar Ibiza","lat":53.74682,"lon":-2.48402,"postcode":"BB2 2EB","la":"Blackburn with Darwen","era":"mod","nn":63,"risk":27,"cat":"green"},{"name":"Beechwood Club","lat":53.75676,"lon":-2.46707,"postcode":"BB1 5JL","la":"Blackburn with Darwen","era":"other","nn":352,"risk":46,"cat":"amber"},{"name":"Beehive Inn","lat":53.73254,"lon":-2.52087,"postcode":"BB2 5LP","la":"Blackburn with Darwen","era":"trad","nn":82,"risk":29,"cat":"green"},{"name":"Bees Knees","lat":53.69435,"lon":-2.46594,"postcode":"BB3 1BT","la":"Blackburn with Darwen","era":"other","nn":39,"risk":27,"cat":"green"},{"name":"Bird Inth' Hand","lat":53.69741,"lon":-2.46913,"postcode":"BB3 1AU","la":"Blackburn with Darwen","era":"other","nn":109,"risk":27,"cat":"green"},{"name":"Black Horse Hotel","lat":53.69268,"lon":-2.46331,"postcode":"BB3 2AF","la":"Blackburn with Darwen","era":"trad","nn":253,"risk":28,"cat":"green"},{"name":"Blackburn Northern","lat":53.76759,"lon":-2.48683,"postcode":"BB1 8QA","la":"Blackburn with Darwen","era":"other","nn":424,"risk":34,"cat":"amber"},{"name":"Blackburn RUFC","lat":53.77135,"lon":-2.48787,"postcode":"BB1 8NB","la":"Blackburn with Darwen","era":"other","nn":424,"risk":34,"cat":"amber"},{"name":"Bridge St Sports & Social Club","lat":53.69468,"lon":-2.46616,"postcode":"BB3 2AA","la":"Blackburn with Darwen","era":"mod","nn":0,"risk":26,"cat":"green"},{"name":"Brown Cow Inn","lat":53.72665,"lon":-2.51268,"postcode":"BB2 4RA","la":"Blackburn with Darwen","era":"trad","nn":280,"risk":28,"cat":"green"},{"name":"Brownhill Arms","lat":53.77525,"lon":-2.47922,"postcode":"BB1 9BA","la":"Blackburn with Darwen","era":"trad","nn":416,"risk":34,"cat":"amber"},{"name":"Bulls Head","lat":53.74234,"lon":-2.50358,"postcode":"BB2 1UN","la":"Blackburn with Darwen","era":"trad","nn":226,"risk":28,"cat":"green"},{"name":"Buzz Bingo","lat":53.7507,"lon":-2.4802,"postcode":"BB1 6AF","la":"Blackburn with Darwen","era":"other","nn":317,"risk":29,"cat":"green"},{"name":"Calypso Caribbean Restaurant","lat":53.74922,"lon":-2.47418,"postcode":"BB1 5BY","la":"Blackburn with Darwen","era":"other","nn":429,"risk":29,"cat":"green"},{"name":"Cherry Tree Cricket Club Ltd","lat":53.7306,"lon":-2.52309,"postcode":"BB2 5ND","la":"Blackburn with Darwen","era":"other","nn":260,"risk":28,"cat":"green"},{"name":"Clifton Arms","lat":53.73991,"lon":-2.47938,"postcode":"BB2 3AG","la":"Blackburn with Darwen","era":"trad","nn":504,"risk":30,"cat":"green"},{"name":"Clog & Billycock","lat":53.74988,"lon":-2.52989,"postcode":"BB2 6QB","la":"Blackburn with Darwen","era":"other","nn":1775,"risk":61,"cat":"red"},{"name":"Craven Heifer","lat":53.69078,"lon":-2.44829,"postcode":"BB3 3LD","la":"Blackburn with Darwen","era":"other","nn":924,"risk":53,"cat":"amber"},{"name":"Crown Paints Sports & Social Club","lat":53.71115,"lon":-2.47766,"postcode":"BB3 0BB","la":"Blackburn with Darwen","era":"other","nn":243,"risk":28,"cat":"green"},{"name":"Darwen Golf Club","lat":53.70589,"lon":-2.49366,"postcode":"BB3 0LB","la":"Blackburn with Darwen","era":"other","nn":514,"risk":35,"cat":"amber"},{"name":"Darwen Masonic Hall","lat":53.70726,"lon":-2.48059,"postcode":"BB3 1QZ","la":"Blackburn with Darwen","era":"trad","nn":423,"risk":29,"cat":"green"},{"name":"Darwen Subs Bowling Club","lat":53.70121,"lon":-2.45707,"postcode":"BB3 3AQ","la":"Blackburn with Darwen","era":"other","nn":552,"risk":30,"cat":"green"},{"name":"Darwen Tap","lat":53.7032,"lon":-2.47563,"postcode":"BB3 1EJ","la":"Blackburn with Darwen","era":"mod","nn":91,"risk":27,"cat":"green"},{"name":"East Lancashire Cricket Club","lat":53.75476,"lon":-2.50362,"postcode":"BB2 6DJ","la":"Blackburn with Darwen","era":"other","nn":530,"risk":48,"cat":"amber"},{"name":"Electric Church Club Ltd","lat":53.74918,"lon":-2.48611,"postcode":"BB2 1AA","la":"Blackburn with Darwen","era":"other","nn":0,"risk":26,"cat":"green"},{"name":"Entwistle Hotel","lat":53.69573,"lon":-2.46369,"postcode":"BB3 3HS","la":"Blackburn with Darwen","era":"other","nn":148,"risk":27,"cat":"green"},{"name":"Ewood Park Working Mens Club","lat":53.72837,"lon":-2.49087,"postcode":"BB2 4HY","la":"Blackburn with Darwen","era":"trad","nn":5,"risk":26,"cat":"green"},{"name":"Feildens Arms","lat":53.72632,"lon":-2.53892,"postcode":"BB2 5ER","la":"Blackburn with Darwen","era":"trad","nn":191,"risk":30,"cat":"green"},{"name":"Feni Rec","lat":53.72461,"lon":-2.5386,"postcode":"BB2 5EG","la":"Blackburn with Darwen","era":"other","nn":191,"risk":30,"cat":"green"},{"name":"Foresters Arms Public House","lat":53.74658,"lon":-2.44837,"postcode":"BB1 2AZ","la":"Blackburn with Darwen","era":"trad","nn":193,"risk":45,"cat":"amber"},{"name":"Fox And Hounds","lat":53.73001,"lon":-2.49324,"postcode":"BB2 4LL","la":"Blackburn with Darwen","era":"trad","nn":234,"risk":28,"cat":"green"},{"name":"Guide Conservative Club","lat":53.72895,"lon":-2.44409,"postcode":"BB1 2LW","la":"Blackburn with Darwen","era":"other","nn":0,"risk":44,"cat":"amber"},{"name":"Hare And Hounds Hotel","lat":53.76399,"lon":-2.49599,"postcode":"BB1 8LA","la":"Blackburn with Darwen","era":"trad","nn":723,"risk":49,"cat":"amber"},{"name":"Havelock Inn","lat":53.73754,"lon":-2.49639,"postcode":"BB2 2QA","la":"Blackburn with Darwen","era":"trad","nn":378,"risk":29,"cat":"green"},{"name":"Hoddlesden Club","lat":53.69605,"lon":-2.43339,"postcode":"BB3 3LL","la":"Blackburn with Darwen","era":"other","nn":1143,"risk":57,"cat":"amber"},{"name":"Hollins Grove Conservative Club","lat":53.70375,"lon":-2.47665,"postcode":"BB3 1QJ","la":"Blackburn with Darwen","era":"other","nn":91,"risk":27,"cat":"green"},{"name":"Hopstar Brewery Tap","lat":53.69468,"lon":-2.46616,"postcode":"BB3 2AA","la":"Blackburn with Darwen","era":"mod","nn":0,"risk":26,"cat":"green"},{"name":"Intack Inn","lat":53.74771,"lon":-2.44615,"postcode":"BB1 2AL","la":"Blackburn with Darwen","era":"trad","nn":193,"risk":45,"cat":"amber"},{"name":"King Edward VII","lat":53.72747,"lon":-2.44618,"postcode":"BB1 2NG","la":"Blackburn with Darwen","era":"trad","nn":215,"risk":45,"cat":"amber"},{"name":"Level One","lat":53.69581,"lon":-2.4684,"postcode":"BB3 1PS","la":"Blackburn with Darwen","era":"other","nn":47,"risk":27,"cat":"green"},{"name":"Lion Hotel","lat":53.74567,"lon":-2.49819,"postcode":"BB2 1PX","la":"Blackburn with Darwen","era":"trad","nn":513,"risk":30,"cat":"green"},{"name":"Longshaw Sports & Social Club","lat":53.73541,"lon":-2.48479,"postcode":"BB2 3PH","la":"Blackburn with Darwen","era":"mod","nn":614,"risk":31,"cat":"amber"},{"name":"Loom and Shuttle","lat":53.70004,"lon":-2.47228,"postcode":"BB3 1AT","la":"Blackburn with Darwen","era":"other","nn":263,"risk":28,"cat":"green"},{"name":"Lord Raglan Hotel","lat":53.72946,"lon":-2.50541,"postcode":"BB2 4PY","la":"Blackburn with Darwen","era":"other","nn":300,"risk":29,"cat":"green"},{"name":"Mill Hill Hotel","lat":53.73812,"lon":-2.50478,"postcode":"BB2 2QY","la":"Blackburn with Darwen","era":"trad","nn":230,"risk":28,"cat":"green"},{"name":"Mill Hill Working Mens Club","lat":53.73295,"lon":-2.50018,"postcode":"BB2 4EZ","la":"Blackburn with Darwen","era":"trad","nn":234,"risk":28,"cat":"green"},{"name":"Navigation Inn","lat":53.73286,"lon":-2.50374,"postcode":"BB2 4DJ","la":"Blackburn with Darwen","era":"trad","nn":234,"risk":28,"cat":"green"},{"name":"New Dragon","lat":53.72842,"lon":-2.49091,"postcode":"BB2 4HY","la":"Blackburn with Darwen","era":"trad","nn":5,"risk":26,"cat":"green"},{"name":"Oakenhurst Farm Brewers Fayre","lat":53.71758,"lon":-2.47467,"postcode":"BB3 0SN","la":"Blackburn with Darwen","era":"trad","nn":742,"risk":49,"cat":"amber"},{"name":"Olde England Kiosk","lat":53.70241,"lon":-2.48853,"postcode":"BB3 0LA","la":"Blackburn with Darwen","era":"other","nn":514,"risk":30,"cat":"green"},{"name":"Orchard Working Mens Club","lat":53.75886,"lon":-2.47109,"postcode":"BB1 6JZ","la":"Blackburn with Darwen","era":"trad","nn":352,"risk":49,"cat":"amber"},{"name":"Park Inn","lat":53.67918,"lon":-2.45774,"postcode":"BB3 2LZ","la":"Blackburn with Darwen","era":"trad","nn":1432,"risk":59,"cat":"amber"},{"name":"Polish Catholic Mission in Blackburn","lat":53.75226,"lon":-2.48941,"postcode":"BB2 6AH","la":"Blackburn with Darwen","era":"other","nn":364,"risk":29,"cat":"green"},{"name":"Postal Order","lat":53.74413,"lon":-2.48217,"postcode":"BB2 2AQ","la":"Blackburn with Darwen","era":"other","nn":243,"risk":28,"cat":"green"},{"name":"Punch Hotel","lat":53.70373,"lon":-2.46429,"postcode":"BB3 0EE","la":"Blackburn with Darwen","era":"other","nn":552,"risk":30,"cat":"green"},{"name":"Q Lounge","lat":53.74654,"lon":-2.48319,"postcode":"BB2 2HB","la":"Blackburn with Darwen","era":"mod","nn":42,"risk":27,"cat":"green"},{"name":"Railway Hotel","lat":53.72949,"lon":-2.54241,"postcode":"BB2 5JE","la":"Blackburn with Darwen","era":"trad","nn":346,"risk":34,"cat":"amber"},{"name":"Ribblesdale Tap","lat":53.74848,"lon":-2.48514,"postcode":"BB2 1JU","la":"Blackburn with Darwen","era":"mod","nn":32,"risk":27,"cat":"green"},{"name":"Rising Sun Hotel","lat":53.77892,"lon":-2.47797,"postcode":"BB1 9BE","la":"Blackburn with Darwen","era":"other","nn":416,"risk":49,"cat":"amber"},{"name":"Royal Arms","lat":53.68919,"lon":-2.50873,"postcode":"BB3 0PA","la":"Blackburn with Darwen","era":"trad","nn":1982,"risk":63,"cat":"red"},{"name":"Sam's Bar","lat":53.7476,"lon":-2.48385,"postcode":"BB2 1JG","la":"Blackburn with Darwen","era":"other","nn":23,"risk":27,"cat":"green"},{"name":"St Marks Conservative Club","lat":53.74044,"lon":-2.50798,"postcode":"BB2 2SS","la":"Blackburn with Darwen","era":"other","nn":153,"risk":27,"cat":"green"},{"name":"St Pauls Working Men Club","lat":53.74912,"lon":-2.49093,"postcode":"BB2 1EE","la":"Blackburn with Darwen","era":"trad","nn":317,"risk":29,"cat":"green"},{"name":"St Peters Parish Social Centre","lat":53.73686,"lon":-2.50203,"postcode":"BB2 2QG","la":"Blackburn with Darwen","era":"mod","nn":230,"risk":28,"cat":"green"},{"name":"Station Hotel","lat":53.73283,"lon":-2.51973,"postcode":"BB2 5LW","la":"Blackburn with Darwen","era":"other","nn":82,"risk":29,"cat":"green"},{"name":"Sunbird","lat":53.69543,"lon":-2.46809,"postcode":"BB3 1BT","la":"Blackburn with Darwen","era":"other","nn":47,"risk":27,"cat":"green"},{"name":"The Blackburn Times","lat":53.74918,"lon":-2.48611,"postcode":"BB2 1AA","la":"Blackburn with Darwen","era":"other","nn":0,"risk":26,"cat":"green"},{"name":"The Bridgewater","lat":53.69528,"lon":-2.466,"postcode":"BB3 2RE","la":"Blackburn with Darwen","era":"other","nn":68,"risk":27,"cat":"green"},{"name":"The Butlers Arms","lat":53.73257,"lon":-2.54313,"postcode":"BB2 5JH","la":"Blackburn with Darwen","era":"trad","nn":346,"risk":34,"cat":"amber"},{"name":"The Cock","lat":53.6979,"lon":-2.47056,"postcode":"BB3 1PX","la":"Blackburn with Darwen","era":"other","nn":109,"risk":27,"cat":"green"},{"name":"The Drummer's Arms","lat":53.75022,"lon":-2.48496,"postcode":"BB1 7DT","la":"Blackburn with Darwen","era":"trad","nn":138,"risk":27,"cat":"green"},{"name":"The Fernhurst","lat":53.72577,"lon":-2.48831,"postcode":"BB2 4JP","la":"Blackburn with Darwen","era":"other","nn":335,"risk":31,"cat":"amber"},{"name":"The Foundry","lat":53.72367,"lon":-2.52983,"postcode":"BB2 5DQ","la":"Blackburn with Darwen","era":"mod","nn":587,"risk":36,"cat":"amber"},{"name":"The Gate","lat":53.72874,"lon":-2.49961,"postcode":"BB2 4QR","la":"Blackburn with Darwen","era":"other","nn":390,"risk":29,"cat":"green"},{"name":"The Observatory","lat":53.7355,"lon":-2.47004,"postcode":"BB2 3HG","la":"Blackburn with Darwen","era":"other","nn":786,"risk":49,"cat":"amber"},{"name":"The Old Chapel","lat":53.69627,"lon":-2.46574,"postcode":"BB3 2RG","la":"Blackburn with Darwen","era":"other","nn":0,"risk":26,"cat":"green"},{"name":"The Patrons Tap Limited","lat":53.72895,"lon":-2.44409,"postcode":"BB1 2LW","la":"Blackburn with Darwen","era":"mod","nn":0,"risk":44,"cat":"amber"},{"name":"The Sound Lounge Ltd","lat":53.69629,"lon":-2.46874,"postcode":"BB3 1PU","la":"Blackburn with Darwen","era":"mod","nn":58,"risk":27,"cat":"green"},{"name":"The Sun Hotel","lat":53.74759,"lon":-2.4842,"postcode":"BB2 2DQ","la":"Blackburn with Darwen","era":"other","nn":23,"risk":27,"cat":"green"},{"name":"The Taps Bar","lat":53.69627,"lon":-2.46574,"postcode":"BB3 2RG","la":"Blackburn with Darwen","era":"mod","nn":0,"risk":26,"cat":"green"},{"name":"The Vic","lat":53.74629,"lon":-2.48271,"postcode":"BB2 2BH","la":"Blackburn with Darwen","era":"other","nn":42,"risk":27,"cat":"green"},{"name":"Tipsy Bar","lat":53.7485,"lon":-2.48465,"postcode":"BB2 1JL","la":"Blackburn with Darwen","era":"other","nn":32,"risk":27,"cat":"green"},{"name":"Victoria Hotel","lat":53.69498,"lon":-2.46041,"postcode":"BB3 3HW","la":"Blackburn with Darwen","era":"trad","nn":231,"risk":28,"cat":"green"},{"name":"Wellington Inn","lat":53.72765,"lon":-2.50878,"postcode":"BB2 4QJ","la":"Blackburn with Darwen","era":"trad","nn":280,"risk":28,"cat":"green"},{"name":"Witton Inn","lat":53.74162,"lon":-2.50678,"postcode":"BB2 1XQ","la":"Blackburn with Darwen","era":"trad","nn":153,"risk":27,"cat":"green"},{"name":"Baltic Fleet Inn","lat":53.80366,"lon":-2.23149,"postcode":"BB10 1UX","la":"Burnley","era":"trad","nn":36,"risk":27,"cat":"green"},{"name":"Bar Mojitos","lat":53.78856,"lon":-2.24418,"postcode":"BB11 1DU","la":"Burnley","era":"mod","nn":28,"risk":26,"cat":"green"},{"name":"Bees Knees","lat":53.7889,"lon":-2.24551,"postcode":"BB11 1DZ","la":"Burnley","era":"other","nn":13,"risk":26,"cat":"green"},{"name":"Big Window","lat":53.78817,"lon":-2.24391,"postcode":"BB11 1HG","la":"Burnley","era":"other","nn":44,"risk":27,"cat":"green"},{"name":"Bootleggers","lat":53.78845,"lon":-2.24074,"postcode":"BB11 2EE","la":"Burnley","era":"other","nn":65,"risk":27,"cat":"green"},{"name":"Bridge Inn","lat":53.79913,"lon":-2.31159,"postcode":"BB12 8QN","la":"Burnley","era":"trad","nn":147,"risk":27,"cat":"green"},{"name":"Bridge Inn Bier Huis","lat":53.79019,"lon":-2.24164,"postcode":"BB11 1UH","la":"Burnley","era":"trad","nn":154,"risk":27,"cat":"green"},{"name":"Briercliffe Social Club","lat":53.81236,"lon":-2.2056,"postcode":"BB10 2HQ","la":"Burnley","era":"mod","nn":186,"risk":33,"cat":"amber"},{"name":"Burnley Cricket Club","lat":53.7909,"lon":-2.23283,"postcode":"BB10 4BN","la":"Burnley","era":"other","nn":329,"risk":29,"cat":"green"},{"name":"Burnley Golf Club","lat":53.77172,"lon":-2.2517,"postcode":"BB11 3RW","la":"Burnley","era":"other","nn":706,"risk":51,"cat":"amber"},{"name":"Burnley Masonic Hall","lat":53.78622,"lon":-2.24752,"postcode":"BB11 1LA","la":"Burnley","era":"trad","nn":95,"risk":27,"cat":"green"},{"name":"Burnley Miner's Social Club","lat":53.78848,"lon":-2.2364,"postcode":"BB11 3AA","la":"Burnley","era":"mod","nn":45,"risk":27,"cat":"green"},{"name":"Burnley Wood Conservative Club","lat":53.78214,"lon":-2.23612,"postcode":"BB11 3LY","la":"Burnley","era":"other","nn":251,"risk":28,"cat":"green"},{"name":"Craven Heifer","lat":53.81121,"lon":-2.21083,"postcode":"BB10 2HA","la":"Burnley","era":"other","nn":193,"risk":45,"cat":"amber"},{"name":"Cross Keys","lat":53.7896,"lon":-2.24747,"postcode":"BB11 1NR","la":"Burnley","era":"trad","nn":42,"risk":27,"cat":"green"},{"name":"Dubliner","lat":53.78815,"lon":-2.24321,"postcode":"BB11 1HH","la":"Burnley","era":"other","nn":46,"risk":27,"cat":"green"},{"name":"Flying Dutchman","lat":53.80025,"lon":-2.31279,"postcode":"BB12 8BL","la":"Burnley","era":"other","nn":143,"risk":27,"cat":"green"},{"name":"Free Gardeners Arms","lat":53.80261,"lon":-2.31739,"postcode":"BB12 8HL","la":"Burnley","era":"trad","nn":97,"risk":27,"cat":"green"},{"name":"General Williams Inn","lat":53.77789,"lon":-2.25421,"postcode":"BB11 4HL","la":"Burnley","era":"trad","nn":706,"risk":36,"cat":"amber"},{"name":"George IV","lat":53.79696,"lon":-2.29058,"postcode":"BB12 6LG","la":"Burnley","era":"trad","nn":34,"risk":32,"cat":"amber"},{"name":"George IV","lat":53.79685,"lon":-2.29107,"postcode":"BB12 6LG","la":"Burnley","era":"trad","nn":34,"risk":32,"cat":"amber"},{"name":"Green Street Sports & Social Club","lat":53.80378,"lon":-2.232,"postcode":"BB10 1UZ","la":"Burnley","era":"mod","nn":36,"risk":27,"cat":"green"},{"name":"Greenhill Social And Bowling Club","lat":53.78434,"lon":-2.25275,"postcode":"BB11 4HR","la":"Burnley","era":"mod","nn":360,"risk":29,"cat":"green"},{"name":"Hand & Shuttle","lat":53.80142,"lon":-2.31366,"postcode":"BB12 8DY","la":"Burnley","era":"other","nn":122,"risk":27,"cat":"green"},{"name":"Hapton Inn","lat":53.77454,"lon":-2.31422,"postcode":"BB11 5QL","la":"Burnley","era":"trad","nn":1979,"risk":63,"cat":"red"},{"name":"Hare & Hounds","lat":53.80137,"lon":-2.3215,"postcode":"BB12 8JD","la":"Burnley","era":"trad","nn":148,"risk":27,"cat":"green"},{"name":"Hare & Hounds","lat":53.81342,"lon":-2.19561,"postcode":"BB10 3QH","la":"Burnley","era":"trad","nn":666,"risk":48,"cat":"amber"},{"name":"Hidden Burnley","lat":53.7896,"lon":-2.24665,"postcode":"BB11 1NN","la":"Burnley","era":"other","nn":54,"risk":27,"cat":"green"},{"name":"Ighten Leigh Social Club","lat":53.79603,"lon":-2.27389,"postcode":"BB12 6SZ","la":"Burnley","era":"mod","nn":282,"risk":46,"cat":"amber"},{"name":"Ighten Mount Bowling Club","lat":53.79464,"lon":-2.2703,"postcode":"BB12 8AF","la":"Burnley","era":"other","nn":282,"risk":31,"cat":"amber"},{"name":"Illuminati","lat":53.78885,"lon":-2.24569,"postcode":"BB11 1NA","la":"Burnley","era":"other","nn":13,"risk":26,"cat":"green"},{"name":"Inside Out Bar","lat":53.78889,"lon":-2.24403,"postcode":"BB11 1DW","la":"Burnley","era":"other","nn":33,"risk":26,"cat":"green"},{"name":"Kettledrum Inn","lat":53.77158,"lon":-2.19271,"postcode":"BB10 4RG","la":"Burnley","era":"trad","nn":1774,"risk":61,"cat":"red"},{"name":"London Midland Railway Club","lat":53.78876,"lon":-2.28057,"postcode":"BB12 6HX","la":"Burnley","era":"trad","nn":581,"risk":30,"cat":"green"},{"name":"Lowerhouse Cricket Club - Bar","lat":53.79097,"lon":-2.28958,"postcode":"BB12 6LP","la":"Burnley","era":"mod","nn":360,"risk":29,"cat":"green"},{"name":"Molly Rigby's","lat":53.80159,"lon":-2.31549,"postcode":"BB12 8EX","la":"Burnley","era":"other","nn":26,"risk":26,"cat":"green"},{"name":"Padiham Cricket Club","lat":53.80164,"lon":-2.3237,"postcode":"BB12 8JS","la":"Burnley","era":"other","nn":148,"risk":27,"cat":"green"},{"name":"Padiham Masonic Hall Co Ltd","lat":53.80277,"lon":-2.31557,"postcode":"BB12 8LZ","la":"Burnley","era":"trad","nn":69,"risk":27,"cat":"green"},{"name":"Padiham W.M.C","lat":53.8016,"lon":-2.31867,"postcode":"BB12 8JQ","la":"Burnley","era":"other","nn":140,"risk":27,"cat":"green"},{"name":"Paradise W.M.C","lat":53.80597,"lon":-2.23346,"postcode":"BB10 1SH","la":"Burnley","era":"other","nn":262,"risk":28,"cat":"green"},{"name":"Penny Black","lat":53.78886,"lon":-2.24461,"postcode":"BB11 1DU","la":"Burnley","era":"other","nn":38,"risk":27,"cat":"green"},{"name":"Prairie Public House","lat":53.8096,"lon":-2.23615,"postcode":"BB10 1HW","la":"Burnley","era":"other","nn":440,"risk":32,"cat":"amber"},{"name":"Remedy","lat":53.78866,"lon":-2.24371,"postcode":"BB11 1EP","la":"Burnley","era":"other","nn":12,"risk":26,"cat":"green"},{"name":"Rifle Volunteers Inn","lat":53.78251,"lon":-2.2314,"postcode":"BB11 3HH","la":"Burnley","era":"trad","nn":64,"risk":27,"cat":"green"},{"name":"Roggerham Gate Inn","lat":53.80036,"lon":-2.17991,"postcode":"BB10 3PQ","la":"Burnley","era":"trad","nn":1472,"risk":59,"cat":"amber"},{"name":"Rosegrove Unity","lat":53.78409,"lon":-2.28451,"postcode":"BB11 5DL","la":"Burnley","era":"other","nn":581,"risk":48,"cat":"amber"},{"name":"Rossendale Valley Sailing Club","lat":53.74881,"lon":-2.26981,"postcode":"BB11 5PF","la":"Burnley","era":"other","nn":1451,"risk":59,"cat":"amber"},{"name":"Sanctuary Rock Bar","lat":53.78922,"lon":-2.24747,"postcode":"BB11 1NN","la":"Burnley","era":"other","nn":42,"risk":27,"cat":"green"},{"name":"Shakespeare Hotel","lat":53.79449,"lon":-2.30886,"postcode":"BB12 7DX","la":"Burnley","era":"other","nn":546,"risk":30,"cat":"green"},{"name":"Smackwater Jacks","lat":53.78855,"lon":-2.24376,"postcode":"BB11 1EP","la":"Burnley","era":"other","nn":12,"risk":26,"cat":"green"},{"name":"St Andrews Cricket & Bowling Club","lat":53.80506,"lon":-2.22615,"postcode":"BB10 3ED","la":"Burnley","era":"other","nn":383,"risk":31,"cat":"amber"},{"name":"Starkie Arms","lat":53.80181,"lon":-2.31565,"postcode":"BB12 8HF","la":"Burnley","era":"trad","nn":26,"risk":26,"cat":"green"},{"name":"Swan Inn","lat":53.7888,"lon":-2.24168,"postcode":"BB11 1NQ","la":"Burnley","era":"trad","nn":0,"risk":26,"cat":"green"},{"name":"The Angel Inn","lat":53.78836,"lon":-2.26021,"postcode":"BB11 4AU","la":"Burnley","era":"trad","nn":495,"risk":30,"cat":"green"},{"name":"The Bay Horse","lat":53.78745,"lon":-2.18999,"postcode":"BB10 3NH","la":"Burnley","era":"trad","nn":109,"risk":47,"cat":"amber"},{"name":"The Boot Inn","lat":53.78901,"lon":-2.24042,"postcode":"BB11 1NG","la":"Burnley","era":"trad","nn":65,"risk":27,"cat":"green"},{"name":"The Canteen","lat":53.79114,"lon":-2.29506,"postcode":"BB12 6NB","la":"Burnley","era":"other","nn":360,"risk":29,"cat":"green"},{"name":"The Cellar Restaurant","lat":53.80189,"lon":-2.31655,"postcode":"BB12 8HG","la":"Burnley","era":"other","nn":60,"risk":27,"cat":"green"},{"name":"The Commercial","lat":53.81138,"lon":-2.2079,"postcode":"BB10 2HA","la":"Burnley","era":"other","nn":186,"risk":33,"cat":"amber"},{"name":"The Crooked Billet","lat":53.78838,"lon":-2.18945,"postcode":"BB10 3NQ","la":"Burnley","era":"other","nn":109,"risk":47,"cat":"amber"},{"name":"The Inn On The Wharf (NW) Ltd","lat":53.78694,"lon":-2.24674,"postcode":"BB11 1JG","la":"Burnley","era":"trad","nn":95,"risk":27,"cat":"green"},{"name":"The New Waggoners","lat":53.76199,"lon":-2.26129,"postcode":"BB11 5NS","la":"Burnley","era":"other","nn":1252,"risk":58,"cat":"amber"},{"name":"The Oxford Inn","lat":53.78815,"lon":-2.23574,"postcode":"BB11 3BD","la":"Burnley","era":"trad","nn":57,"risk":27,"cat":"green"},{"name":"The Park View","lat":53.78704,"lon":-2.23086,"postcode":"BB10 4DZ","la":"Burnley","era":"other","nn":344,"risk":29,"cat":"green"},{"name":"The Queen Hotel","lat":53.754,"lon":-2.19211,"postcode":"BB10 4SU","la":"Burnley","era":"trad","nn":160,"risk":47,"cat":"amber"},{"name":"The Ram Inn","lat":53.75294,"lon":-2.19046,"postcode":"BB10 4SU","la":"Burnley","era":"trad","nn":160,"risk":47,"cat":"amber"},{"name":"The Royal Butterfly","lat":53.7801,"lon":-2.23447,"postcode":"BB11 3QH","la":"Burnley","era":"trad","nn":251,"risk":28,"cat":"green"},{"name":"The Royal Dyche","lat":53.7889,"lon":-2.23664,"postcode":"BB11 3BW","la":"Burnley","era":"trad","nn":10,"risk":26,"cat":"green"},{"name":"The Star","lat":53.78418,"lon":-2.24727,"postcode":"BB11 2EG","la":"Burnley","era":"other","nn":228,"risk":28,"cat":"green"},{"name":"The Taproom","lat":53.80218,"lon":-2.31528,"postcode":"BB12 8NA","la":"Burnley","era":"mod","nn":48,"risk":27,"cat":"green"},{"name":"The Town Mouse","lat":53.79146,"lon":-2.24686,"postcode":"BB12 0EL","la":"Burnley","era":"other","nn":207,"risk":28,"cat":"green"},{"name":"Thornton Arms","lat":53.78767,"lon":-2.20758,"postcode":"BB10 3JS","la":"Burnley","era":"trad","nn":1156,"risk":57,"cat":"amber"},{"name":"Turf Hotel","lat":53.78889,"lon":-2.23649,"postcode":"BB11 3BW","la":"Burnley","era":"other","nn":10,"risk":26,"cat":"green"},{"name":"White Lion Hotel","lat":53.7888,"lon":-2.24168,"postcode":"BB11 1NQ","la":"Burnley","era":"trad","nn":0,"risk":26,"cat":"green"},{"name":"Wood Top Inn","lat":53.7871,"lon":-2.26744,"postcode":"BB11 5ES","la":"Burnley","era":"trad","nn":495,"risk":35,"cat":"amber"},{"name":"Woodman Inn","lat":53.78194,"lon":-2.23134,"postcode":"BB11 3EX","la":"Burnley","era":"trad","nn":64,"risk":27,"cat":"green"},{"name":"Worsthorne Social Club","lat":53.79843,"lon":-2.24154,"postcode":"BB10 1AX","la":"Burnley","era":"mod","nn":850,"risk":32,"cat":"amber"},{"name":"106 County Bar","lat":53.76833,"lon":-2.41673,"postcode":"BB1 4LQ","la":"Hyndburn","era":"other","nn":104,"risk":27,"cat":"green"},{"name":"1B Tap (Wet Sales Only)","lat":53.78441,"lon":-2.40622,"postcode":"BB6 7AA","la":"Hyndburn","era":"mod","nn":196,"risk":27,"cat":"green"},{"name":"Abbey Hotel - Th'Owd Stables","lat":53.75225,"lon":-2.36247,"postcode":"BB5 1HP","la":"Hyndburn","era":"trad","nn":44,"risk":26,"cat":"green"},{"name":"Accrington & District Golf Club Services Ltd","lat":53.75432,"lon":-2.41237,"postcode":"BB5 4LS","la":"Hyndburn","era":"other","nn":467,"risk":34,"cat":"amber"},{"name":"Accrington C C Clubhouse","lat":53.76512,"lon":-2.35831,"postcode":"BB5 5BD","la":"Hyndburn","era":"other","nn":803,"risk":37,"cat":"amber"},{"name":"Accrington Masonic Association","lat":53.75018,"lon":-2.35939,"postcode":"BB5 2BE","la":"Hyndburn","era":"trad","nn":33,"risk":26,"cat":"green"},{"name":"Alma Inn","lat":53.73745,"lon":-2.35043,"postcode":"BB5 2QG","la":"Hyndburn","era":"trad","nn":153,"risk":27,"cat":"green"},{"name":"Arden Inn","lat":53.75205,"lon":-2.36112,"postcode":"BB5 1EH","la":"Hyndburn","era":"trad","nn":0,"risk":26,"cat":"green"},{"name":"Baxenden Cricket Club Clubhouse","lat":53.73313,"lon":-2.34271,"postcode":"BB5 2RE","la":"Hyndburn","era":"other","nn":546,"risk":35,"cat":"amber"},{"name":"Baxenden Village Club","lat":53.73652,"lon":-2.34872,"postcode":"BB5 2RG","la":"Hyndburn","era":"other","nn":153,"risk":27,"cat":"green"},{"name":"Bay Horse Hotel","lat":53.74319,"lon":-2.39659,"postcode":"BB5 3JB","la":"Hyndburn","era":"trad","nn":80,"risk":27,"cat":"green"},{"name":"Black Dog","lat":53.74144,"lon":-2.40338,"postcode":"BB5 3NW","la":"Hyndburn","era":"other","nn":212,"risk":28,"cat":"green"},{"name":"Bold Street Social Club","lat":53.75469,"lon":-2.35713,"postcode":"BB5 6SW","la":"Hyndburn","era":"mod","nn":230,"risk":28,"cat":"green"},{"name":"Broadway","lat":53.75555,"lon":-2.36425,"postcode":"BB5 1AR","la":"Hyndburn","era":"other","nn":30,"risk":26,"cat":"green"},{"name":"Burnley Road Subscription Bowling Green  Club","lat":53.75749,"lon":-2.35871,"postcode":"BB5 6DW","la":"Hyndburn","era":"other","nn":182,"risk":27,"cat":"green"},{"name":"Canine Club","lat":53.75317,"lon":-2.36174,"postcode":"BB5 1EN","la":"Hyndburn","era":"other","nn":93,"risk":27,"cat":"green"},{"name":"Church & Oswaldtwistle Cricket Clubhouse","lat":53.75031,"lon":-2.41027,"postcode":"BB5 4LZ","la":"Hyndburn","era":"other","nn":370,"risk":29,"cat":"green"},{"name":"Commercial Hotel - Wet Sales Only","lat":53.78578,"lon":-2.41068,"postcode":"BB6 7HX","la":"Hyndburn","era":"other","nn":140,"risk":27,"cat":"green"},{"name":"Conservative Club - Wet Sales Only","lat":53.7725,"lon":-2.38207,"postcode":"BB5 5HE","la":"Hyndburn","era":"other","nn":0,"risk":26,"cat":"green"},{"name":"Cross Axes","lat":53.78667,"lon":-2.40752,"postcode":"BB6 7NF","la":"Hyndburn","era":"trad","nn":0,"risk":26,"cat":"green"},{"name":"Crown Inn","lat":53.77692,"lon":-2.3832,"postcode":"BB5 5QX","la":"Hyndburn","era":"trad","nn":268,"risk":28,"cat":"green"},{"name":"Duckworth Hall","lat":53.73486,"lon":-2.42355,"postcode":"BB5 3RQ","la":"Hyndburn","era":"other","nn":1196,"risk":57,"cat":"amber"},{"name":"Enfield Cricket Club Social Club","lat":53.76556,"lon":-2.37858,"postcode":"BB5 4DG","la":"Hyndburn","era":"mod","nn":693,"risk":31,"cat":"amber"},{"name":"Globe Bowling & Billiards Club","lat":53.74513,"lon":-2.37289,"postcode":"BB5 0LW","la":"Hyndburn","era":"other","nn":791,"risk":37,"cat":"amber"},{"name":"Grants Bar","lat":53.74996,"lon":-2.35973,"postcode":"BB5 2BQ","la":"Hyndburn","era":"other","nn":33,"risk":26,"cat":"green"},{"name":"Great Harwood Golf Club (Wet Sales Only)","lat":53.79172,"lon":-2.38674,"postcode":"BB6 7TE","la":"Hyndburn","era":"other","nn":676,"risk":48,"cat":"amber"},{"name":"Green Haworth Golf Clubhouse","lat":53.73217,"lon":-2.36113,"postcode":"BB5 3SL","la":"Hyndburn","era":"other","nn":917,"risk":50,"cat":"amber"},{"name":"Grey Horse","lat":53.76169,"lon":-2.37031,"postcode":"BB5 5AD","la":"Hyndburn","era":"trad","nn":605,"risk":30,"cat":"green"},{"name":"Hackers Bar - Wet Sales Only","lat":53.78591,"lon":-2.40777,"postcode":"BB6 7QQ","la":"Hyndburn","era":"mod","nn":40,"risk":26,"cat":"green"},{"name":"Hare & Hounds","lat":53.75015,"lon":-2.40464,"postcode":"BB5 4NQ","la":"Hyndburn","era":"trad","nn":370,"risk":29,"cat":"green"},{"name":"Hare and Hound's (Wet Sales)","lat":53.7725,"lon":-2.38207,"postcode":"BB5 5HE","la":"Hyndburn","era":"trad","nn":0,"risk":26,"cat":"green"},{"name":"Heys Inn","lat":53.74116,"lon":-2.39448,"postcode":"BB5 3BW","la":"Hyndburn","era":"trad","nn":265,"risk":28,"cat":"green"},{"name":"Hustle Bar Ltd","lat":53.75444,"lon":-2.36255,"postcode":"BB5 6PX","la":"Hyndburn","era":"mod","nn":105,"risk":27,"cat":"green"},{"name":"Immanuel Bowling Ground","lat":53.73647,"lon":-2.40338,"postcode":"BB5 3QY","la":"Hyndburn","era":"other","nn":331,"risk":28,"cat":"green"},{"name":"Nags Head (Wet Sales Only)","lat":53.75342,"lon":-2.36673,"postcode":"BB5 1LE","la":"Hyndburn","era":"trad","nn":66,"risk":27,"cat":"green"},{"name":"Old England Forever","lat":53.77419,"lon":-2.38544,"postcode":"BB5 5HT","la":"Hyndburn","era":"other","nn":167,"risk":27,"cat":"green"},{"name":"'Oswaldtwistle Social Club'","lat":53.7438,"lon":-2.39268,"postcode":"BB5 3HH","la":"Hyndburn","era":"mod","nn":165,"risk":27,"cat":"green"},{"name":"Park View W M Club","lat":53.77688,"lon":-2.39068,"postcode":"BB5 5PR","la":"Hyndburn","era":"other","nn":110,"risk":27,"cat":"green"},{"name":"Peel Park Hotel","lat":53.75823,"lon":-2.35464,"postcode":"BB5 6QT","la":"Hyndburn","era":"other","nn":280,"risk":28,"cat":"green"},{"name":"Rhoden Inn","lat":53.73819,"lon":-2.39925,"postcode":"BB5 3QF","la":"Hyndburn","era":"trad","nn":331,"risk":28,"cat":"green"},{"name":"Rishton Arms","lat":53.76618,"lon":-2.41962,"postcode":"BB1 4HF","la":"Hyndburn","era":"trad","nn":35,"risk":26,"cat":"green"},{"name":"Rishton Conservative Club","lat":53.76918,"lon":-2.41608,"postcode":"BB1 4EF","la":"Hyndburn","era":"other","nn":91,"risk":27,"cat":"green"},{"name":"Rishton Cricket & Social Club (Wet Sales)","lat":53.76638,"lon":-2.42002,"postcode":"BB1 4HB","la":"Hyndburn","era":"mod","nn":35,"risk":26,"cat":"green"},{"name":"Rishton Free Gardeners","lat":53.77038,"lon":-2.41091,"postcode":"BB1 4NT","la":"Hyndburn","era":"other","nn":275,"risk":28,"cat":"green"},{"name":"Rishton Golf Club","lat":53.7629,"lon":-2.41519,"postcode":"BB1 4HG","la":"Hyndburn","era":"other","nn":467,"risk":29,"cat":"green"},{"name":"Rishton Workmens Club","lat":53.76955,"lon":-2.41485,"postcode":"BB1 4NB","la":"Hyndburn","era":"other","nn":91,"risk":27,"cat":"green"},{"name":"Roebuck Hotel","lat":53.76821,"lon":-2.41378,"postcode":"BB1 4JZ","la":"Hyndburn","era":"other","nn":164,"risk":27,"cat":"green"},{"name":"Royal Oak","lat":53.77878,"lon":-2.3858,"postcode":"BB5 5QA","la":"Hyndburn","era":"trad","nn":268,"risk":28,"cat":"green"},{"name":"Stanhill Working Mens Club","lat":53.74492,"lon":-2.41713,"postcode":"BB5 4PP","la":"Hyndburn","era":"trad","nn":77,"risk":29,"cat":"green"},{"name":"Steele Catering @ Baxenden and District Golf Club","lat":53.73839,"lon":-2.33671,"postcode":"BB5 2EA","la":"Hyndburn","era":"other","nn":706,"risk":36,"cat":"amber"},{"name":"Stop & Rest","lat":53.73983,"lon":-2.38787,"postcode":"BB5 3BE","la":"Hyndburn","era":"other","nn":421,"risk":29,"cat":"green"},{"name":"Sydney Street Community Sports and Social Club Ltd","lat":53.75599,"lon":-2.35984,"postcode":"BB5 6EG","la":"Hyndburn","era":"mod","nn":182,"risk":27,"cat":"green"},{"name":"The Acorn","lat":53.75643,"lon":-2.37261,"postcode":"BB5 1PY","la":"Hyndburn","era":"other","nn":432,"risk":29,"cat":"green"},{"name":"The Albion","lat":53.77386,"lon":-2.38296,"postcode":"BB5 5HD","la":"Hyndburn","era":"other","nn":162,"risk":27,"cat":"green"},{"name":"The Bees Knees","lat":53.75294,"lon":-2.36612,"postcode":"BB5 1JJ","la":"Hyndburn","era":"other","nn":66,"risk":27,"cat":"green"},{"name":"The Brooks Club Ltd (Wet Sales)","lat":53.75353,"lon":-2.36302,"postcode":"BB5 1DZ","la":"Hyndburn","era":"other","nn":93,"risk":27,"cat":"green"},{"name":"The Castle Hotel","lat":53.75532,"lon":-2.3645,"postcode":"BB5 1AS","la":"Hyndburn","era":"other","nn":30,"risk":26,"cat":"green"},{"name":"The Chantry - Wet Sales Only","lat":53.78626,"lon":-2.40765,"postcode":"BB6 7NF","la":"Hyndburn","era":"other","nn":40,"risk":26,"cat":"green"},{"name":"The Civic Arts Centre & Theatre (Wet Sales)","lat":53.74513,"lon":-2.39382,"postcode":"BB5 3HZ","la":"Hyndburn","era":"other","nn":165,"risk":27,"cat":"green"},{"name":"'The Commercial Hotel'","lat":53.75202,"lon":-2.36444,"postcode":"BB5 2EN","la":"Hyndburn","era":"other","nn":91,"risk":27,"cat":"green"},{"name":"The Dog and Otter","lat":53.79235,"lon":-2.40994,"postcode":"BB6 7PG","la":"Hyndburn","era":"other","nn":651,"risk":31,"cat":"amber"},{"name":"The Forts Arms - Wet Sales Only","lat":53.77782,"lon":-2.39013,"postcode":"BB5 5TA","la":"Hyndburn","era":"trad","nn":110,"risk":27,"cat":"green"},{"name":"The Gamecock","lat":53.79944,"lon":-2.38775,"postcode":"BB6 7UH","la":"Hyndburn","era":"other","nn":860,"risk":52,"cat":"amber"},{"name":"The Grey Mare Inn","lat":53.71178,"lon":-2.40805,"postcode":"BB1 2PG","la":"Hyndburn","era":"trad","nn":2417,"risk":66,"cat":"red"},{"name":"The Hare & Hounds (Kitchen)","lat":53.7725,"lon":-2.38207,"postcode":"BB5 5HE","la":"Hyndburn","era":"other","nn":0,"risk":26,"cat":"green"},{"name":"'The Hyndburn Restaurant & Bar'","lat":53.78583,"lon":-2.38426,"postcode":"BB5 5SQ","la":"Hyndburn","era":"other","nn":676,"risk":33,"cat":"amber"},{"name":"The Knuzden Tap","lat":53.74649,"lon":-2.43569,"postcode":"BB1 2DQ","la":"Hyndburn","era":"mod","nn":701,"risk":49,"cat":"amber"},{"name":"The Plough","lat":53.7369,"lon":-2.38382,"postcode":"BB5 3RY","la":"Hyndburn","era":"trad","nn":421,"risk":34,"cat":"amber"},{"name":"The Plough Pub","lat":53.78603,"lon":-2.40346,"postcode":"BB6 7AL","la":"Hyndburn","era":"trad","nn":256,"risk":28,"cat":"green"},{"name":"The Poplar Club - Wet Sales Only","lat":53.75035,"lon":-2.36472,"postcode":"BB5 2NJ","la":"Hyndburn","era":"other","nn":187,"risk":27,"cat":"green"},{"name":"The Queens Hotel","lat":53.75272,"lon":-2.36054,"postcode":"BB5 6RQ","la":"Hyndburn","era":"trad","nn":84,"risk":27,"cat":"green"},{"name":"'The Railway'","lat":53.77352,"lon":-2.34428,"postcode":"BB5 6LS","la":"Hyndburn","era":"trad","nn":1312,"risk":58,"cat":"amber"},{"name":"The Stanhill Pub & Kitchen","lat":53.74481,"lon":-2.41598,"postcode":"BB5 4PS","la":"Hyndburn","era":"mod","nn":77,"risk":27,"cat":"green"},{"name":"The Stanley","lat":53.75368,"lon":-2.36798,"postcode":"BB5 1LL","la":"Hyndburn","era":"other","nn":87,"risk":27,"cat":"green"},{"name":"The Tavern","lat":53.78667,"lon":-2.40752,"postcode":"BB6 7NF","la":"Hyndburn","era":"other","nn":0,"risk":26,"cat":"green"},{"name":"The Vault- Wet Sales Only","lat":53.74163,"lon":-2.40017,"postcode":"BB5 3HS","la":"Hyndburn","era":"other","nn":212,"risk":28,"cat":"green"},{"name":"Thorn Inn","lat":53.75711,"lon":-2.39371,"postcode":"BB5 4JP","la":"Hyndburn","era":"trad","nn":1056,"risk":56,"cat":"amber"},{"name":"Tiger Lounge","lat":53.75205,"lon":-2.36112,"postcode":"BB5 1EH","la":"Hyndburn","era":"mod","nn":0,"risk":26,"cat":"green"},{"name":"Tiger Lounge","lat":53.74729,"lon":-2.39205,"postcode":"BB5 3DD","la":"Hyndburn","era":"mod","nn":267,"risk":28,"cat":"green"},{"name":"Tinker & Budget","lat":53.74373,"lon":-2.39577,"postcode":"BB5 3JB","la":"Hyndburn","era":"other","nn":80,"risk":27,"cat":"green"},{"name":"Tipsy Cow","lat":53.78667,"lon":-2.40752,"postcode":"BB6 7NF","la":"Hyndburn","era":"other","nn":0,"risk":26,"cat":"green"},{"name":"TJ's -The Juniper (Wet Sales Only)","lat":53.78577,"lon":-2.40855,"postcode":"BB6 7DE","la":"Hyndburn","era":"other","nn":54,"risk":27,"cat":"green"},{"name":"Town Hall","lat":53.75327,"lon":-2.36524,"postcode":"BB5 1LA","la":"Hyndburn","era":"other","nn":68,"risk":27,"cat":"green"},{"name":"Victoria Hotel","lat":53.74435,"lon":-2.35482,"postcode":"BB5 2NY","la":"Hyndburn","era":"trad","nn":702,"risk":31,"cat":"amber"},{"name":"Walton Arms","lat":53.79268,"lon":-2.34347,"postcode":"BB5 5UP","la":"Hyndburn","era":"trad","nn":1637,"risk":60,"cat":"amber"},{"name":"Warner Arms","lat":53.75205,"lon":-2.36306,"postcode":"BB5 1HN","la":"Hyndburn","era":"trad","nn":44,"risk":26,"cat":"green"},{"name":"West End Arms","lat":53.74517,"lon":-2.40641,"postcode":"BB5 4QG","la":"Hyndburn","era":"trad","nn":461,"risk":29,"cat":"green"},{"name":"Admiral Lord Rodney","lat":53.85365,"lon":-2.16608,"postcode":"BB8 0TA","la":"Pendle","era":"other","nn":397,"risk":29,"cat":"green"},{"name":"Alma Inn","lat":53.8666,"lon":-2.12744,"postcode":"BB8 7EG","la":"Pendle","era":"trad","nn":789,"risk":52,"cat":"amber"},{"name":"Anchor Inn","lat":53.90377,"lon":-2.17221,"postcode":"BB18 5TT","la":"Pendle","era":"trad","nn":1417,"risk":59,"cat":"amber"},{"name":"Barnoldswick Conservative Club","lat":53.91666,"lon":-2.18759,"postcode":"BB18 5NA","la":"Pendle","era":"other","nn":86,"risk":27,"cat":"green"},{"name":"Barnoldswick Cricket Club","lat":53.92126,"lon":-2.18867,"postcode":"BB18 5EN","la":"Pendle","era":"other","nn":516,"risk":30,"cat":"green"},{"name":"Barnoldswick Legion Club Ltd","lat":53.91534,"lon":-2.18812,"postcode":"BB18 5UW","la":"Pendle","era":"other","nn":68,"risk":27,"cat":"green"},{"name":"Barnoldswick WMC","lat":53.91623,"lon":-2.18937,"postcode":"BB18 5NX","la":"Pendle","era":"other","nn":65,"risk":27,"cat":"green"},{"name":"Barrowford Working Mens Club","lat":53.85441,"lon":-2.21459,"postcode":"BB9 6HL","la":"Pendle","era":"trad","nn":96,"risk":32,"cat":"amber"},{"name":"Beesknees Colne","lat":53.85691,"lon":-2.16893,"postcode":"BB8 0EB","la":"Pendle","era":"other","nn":52,"risk":27,"cat":"green"},{"name":"Black Lane Ends Tavern","lat":53.8793,"lon":-2.10854,"postcode":"BB8 7EP","la":"Pendle","era":"other","nn":1879,"risk":62,"cat":"red"},{"name":"Boyce's Barrel","lat":53.85712,"lon":-2.17162,"postcode":"BB8 9BJ","la":"Pendle","era":"other","nn":0,"risk":26,"cat":"green"},{"name":"Brierfield WMC","lat":53.82252,"lon":-2.23288,"postcode":"BB9 5AW","la":"Pendle","era":"other","nn":977,"risk":53,"cat":"amber"},{"name":"Browns","lat":53.91396,"lon":-2.18883,"postcode":"BB18 5NZ","la":"Pendle","era":"other","nn":159,"risk":27,"cat":"green"},{"name":"Burwain Sailing Club","lat":53.87343,"lon":-2.1827,"postcode":"BB8 7LJ","la":"Pendle","era":"other","nn":981,"risk":53,"cat":"amber"},{"name":"Cask 'N' Keg","lat":53.85712,"lon":-2.17162,"postcode":"BB8 9BJ","la":"Pendle","era":"other","nn":0,"risk":26,"cat":"green"},{"name":"Chalkers Snooker Club","lat":53.83768,"lon":-2.21406,"postcode":"BB9 7UU","la":"Pendle","era":"other","nn":123,"risk":27,"cat":"green"},{"name":"Colne Cricket Club","lat":53.8598,"lon":-2.15502,"postcode":"BB8 0RF","la":"Pendle","era":"other","nn":86,"risk":27,"cat":"green"},{"name":"Colne Legion Club","lat":53.85718,"lon":-2.16215,"postcode":"BB8 0JL","la":"Pendle","era":"other","nn":124,"risk":27,"cat":"green"},{"name":"Colne Tacklers Club","lat":53.85562,"lon":-2.17145,"postcode":"BB8 0SD","la":"Pendle","era":"other","nn":141,"risk":27,"cat":"green"},{"name":"Colne Warpdressers Club And Institute","lat":53.85518,"lon":-2.17402,"postcode":"BB8 0DJ","la":"Pendle","era":"other","nn":175,"risk":27,"cat":"green"},{"name":"Commercial Hotel","lat":53.85754,"lon":-2.16395,"postcode":"BB8 0NN","la":"Pendle","era":"other","nn":95,"risk":27,"cat":"green"},{"name":"Cotton Tree Inn","lat":53.85659,"lon":-2.14009,"postcode":"BB8 8DE","la":"Pendle","era":"trad","nn":988,"risk":53,"cat":"amber"},{"name":"Cross Keys","lat":53.91589,"lon":-2.18857,"postcode":"BB18 5UR","la":"Pendle","era":"trad","nn":0,"risk":26,"cat":"green"},{"name":"Earby Conservative Club","lat":53.91621,"lon":-2.14484,"postcode":"BB18 6UR","la":"Pendle","era":"other","nn":303,"risk":31,"cat":"amber"},{"name":"Earby Cricket Club","lat":53.91352,"lon":-2.1455,"postcode":"BB18 6NN","la":"Pendle","era":"other","nn":88,"risk":29,"cat":"green"},{"name":"Forest","lat":53.83079,"lon":-2.25985,"postcode":"BB12 9PA","la":"Pendle","era":"other","nn":389,"risk":46,"cat":"amber"},{"name":"Foulridge Social Club","lat":53.877,"lon":-2.16901,"postcode":"BB8 7PL","la":"Pendle","era":"mod","nn":175,"risk":32,"cat":"amber"},{"name":"Four Alls Inn","lat":53.82453,"lon":-2.29319,"postcode":"BB12 9EZ","la":"Pendle","era":"trad","nn":2296,"risk":65,"cat":"red"},{"name":"Hare And Hounds Inn","lat":53.87564,"lon":-2.16764,"postcode":"BB8 7PD","la":"Pendle","era":"trad","nn":0,"risk":44,"cat":"amber"},{"name":"KSC And Catholic Club","lat":53.8394,"lon":-2.21466,"postcode":"BB9 7NB","la":"Pendle","era":"other","nn":135,"risk":27,"cat":"green"},{"name":"Lamb Working Mens Club","lat":53.8522,"lon":-2.21687,"postcode":"BB9 6EE","la":"Pendle","era":"trad","nn":222,"risk":33,"cat":"amber"},{"name":"Lord Nelson","lat":53.83671,"lon":-2.21496,"postcode":"BB9 7EG","la":"Pendle","era":"trad","nn":123,"risk":27,"cat":"green"},{"name":"Market Street Tavern (Wet Sales Only)","lat":53.85701,"lon":-2.16816,"postcode":"BB8 0HR","la":"Pendle","era":"other","nn":52,"risk":27,"cat":"green"},{"name":"Masonic Hall","lat":53.85522,"lon":-2.17765,"postcode":"BB8 0BS","la":"Pendle","era":"trad","nn":0,"risk":26,"cat":"green"},{"name":"Morris Dancers","lat":53.86018,"lon":-2.15388,"postcode":"BB8 0BH","la":"Pendle","era":"other","nn":86,"risk":27,"cat":"green"},{"name":"Municipal Hall","lat":53.85573,"lon":-2.17697,"postcode":"BB8 0AE","la":"Pendle","era":"other","nn":72,"risk":27,"cat":"green"},{"name":"Nelson Carters And Motormens Club","lat":53.83834,"lon":-2.21004,"postcode":"BB9 9TN","la":"Pendle","era":"trad","nn":69,"risk":27,"cat":"green"},{"name":"Nelson Cricket Club","lat":53.84156,"lon":-2.22174,"postcode":"BB9 7TY","la":"Pendle","era":"trad","nn":111,"risk":27,"cat":"green"},{"name":"Nelson Old Brass Band Club","lat":53.83763,"lon":-2.20694,"postcode":"BB9 9ER","la":"Pendle","era":"trad","nn":219,"risk":28,"cat":"green"},{"name":"Nelson Poultry Club","lat":53.82606,"lon":-2.21926,"postcode":"BB9 0PS","la":"Pendle","era":"trad","nn":977,"risk":53,"cat":"amber"},{"name":"Nelson Warpdressers Club","lat":53.83833,"lon":-2.21565,"postcode":"BB9 7NY","la":"Pendle","era":"trad","nn":126,"risk":27,"cat":"green"},{"name":"New Inn","lat":53.87564,"lon":-2.16764,"postcode":"BB8 7PD","la":"Pendle","era":"trad","nn":0,"risk":44,"cat":"amber"},{"name":"Pendle Forest Sports Club","lat":53.83386,"lon":-2.25701,"postcode":"BB12 9QQ","la":"Pendle","era":"other","nn":389,"risk":46,"cat":"amber"},{"name":"Pendle Hippodrome Theatre","lat":53.85712,"lon":-2.17162,"postcode":"BB8 9BJ","la":"Pendle","era":"other","nn":0,"risk":26,"cat":"green"},{"name":"Revival Bar & Club","lat":53.83895,"lon":-2.21028,"postcode":"BB9 9TL","la":"Pendle","era":"mod","nn":69,"risk":27,"cat":"green"},{"name":"Rileys","lat":53.85546,"lon":-2.17818,"postcode":"BB8 0AG","la":"Pendle","era":"other","nn":44,"risk":27,"cat":"green"},{"name":"Rolls Royce Leisure","lat":53.92531,"lon":-2.17748,"postcode":"BB18 6HJ","la":"Pendle","era":"other","nn":860,"risk":52,"cat":"amber"},{"name":"Shaws Kitchen","lat":53.86745,"lon":-2.13938,"postcode":"BB8 7EB","la":"Pendle","era":"mod","nn":789,"risk":52,"cat":"amber"},{"name":"Short Homers Working Mens Club","lat":53.84181,"lon":-2.20753,"postcode":"BB9 7RJ","la":"Pendle","era":"trad","nn":366,"risk":29,"cat":"green"},{"name":"Spinning Mill","lat":53.84628,"lon":-2.19634,"postcode":"BB8 8LF","la":"Pendle","era":"trad","nn":887,"risk":52,"cat":"amber"},{"name":"St Georges Social Club","lat":53.83098,"lon":-2.20426,"postcode":"BB9 0JS","la":"Pendle","era":"other","nn":761,"risk":32,"cat":"amber"},{"name":"Station Hotel","lat":53.91321,"lon":-2.14673,"postcode":"BB18 6XL","la":"Pendle","era":"other","nn":88,"risk":29,"cat":"green"},{"name":"Station Hotel","lat":53.83544,"lon":-2.21483,"postcode":"BB9 9SB","la":"Pendle","era":"other","nn":141,"risk":27,"cat":"green"},{"name":"Thatch & Thistle","lat":53.84238,"lon":-2.22077,"postcode":"BB9 7TZ","la":"Pendle","era":"other","nn":111,"risk":27,"cat":"green"},{"name":"The Bankers Draft","lat":53.85355,"lon":-2.21437,"postcode":"BB9 6HQ","la":"Pendle","era":"other","nn":96,"risk":32,"cat":"amber"},{"name":"The Barlick Tap Ale House","lat":53.91589,"lon":-2.18755,"postcode":"BB18 5UQ","la":"Pendle","era":"mod","nn":67,"risk":27,"cat":"green"},{"name":"The Craven Heifer Inn","lat":53.89793,"lon":-2.15157,"postcode":"BB18 6TF","la":"Pendle","era":"trad","nn":1500,"risk":59,"cat":"amber"},{"name":"The Crown Hotel","lat":53.85516,"lon":-2.18016,"postcode":"BB8 0QD","la":"Pendle","era":"trad","nn":134,"risk":27,"cat":"green"},{"name":"The Duke Of Lancaster","lat":53.8567,"lon":-2.17031,"postcode":"BB8 0EB","la":"Pendle","era":"trad","nn":0,"risk":26,"cat":"green"},{"name":"The George And Dragon","lat":53.85459,"lon":-2.2109,"postcode":"BB9 6JD","la":"Pendle","era":"trad","nn":243,"risk":33,"cat":"amber"},{"name":"The Greyhound","lat":53.91273,"lon":-2.18759,"postcode":"BB18 5PW","la":"Pendle","era":"trad","nn":159,"risk":27,"cat":"green"},{"name":"The Jovial Hatters","lat":53.85801,"lon":-2.16895,"postcode":"BB8 9HZ","la":"Pendle","era":"other","nn":123,"risk":27,"cat":"green"},{"name":"The Pendle Inn","lat":53.85937,"lon":-2.2728,"postcode":"BB12 9JX","la":"Pendle","era":"trad","nn":2559,"risk":67,"cat":"red"},{"name":"The Punchbowl","lat":53.9207,"lon":-2.15046,"postcode":"BB18 6JJ","la":"Pendle","era":"other","nn":620,"risk":36,"cat":"amber"},{"name":"The Red Lion","lat":53.91718,"lon":-2.13617,"postcode":"BB18 6RD","la":"Pendle","era":"trad","nn":578,"risk":35,"cat":"amber"},{"name":"The Red Lion Hotel","lat":53.85742,"lon":-2.16725,"postcode":"BB8 0LJ","la":"Pendle","era":"trad","nn":76,"risk":27,"cat":"green"},{"name":"The Rising Sun","lat":53.86837,"lon":-2.21436,"postcode":"BB9 6LS","la":"Pendle","era":"other","nn":1548,"risk":60,"cat":"amber"},{"name":"The Tapsters Promise","lat":53.85712,"lon":-2.17162,"postcode":"BB8 9BJ","la":"Pendle","era":"mod","nn":0,"risk":26,"cat":"green"},{"name":"The Venue (Colne) Limited","lat":53.85522,"lon":-2.17765,"postcode":"BB8 0BS","la":"Pendle","era":"other","nn":0,"risk":26,"cat":"green"},{"name":"The Wallace Hartley","lat":53.8567,"lon":-2.17031,"postcode":"BB8 0EB","la":"Pendle","era":"trad","nn":0,"risk":26,"cat":"green"},{"name":"The White Swan Hotel","lat":53.8377,"lon":-2.25348,"postcode":"BB12 9QA","la":"Pendle","era":"trad","nn":486,"risk":35,"cat":"amber"},{"name":"Union Exchange","lat":53.85748,"lon":-2.16539,"postcode":"BB8 0LL","la":"Pendle","era":"other","nn":95,"risk":27,"cat":"green"},{"name":"Uptown","lat":53.91589,"lon":-2.18857,"postcode":"BB18 5UR","la":"Pendle","era":"other","nn":0,"risk":26,"cat":"green"},{"name":"Westfield Bowling Club","lat":53.8423,"lon":-2.21831,"postcode":"BB9 7UE","la":"Pendle","era":"other","nn":162,"risk":27,"cat":"green"},{"name":"White Lee Head Club","lat":53.84199,"lon":-2.13452,"postcode":"BB8 8SN","la":"Pendle","era":"trad","nn":1665,"risk":60,"cat":"amber"},{"name":"Ye Old Sparrowhawk","lat":53.84242,"lon":-2.24641,"postcode":"BB12 9QG","la":"Pendle","era":"other","nn":701,"risk":51,"cat":"amber"},{"name":"Abbey Club","lat":53.82073,"lon":-2.40546,"postcode":"BB7 9TD","la":"Ribble Valley","era":"trad","nn":43,"risk":25,"cat":"green"},{"name":"Assheton Arms","lat":53.89217,"lon":-2.32647,"postcode":"BB7 4BR","la":"Ribble Valley","era":"trad","nn":1788,"risk":60,"cat":"amber"},{"name":"Bay Horse","lat":53.78053,"lon":-2.53686,"postcode":"BB2 7HX","la":"Ribble Valley","era":"trad","nn":856,"risk":51,"cat":"amber"},{"name":"Bay Horse","lat":53.84211,"lon":-2.39933,"postcode":"BB7 9AZ","la":"Ribble Valley","era":"trad","nn":1318,"risk":57,"cat":"amber"},{"name":"Bayley Arms","lat":53.83865,"lon":-2.48086,"postcode":"BB7 9QB","la":"Ribble Valley","era":"trad","nn":143,"risk":44,"cat":"amber"},{"name":"Billington and Whalley Brass Band Club","lat":53.81827,"lon":-2.41139,"postcode":"BB7 9NS","la":"Ribble Valley","era":"other","nn":379,"risk":28,"cat":"green"},{"name":"Black Bull Inn","lat":53.89258,"lon":-2.35425,"postcode":"BB7 4AW","la":"Ribble Valley","era":"trad","nn":34,"risk":45,"cat":"amber"},{"name":"Broccoli Inc. @ The Conservative Club","lat":53.87197,"lon":-2.3921,"postcode":"BB7 2BT","la":"Ribble Valley","era":"other","nn":0,"risk":25,"cat":"green"},{"name":"Brown Cow","lat":53.86917,"lon":-2.39281,"postcode":"BB7 1AJ","la":"Ribble Valley","era":"other","nn":140,"risk":26,"cat":"green"},{"name":"Buck Inn","lat":53.8719,"lon":-2.39009,"postcode":"BB7 1AD","la":"Ribble Valley","era":"trad","nn":12,"risk":25,"cat":"green"},{"name":"Canberra Club at BAE Systems","lat":53.7781,"lon":-2.57741,"postcode":"BB2 7LF","la":"Ribble Valley","era":"other","nn":1990,"risk":62,"cat":"red"},{"name":"Clitheroe Cricket Club","lat":53.87845,"lon":-2.38374,"postcode":"BB7 2AS","la":"Ribble Valley","era":"other","nn":456,"risk":28,"cat":"green"},{"name":"Clitheroe Football Club","lat":53.87186,"lon":-2.38798,"postcode":"BB7 1LY","la":"Ribble Valley","era":"other","nn":139,"risk":26,"cat":"green"},{"name":"Clitheroe Rugby Union FC","lat":53.86484,"lon":-2.38974,"postcode":"BB7 1EW","la":"Ribble Valley","era":"other","nn":160,"risk":26,"cat":"green"},{"name":"Coach and Horses","lat":53.93992,"lon":-2.32942,"postcode":"BB7 4NW","la":"Ribble Valley","era":"trad","nn":3852,"risk":75,"cat":"red"},{"name":"Corto","lat":53.87332,"lon":-2.39276,"postcode":"BB7 2EU","la":"Ribble Valley","era":"other","nn":50,"risk":25,"cat":"green"},{"name":"De Lacy Arms","lat":53.82035,"lon":-2.40681,"postcode":"BB7 9SP","la":"Ribble Valley","era":"trad","nn":0,"risk":25,"cat":"green"},{"name":"Dog Inn","lat":53.82035,"lon":-2.40681,"postcode":"BB7 9SP","la":"Ribble Valley","era":"trad","nn":0,"risk":25,"cat":"green"},{"name":"Dunsop Bridge Working Men's Club","lat":53.94478,"lon":-2.51541,"postcode":"BB7 3BB","la":"Ribble Valley","era":"trad","nn":4391,"risk":78,"cat":"red"},{"name":"Edisford Bridge Country Pub","lat":53.86794,"lon":-2.42078,"postcode":"BB7 3LJ","la":"Ribble Valley","era":"other","nn":708,"risk":48,"cat":"amber"},{"name":"Feildens Arms","lat":53.77596,"lon":-2.54733,"postcode":"BB2 7PR","la":"Ribble Valley","era":"trad","nn":856,"risk":51,"cat":"amber"},{"name":"Hark to Bounty","lat":53.96727,"lon":-2.44315,"postcode":"BB7 3EP","la":"Ribble Valley","era":"other","nn":3534,"risk":72,"cat":"red"},{"name":"Higher Buck Inn","lat":53.89085,"lon":-2.41493,"postcode":"BB7 3HZ","la":"Ribble Valley","era":"trad","nn":101,"risk":31,"cat":"amber"},{"name":"Hobbit Hill","lat":53.83823,"lon":-2.45612,"postcode":"BB7 9PN","la":"Ribble Valley","era":"other","nn":1497,"risk":58,"cat":"amber"},{"name":"Hurst Green Football Club","lat":53.83991,"lon":-2.48043,"postcode":"BB7 9QA","la":"Ribble Valley","era":"other","nn":143,"risk":44,"cat":"amber"},{"name":"Key Street Ltd","lat":53.87183,"lon":-2.39021,"postcode":"BB7 1AD","la":"Ribble Valley","era":"other","nn":12,"risk":25,"cat":"green"},{"name":"Langho Football Club","lat":53.80266,"lon":-2.47246,"postcode":"BB6 8AF","la":"Ribble Valley","era":"other","nn":1401,"risk":57,"cat":"amber"},{"name":"Low Moor Club","lat":53.87053,"lon":-2.4106,"postcode":"BB7 2LS","la":"Ribble Valley","era":"other","nn":616,"risk":32,"cat":"amber"},{"name":"Lower Buck Inn","lat":53.88942,"lon":-2.41548,"postcode":"BB7 3HU","la":"Ribble Valley","era":"trad","nn":141,"risk":31,"cat":"amber"},{"name":"New Inn","lat":53.87189,"lon":-2.39356,"postcode":"BB7 2JN","la":"Ribble Valley","era":"trad","nn":54,"risk":26,"cat":"green"},{"name":"Read & Simonstone Constitutional Club","lat":53.80625,"lon":-2.35338,"postcode":"BB12 7PB","la":"Ribble Valley","era":"other","nn":207,"risk":44,"cat":"amber"},{"name":"Read Cricket Club","lat":53.80631,"lon":-2.35676,"postcode":"BB12 7PN","la":"Ribble Valley","era":"other","nn":222,"risk":44,"cat":"amber"},{"name":"Rendezvous Nightclub","lat":53.82094,"lon":-2.40492,"postcode":"BB7 9TD","la":"Ribble Valley","era":"other","nn":43,"risk":25,"cat":"green"},{"name":"Ribblesdale Wanderers","lat":53.8652,"lon":-2.39211,"postcode":"BB7 1HQ","la":"Ribble Valley","era":"other","nn":160,"risk":26,"cat":"green"},{"name":"Rimington Caravan Park","lat":53.91703,"lon":-2.26815,"postcode":"BB7 4EE","la":"Ribble Valley","era":"other","nn":931,"risk":52,"cat":"amber"},{"name":"Royal British Legion","lat":53.86724,"lon":-2.39323,"postcode":"BB7 1EE","la":"Ribble Valley","era":"trad","nn":216,"risk":27,"cat":"green"},{"name":"Sabden Bowling Club","lat":53.83091,"lon":-2.33822,"postcode":"BB7 9EQ","la":"Ribble Valley","era":"other","nn":210,"risk":44,"cat":"amber"},{"name":"Salesbury Cricket Club","lat":53.79736,"lon":-2.49182,"postcode":"BB1 9EQ","la":"Ribble Valley","era":"other","nn":734,"risk":50,"cat":"amber"},{"name":"Salvage House","lat":53.82136,"lon":-2.4068,"postcode":"BB7 9SP","la":"Ribble Valley","era":"other","nn":30,"risk":25,"cat":"green"},{"name":"Sauce Box","lat":53.87046,"lon":-2.39215,"postcode":"BB7 1BE","la":"Ribble Valley","era":"other","nn":0,"risk":25,"cat":"green"},{"name":"Shireburn Park Clubhouse","lat":53.87406,"lon":-2.41784,"postcode":"BB7 3LB","la":"Ribble Valley","era":"other","nn":616,"risk":47,"cat":"amber"},{"name":"So Bar","lat":53.87276,"lon":-2.39215,"postcode":"BB7 2EL","la":"Ribble Valley","era":"other","nn":40,"risk":25,"cat":"green"},{"name":"Solos","lat":53.87253,"lon":-2.38995,"postcode":"BB7 2DP","la":"Ribble Valley","era":"other","nn":0,"risk":25,"cat":"green"},{"name":"Spread Eagle","lat":53.77467,"lon":-2.50457,"postcode":"BB2 7EG","la":"Ribble Valley","era":"trad","nn":1158,"risk":56,"cat":"amber"},{"name":"St Peter's Catholic Club","lat":53.83758,"lon":-2.47892,"postcode":"BB7 9QH","la":"Ribble Valley","era":"other","nn":174,"risk":44,"cat":"amber"},{"name":"Station Lounge & Rooms","lat":53.87322,"lon":-2.39382,"postcode":"BB7 2EU","la":"Ribble Valley","era":"mod","nn":70,"risk":26,"cat":"green"},{"name":"Stork Hotel","lat":53.80685,"lon":-2.35039,"postcode":"BB12 7NZ","la":"Ribble Valley","era":"other","nn":207,"risk":44,"cat":"amber"},{"name":"Swan & Royal Hotel","lat":53.87188,"lon":-2.3916,"postcode":"BB7 2BX","la":"Ribble Valley","era":"trad","nn":34,"risk":25,"cat":"green"},{"name":"Swan With Two Necks","lat":53.85186,"lon":-2.37205,"postcode":"BB7 1PT","la":"Ribble Valley","era":"trad","nn":1761,"risk":60,"cat":"amber"},{"name":"The Ale House","lat":53.87259,"lon":-2.39074,"postcode":"BB7 2DA","la":"Ribble Valley","era":"other","nn":37,"risk":25,"cat":"green"},{"name":"The Aspinall Arms at Mitton","lat":53.84365,"lon":-2.43213,"postcode":"BB7 9PQ","la":"Ribble Valley","era":"trad","nn":1686,"risk":59,"cat":"amber"},{"name":"The Aviary","lat":53.82008,"lon":-2.40552,"postcode":"BB7 9TA","la":"Ribble Valley","era":"other","nn":72,"risk":26,"cat":"green"},{"name":"The Beer Shack","lat":53.87312,"lon":-2.39208,"postcode":"BB7 2EP","la":"Ribble Valley","era":"other","nn":40,"risk":25,"cat":"green"},{"name":"The Black Bull Hotel","lat":53.81755,"lon":-2.45528,"postcode":"BB6 8AW","la":"Ribble Valley","era":"trad","nn":2003,"risk":62,"cat":"red"},{"name":"The Bonny Inn","lat":53.79119,"lon":-2.48785,"postcode":"BB1 9HQ","la":"Ribble Valley","era":"trad","nn":734,"risk":35,"cat":"amber"},{"name":"The Brown Cow","lat":53.89249,"lon":-2.35375,"postcode":"BB7 4AW","la":"Ribble Valley","era":"other","nn":34,"risk":45,"cat":"amber"},{"name":"The Buck Country Pub","lat":53.9635,"lon":-2.25905,"postcode":"BB7 4JD","la":"Ribble Valley","era":"other","nn":3137,"risk":70,"cat":"red"},{"name":"The Calf's Head","lat":53.8798,"lon":-2.35278,"postcode":"BB7 1QA","la":"Ribble Valley","era":"trad","nn":1413,"risk":58,"cat":"amber"},{"name":"The Castle","lat":53.8722,"lon":-2.39419,"postcode":"BB7 2JT","la":"Ribble Valley","era":"other","nn":54,"risk":26,"cat":"green"},{"name":"The Dispensary","lat":53.87046,"lon":-2.39215,"postcode":"BB7 1BE","la":"Ribble Valley","era":"other","nn":0,"risk":25,"cat":"green"},{"name":"The Dog Music & Sports Bar","lat":53.8724,"lon":-2.39024,"postcode":"BB7 2DS","la":"Ribble Valley","era":"other","nn":23,"risk":25,"cat":"green"},{"name":"The Freemasons Arms At Wiswell","lat":53.83206,"lon":-2.38868,"postcode":"BB7 9DF","la":"Ribble Valley","era":"trad","nn":1132,"risk":56,"cat":"amber"},{"name":"The Grand","lat":53.87382,"lon":-2.38835,"postcode":"BB7 2DL","la":"Ribble Valley","era":"other","nn":178,"risk":26,"cat":"green"},{"name":"The Horse Shoe Inn","lat":53.87002,"lon":-2.39888,"postcode":"BB7 2LA","la":"Ribble Valley","era":"trad","nn":80,"risk":26,"cat":"green"},{"name":"The Kings Wine & Cocktail Bar","lat":53.8702,"lon":-2.40006,"postcode":"BB7 2LA","la":"Ribble Valley","era":"trad","nn":80,"risk":26,"cat":"green"},{"name":"The Lord Nelson","lat":53.7984,"lon":-2.44141,"postcode":"BB6 8DU","la":"Ribble Valley","era":"trad","nn":2094,"risk":62,"cat":"red"},{"name":"The Old School Rooms","lat":53.8702,"lon":-2.39158,"postcode":"BB7 1AG","la":"Ribble Valley","era":"mod","nn":47,"risk":25,"cat":"green"},{"name":"The Parkers Arms","lat":53.93575,"lon":-2.45011,"postcode":"BB7 3DL","la":"Ribble Valley","era":"trad","nn":3534,"risk":72,"cat":"red"},{"name":"The Parlour","lat":53.87252,"lon":-2.38995,"postcode":"BB7 2DP","la":"Ribble Valley","era":"mod","nn":0,"risk":25,"cat":"green"},{"name":"The Pendle Witch Hotel","lat":53.83278,"lon":-2.33862,"postcode":"BB7 9DZ","la":"Ribble Valley","era":"other","nn":139,"risk":44,"cat":"amber"},{"name":"The Red Pump Inn","lat":53.88394,"lon":-2.46424,"postcode":"BB7 3DA","la":"Ribble Valley","era":"trad","nn":3234,"risk":70,"cat":"red"},{"name":"The Ribble Valley Club","lat":53.80409,"lon":-2.51375,"postcode":"BB1 9EY","la":"Ribble Valley","era":"other","nn":1225,"risk":56,"cat":"amber"},{"name":"The Rose & Crown Hotel","lat":53.87197,"lon":-2.3921,"postcode":"BB7 2BT","la":"Ribble Valley","era":"trad","nn":0,"risk":25,"cat":"green"},{"name":"The Rum Fox","lat":53.91014,"lon":-2.35947,"postcode":"BB7 4QS","la":"Ribble Valley","era":"trad","nn":1982,"risk":61,"cat":"red"},{"name":"The Traders Arms","lat":53.77425,"lon":-2.5239,"postcode":"BB2 7EW","la":"Ribble Valley","era":"trad","nn":1101,"risk":55,"cat":"amber"},{"name":"The Whalley Wine Bar","lat":53.82163,"lon":-2.40689,"postcode":"BB7 9SW","la":"Ribble Valley","era":"other","nn":30,"risk":25,"cat":"green"},{"name":"The White Bull","lat":53.93535,"lon":-2.26205,"postcode":"BB7 4HE","la":"Ribble Valley","era":"trad","nn":1788,"risk":60,"cat":"amber"},{"name":"The Wilpshire Hotel","lat":53.78871,"lon":-2.47528,"postcode":"BB1 9LQ","la":"Ribble Valley","era":"other","nn":83,"risk":43,"cat":"amber"},{"name":"The Zone (Ribble Valley) Trinity Youth & Community Centre","lat":53.8711,"lon":-2.39498,"postcode":"BB7 2JY","la":"Ribble Valley","era":"other","nn":128,"risk":26,"cat":"green"},{"name":"Three Millstones","lat":53.89529,"lon":-2.39492,"postcode":"BB7 4SX","la":"Ribble Valley","era":"trad","nn":1360,"risk":57,"cat":"amber"},{"name":"Todber Caravan Park","lat":53.91985,"lon":-2.25477,"postcode":"BB7 4JJ","la":"Ribble Valley","era":"other","nn":931,"risk":52,"cat":"amber"},{"name":"Waddington Arms","lat":53.89022,"lon":-2.41382,"postcode":"BB7 3HP","la":"Ribble Valley","era":"trad","nn":101,"risk":31,"cat":"amber"},{"name":"Waddington Social and Bowling Club","lat":53.88876,"lon":-2.41288,"postcode":"BB7 3HW","la":"Ribble Valley","era":"mod","nn":174,"risk":31,"cat":"amber"},{"name":"Waggon & Horses Inn","lat":53.87623,"lon":-2.38959,"postcode":"BB7 2AG","la":"Ribble Valley","era":"trad","nn":280,"risk":27,"cat":"green"},{"name":"Wellsprings Inn","lat":53.84655,"lon":-2.34675,"postcode":"BB7 9HN","la":"Ribble Valley","era":"trad","nn":1621,"risk":59,"cat":"amber"},{"name":"Whalley Golf Club","lat":53.82224,"lon":-2.38412,"postcode":"BB7 9DR","la":"Ribble Valley","era":"other","nn":1132,"risk":56,"cat":"amber"},{"name":"Whalley Sports Club","lat":53.82601,"lon":-2.4123,"postcode":"BB7 9RX","la":"Ribble Valley","era":"other","nn":547,"risk":29,"cat":"green"},{"name":"Whalley Wine Shop","lat":53.82226,"lon":-2.4069,"postcode":"BB7 9SW","la":"Ribble Valley","era":"other","nn":70,"risk":26,"cat":"green"},{"name":"White Hart Inn","lat":53.83277,"lon":-2.3365,"postcode":"BB7 9EW","la":"Ribble Valley","era":"trad","nn":139,"risk":44,"cat":"amber"},{"name":"White Lion Hotel","lat":53.87278,"lon":-2.39121,"postcode":"BB7 2BZ","la":"Ribble Valley","era":"trad","nn":37,"risk":25,"cat":"green"},{"name":"Wilpshire Golf Club","lat":53.78853,"lon":-2.47405,"postcode":"BB1 9LF","la":"Ribble Valley","era":"other","nn":83,"risk":43,"cat":"amber"},{"name":"Black Bull Hotel","lat":53.70553,"lon":-2.32715,"postcode":"BB4 5QQ","la":"Rossendale","era":"trad","nn":160,"risk":28,"cat":"green"},{"name":"Blind Tiger","lat":53.70016,"lon":-2.28793,"postcode":"BB4 6AA","la":"Rossendale","era":"other","nn":7,"risk":27,"cat":"green"},{"name":"Boho","lat":53.70295,"lon":-2.28439,"postcode":"BB4 7QN","la":"Rossendale","era":"other","nn":81,"risk":28,"cat":"green"},{"name":"Casked Ale House & Ginporium","lat":53.70022,"lon":-2.28791,"postcode":"BB4 6AA","la":"Rossendale","era":"mod","nn":7,"risk":27,"cat":"green"},{"name":"Cloughfold Conservative Club","lat":53.69836,"lon":-2.26847,"postcode":"BB4 7LG","la":"Rossendale","era":"other","nn":585,"risk":51,"cat":"amber"},{"name":"Cpa Social Club","lat":53.74171,"lon":-2.28834,"postcode":"BB4 8QT","la":"Rossendale","era":"mod","nn":148,"risk":48,"cat":"amber"},{"name":"Greenfield Gardens Bowling Centre","lat":53.70291,"lon":-2.32508,"postcode":"BB4 4BE","la":"Rossendale","era":"other","nn":256,"risk":29,"cat":"green"},{"name":"Griffin Inn","lat":53.71095,"lon":-2.32392,"postcode":"BB4 5AF","la":"Rossendale","era":"trad","nn":417,"risk":30,"cat":"green"},{"name":"Haslingden Trades Club","lat":53.70694,"lon":-2.3267,"postcode":"BB4 5HQ","la":"Rossendale","era":"other","nn":160,"risk":28,"cat":"green"},{"name":"Holden Arms","lat":53.69938,"lon":-2.34004,"postcode":"BB4 4PD","la":"Rossendale","era":"trad","nn":904,"risk":53,"cat":"amber"},{"name":"Hop","lat":53.70391,"lon":-2.28538,"postcode":"BB4 8EG","la":"Rossendale","era":"other","nn":125,"risk":28,"cat":"green"},{"name":"Irish Democratic Club","lat":53.70721,"lon":-2.3242,"postcode":"BB4 5RX","la":"Rossendale","era":"other","nn":167,"risk":28,"cat":"green"},{"name":"Loveclough Working Mens Social Club","lat":53.74055,"lon":-2.28725,"postcode":"BB4 8QX","la":"Rossendale","era":"other","nn":148,"risk":48,"cat":"amber"},{"name":"Newchurch & Dist.Conservative","lat":53.69314,"lon":-2.2532,"postcode":"BB4 9AF","la":"Rossendale","era":"other","nn":178,"risk":28,"cat":"green"},{"name":"Northern Whisper Brewing Co. Ltd","lat":53.7042,"lon":-2.28203,"postcode":"BB4 7QX","la":"Rossendale","era":"mod","nn":208,"risk":29,"cat":"green"},{"name":"Palatine Club","lat":53.69248,"lon":-2.25567,"postcode":"BB4 7HB","la":"Rossendale","era":"other","nn":178,"risk":28,"cat":"green"},{"name":"RAOB Club And Institute","lat":53.7042,"lon":-2.25033,"postcode":"BB4 9JR","la":"Rossendale","era":"other","nn":1,"risk":45,"cat":"amber"},{"name":"Rawtenstall Conservative Club","lat":53.70223,"lon":-2.2846,"postcode":"BB4 7QT","la":"Rossendale","era":"other","nn":81,"risk":28,"cat":"green"},{"name":"Rawtenstall Cricket Club","lat":53.69196,"lon":-2.25015,"postcode":"BB4 7AW","la":"Rossendale","era":"other","nn":26,"risk":27,"cat":"green"},{"name":"Rose And Crown","lat":53.69684,"lon":-2.3177,"postcode":"BB4 6PU","la":"Rossendale","era":"trad","nn":509,"risk":36,"cat":"amber"},{"name":"Rossendale Sports Club","lat":53.70272,"lon":-2.27342,"postcode":"BB4 7SN","la":"Rossendale","era":"other","nn":585,"risk":31,"cat":"amber"},{"name":"Shepherd's Inn","lat":53.69915,"lon":-2.29833,"postcode":"BB4 6RE","la":"Rossendale","era":"trad","nn":638,"risk":32,"cat":"amber"},{"name":"St Marys Football Club","lat":53.70458,"lon":-2.32948,"postcode":"BB4 5DX","la":"Rossendale","era":"other","nn":186,"risk":28,"cat":"green"},{"name":"Station Hotel","lat":53.68805,"lon":-2.32962,"postcode":"BB4 4JR","la":"Rossendale","era":"other","nn":361,"risk":47,"cat":"amber"},{"name":"Sunnybank Social Club","lat":53.68493,"lon":-2.33117,"postcode":"BB4 4LQ","la":"Rossendale","era":"mod","nn":361,"risk":47,"cat":"amber"},{"name":"The Bees Knees","lat":53.70086,"lon":-2.28568,"postcode":"BB4 7ND","la":"Rossendale","era":"other","nn":155,"risk":28,"cat":"green"},{"name":"The Black Dog","lat":53.72363,"lon":-2.28791,"postcode":"BB4 8NE","la":"Rossendale","era":"other","nn":66,"risk":48,"cat":"amber"},{"name":"The Boars Head","lat":53.69753,"lon":-2.25326,"postcode":"BB4 9EH","la":"Rossendale","era":"trad","nn":488,"risk":30,"cat":"green"},{"name":"The Commercial Hotel","lat":53.72657,"lon":-2.24295,"postcode":"BB4 9PX","la":"Rossendale","era":"other","nn":875,"risk":53,"cat":"amber"},{"name":"The Green Squirrel","lat":53.70201,"lon":-2.32149,"postcode":"BB4 6NP","la":"Rossendale","era":"other","nn":256,"risk":29,"cat":"green"},{"name":"The Guzzling Pig","lat":53.70144,"lon":-2.28353,"postcode":"BB4 7LS","la":"Rossendale","era":"other","nn":112,"risk":28,"cat":"green"},{"name":"The Hargreaves Arms Pub & Restaurant","lat":53.71928,"lon":-2.24796,"postcode":"BB4 9PQ","la":"Rossendale","era":"trad","nn":875,"risk":53,"cat":"amber"},{"name":"The Robin Hood Inn","lat":53.68945,"lon":-2.33818,"postcode":"BB4 4NP","la":"Rossendale","era":"trad","nn":584,"risk":49,"cat":"amber"},{"name":"The Roebuck","lat":53.70419,"lon":-2.25031,"postcode":"BB4 9JR","la":"Rossendale","era":"other","nn":1,"risk":45,"cat":"amber"},{"name":"The Woolpack","lat":53.69343,"lon":-2.31255,"postcode":"BB4 6LN","la":"Rossendale","era":"trad","nn":509,"risk":48,"cat":"amber"},{"name":"Thyme Wine And Cocktail Bar","lat":53.72414,"lon":-2.2874,"postcode":"BB4 8AJ","la":"Rossendale","era":"other","nn":66,"risk":48,"cat":"amber"},{"name":"Tiki Tiger","lat":53.69959,"lon":-2.28867,"postcode":"BB4 6AA","la":"Rossendale","era":"other","nn":80,"risk":28,"cat":"green"},{"name":"Waterfoot Social Club","lat":53.69209,"lon":-2.24982,"postcode":"BB4 7AY","la":"Rossendale","era":"mod","nn":26,"risk":27,"cat":"green"},{"name":"Whitchaff Inn","lat":53.69271,"lon":-2.29848,"postcode":"BB4 6EH","la":"Rossendale","era":"trad","nn":716,"risk":50,"cat":"amber"},{"name":"Ye Olde Boot & Shoe Inn","lat":53.69358,"lon":-2.2494,"postcode":"BB4 7AU","la":"Rossendale","era":"trad","nn":168,"risk":28,"cat":"green"}]