[{"name":"Admiral Casino","lat":51.63058,"lon":-0.75301,"postcode":"HP11 2DG","la":"Buckinghamshire","era":"other","nn":104,"risk":18,"cat":"green"},{"name":"Anglers Retreat","lat":51.81825,"lon":-0.66769,"postcode":"HP23 4LJ","la":"Buckinghamshire","era":"other","nn":558,"risk":41,"cat":"amber"},{"name":"Aristocrat","lat":51.81074,"lon":-0.80591,"postcode":"HP21 7SZ","la":"Buckinghamshire","era":"other","nn":107,"risk":18,"cat":"green"},{"name":"Aston Clinton Football Club","lat":51.7997,"lon":-0.72419,"postcode":"HP22 5HL","la":"Buckinghamshire","era":"other","nn":177,"risk":21,"cat":"green"},{"name":"Aylesbury Canal Society","lat":51.81895,"lon":-0.80662,"postcode":"HP20 1AP","la":"Buckinghamshire","era":"mod","nn":101,"risk":18,"cat":"green"},{"name":"Aylesbury Football Club","lat":51.8305,"lon":-0.84303,"postcode":"HP19 9WZ","la":"Buckinghamshire","era":"other","nn":312,"risk":37,"cat":"amber"},{"name":"Aylesbury Literary Club","lat":51.8165,"lon":-0.81397,"postcode":"HP20 2RN","la":"Buckinghamshire","era":"other","nn":0,"risk":17,"cat":"green"},{"name":"Aylesbury Rugby Football Club","lat":51.79433,"lon":-0.74906,"postcode":"HP22 5RN","la":"Buckinghamshire","era":"other","nn":904,"risk":41,"cat":"amber"},{"name":"Aylesbury Town Bowls Club","lat":51.80716,"lon":-0.79858,"postcode":"HP21 9NJ","la":"Buckinghamshire","era":"other","nn":0,"risk":17,"cat":"green"},{"name":"Bar Noosh / The Club","lat":51.81665,"lon":-0.81162,"postcode":"HP20 1ST","la":"Buckinghamshire","era":"mod","nn":67,"risk":18,"cat":"green"},{"name":"Beaconsfield Arms Public House","lat":51.6437,"lon":-0.75059,"postcode":"HP13 5PB","la":"Buckinghamshire","era":"trad","nn":869,"risk":41,"cat":"amber"},{"name":"Beaconsfield Golf Club","lat":51.60965,"lon":-0.60876,"postcode":"HP9 2UR","la":"Buckinghamshire","era":"other","nn":937,"risk":44,"cat":"amber"},{"name":"Bel & Dragon at the Red Lion","lat":51.7623,"lon":-0.74281,"postcode":"HP22 6DU","la":"Buckinghamshire","era":"trad","nn":20,"risk":18,"cat":"green"},{"name":"Belle Vue PH","lat":51.62837,"lon":-0.73937,"postcode":"HP13 6EQ","la":"Buckinghamshire","era":"other","nn":114,"risk":18,"cat":"green"},{"name":"Bledlow Cricket Club","lat":51.71539,"lon":-0.88126,"postcode":"HP27 9PF","la":"Buckinghamshire","era":"other","nn":491,"risk":41,"cat":"amber"},{"name":"Boot and Slipper","lat":51.6798,"lon":-0.60793,"postcode":"HP6 5JN","la":"Buckinghamshire","era":"other","nn":255,"risk":37,"cat":"amber"},{"name":"Bradenham Cricket Club","lat":51.66639,"lon":-0.80741,"postcode":"HP14 4HF","la":"Buckinghamshire","era":"other","nn":1461,"risk":50,"cat":"amber"},{"name":"BRCC BBQ","lat":51.66726,"lon":-0.83961,"postcode":"HP14 4AA","la":"Buckinghamshire","era":"other","nn":1410,"risk":50,"cat":"amber"},{"name":"Bricklayers Arms","lat":51.64896,"lon":-0.77526,"postcode":"HP13 5XJ","la":"Buckinghamshire","era":"trad","nn":672,"risk":42,"cat":"amber"},{"name":"Brill Sports & Social Club","lat":51.81885,"lon":-1.05058,"postcode":"HP18 9RT","la":"Buckinghamshire","era":"mod","nn":0,"risk":35,"cat":"amber"},{"name":"Browns Beaconsfield","lat":51.60291,"lon":-0.63777,"postcode":"HP9 1LW","la":"Buckinghamshire","era":"other","nn":36,"risk":20,"cat":"green"},{"name":"Buckinghamshire Yeoman","lat":51.80589,"lon":-0.78576,"postcode":"HP21 7UD","la":"Buckinghamshire","era":"trad","nn":892,"risk":29,"cat":"green"},{"name":"Butlers","lat":51.63154,"lon":-0.75307,"postcode":"HP13 5DQ","la":"Buckinghamshire","era":"other","nn":4,"risk":17,"cat":"green"},{"name":"Chequers Tree Public House","lat":51.69997,"lon":-0.74177,"postcode":"HP16 9HD","la":"Buckinghamshire","era":"other","nn":1569,"risk":51,"cat":"amber"},{"name":"Chess Vale Bowling Club","lat":51.71815,"lon":-0.62268,"postcode":"HP5 2PZ","la":"Buckinghamshire","era":"other","nn":580,"risk":42,"cat":"amber"},{"name":"Craftyard","lat":51.76222,"lon":-0.74254,"postcode":"HP22 6DU","la":"Buckinghamshire","era":"mod","nn":20,"risk":18,"cat":"green"},{"name":"Craftyard","lat":51.81474,"lon":-0.81092,"postcode":"HP20 1TZ","la":"Buckinghamshire","era":"mod","nn":83,"risk":18,"cat":"green"},{"name":"Cressex Community Centre","lat":51.6162,"lon":-0.78145,"postcode":"HP12 4PZ","la":"Buckinghamshire","era":"other","nn":406,"risk":38,"cat":"amber"},{"name":"Crown Inn","lat":51.63161,"lon":-0.67713,"postcode":"HP10 8NY","la":"Buckinghamshire","era":"trad","nn":1016,"risk":47,"cat":"amber"},{"name":"Crow's Nest Beefeater & Tring Premier Inn","lat":51.79288,"lon":-0.69094,"postcode":"HP23 4LD","la":"Buckinghamshire","era":"trad","nn":1571,"risk":51,"cat":"amber"},{"name":"David Lloyd Leisure","lat":51.5937,"lon":-0.68116,"postcode":"HP10 0BU","la":"Buckinghamshire","era":"other","nn":637,"risk":24,"cat":"green"},{"name":"Dolphin Eye","lat":51.64004,"lon":-0.72184,"postcode":"HP13 7PZ","la":"Buckinghamshire","era":"other","nn":788,"risk":43,"cat":"amber"},{"name":"Drop WIne","lat":51.66632,"lon":-0.61486,"postcode":"HP7 0HL","la":"Buckinghamshire","era":"other","nn":188,"risk":19,"cat":"green"},{"name":"Ego @ The Pomeroy","lat":51.67059,"lon":-0.58216,"postcode":"HP7 9JY","la":"Buckinghamshire","era":"other","nn":319,"risk":37,"cat":"amber"},{"name":"Elephant and Castle","lat":51.66723,"lon":-0.61921,"postcode":"HP7 0DT","la":"Buckinghamshire","era":"other","nn":87,"risk":18,"cat":"green"},{"name":"Ellesborough Golf Club","lat":51.75506,"lon":-0.77166,"postcode":"HP17 0TZ","la":"Buckinghamshire","era":"other","nn":610,"risk":42,"cat":"amber"},{"name":"Emperor's Lounge","lat":51.81781,"lon":-0.81261,"postcode":"HP20 2LA","la":"Buckinghamshire","era":"mod","nn":54,"risk":18,"cat":"green"},{"name":"Feathers","lat":51.63173,"lon":-0.57061,"postcode":"HP8 4QQ","la":"Buckinghamshire","era":"other","nn":110,"risk":36,"cat":"amber"},{"name":"Feel Lounge UK","lat":51.62929,"lon":-0.75036,"postcode":"HP11 2AZ","la":"Buckinghamshire","era":"mod","nn":20,"risk":18,"cat":"green"},{"name":"Flackwell Heath Football Club","lat":51.60364,"lon":-0.71313,"postcode":"HP10 9EA","la":"Buckinghamshire","era":"other","nn":394,"risk":20,"cat":"green"},{"name":"Flackwell Heath Golf Club","lat":51.60253,"lon":-0.70552,"postcode":"HP10 9PE","la":"Buckinghamshire","era":"other","nn":151,"risk":19,"cat":"green"},{"name":"Fleur De Lis","lat":51.65933,"lon":-0.90265,"postcode":"HP14 3TZ","la":"Buckinghamshire","era":"other","nn":234,"risk":39,"cat":"amber"},{"name":"Foxhill Indoor Bowls Club","lat":51.80716,"lon":-0.79858,"postcode":"HP21 9NJ","la":"Buckinghamshire","era":"trad","nn":0,"risk":17,"cat":"green"},{"name":"Full Moon","lat":51.7528,"lon":-0.64347,"postcode":"HP5 2UH","la":"Buckinghamshire","era":"other","nn":1891,"risk":53,"cat":"amber"},{"name":"Grays Inn","lat":51.58717,"lon":-0.68331,"postcode":"HP10 0EJ","la":"Buckinghamshire","era":"trad","nn":115,"risk":18,"cat":"green"},{"name":"Great Kingshill Cricket Club","lat":51.67354,"lon":-0.73151,"postcode":"HP15 6EZ","la":"Buckinghamshire","era":"trad","nn":1049,"risk":47,"cat":"amber"},{"name":"Haddenham Sports & Social Club","lat":51.77359,"lon":-0.92313,"postcode":"HP17 8DS","la":"Buckinghamshire","era":"mod","nn":468,"risk":38,"cat":"amber"},{"name":"Hampden Arms","lat":51.70665,"lon":-0.77643,"postcode":"HP16 9RQ","la":"Buckinghamshire","era":"trad","nn":1968,"risk":54,"cat":"amber"},{"name":"Harte and Magpies","lat":51.6393,"lon":-0.62423,"postcode":"HP7 0LU","la":"Buckinghamshire","era":"trad","nn":931,"risk":44,"cat":"amber"},{"name":"Harvester","lat":51.82362,"lon":-0.83583,"postcode":"HP19 8BU","la":"Buckinghamshire","era":"trad","nn":253,"risk":19,"cat":"green"},{"name":"Harvester At The Blacksmiths Arms","lat":51.60848,"lon":-0.77123,"postcode":"HP10 9QD","la":"Buckinghamshire","era":"trad","nn":1111,"risk":48,"cat":"amber"},{"name":"Hazells Bowls Club","lat":51.81641,"lon":-0.79356,"postcode":"HP20 1JF","la":"Buckinghamshire","era":"other","nn":472,"risk":23,"cat":"green"},{"name":"Hazlemere Golf And Country Club","lat":51.65138,"lon":-0.70893,"postcode":"HP15 7LR","la":"Buckinghamshire","era":"other","nn":221,"risk":22,"cat":"green"},{"name":"High Wycombe Bowling Club","lat":51.62273,"lon":-0.73242,"postcode":"HP11 1DJ","la":"Buckinghamshire","era":"other","nn":103,"risk":18,"cat":"green"},{"name":"High Wycombe Cricket Club","lat":51.62501,"lon":-0.73574,"postcode":"HP11 1DE","la":"Buckinghamshire","era":"other","nn":242,"risk":19,"cat":"green"},{"name":"High Wycombe Judo Centre","lat":51.61632,"lon":-0.78733,"postcode":"HP12 4UE","la":"Buckinghamshire","era":"other","nn":406,"risk":38,"cat":"amber"},{"name":"High Wycombe Lawn Tennis Club","lat":51.62326,"lon":-0.73365,"postcode":"HP11 1QU","la":"Buckinghamshire","era":"other","nn":103,"risk":18,"cat":"green"},{"name":"High Wycombe Rugby Union Football Club","lat":51.61327,"lon":-0.71316,"postcode":"HP11 1JB","la":"Buckinghamshire","era":"other","nn":275,"risk":19,"cat":"green"},{"name":"Holmer Green Royal British Legion Club","lat":51.66795,"lon":-0.69952,"postcode":"HP15 6UR","la":"Buckinghamshire","era":"trad","nn":682,"risk":40,"cat":"amber"},{"name":"Honey Bee","lat":51.81791,"lon":-0.83941,"postcode":"HP19 7AA","la":"Buckinghamshire","era":"other","nn":0,"risk":22,"cat":"green"},{"name":"Horse & Jockey","lat":51.82783,"lon":-0.81514,"postcode":"HP19 9QL","la":"Buckinghamshire","era":"trad","nn":409,"risk":23,"cat":"green"},{"name":"King Charles","lat":51.7386,"lon":-0.58574,"postcode":"HP5 3PR","la":"Buckinghamshire","era":"trad","nn":99,"risk":38,"cat":"amber"},{"name":"King George V","lat":51.61534,"lon":-0.71098,"postcode":"HP11 1HE","la":"Buckinghamshire","era":"trad","nn":275,"risk":19,"cat":"green"},{"name":"Le De Spencer Arms","lat":51.65493,"lon":-0.77372,"postcode":"HP13 5YQ","la":"Buckinghamshire","era":"trad","nn":672,"risk":42,"cat":"amber"},{"name":"Liberal Club","lat":51.62745,"lon":-0.75017,"postcode":"HP11 1BG","la":"Buckinghamshire","era":"other","nn":130,"risk":18,"cat":"green"},{"name":"Long Crendon Bowls Club","lat":51.77339,"lon":-0.99403,"postcode":"HP18 9AF","la":"Buckinghamshire","era":"other","nn":97,"risk":36,"cat":"amber"},{"name":"Mad Squirrel Tap & Bottle Shop","lat":51.67839,"lon":-0.60501,"postcode":"HP6 5EN","la":"Buckinghamshire","era":"mod","nn":255,"risk":37,"cat":"amber"},{"name":"Magnolia Park Sports & Social Club","lat":51.65089,"lon":-0.75552,"postcode":"HP14 4LA","la":"Buckinghamshire","era":"mod","nn":869,"risk":44,"cat":"amber"},{"name":"Masonic Hall & Aroma Catering","lat":51.8188,"lon":-0.81569,"postcode":"HP20 2JP","la":"Buckinghamshire","era":"trad","nn":163,"risk":19,"cat":"green"},{"name":"Mendoza","lat":51.81686,"lon":-0.81029,"postcode":"HP20 1SF","la":"Buckinghamshire","era":"other","nn":61,"risk":18,"cat":"green"},{"name":"Merlins Cave","lat":51.63235,"lon":-0.56936,"postcode":"HP8 4QF","la":"Buckinghamshire","era":"other","nn":110,"risk":38,"cat":"amber"},{"name":"Miller & Carter Aylesbury","lat":51.83128,"lon":-0.85987,"postcode":"HP18 0PE","la":"Buckinghamshire","era":"trad","nn":1161,"risk":48,"cat":"amber"},{"name":"Miller \\\\& Carter Beaconsfield","lat":51.59994,"lon":-0.67158,"postcode":"HP9 1UD","la":"Buckinghamshire","era":"trad","nn":959,"risk":44,"cat":"amber"},{"name":"Mirage","lat":51.81849,"lon":-0.81337,"postcode":"HP20 2NQ","la":"Buckinghamshire","era":"other","nn":92,"risk":18,"cat":"green"},{"name":"Niche","lat":51.81665,"lon":-0.81318,"postcode":"HP20 1TA","la":"Buckinghamshire","era":"other","nn":31,"risk":18,"cat":"green"},{"name":"Nuffield Well Being","lat":51.81791,"lon":-0.8394,"postcode":"HP19 7AA","la":"Buckinghamshire","era":"other","nn":0,"risk":22,"cat":"green"},{"name":"Old Millwright Arms","lat":51.81335,"lon":-0.80385,"postcode":"HP21 7SN","la":"Buckinghamshire","era":"trad","nn":279,"risk":19,"cat":"green"},{"name":"O'Neills","lat":51.62875,"lon":-0.75166,"postcode":"HP11 2HQ","la":"Buckinghamshire","era":"other","nn":2,"risk":17,"cat":"green"},{"name":"Papermill","lat":51.60874,"lon":-0.69565,"postcode":"HP10 9YH","la":"Buckinghamshire","era":"trad","nn":970,"risk":42,"cat":"amber"},{"name":"Polish Ex-servicemen's Club","lat":51.67451,"lon":-0.58713,"postcode":"HP6 6LX","la":"Buckinghamshire","era":"other","nn":554,"risk":39,"cat":"amber"},{"name":"Princes Risborough Cricket Club","lat":51.71616,"lon":-0.84527,"postcode":"HP27 9NE","la":"Buckinghamshire","era":"trad","nn":0,"risk":35,"cat":"amber"},{"name":"Princes Risborough Golf Club","lat":51.70104,"lon":-0.84835,"postcode":"HP27 9NX","la":"Buckinghamshire","era":"trad","nn":1694,"risk":52,"cat":"amber"},{"name":"RAF Association Club","lat":51.62938,"lon":-0.73911,"postcode":"HP13 6EX","la":"Buckinghamshire","era":"other","nn":114,"risk":18,"cat":"green"},{"name":"Raging Ball","lat":51.62931,"lon":-0.74882,"postcode":"HP13 6TQ","la":"Buckinghamshire","era":"other","nn":105,"risk":18,"cat":"green"},{"name":"Rifle Butts Public House","lat":51.62139,"lon":-0.72199,"postcode":"HP11 1EL","la":"Buckinghamshire","era":"other","nn":290,"risk":19,"cat":"green"},{"name":"Risborough Rangers Football Club","lat":51.71616,"lon":-0.84527,"postcode":"HP27 9NE","la":"Buckinghamshire","era":"other","nn":0,"risk":35,"cat":"amber"},{"name":"Rivets Sports & Social Club","lat":51.80683,"lon":-0.80907,"postcode":"HP21 8JL","la":"Buckinghamshire","era":"mod","nn":486,"risk":21,"cat":"green"},{"name":"Royal British Legion","lat":51.61996,"lon":-0.7168,"postcode":"HP13 7DE","la":"Buckinghamshire","era":"trad","nn":375,"risk":20,"cat":"green"},{"name":"Royal British Legion","lat":51.65127,"lon":-0.71213,"postcode":"HP15 7LN","la":"Buckinghamshire","era":"trad","nn":202,"risk":21,"cat":"green"},{"name":"Royal British Legion","lat":51.60154,"lon":-0.70854,"postcode":"HP10 9NS","la":"Buckinghamshire","era":"trad","nn":93,"risk":18,"cat":"green"},{"name":"Royal British Legion Chesham Club Ltd","lat":51.7045,"lon":-0.61161,"postcode":"HP5 1DG","la":"Buckinghamshire","era":"trad","nn":108,"risk":18,"cat":"green"},{"name":"Royal Saracens Head Hotel","lat":51.60187,"lon":-0.63476,"postcode":"HP9 2JH","la":"Buckinghamshire","era":"trad","nn":131,"risk":21,"cat":"green"},{"name":"Royal Standard","lat":51.5772,"lon":-0.66681,"postcode":"HP10 0JS","la":"Buckinghamshire","era":"trad","nn":1482,"risk":50,"cat":"amber"},{"name":"Shoot Pool & Snooker","lat":51.8171,"lon":-0.8095,"postcode":"HP20 1SA","la":"Buckinghamshire","era":"other","nn":61,"risk":18,"cat":"green"},{"name":"Shoulder Of Mutton","lat":51.76141,"lon":-0.7455,"postcode":"HP22 6EJ","la":"Buckinghamshire","era":"other","nn":142,"risk":18,"cat":"green"},{"name":"Snug Bars - High Wycombe","lat":51.62867,"lon":-0.75114,"postcode":"HP11 2HF","la":"Buckinghamshire","era":"other","nn":36,"risk":18,"cat":"green"},{"name":"Sosh Club","lat":51.63151,"lon":-0.75308,"postcode":"HP13 5DQ","la":"Buckinghamshire","era":"other","nn":4,"risk":17,"cat":"green"},{"name":"St John's Sports & Social Club","lat":51.80283,"lon":-0.87379,"postcode":"HP17 8PT","la":"Buckinghamshire","era":"mod","nn":1782,"risk":52,"cat":"amber"},{"name":"Stealth Martial Arts","lat":51.69896,"lon":-0.61164,"postcode":"HP5 1NE","la":"Buckinghamshire","era":"other","nn":472,"risk":21,"cat":"green"},{"name":"Stokenchurch Memorial Hall Social Club","lat":51.66069,"lon":-0.90525,"postcode":"HP14 3SX","la":"Buckinghamshire","era":"mod","nn":234,"risk":39,"cat":"amber"},{"name":"The Akeman Inn","lat":51.86416,"lon":-0.9939,"postcode":"HP18 0QJ","la":"Buckinghamshire","era":"trad","nn":1982,"risk":54,"cat":"amber"},{"name":"The Antelope","lat":51.62946,"lon":-0.75048,"postcode":"HP11 2BN","la":"Buckinghamshire","era":"other","nn":20,"risk":18,"cat":"green"},{"name":"The Bat and Ball","lat":51.66865,"lon":-0.68951,"postcode":"HP15 6XW","la":"Buckinghamshire","era":"other","nn":586,"risk":39,"cat":"amber"},{"name":"The Beech House","lat":51.67589,"lon":-0.60798,"postcode":"HP6 5BW","la":"Buckinghamshire","era":"other","nn":345,"risk":37,"cat":"amber"},{"name":"The Beech Tree","lat":51.64632,"lon":-0.72714,"postcode":"HP13 5AJ","la":"Buckinghamshire","era":"other","nn":696,"risk":27,"cat":"green"},{"name":"The Bell","lat":51.78826,"lon":-0.79709,"postcode":"HP22 5XA","la":"Buckinghamshire","era":"other","nn":697,"risk":40,"cat":"amber"},{"name":"The Bell","lat":51.79956,"lon":-0.72163,"postcode":"HP22 5HP","la":"Buckinghamshire","era":"other","nn":177,"risk":24,"cat":"green"},{"name":"The Bell","lat":51.78926,"lon":-0.96119,"postcode":"HP18 0DJ","la":"Buckinghamshire","era":"other","nn":2187,"risk":55,"cat":"amber"},{"name":"The Bell Hotel","lat":51.81548,"lon":-0.81232,"postcode":"HP20 1TX","la":"Buckinghamshire","era":"other","nn":94,"risk":18,"cat":"green"},{"name":"The Bell Public House","lat":51.72185,"lon":-0.83305,"postcode":"HP27 0DE","la":"Buckinghamshire","era":"other","nn":304,"risk":37,"cat":"amber"},{"name":"The Belmont Club","lat":51.71902,"lon":-0.61437,"postcode":"HP5 2DF","la":"Buckinghamshire","era":"trad","nn":580,"risk":42,"cat":"amber"},{"name":"The Bird In Hand","lat":51.71809,"lon":-0.84067,"postcode":"HP27 9DE","la":"Buckinghamshire","era":"other","nn":383,"risk":23,"cat":"green"},{"name":"The Black Boy","lat":51.88477,"lon":-0.86494,"postcode":"HP22 4HN","la":"Buckinghamshire","era":"other","nn":1634,"risk":51,"cat":"amber"},{"name":"The Black Horse","lat":51.71032,"lon":-0.7124,"postcode":"HP16 9AX","la":"Buckinghamshire","era":"trad","nn":1055,"risk":47,"cat":"amber"},{"name":"The Black Horse Public House","lat":51.69441,"lon":-0.81019,"postcode":"HP27 0QU","la":"Buckinghamshire","era":"trad","nn":1760,"risk":52,"cat":"amber"},{"name":"The Black Lion Public House","lat":51.67007,"lon":-0.78455,"postcode":"HP14 4SH","la":"Buckinghamshire","era":"trad","nn":907,"risk":44,"cat":"amber"},{"name":"The Blue Ball Public House","lat":51.73273,"lon":-0.64403,"postcode":"HP5 2UX","la":"Buckinghamshire","era":"other","nn":2189,"risk":55,"cat":"amber"},{"name":"The Boot","lat":51.67656,"lon":-0.85426,"postcode":"HP14 4AW","la":"Buckinghamshire","era":"other","nn":1337,"risk":49,"cat":"amber"},{"name":"The Bootlegger","lat":51.63014,"lon":-0.74713,"postcode":"HP13 6NQ","la":"Buckinghamshire","era":"other","nn":0,"risk":17,"cat":"green"},{"name":"The Brewery Shop","lat":51.62996,"lon":-0.75167,"postcode":"HP11 2DE","la":"Buckinghamshire","era":"other","nn":91,"risk":18,"cat":"green"},{"name":"The Bricklayers Arms","lat":51.81157,"lon":-0.8067,"postcode":"HP21 7QY","la":"Buckinghamshire","era":"trad","nn":107,"risk":18,"cat":"green"},{"name":"The Broad Leys","lat":51.80902,"lon":-0.80254,"postcode":"HP21 9LB","la":"Buckinghamshire","era":"other","nn":300,"risk":20,"cat":"green"},{"name":"The Bugle Horn","lat":51.8012,"lon":-0.848,"postcode":"HP17 8QP","la":"Buckinghamshire","era":"other","nn":1610,"risk":51,"cat":"amber"},{"name":"The Bull","lat":51.78396,"lon":-0.78973,"postcode":"HP22 5UP","la":"Buckinghamshire","era":"trad","nn":0,"risk":35,"cat":"amber"},{"name":"The Bull & Butcher","lat":51.85407,"lon":-1.03964,"postcode":"HP18 9NZ","la":"Buckinghamshire","era":"trad","nn":1500,"risk":50,"cat":"amber"},{"name":"The Chandos Arms","lat":51.78969,"lon":-0.76275,"postcode":"HP22 5RR","la":"Buckinghamshire","era":"trad","nn":173,"risk":36,"cat":"amber"},{"name":"The Chandos Arms","lat":51.80577,"lon":-1.07422,"postcode":"HP18 9QB","la":"Buckinghamshire","era":"trad","nn":2181,"risk":55,"cat":"amber"},{"name":"The Charter PH","lat":51.82303,"lon":-0.83228,"postcode":"HP19 8AW","la":"Buckinghamshire","era":"trad","nn":253,"risk":19,"cat":"green"},{"name":"The Chequers","lat":51.66459,"lon":-0.60704,"postcode":"HP7 9DA","la":"Buckinghamshire","era":"other","nn":573,"risk":21,"cat":"green"},{"name":"The Chequers Inn","lat":51.78714,"lon":-0.7568,"postcode":"HP22 5SJ","la":"Buckinghamshire","era":"trad","nn":483,"risk":26,"cat":"green"},{"name":"The Chequers Inn","lat":51.57456,"lon":-0.6891,"postcode":"HP10 0JQ","la":"Buckinghamshire","era":"trad","nn":713,"risk":42,"cat":"amber"},{"name":"The Cherry Tree Public House","lat":51.60071,"lon":-0.70868,"postcode":"HP10 9LS","la":"Buckinghamshire","era":"other","nn":93,"risk":18,"cat":"green"},{"name":"The Churchill Arms","lat":51.7728,"lon":-0.99299,"postcode":"HP18 9AF","la":"Buckinghamshire","era":"trad","nn":97,"risk":36,"cat":"amber"},{"name":"The Clifden Arms","lat":51.76941,"lon":-1.07403,"postcode":"HP18 9JR","la":"Buckinghamshire","era":"trad","nn":1122,"risk":48,"cat":"amber"},{"name":"The Cock & Rabbit Inn","lat":51.7294,"lon":-0.69811,"postcode":"HP16 9LZ","la":"Buckinghamshire","era":"trad","nn":1321,"risk":49,"cat":"amber"},{"name":"The Cotton Wheel","lat":51.82769,"lon":-0.84283,"postcode":"HP19 9BF","la":"Buckinghamshire","era":"other","nn":312,"risk":25,"cat":"green"},{"name":"The Crown","lat":51.64942,"lon":-0.71838,"postcode":"HP15 7QA","la":"Buckinghamshire","era":"trad","nn":278,"risk":22,"cat":"green"},{"name":"The Crown","lat":51.79413,"lon":-0.93038,"postcode":"HP18 0BB","la":"Buckinghamshire","era":"trad","nn":2187,"risk":55,"cat":"amber"},{"name":"The Crown","lat":51.70746,"lon":-0.56905,"postcode":"HP5 1UY","la":"Buckinghamshire","era":"trad","nn":85,"risk":38,"cat":"amber"},{"name":"The Crown Public House","lat":51.68146,"lon":-0.66485,"postcode":"HP7 0RD","la":"Buckinghamshire","era":"trad","nn":171,"risk":39,"cat":"amber"},{"name":"The Dairy Maid","lat":51.82616,"lon":-0.80737,"postcode":"HP20 2ER","la":"Buckinghamshire","era":"other","nn":543,"risk":21,"cat":"green"},{"name":"The Dashwood Arms","lat":51.64154,"lon":-0.83452,"postcode":"HP14 3BH","la":"Buckinghamshire","era":"trad","nn":2244,"risk":56,"cat":"amber"},{"name":"The Dinton Hermit","lat":51.77727,"lon":-0.87295,"postcode":"HP17 8XH","la":"Buckinghamshire","era":"other","nn":2048,"risk":54,"cat":"amber"},{"name":"The Dog House Pub and K9 Cafe","lat":51.82466,"lon":-0.78224,"postcode":"HP22 5AR","la":"Buckinghamshire","era":"mod","nn":1184,"risk":48,"cat":"amber"},{"name":"The Eagle","lat":51.66758,"lon":-0.62033,"postcode":"HP7 0DY","la":"Buckinghamshire","era":"trad","nn":87,"risk":18,"cat":"green"},{"name":"The Earl Howe Public House","lat":51.66369,"lon":-0.6924,"postcode":"HP15 6PU","la":"Buckinghamshire","era":"other","nn":586,"risk":39,"cat":"amber"},{"name":"The Egg and Monkey","lat":51.81614,"lon":-0.81319,"postcode":"HP20 2PT","la":"Buckinghamshire","era":"trad","nn":57,"risk":18,"cat":"green"},{"name":"The Eight Bells","lat":51.77486,"lon":-0.99144,"postcode":"HP18 9AL","la":"Buckinghamshire","era":"other","nn":242,"risk":37,"cat":"amber"},{"name":"The Falcon","lat":51.6292,"lon":-0.7512,"postcode":"HP11 2AX","la":"Buckinghamshire","era":"other","nn":57,"risk":18,"cat":"green"},{"name":"The Farmer's Bar","lat":51.81665,"lon":-0.81364,"postcode":"HP20 2RW","la":"Buckinghamshire","era":"other","nn":28,"risk":18,"cat":"green"},{"name":"The Feathers","lat":51.81749,"lon":-0.8132,"postcode":"HP20 2HZ","la":"Buckinghamshire","era":"other","nn":44,"risk":18,"cat":"green"},{"name":"The Firecrest","lat":51.74054,"lon":-0.73413,"postcode":"HP22 6QG","la":"Buckinghamshire","era":"other","nn":2326,"risk":56,"cat":"amber"},{"name":"The Five Bells Hotel","lat":51.7907,"lon":-0.76082,"postcode":"HP22 5RW","la":"Buckinghamshire","era":"other","nn":173,"risk":24,"cat":"green"},{"name":"The Five Elms P.H.","lat":51.85496,"lon":-0.81943,"postcode":"HP22 4NL","la":"Buckinghamshire","era":"trad","nn":1730,"risk":52,"cat":"amber"},{"name":"The Flint Cottage","lat":51.63014,"lon":-0.74713,"postcode":"HP13 6NQ","la":"Buckinghamshire","era":"other","nn":0,"risk":17,"cat":"green"},{"name":"The Full Moon Public House","lat":51.68374,"lon":-0.70998,"postcode":"HP16 0EE","la":"Buckinghamshire","era":"other","nn":1717,"risk":52,"cat":"amber"},{"name":"The Gate","lat":51.68866,"lon":-0.76349,"postcode":"HP16 0JS","la":"Buckinghamshire","era":"other","nn":1955,"risk":54,"cat":"amber"},{"name":"The General Havelock","lat":51.61475,"lon":-0.71697,"postcode":"HP11 1HZ","la":"Buckinghamshire","era":"other","nn":311,"risk":20,"cat":"green"},{"name":"The Generals Arms","lat":51.70609,"lon":-0.61193,"postcode":"HP5 1BX","la":"Buckinghamshire","era":"trad","nn":153,"risk":19,"cat":"green"},{"name":"The George & Dragon","lat":51.87457,"lon":-0.91658,"postcode":"HP22 4AR","la":"Buckinghamshire","era":"trad","nn":3235,"risk":63,"cat":"red"},{"name":"The George & Dragon","lat":51.7639,"lon":-0.74175,"postcode":"HP22 6JQ","la":"Buckinghamshire","era":"trad","nn":127,"risk":18,"cat":"green"},{"name":"The George Ale House","lat":51.70183,"lon":-0.70556,"postcode":"HP16 0AN","la":"Buckinghamshire","era":"trad","nn":1055,"risk":47,"cat":"amber"},{"name":"The George and Dragon","lat":51.7049,"lon":-0.61305,"postcode":"HP5 1EP","la":"Buckinghamshire","era":"trad","nn":108,"risk":18,"cat":"green"},{"name":"The George And Dragon Hotel","lat":51.64458,"lon":-0.8015,"postcode":"HP14 3AB","la":"Buckinghamshire","era":"trad","nn":65,"risk":38,"cat":"amber"},{"name":"The Golden Cross","lat":51.67499,"lon":-0.82341,"postcode":"HP14 4HU","la":"Buckinghamshire","era":"trad","nn":1410,"risk":50,"cat":"amber"},{"name":"The Golden Eagle","lat":51.73925,"lon":-0.58673,"postcode":"HP5 3PW","la":"Buckinghamshire","era":"trad","nn":99,"risk":38,"cat":"amber"},{"name":"The Green Dragon Public House","lat":51.59452,"lon":-0.70144,"postcode":"HP10 9LD","la":"Buckinghamshire","era":"trad","nn":851,"risk":26,"cat":"green"},{"name":"The Greyhound","lat":51.59992,"lon":-0.63555,"postcode":"HP9 2JN","la":"Buckinghamshire","era":"trad","nn":223,"risk":22,"cat":"green"},{"name":"The Grouse And Ale","lat":51.61905,"lon":-0.83378,"postcode":"HP14 3JG","la":"Buckinghamshire","era":"other","nn":1501,"risk":50,"cat":"amber"},{"name":"The Harrow Bishopstone","lat":51.78803,"lon":-0.83824,"postcode":"HP17 8SF","la":"Buckinghamshire","era":"trad","nn":1610,"risk":51,"cat":"amber"},{"name":"The Harrow Public House","lat":51.67011,"lon":-0.75639,"postcode":"HP14 4LX","la":"Buckinghamshire","era":"other","nn":1368,"risk":50,"cat":"amber"},{"name":"The Hen and Chickens","lat":51.70932,"lon":-0.59259,"postcode":"HP5 1XG","la":"Buckinghamshire","era":"other","nn":1056,"risk":47,"cat":"amber"},{"name":"The Hop Pole","lat":51.82214,"lon":-0.82148,"postcode":"HP19 9AZ","la":"Buckinghamshire","era":"other","nn":525,"risk":21,"cat":"green"},{"name":"The Horse And Jockey","lat":51.63547,"lon":-0.69325,"postcode":"HP10 8EG","la":"Buckinghamshire","era":"trad","nn":149,"risk":36,"cat":"amber"},{"name":"The Hour Glass","lat":51.63385,"lon":-0.78468,"postcode":"HP12 4BY","la":"Buckinghamshire","era":"other","nn":1528,"risk":51,"cat":"amber"},{"name":"The Ivy House","lat":51.64977,"lon":-0.57857,"postcode":"HP8 4RS","la":"Buckinghamshire","era":"other","nn":2039,"risk":54,"cat":"amber"},{"name":"The Jolly Cricketers","lat":51.61781,"lon":-0.60536,"postcode":"HP9 2YG","la":"Buckinghamshire","era":"other","nn":937,"risk":44,"cat":"amber"},{"name":"The Jolly Sportsman","lat":51.71086,"lon":-0.60771,"postcode":"HP5 3AX","la":"Buckinghamshire","era":"other","nn":605,"risk":24,"cat":"green"},{"name":"The Kennedy","lat":51.8409,"lon":-0.80866,"postcode":"HP19 9HQ","la":"Buckinghamshire","era":"other","nn":0,"risk":35,"cat":"amber"},{"name":"The King And Queen","lat":51.76055,"lon":-0.74397,"postcode":"HP22 6EF","la":"Buckinghamshire","era":"trad","nn":142,"risk":18,"cat":"green"},{"name":"The Kings Arms","lat":51.66662,"lon":-0.61844,"postcode":"HP7 0DJ","la":"Buckinghamshire","era":"trad","nn":87,"risk":18,"cat":"green"},{"name":"The King's Head","lat":51.76954,"lon":-0.9307,"postcode":"HP17 8ET","la":"Buckinghamshire","era":"trad","nn":439,"risk":38,"cat":"amber"},{"name":"The Library","lat":51.8165,"lon":-0.81397,"postcode":"HP20 2RN","la":"Buckinghamshire","era":"other","nn":0,"risk":17,"cat":"green"},{"name":"The Lion","lat":51.84583,"lon":-0.92393,"postcode":"HP18 0JD","la":"Buckinghamshire","era":"trad","nn":244,"risk":39,"cat":"amber"},{"name":"The Lion Of Beaconsfield","lat":51.62372,"lon":-0.65658,"postcode":"HP9 2TN","la":"Buckinghamshire","era":"trad","nn":1006,"risk":47,"cat":"amber"},{"name":"The Lions Of Bledlow","lat":51.71207,"lon":-0.87655,"postcode":"HP27 9PE","la":"Buckinghamshire","era":"trad","nn":491,"risk":41,"cat":"amber"},{"name":"The Mash Inn","lat":51.66951,"lon":-0.86998,"postcode":"HP14 4EB","la":"Buckinghamshire","era":"trad","nn":1337,"risk":49,"cat":"amber"},{"name":"The Mayflower Public House","lat":51.64853,"lon":-0.70112,"postcode":"HP15 7NE","la":"Buckinghamshire","era":"other","nn":625,"risk":27,"cat":"green"},{"name":"The Metropolitan","lat":51.66774,"lon":-0.56217,"postcode":"HP7 9PN","la":"Buckinghamshire","era":"other","nn":1193,"risk":48,"cat":"amber"},{"name":"The New Zealand PH","lat":51.82416,"lon":-0.81458,"postcode":"HP19 9QF","la":"Buckinghamshire","era":"other","nn":409,"risk":20,"cat":"green"},{"name":"The Oak","lat":51.80405,"lon":-0.72671,"postcode":"HP22 5EU","la":"Buckinghamshire","era":"trad","nn":192,"risk":21,"cat":"green"},{"name":"The Old Bell Country Inn","lat":51.58095,"lon":-0.68994,"postcode":"HP10 0PL","la":"Buckinghamshire","era":"trad","nn":577,"risk":21,"cat":"green"},{"name":"The Old Fisherman","lat":51.75008,"lon":-1.03859,"postcode":"HP18 9HJ","la":"Buckinghamshire","era":"other","nn":2131,"risk":55,"cat":"amber"},{"name":"The Old Plough Public House","lat":51.64474,"lon":-0.80241,"postcode":"HP14 3AG","la":"Buckinghamshire","era":"trad","nn":65,"risk":38,"cat":"amber"},{"name":"The Old Queens Head","lat":51.63486,"lon":-0.69518,"postcode":"HP10 8EY","la":"Buckinghamshire","era":"trad","nn":149,"risk":36,"cat":"amber"},{"name":"The Old Swan","lat":51.74116,"lon":-0.69538,"postcode":"HP16 9NU","la":"Buckinghamshire","era":"trad","nn":1321,"risk":49,"cat":"amber"},{"name":"The Pack Horse","lat":51.76361,"lon":-0.73996,"postcode":"HP22 6NR","la":"Buckinghamshire","era":"trad","nn":127,"risk":18,"cat":"green"},{"name":"The Partridge Arms","lat":51.80265,"lon":-0.72505,"postcode":"HP22 5EX","la":"Buckinghamshire","era":"trad","nn":192,"risk":21,"cat":"green"},{"name":"The Pheasant","lat":51.82177,"lon":-1.05336,"postcode":"HP18 9TG","la":"Buckinghamshire","era":"other","nn":377,"risk":38,"cat":"amber"},{"name":"The Pheasant","lat":51.69619,"lon":-0.60359,"postcode":"HP5 1QE","la":"Buckinghamshire","era":"other","nn":635,"risk":42,"cat":"amber"},{"name":"The Phoenix Bar","lat":51.63148,"lon":-0.75732,"postcode":"HP11 2EL","la":"Buckinghamshire","era":"other","nn":115,"risk":18,"cat":"green"},{"name":"The Pin","lat":51.81719,"lon":-0.81204,"postcode":"HP20 1ST","la":"Buckinghamshire","era":"other","nn":67,"risk":18,"cat":"green"},{"name":"The Pink & Lily","lat":51.70984,"lon":-0.80453,"postcode":"HP27 0RJ","la":"Buckinghamshire","era":"other","nn":1760,"risk":52,"cat":"amber"},{"name":"The Plough","lat":51.69412,"lon":-0.6552,"postcode":"HP6 5RW","la":"Buckinghamshire","era":"trad","nn":1557,"risk":51,"cat":"amber"},{"name":"The Plough Sizzling Pub","lat":51.81451,"lon":-0.78743,"postcode":"HP20 1JH","la":"Buckinghamshire","era":"trad","nn":472,"risk":38,"cat":"amber"},{"name":"The Pointer","lat":51.81885,"lon":-1.05058,"postcode":"HP18 9RT","la":"Buckinghamshire","era":"other","nn":0,"risk":35,"cat":"amber"},{"name":"The Polecat Inn","lat":51.68661,"lon":-0.73445,"postcode":"HP16 0HJ","la":"Buckinghamshire","era":"trad","nn":1467,"risk":50,"cat":"amber"},{"name":"The Potters Arms","lat":51.64473,"lon":-0.65279,"postcode":"HP7 0PH","la":"Buckinghamshire","era":"trad","nn":1398,"risk":50,"cat":"amber"},{"name":"The Queens Head","lat":51.81678,"lon":-0.81439,"postcode":"HP20 2QA","la":"Buckinghamshire","era":"trad","nn":42,"risk":18,"cat":"green"},{"name":"The Queens Head","lat":51.7031,"lon":-0.61694,"postcode":"HP5 1JD","la":"Buckinghamshire","era":"trad","nn":266,"risk":19,"cat":"green"},{"name":"The Red Lion","lat":51.58811,"lon":-0.68397,"postcode":"HP10 0EU","la":"Buckinghamshire","era":"trad","nn":115,"risk":18,"cat":"green"},{"name":"The Red Lion","lat":51.64657,"lon":-0.63092,"postcode":"HP7 0LH","la":"Buckinghamshire","era":"trad","nn":931,"risk":44,"cat":"amber"},{"name":"The Red Lion","lat":51.70311,"lon":-0.61308,"postcode":"HP5 1ET","la":"Buckinghamshire","era":"trad","nn":185,"risk":19,"cat":"green"},{"name":"The Red Lion","lat":51.82324,"lon":-0.66679,"postcode":"HP23 4LU","la":"Buckinghamshire","era":"trad","nn":558,"risk":41,"cat":"amber"},{"name":"The Red Lion Dagnall","lat":51.83744,"lon":-0.56512,"postcode":"HP4 1QZ","la":"Buckinghamshire","era":"trad","nn":1743,"risk":52,"cat":"amber"},{"name":"The Red Lion Penn","lat":51.6356,"lon":-0.69036,"postcode":"HP10 8LF","la":"Buckinghamshire","era":"trad","nn":200,"risk":36,"cat":"amber"},{"name":"The Red Lion Public House","lat":51.73737,"lon":-0.85881,"postcode":"HP27 9SG","la":"Buckinghamshire","era":"trad","nn":2298,"risk":56,"cat":"amber"},{"name":"The Red Lion Public House","lat":51.73068,"lon":-0.81533,"postcode":"HP27 0LL","la":"Buckinghamshire","era":"trad","nn":444,"risk":38,"cat":"amber"},{"name":"The Red Lion Public House","lat":51.68181,"lon":-0.66727,"postcode":"HP7 0QZ","la":"Buckinghamshire","era":"trad","nn":171,"risk":39,"cat":"amber"},{"name":"The Rising Sun","lat":51.76311,"lon":-1.0613,"postcode":"HP18 9JB","la":"Buckinghamshire","era":"other","nn":1122,"risk":48,"cat":"amber"},{"name":"The Rising Sun","lat":51.77346,"lon":-0.92993,"postcode":"HP17 8EN","la":"Buckinghamshire","era":"other","nn":439,"risk":38,"cat":"amber"},{"name":"The Rockwood","lat":51.81774,"lon":-0.81396,"postcode":"HP20 2JE","la":"Buckinghamshire","era":"other","nn":59,"risk":18,"cat":"green"},{"name":"The Rose & Crown","lat":51.86309,"lon":-0.73765,"postcode":"HP22 4PD","la":"Buckinghamshire","era":"trad","nn":188,"risk":39,"cat":"amber"},{"name":"The Rose & Crown","lat":51.63047,"lon":-0.75769,"postcode":"HP11 2PR","la":"Buckinghamshire","era":"trad","nn":115,"risk":18,"cat":"green"},{"name":"The Rothschild Arms","lat":51.80043,"lon":-0.7374,"postcode":"HP22 5EJ","la":"Buckinghamshire","era":"trad","nn":838,"risk":28,"cat":"green"},{"name":"The Royal Standard Of England","lat":51.61867,"lon":-0.66867,"postcode":"HP9 1XT","la":"Buckinghamshire","era":"trad","nn":1006,"risk":47,"cat":"amber"},{"name":"The Russell Arms","lat":51.75589,"lon":-0.78043,"postcode":"HP17 0TS","la":"Buckinghamshire","era":"trad","nn":610,"risk":42,"cat":"amber"},{"name":"The Saracens Head Inn","lat":51.66515,"lon":-0.61683,"postcode":"HP7 0HU","la":"Buckinghamshire","era":"trad","nn":188,"risk":19,"cat":"green"},{"name":"The Seven Stars","lat":51.78957,"lon":-0.8951,"postcode":"HP17 8UL","la":"Buckinghamshire","era":"other","nn":2048,"risk":54,"cat":"amber"},{"name":"The Spindle & Thread","lat":51.63543,"lon":-0.75516,"postcode":"HP13 5HP","la":"Buckinghamshire","era":"other","nn":427,"risk":20,"cat":"green"},{"name":"The Squirrel","lat":51.61976,"lon":-0.79066,"postcode":"HP12 4RZ","la":"Buckinghamshire","era":"other","nn":446,"risk":38,"cat":"amber"},{"name":"The Squirrel","lat":51.65362,"lon":-0.66713,"postcode":"HP7 0PX","la":"Buckinghamshire","era":"other","nn":1398,"risk":50,"cat":"amber"},{"name":"The Stag Pub & Kitchen","lat":51.6058,"lon":-0.72042,"postcode":"HP10 9ES","la":"Buckinghamshire","era":"other","nn":558,"risk":24,"cat":"green"},{"name":"The Swan","lat":51.70677,"lon":-0.56852,"postcode":"HP5 1UT","la":"Buckinghamshire","era":"trad","nn":85,"risk":38,"cat":"amber"},{"name":"The Swan","lat":51.66732,"lon":-0.62174,"postcode":"HP7 0ED","la":"Buckinghamshire","era":"trad","nn":102,"risk":18,"cat":"green"},{"name":"The Swan Public House","lat":51.75209,"lon":-0.81358,"postcode":"HP17 9TR","la":"Buckinghamshire","era":"trad","nn":1447,"risk":50,"cat":"amber"},{"name":"The Three Crowns","lat":51.73962,"lon":-0.81954,"postcode":"HP27 9LT","la":"Buckinghamshire","era":"trad","nn":741,"risk":40,"cat":"amber"},{"name":"The Three Horseshoes","lat":51.60155,"lon":-0.70704,"postcode":"HP10 9PG","la":"Buckinghamshire","era":"trad","nn":104,"risk":18,"cat":"green"},{"name":"The Three Horseshoes Public House","lat":51.65065,"lon":-0.71488,"postcode":"HP15 7PX","la":"Buckinghamshire","era":"trad","nn":202,"risk":19,"cat":"green"},{"name":"The Three Tuns","lat":51.6286,"lon":-0.74981,"postcode":"HP11 2AG","la":"Buckinghamshire","era":"other","nn":86,"risk":18,"cat":"green"},{"name":"The Treehouse","lat":51.60265,"lon":-0.6381,"postcode":"HP9 1LU","la":"Buckinghamshire","era":"other","nn":36,"risk":20,"cat":"green"},{"name":"The Victoria Club","lat":51.81721,"lon":-0.81366,"postcode":"HP20 2HT","la":"Buckinghamshire","era":"trad","nn":44,"risk":18,"cat":"green"},{"name":"The Village Gate","lat":51.77314,"lon":-0.75162,"postcode":"HP22 6BA","la":"Buckinghamshire","era":"other","nn":918,"risk":44,"cat":"amber"},{"name":"The Wheel Public House","lat":51.66491,"lon":-0.77436,"postcode":"HP14 4QA","la":"Buckinghamshire","era":"other","nn":907,"risk":44,"cat":"amber"},{"name":"The White Hart","lat":51.72626,"lon":-0.55449,"postcode":"HP5 3RL","la":"Buckinghamshire","era":"trad","nn":1432,"risk":50,"cat":"amber"},{"name":"The White Hart","lat":51.62884,"lon":-0.58387,"postcode":"HP8 4LP","la":"Buckinghamshire","era":"trad","nn":971,"risk":44,"cat":"amber"},{"name":"The White Hart","lat":51.81543,"lon":-0.81046,"postcode":"HP20 1UR","la":"Buckinghamshire","era":"trad","nn":83,"risk":18,"cat":"green"},{"name":"The White Horse","lat":51.60206,"lon":-0.63289,"postcode":"HP9 2JD","la":"Buckinghamshire","era":"trad","nn":131,"risk":21,"cat":"green"},{"name":"The White Lion","lat":51.66827,"lon":-0.57945,"postcode":"HP7 9LJ","la":"Buckinghamshire","era":"trad","nn":319,"risk":37,"cat":"amber"},{"name":"The White Lion","lat":51.66468,"lon":-0.7367,"postcode":"HP15 6JP","la":"Buckinghamshire","era":"trad","nn":1049,"risk":47,"cat":"amber"},{"name":"The White Swan","lat":51.87845,"lon":-0.83455,"postcode":"HP22 4JT","la":"Buckinghamshire","era":"trad","nn":2201,"risk":55,"cat":"amber"},{"name":"The White Swan","lat":51.76258,"lon":-0.74291,"postcode":"HP22 6EA","la":"Buckinghamshire","era":"trad","nn":32,"risk":18,"cat":"green"},{"name":"The Whiteleaf Cross Public House","lat":51.72457,"lon":-0.8326,"postcode":"HP27 0AN","la":"Buckinghamshire","era":"trad","nn":304,"risk":37,"cat":"amber"},{"name":"The Woolpack P H","lat":51.78396,"lon":-0.78973,"postcode":"HP22 5UP","la":"Buckinghamshire","era":"trad","nn":0,"risk":35,"cat":"amber"},{"name":"Tittershall Lodge","lat":51.85417,"lon":-1.0178,"postcode":"HP18 9FY","la":"Buckinghamshire","era":"other","nn":1500,"risk":50,"cat":"amber"},{"name":"Trilogy Nightclub High Wycombe","lat":51.62874,"lon":-0.75165,"postcode":"HP11 2HQ","la":"Buckinghamshire","era":"other","nn":2,"risk":17,"cat":"green"},{"name":"Upper Winchendon Social Club","lat":51.82381,"lon":-0.91752,"postcode":"HP18 0EP","la":"Buckinghamshire","era":"mod","nn":2262,"risk":56,"cat":"amber"},{"name":"Waddesdon Bowls Club","lat":51.84368,"lon":-0.92459,"postcode":"HP18 0JY","la":"Buckinghamshire","era":"other","nn":244,"risk":39,"cat":"amber"},{"name":"Watermead Inn","lat":51.8328,"lon":-0.80605,"postcode":"HP19 0FX","la":"Buckinghamshire","era":"trad","nn":744,"risk":25,"cat":"green"},{"name":"Weavers P.H.","lat":51.81969,"lon":-0.80577,"postcode":"HP20 1BX","la":"Buckinghamshire","era":"other","nn":101,"risk":18,"cat":"green"},{"name":"Wendover & Chiltern Hills Bowls Club","lat":51.76343,"lon":-0.7467,"postcode":"HP22 6BU","la":"Buckinghamshire","era":"other","nn":239,"risk":19,"cat":"green"},{"name":"Wendover Hotel","lat":51.62779,"lon":-0.7648,"postcode":"HP11 2SU","la":"Buckinghamshire","era":"other","nn":575,"risk":21,"cat":"green"},{"name":"Wendover Legion Club","lat":51.76564,"lon":-0.74605,"postcode":"HP22 6DB","la":"Buckinghamshire","era":"other","nn":249,"risk":19,"cat":"green"},{"name":"Westcott Social Club & Leisure Centre","lat":51.83679,"lon":-0.96049,"postcode":"HP18 0PD","la":"Buckinghamshire","era":"mod","nn":2582,"risk":58,"cat":"amber"},{"name":"Weston Turville Golf Club Ltd","lat":51.80856,"lon":-0.77004,"postcode":"HP22 5QT","la":"Buckinghamshire","era":"other","nn":1121,"risk":48,"cat":"amber"},{"name":"White Lion PH","lat":51.75407,"lon":-0.67086,"postcode":"HP23 6NW","la":"Buckinghamshire","era":"trad","nn":1891,"risk":53,"cat":"amber"},{"name":"Whiteleaf Catering At Whiteleaf Golf Club","lat":51.73438,"lon":-0.81289,"postcode":"HP27 0LY","la":"Buckinghamshire","era":"other","nn":0,"risk":22,"cat":"green"},{"name":"Whiteleaf Golf Club Bar","lat":51.73438,"lon":-0.81289,"postcode":"HP27 0LY","la":"Buckinghamshire","era":"other","nn":0,"risk":22,"cat":"green"},{"name":"Wingrave With Rowsham Sports & Social Club","lat":51.86212,"lon":-0.73989,"postcode":"HP22 4PE","la":"Buckinghamshire","era":"mod","nn":188,"risk":39,"cat":"amber"},{"name":"Wooburn Green Working Mens Club","lat":51.58801,"lon":-0.68216,"postcode":"HP10 0EF","la":"Buckinghamshire","era":"trad","nn":123,"risk":18,"cat":"green"},{"name":"Wooburn Narkovians Cricket Club","lat":51.58483,"lon":-0.68439,"postcode":"HP10 0ET","la":"Buckinghamshire","era":"other","nn":270,"risk":22,"cat":"green"},{"name":"Wrights Meadow Centre","lat":51.61878,"lon":-0.72189,"postcode":"HP11 1SQ","la":"Buckinghamshire","era":"other","nn":290,"risk":19,"cat":"green"},{"name":"Wycombe Heights Golf Centre","lat":51.61683,"lon":-0.70108,"postcode":"HP10 9SZ","la":"Buckinghamshire","era":"other","nn":703,"risk":27,"cat":"green"},{"name":"Yates/K-Town/ChikBox/Locked&Loaded/88thStreet/ValueMighty/","lat":51.63196,"lon":-0.75252,"postcode":"HP13 5DG","la":"Buckinghamshire","era":"other","nn":60,"risk":18,"cat":"green"},{"name":"Alford Arms","lat":51.77858,"lon":-0.52816,"postcode":"HP1 3DD","la":"Dacorum","era":"trad","nn":743,"risk":48,"cat":"amber"},{"name":"Bennetts End Community Assoc. Bar","lat":51.74155,"lon":-0.44973,"postcode":"HP3 9LZ","la":"Dacorum","era":"other","nn":0,"risk":43,"cat":"amber"},{"name":"Berkhamsted & Hemel Hempstead Sports & Hockey Club","lat":51.78368,"lon":-0.61474,"postcode":"HP23 5RF","la":"Dacorum","era":"other","nn":1412,"risk":58,"cat":"amber"},{"name":"Berkhamsted Bowls Club","lat":51.76389,"lon":-0.56778,"postcode":"HP4 2AL","la":"Dacorum","era":"other","nn":268,"risk":28,"cat":"green"},{"name":"Berkhamsted Town Hall","lat":51.76081,"lon":-0.5645,"postcode":"HP4 3AP","la":"Dacorum","era":"other","nn":0,"risk":26,"cat":"green"},{"name":"Bovingdon Bowls Club","lat":51.72276,"lon":-0.53218,"postcode":"HP3 0HJ","la":"Dacorum","era":"other","nn":143,"risk":29,"cat":"green"},{"name":"Bovingdon Cricket Club","lat":51.71674,"lon":-0.5387,"postcode":"HP3 0LB","la":"Dacorum","era":"other","nn":238,"risk":32,"cat":"amber"},{"name":"Bovingdon Football Club","lat":51.71651,"lon":-0.53526,"postcode":"HP3 0LE","la":"Dacorum","era":"other","nn":238,"risk":32,"cat":"amber"},{"name":"Boxmoor Cricket Club","lat":51.74596,"lon":-0.48854,"postcode":"HP1 1PY","la":"Dacorum","era":"other","nn":0,"risk":26,"cat":"green"},{"name":"Boxmoor Social Club","lat":51.74596,"lon":-0.48854,"postcode":"HP1 1PY","la":"Dacorum","era":"mod","nn":0,"risk":26,"cat":"green"},{"name":"Bridgewater Arms","lat":51.81295,"lon":-0.56224,"postcode":"HP4 1PD","la":"Dacorum","era":"trad","nn":245,"risk":47,"cat":"amber"},{"name":"Camelot R U F Club","lat":51.74724,"lon":-0.50084,"postcode":"HP1 2BS","la":"Dacorum","era":"other","nn":230,"risk":27,"cat":"green"},{"name":"Copper Bar","lat":51.75299,"lon":-0.47353,"postcode":"HP1 1ET","la":"Dacorum","era":"other","nn":54,"risk":26,"cat":"green"},{"name":"Cotterells Club","lat":51.74758,"lon":-0.47579,"postcode":"HP1 1JW","la":"Dacorum","era":"other","nn":308,"risk":28,"cat":"green"},{"name":"Crabtree","lat":51.75594,"lon":-0.44472,"postcode":"HP2 4HG","la":"Dacorum","era":"other","nn":290,"risk":45,"cat":"amber"},{"name":"Crown & Sceptre","lat":51.78892,"lon":-0.48809,"postcode":"HP2 6EY","la":"Dacorum","era":"trad","nn":8,"risk":43,"cat":"amber"},{"name":"Dembe Theatre","lat":51.79866,"lon":-0.63611,"postcode":"HP23 5QY","la":"Dacorum","era":"other","nn":424,"risk":31,"cat":"amber"},{"name":"Gade & Goose","lat":51.76468,"lon":-0.48987,"postcode":"HP1 3LB","la":"Dacorum","era":"other","nn":31,"risk":43,"cat":"amber"},{"name":"Gadebridge Youth Club","lat":51.7649,"lon":-0.49016,"postcode":"HP1 3LF","la":"Dacorum","era":"other","nn":31,"risk":43,"cat":"amber"},{"name":"Great Gaddesden Cricket Club","lat":51.78889,"lon":-0.48799,"postcode":"HP2 6EY","la":"Dacorum","era":"other","nn":8,"risk":43,"cat":"amber"},{"name":"Greenacres  ll","lat":51.7732,"lon":-0.4573,"postcode":"HP2 6BJ","la":"Dacorum","era":"other","nn":165,"risk":44,"cat":"amber"},{"name":"Greenacres Tavern","lat":51.74155,"lon":-0.44973,"postcode":"HP3 9LZ","la":"Dacorum","era":"other","nn":0,"risk":43,"cat":"amber"},{"name":"Harvester","lat":51.74249,"lon":-0.49029,"postcode":"HP3 9BQ","la":"Dacorum","era":"trad","nn":276,"risk":28,"cat":"green"},{"name":"Hemel Hempstead Amateur RLFC","lat":51.76909,"lon":-0.45068,"postcode":"HP2 5UD","la":"Dacorum","era":"other","nn":645,"risk":48,"cat":"amber"},{"name":"Hemel Hempstead Bowls Club","lat":51.75773,"lon":-0.47251,"postcode":"HP1 1LS","la":"Dacorum","era":"other","nn":40,"risk":26,"cat":"green"},{"name":"Hemel Hempstead Club","lat":51.7574,"lon":-0.4723,"postcode":"HP1 1LR","la":"Dacorum","era":"other","nn":40,"risk":26,"cat":"green"},{"name":"Hemel Hempstead Football Club","lat":51.75359,"lon":-0.4429,"postcode":"HP2 4HW","la":"Dacorum","era":"other","nn":290,"risk":33,"cat":"amber"},{"name":"Hemel Hempstead Town Cricket Club","lat":51.74421,"lon":-0.47543,"postcode":"HP1 1JZ","la":"Dacorum","era":"other","nn":87,"risk":26,"cat":"green"},{"name":"Kings Arms Hotel","lat":51.75983,"lon":-0.56341,"postcode":"HP4 3HL","la":"Dacorum","era":"trad","nn":17,"risk":26,"cat":"green"},{"name":"Kitcheners Bowls Club","lat":51.76699,"lon":-0.55838,"postcode":"HP4 1HE","la":"Dacorum","era":"mod","nn":556,"risk":30,"cat":"green"},{"name":"Leverstock Green Cricket Club","lat":51.74607,"lon":-0.42914,"postcode":"HP3 8LJ","la":"Dacorum","era":"other","nn":207,"risk":30,"cat":"green"},{"name":"Leverstock Green Football Club","lat":51.74809,"lon":-0.42729,"postcode":"HP2 4NB","la":"Dacorum","era":"other","nn":250,"risk":30,"cat":"green"},{"name":"Life & Soul Theatre Academy","lat":51.74482,"lon":-0.47622,"postcode":"HP1 1JR","la":"Dacorum","era":"other","nn":87,"risk":26,"cat":"green"},{"name":"Little Gaddesden Sports Club","lat":51.81099,"lon":-0.56063,"postcode":"HP4 1NX","la":"Dacorum","era":"other","nn":245,"risk":47,"cat":"amber"},{"name":"Mad Squirrel Tap & Bottle Shop","lat":51.75947,"lon":-0.56036,"postcode":"HP4 2BL","la":"Dacorum","era":"mod","nn":91,"risk":26,"cat":"green"},{"name":"Midland Hotel","lat":51.75576,"lon":-0.46869,"postcode":"HP2 5BH","la":"Dacorum","era":"other","nn":308,"risk":28,"cat":"green"},{"name":"Northchurch Cricket Club","lat":51.77488,"lon":-0.59995,"postcode":"HP4 3SZ","la":"Dacorum","era":"other","nn":1412,"risk":58,"cat":"amber"},{"name":"Post Office Arms","lat":51.74777,"lon":-0.48824,"postcode":"HP1 1QN","la":"Dacorum","era":"trad","nn":202,"risk":27,"cat":"green"},{"name":"Potten End Cricket Club","lat":51.77192,"lon":-0.52744,"postcode":"HP4 2QX","la":"Dacorum","era":"other","nn":125,"risk":44,"cat":"amber"},{"name":"Redz Bar","lat":51.75837,"lon":-0.47166,"postcode":"HP1 3AA","la":"Dacorum","era":"other","nn":0,"risk":26,"cat":"green"},{"name":"Rose And Crown","lat":51.75837,"lon":-0.47166,"postcode":"HP1 3AA","la":"Dacorum","era":"trad","nn":0,"risk":26,"cat":"green"},{"name":"Royal British Legion","lat":51.76081,"lon":-0.5645,"postcode":"HP4 3AP","la":"Dacorum","era":"trad","nn":0,"risk":26,"cat":"green"},{"name":"Royal British Legion Club Ltd","lat":51.75912,"lon":-0.46383,"postcode":"HP2 5DF","la":"Dacorum","era":"trad","nn":265,"risk":28,"cat":"green"},{"name":"Steam Coach","lat":51.74581,"lon":-0.4812,"postcode":"HP1 1NP","la":"Dacorum","era":"trad","nn":197,"risk":27,"cat":"green"},{"name":"The Akeman","lat":51.79256,"lon":-0.66252,"postcode":"HP23 6AA","la":"Dacorum","era":"other","nn":144,"risk":27,"cat":"green"},{"name":"The Anchor","lat":51.79119,"lon":-0.66827,"postcode":"HP23 4BH","la":"Dacorum","era":"trad","nn":223,"risk":27,"cat":"green"},{"name":"The Bell","lat":51.79373,"lon":-0.66161,"postcode":"HP23 5AA","la":"Dacorum","era":"other","nn":144,"risk":27,"cat":"green"},{"name":"The Bell Inn","lat":51.72204,"lon":-0.53046,"postcode":"HP3 0HP","la":"Dacorum","era":"trad","nn":143,"risk":29,"cat":"green"},{"name":"The Black Horse","lat":51.79535,"lon":-0.66296,"postcode":"HP23 5AZ","la":"Dacorum","era":"trad","nn":203,"risk":27,"cat":"green"},{"name":"The Boat","lat":51.76044,"lon":-0.55649,"postcode":"HP4 2EF","la":"Dacorum","era":"other","nn":86,"risk":26,"cat":"green"},{"name":"The Bull Berkhamsted","lat":51.75791,"lon":-0.55622,"postcode":"HP4 2BS","la":"Dacorum","era":"trad","nn":204,"risk":27,"cat":"green"},{"name":"The Castle","lat":51.79044,"lon":-0.66359,"postcode":"HP23 6BN","la":"Dacorum","era":"other","nn":180,"risk":27,"cat":"green"},{"name":"The Crown","lat":51.75971,"lon":-0.56325,"postcode":"HP4 3HH","la":"Dacorum","era":"trad","nn":17,"risk":26,"cat":"green"},{"name":"The Crystal Palace","lat":51.762,"lon":-0.5588,"postcode":"HP4 2EZ","la":"Dacorum","era":"other","nn":235,"risk":27,"cat":"green"},{"name":"The Fishery Inn","lat":51.74494,"lon":-0.49093,"postcode":"HP1 1NA","la":"Dacorum","era":"trad","nn":200,"risk":27,"cat":"green"},{"name":"The Full House","lat":51.75313,"lon":-0.47278,"postcode":"HP1 1EZ","la":"Dacorum","era":"other","nn":54,"risk":26,"cat":"green"},{"name":"The George Inn","lat":51.76146,"lon":-0.5684,"postcode":"HP4 1AB","la":"Dacorum","era":"trad","nn":187,"risk":27,"cat":"green"},{"name":"The Goat","lat":51.7587,"lon":-0.55991,"postcode":"HP4 2DF","la":"Dacorum","era":"other","nn":57,"risk":26,"cat":"green"},{"name":"The Grand Junction Arms","lat":51.81284,"lon":-0.64923,"postcode":"HP23 5QE","la":"Dacorum","era":"trad","nn":1405,"risk":58,"cat":"amber"},{"name":"The Grapes","lat":51.74948,"lon":-0.4915,"postcode":"HP1 1QR","la":"Dacorum","era":"other","nn":294,"risk":28,"cat":"green"},{"name":"The Green Dragon","lat":51.69695,"lon":-0.53304,"postcode":"HP3 0PP","la":"Dacorum","era":"trad","nn":1959,"risk":62,"cat":"red"},{"name":"The Green Man","lat":51.74786,"lon":-0.43308,"postcode":"HP3 8QE","la":"Dacorum","era":"other","nn":157,"risk":27,"cat":"green"},{"name":"The Greyhound","lat":51.80322,"lon":-0.60209,"postcode":"HP23 5RT","la":"Dacorum","era":"trad","nn":2341,"risk":65,"cat":"red"},{"name":"The Greyhound","lat":51.78203,"lon":-0.64024,"postcode":"HP23 6EH","la":"Dacorum","era":"trad","nn":1455,"risk":58,"cat":"amber"},{"name":"The Half Moon","lat":51.81913,"lon":-0.68983,"postcode":"HP23 4PD","la":"Dacorum","era":"other","nn":1385,"risk":58,"cat":"amber"},{"name":"The Halfway House","lat":51.72562,"lon":-0.53372,"postcode":"HP3 0HF","la":"Dacorum","era":"other","nn":335,"risk":46,"cat":"amber"},{"name":"The Kings Arms","lat":51.79174,"lon":-0.66515,"postcode":"HP23 6BE","la":"Dacorum","era":"trad","nn":180,"risk":27,"cat":"green"},{"name":"The Lamb","lat":51.76232,"lon":-0.57073,"postcode":"HP4 1AJ","la":"Dacorum","era":"other","nn":187,"risk":27,"cat":"green"},{"name":"The Oddfellows Arms","lat":51.73612,"lon":-0.46769,"postcode":"HP3 9SP","la":"Dacorum","era":"trad","nn":1046,"risk":55,"cat":"amber"},{"name":"The Old Bell","lat":51.75959,"lon":-0.47206,"postcode":"HP1 3AF","la":"Dacorum","era":"other","nn":0,"risk":26,"cat":"green"},{"name":"The Old Bell Gate","lat":51.76041,"lon":-0.46706,"postcode":"HP2 5HY","la":"Dacorum","era":"other","nn":265,"risk":28,"cat":"green"},{"name":"The Olde Kings Arms","lat":51.75959,"lon":-0.47206,"postcode":"HP1 3AF","la":"Dacorum","era":"trad","nn":0,"risk":26,"cat":"green"},{"name":"The Olde Leather Bottle","lat":51.74761,"lon":-0.43084,"postcode":"HP3 8QQ","la":"Dacorum","era":"other","nn":157,"risk":29,"cat":"green"},{"name":"The Plough","lat":51.7515,"lon":-0.4378,"postcode":"HP3 8PR","la":"Dacorum","era":"trad","nn":421,"risk":29,"cat":"green"},{"name":"The Plough","lat":51.77125,"lon":-0.52598,"postcode":"HP4 2QS","la":"Dacorum","era":"trad","nn":125,"risk":44,"cat":"amber"},{"name":"The Pommel Horse","lat":51.74761,"lon":-0.457,"postcode":"HP2 4JS","la":"Dacorum","era":"trad","nn":839,"risk":49,"cat":"amber"},{"name":"The Queens Head","lat":51.831,"lon":-0.69596,"postcode":"HP23 4QL","la":"Dacorum","era":"trad","nn":1385,"risk":58,"cat":"amber"},{"name":"The Red Lion","lat":51.78109,"lon":-0.49252,"postcode":"HP1 3BD","la":"Dacorum","era":"trad","nn":922,"risk":50,"cat":"amber"},{"name":"The Rex Cinema Berkhamsted","lat":51.75847,"lon":-0.56064,"postcode":"HP4 2BT","la":"Dacorum","era":"other","nn":57,"risk":26,"cat":"green"},{"name":"The Rising Sun","lat":51.75974,"lon":-0.55596,"postcode":"HP4 2EG","la":"Dacorum","era":"other","nn":86,"risk":26,"cat":"green"},{"name":"The Robin Hood Inn","lat":51.79586,"lon":-0.65935,"postcode":"HP23 5ED","la":"Dacorum","era":"trad","nn":255,"risk":27,"cat":"green"},{"name":"The Robin Social Club","lat":51.77459,"lon":-0.45647,"postcode":"HP2 6NH","la":"Dacorum","era":"mod","nn":165,"risk":44,"cat":"amber"},{"name":"The Three Tuns","lat":51.7316,"lon":-0.4542,"postcode":"HP3 9XB","la":"Dacorum","era":"other","nn":269,"risk":48,"cat":"amber"},{"name":"The Top Of The World","lat":51.75616,"lon":-0.4913,"postcode":"HP1 3QF","la":"Dacorum","era":"other","nn":743,"risk":31,"cat":"amber"},{"name":"The White Hart","lat":51.75837,"lon":-0.47166,"postcode":"HP1 3AA","la":"Dacorum","era":"trad","nn":0,"risk":26,"cat":"green"},{"name":"The White Horse","lat":51.74585,"lon":-0.51821,"postcode":"HP1 2RH","la":"Dacorum","era":"trad","nn":301,"risk":48,"cat":"amber"},{"name":"Three Blackbirds","lat":51.74607,"lon":-0.48403,"postcode":"HP1 1NR","la":"Dacorum","era":"other","nn":197,"risk":27,"cat":"green"},{"name":"Three Horseshoes Public House","lat":51.74686,"lon":-0.51414,"postcode":"HP1 2RZ","la":"Dacorum","era":"trad","nn":301,"risk":45,"cat":"amber"},{"name":"Tring & District Conservative Club","lat":51.79334,"lon":-0.66432,"postcode":"HP23 4AF","la":"Dacorum","era":"other","nn":151,"risk":27,"cat":"green"},{"name":"Tring Athletic Football Club","lat":51.79737,"lon":-0.64418,"postcode":"HP23 5NS","la":"Dacorum","era":"other","nn":0,"risk":28,"cat":"green"},{"name":"Tring Bowls Club","lat":51.79511,"lon":-0.64055,"postcode":"HP23 5NS","la":"Dacorum","era":"other","nn":120,"risk":29,"cat":"green"},{"name":"Tring Rugby Club","lat":51.79618,"lon":-0.6408,"postcode":"HP23 5NS","la":"Dacorum","era":"other","nn":120,"risk":29,"cat":"green"},{"name":"Tring Squash Rackets Club","lat":51.79737,"lon":-0.64418,"postcode":"HP23 5NS","la":"Dacorum","era":"other","nn":0,"risk":28,"cat":"green"},{"name":"Tudor Rose","lat":51.74924,"lon":-0.49993,"postcode":"HP1 2HU","la":"Dacorum","era":"other","nn":230,"risk":27,"cat":"green"},{"name":"Ye Olde Red Lion","lat":51.72934,"lon":-0.45563,"postcode":"HP3 9TD","la":"Dacorum","era":"trad","nn":269,"risk":48,"cat":"amber"},{"name":"Centurion Club","lat":51.74284,"lon":-0.41093,"postcode":"HP3 8LA","la":"St Albans","era":"other","nn":1268,"risk":56,"cat":"amber"}]