[{"name":"Acapulco Night Club","lat":53.72371,"lon":-1.86208,"postcode":"HX1 1XX","la":"Calderdale","era":"other","nn":77,"risk":25,"cat":"green"},{"name":"Ada Social Club","lat":53.7263,"lon":-1.88417,"postcode":"HX1 4RW","la":"Calderdale","era":"mod","nn":881,"risk":50,"cat":"amber"},{"name":"Alexandra Beer House","lat":53.72125,"lon":-1.86068,"postcode":"HX1 1BS","la":"Calderdale","era":"other","nn":24,"risk":24,"cat":"green"},{"name":"Ashdene Naturist Club","lat":53.69947,"lon":-1.81551,"postcode":"HX5 9JB","la":"Calderdale","era":"other","nn":1419,"risk":56,"cat":"amber"},{"name":"Bankfield Social Club","lat":53.68655,"lon":-1.83581,"postcode":"HX5 9DW","la":"Calderdale","era":"mod","nn":171,"risk":25,"cat":"green"},{"name":"Bar Francisca","lat":53.70888,"lon":-1.91049,"postcode":"HX6 2EG","la":"Calderdale","era":"mod","nn":27,"risk":24,"cat":"green"},{"name":"Bar Rouge","lat":53.72307,"lon":-1.86254,"postcode":"HX1 1HS","la":"Calderdale","era":"mod","nn":42,"risk":24,"cat":"green"},{"name":"Belgrave Social Club","lat":53.72995,"lon":-1.85403,"postcode":"HX3 6AW","la":"Calderdale","era":"mod","nn":667,"risk":29,"cat":"green"},{"name":"Bierkeller","lat":53.72151,"lon":-1.8624,"postcode":"HX1 1LW","la":"Calderdale","era":"other","nn":15,"risk":24,"cat":"green"},{"name":"Bottomleys Arms","lat":53.75416,"lon":-1.81415,"postcode":"HX3 7NT","la":"Calderdale","era":"trad","nn":546,"risk":45,"cat":"amber"},{"name":"Bow Legged With Brass","lat":53.722,"lon":-1.86289,"postcode":"HX1 1HA","la":"Calderdale","era":"other","nn":43,"risk":24,"cat":"green"},{"name":"Bradshaw Cricket Club","lat":53.7719,"lon":-1.87464,"postcode":"HX2 9XB","la":"Calderdale","era":"other","nn":647,"risk":34,"cat":"amber"},{"name":"Bromley's","lat":53.70632,"lon":-1.87087,"postcode":"HX3 0JQ","la":"Calderdale","era":"other","nn":0,"risk":24,"cat":"green"},{"name":"Cat I`th` Well Inn","lat":53.75152,"lon":-1.9412,"postcode":"HX2 7TR","la":"Calderdale","era":"trad","nn":1868,"risk":60,"cat":"amber"},{"name":"Causeway Foot Inn","lat":53.77495,"lon":-1.89619,"postcode":"HX2 8XX","la":"Calderdale","era":"trad","nn":1204,"risk":55,"cat":"amber"},{"name":"Chef Richard Fagg Limited","lat":53.75723,"lon":-1.80768,"postcode":"HX3 7RB","la":"Calderdale","era":"other","nn":0,"risk":29,"cat":"green"},{"name":"Church Stile Inn","lat":53.70601,"lon":-1.93569,"postcode":"HX6 1JZ","la":"Calderdale","era":"trad","nn":1299,"risk":56,"cat":"amber"},{"name":"Cock 'O' The North","lat":53.72225,"lon":-1.81087,"postcode":"HX3 8EF","la":"Calderdale","era":"other","nn":498,"risk":45,"cat":"amber"},{"name":"Coopers Kitchen And Bar","lat":53.68515,"lon":-1.83742,"postcode":"HX5 0DQ","la":"Calderdale","era":"other","nn":174,"risk":25,"cat":"green"},{"name":"Copley Cricket Club","lat":53.69893,"lon":-1.87221,"postcode":"HX3 0UG","la":"Calderdale","era":"other","nn":0,"risk":24,"cat":"green"},{"name":"Craft","lat":53.68672,"lon":-1.85609,"postcode":"HX4 8AG","la":"Calderdale","era":"mod","nn":116,"risk":27,"cat":"green"},{"name":"Dapur Nin Indonesian Cuisine","lat":53.7405,"lon":-2.01409,"postcode":"HX7 8EE","la":"Calderdale","era":"other","nn":121,"risk":25,"cat":"green"},{"name":"Drink\\\\?","lat":53.74128,"lon":-2.01538,"postcode":"HX7 6EU","la":"Calderdale","era":"other","nn":121,"risk":25,"cat":"green"},{"name":"Duke Of Wellington","lat":53.72194,"lon":-1.86117,"postcode":"HX1 1TA","la":"Calderdale","era":"trad","nn":69,"risk":24,"cat":"green"},{"name":"Elland Working Mens Club","lat":53.68187,"lon":-1.8374,"postcode":"HX5 0HT","la":"Calderdale","era":"trad","nn":302,"risk":26,"cat":"green"},{"name":"Gin Lane","lat":53.72214,"lon":-1.86229,"postcode":"HX1 1NH","la":"Calderdale","era":"other","nn":43,"risk":24,"cat":"green"},{"name":"Golden Fleece Inn","lat":53.76807,"lon":-1.88206,"postcode":"HX2 9UZ","la":"Calderdale","era":"trad","nn":647,"risk":49,"cat":"amber"},{"name":"Greetland All Rounders","lat":53.68977,"lon":-1.89557,"postcode":"HX4 8PS","la":"Calderdale","era":"other","nn":1472,"risk":57,"cat":"amber"},{"name":"Greetland Cricket \\\\& Bowling Club","lat":53.68673,"lon":-1.85784,"postcode":"HX4 8BA","la":"Calderdale","era":"other","nn":116,"risk":27,"cat":"green"},{"name":"Greetland Social Club","lat":53.68841,"lon":-1.87039,"postcode":"HX4 8JE","la":"Calderdale","era":"mod","nn":680,"risk":31,"cat":"amber"},{"name":"Halifax Catholic Memorial Club","lat":53.72135,"lon":-1.86899,"postcode":"HX1 5ER","la":"Calderdale","era":"other","nn":251,"risk":26,"cat":"green"},{"name":"Halifax Farm Meats Ltd","lat":53.7405,"lon":-1.91976,"postcode":"HX2 0UT","la":"Calderdale","era":"other","nn":1557,"risk":57,"cat":"amber"},{"name":"Halifax Snooker Club","lat":53.72028,"lon":-1.86049,"postcode":"HX1 2JE","la":"Calderdale","era":"other","nn":53,"risk":24,"cat":"green"},{"name":"Halifax Vandals RUFC","lat":53.72202,"lon":-1.92148,"postcode":"HX2 7SL","la":"Calderdale","era":"other","nn":543,"risk":45,"cat":"amber"},{"name":"Hebden Bridge Sports & Social Club","lat":53.74121,"lon":-2.01138,"postcode":"HX7 8AH","la":"Calderdale","era":"mod","nn":56,"risk":24,"cat":"green"},{"name":"Hill Crest Bowling Club","lat":53.71322,"lon":-1.91368,"postcode":"HX6 2EX","la":"Calderdale","era":"other","nn":397,"risk":27,"cat":"green"},{"name":"Hipperholme & Lightcliffe Bowling Club","lat":53.72673,"lon":-1.81109,"postcode":"HX3 8NE","la":"Calderdale","era":"other","nn":498,"risk":45,"cat":"amber"},{"name":"Indii Brew Co.","lat":53.67467,"lon":-1.94171,"postcode":"HX6 4BG","la":"Calderdale","era":"mod","nn":4,"risk":24,"cat":"green"},{"name":"Ivy House Inn","lat":53.75206,"lon":-1.87523,"postcode":"HX2 9BB","la":"Calderdale","era":"other","nn":977,"risk":51,"cat":"amber"},{"name":"Kuja","lat":53.70842,"lon":-1.91219,"postcode":"HX6 2QD","la":"Calderdale","era":"other","nn":64,"risk":24,"cat":"green"},{"name":"La Salsa","lat":53.72283,"lon":-1.86309,"postcode":"HX1 1HS","la":"Calderdale","era":"other","nn":0,"risk":24,"cat":"green"},{"name":"Lee Mount Club","lat":53.73343,"lon":-1.87833,"postcode":"HX3 5EQ","la":"Calderdale","era":"other","nn":515,"risk":33,"cat":"amber"},{"name":"LEGENDS","lat":53.72331,"lon":-1.85987,"postcode":"HX1 1TJ","la":"Calderdale","era":"other","nn":12,"risk":24,"cat":"green"},{"name":"Lord Nelson Inn","lat":53.73192,"lon":-1.93918,"postcode":"HX2 6PX","la":"Calderdale","era":"trad","nn":1594,"risk":58,"cat":"amber"},{"name":"Luddendenfoot Cricket Club","lat":53.71915,"lon":-1.95654,"postcode":"HX2 6LD","la":"Calderdale","era":"other","nn":1822,"risk":59,"cat":"amber"},{"name":"Maypole Inn","lat":53.72009,"lon":-1.91389,"postcode":"HX2 7RZ","la":"Calderdale","era":"trad","nn":462,"risk":30,"cat":"green"},{"name":"Meandering Bear Limited","lat":53.72147,"lon":-1.8582,"postcode":"HX1 1PR","la":"Calderdale","era":"other","nn":90,"risk":25,"cat":"green"},{"name":"Navigation Inn","lat":53.71049,"lon":-1.90009,"postcode":"HX6 3LF","la":"Calderdale","era":"trad","nn":99,"risk":25,"cat":"green"},{"name":"Nelsons Wine Bar","lat":53.74174,"lon":-2.0122,"postcode":"HX7 8EH","la":"Calderdale","era":"trad","nn":55,"risk":24,"cat":"green"},{"name":"Northowram Conservative Club","lat":53.74048,"lon":-1.83092,"postcode":"HX3 7EJ","la":"Calderdale","era":"trad","nn":578,"risk":48,"cat":"amber"},{"name":"Old Crossleyans Rugby Union Football Club","lat":53.70491,"lon":-1.8718,"postcode":"HX3 0JE","la":"Calderdale","era":"trad","nn":168,"risk":25,"cat":"green"},{"name":"Old Rishworthians RUFC","lat":53.69893,"lon":-1.87221,"postcode":"HX3 0UG","la":"Calderdale","era":"other","nn":0,"risk":24,"cat":"green"},{"name":"Packhorse Inn","lat":53.78125,"lon":-2.07502,"postcode":"HX7 7AT","la":"Calderdale","era":"trad","nn":5003,"risk":82,"cat":"red"},{"name":"Pellon Social Club","lat":53.73209,"lon":-1.90084,"postcode":"HX2 0HF","la":"Calderdale","era":"mod","nn":731,"risk":49,"cat":"amber"},{"name":"Percy Shaw","lat":53.72514,"lon":-1.86011,"postcode":"HX1 1UX","la":"Calderdale","era":"other","nn":199,"risk":25,"cat":"green"},{"name":"Plummet Line Hotel Halifax","lat":53.72116,"lon":-1.86373,"postcode":"HX1 2EF","la":"Calderdale","era":"other","nn":84,"risk":25,"cat":"green"},{"name":"Puzzle Hall Inn","lat":53.70969,"lon":-1.91451,"postcode":"HX6 2RF","la":"Calderdale","era":"trad","nn":94,"risk":25,"cat":"green"},{"name":"Queen Hotel","lat":53.68515,"lon":-1.85854,"postcode":"HX4 8BD","la":"Calderdale","era":"trad","nn":182,"risk":28,"cat":"green"},{"name":"Queens Head Tavern (Wet Sales)","lat":53.74857,"lon":-1.88887,"postcode":"HX2 8HG","la":"Calderdale","era":"trad","nn":912,"risk":35,"cat":"amber"},{"name":"Railway","lat":53.74076,"lon":-2.01178,"postcode":"HX7 8AD","la":"Calderdale","era":"trad","nn":20,"risk":24,"cat":"green"},{"name":"Railway Hotel","lat":53.74265,"lon":-1.87928,"postcode":"HX3 5SJ","la":"Calderdale","era":"trad","nn":627,"risk":46,"cat":"amber"},{"name":"Railway Hotel","lat":53.72124,"lon":-1.85636,"postcode":"HX1 1QE","la":"Calderdale","era":"trad","nn":123,"risk":25,"cat":"green"},{"name":"Ripponden Conservative Club","lat":53.67524,"lon":-1.94091,"postcode":"HX6 4BG","la":"Calderdale","era":"other","nn":80,"risk":25,"cat":"green"},{"name":"Ripponden Wine Co.","lat":53.67469,"lon":-1.94167,"postcode":"HX6 4BG","la":"Calderdale","era":"mod","nn":4,"risk":24,"cat":"green"},{"name":"Robin Hood Inn","lat":53.72187,"lon":-1.98991,"postcode":"HX7 5SQ","la":"Calderdale","era":"trad","nn":1024,"risk":54,"cat":"amber"},{"name":"Royal Oak Hotel","lat":53.70701,"lon":-1.91408,"postcode":"HX6 3AT","la":"Calderdale","era":"trad","nn":59,"risk":24,"cat":"green"},{"name":"Ryburn Golf Club","lat":53.69988,"lon":-1.91,"postcode":"HX6 3QP","la":"Calderdale","era":"other","nn":680,"risk":29,"cat":"green"},{"name":"Savile Bowling Club","lat":53.74236,"lon":-2.02948,"postcode":"HX7 6ND","la":"Calderdale","era":"other","nn":935,"risk":48,"cat":"amber"},{"name":"Shay Stadium Catering Ltd (Wet Sales Only)","lat":53.71545,"lon":-1.8572,"postcode":"HX1 2YT","la":"Calderdale","era":"other","nn":307,"risk":26,"cat":"green"},{"name":"Shears Inn","lat":53.71331,"lon":-1.85427,"postcode":"HX3 9EZ","la":"Calderdale","era":"trad","nn":307,"risk":26,"cat":"green"},{"name":"Shibden Mill Inn","lat":53.74156,"lon":-1.84788,"postcode":"HX3 7UL","la":"Calderdale","era":"trad","nn":1122,"risk":54,"cat":"amber"},{"name":"Shoulder Of Mutton","lat":53.74215,"lon":-2.01267,"postcode":"HX7 8EX","la":"Calderdale","era":"other","nn":0,"risk":24,"cat":"green"},{"name":"Shoulder Of Mutton","lat":53.75723,"lon":-1.80768,"postcode":"HX3 7RB","la":"Calderdale","era":"other","nn":0,"risk":29,"cat":"green"},{"name":"Shoulder Of Mutton Inn","lat":53.72996,"lon":-1.98248,"postcode":"HX7 5DZ","la":"Calderdale","era":"trad","nn":1024,"risk":54,"cat":"amber"},{"name":"Siddal Place Hotel","lat":53.70743,"lon":-1.8504,"postcode":"HX3 9BJ","la":"Calderdale","era":"other","nn":630,"risk":33,"cat":"amber"},{"name":"Southowram Social Club","lat":53.70812,"lon":-1.83135,"postcode":"HX3 9QZ","la":"Calderdale","era":"other","nn":1256,"risk":55,"cat":"amber"},{"name":"Southwood Masonic Hall","lat":53.70632,"lon":-1.87087,"postcode":"HX3 0JQ","la":"Calderdale","era":"trad","nn":0,"risk":24,"cat":"green"},{"name":"Sowerby Bridge Church Inst CC","lat":53.71634,"lon":-1.91691,"postcode":"HX6 2UB","la":"Calderdale","era":"other","nn":407,"risk":27,"cat":"green"},{"name":"Sowerby Bridge Cricket Club","lat":53.70892,"lon":-1.9151,"postcode":"HX6 1AN","la":"Calderdale","era":"other","nn":94,"risk":25,"cat":"green"},{"name":"Sowerby Bridge Working Mens Club","lat":53.71046,"lon":-1.904,"postcode":"HX6 2AL","la":"Calderdale","era":"trad","nn":103,"risk":25,"cat":"green"},{"name":"Stafford Bowling Club","lat":53.70916,"lon":-1.85952,"postcode":"HX3 0BH","la":"Calderdale","era":"other","nn":576,"risk":28,"cat":"green"},{"name":"Stainland Stags ARLFC","lat":53.67173,"lon":-1.88353,"postcode":"HX4 9HF","la":"Calderdale","era":"trad","nn":1729,"risk":59,"cat":"amber"},{"name":"Standard Of Freedom","lat":53.70226,"lon":-1.8678,"postcode":"HX3 0TE","la":"Calderdale","era":"other","nn":395,"risk":27,"cat":"green"},{"name":"Star Inn","lat":53.68947,"lon":-1.86023,"postcode":"HX4 8HH","la":"Calderdale","era":"trad","nn":342,"risk":29,"cat":"green"},{"name":"The Barum Top Inn","lat":53.72162,"lon":-1.86262,"postcode":"HX1 1NL","la":"Calderdale","era":"trad","nn":20,"risk":24,"cat":"green"},{"name":"The Blind Pig","lat":53.7091,"lon":-1.91064,"postcode":"HX6 2EQ","la":"Calderdale","era":"other","nn":27,"risk":24,"cat":"green"},{"name":"The Bull On The Bridge","lat":53.70873,"lon":-1.91137,"postcode":"HX6 2EA","la":"Calderdale","era":"trad","nn":60,"risk":24,"cat":"green"},{"name":"The Caddy Shack Club House Bar \\\\& Grill","lat":53.68661,"lon":-1.8384,"postcode":"HX5 0BJ","la":"Calderdale","era":"mod","nn":171,"risk":25,"cat":"green"},{"name":"The Commercial Inn","lat":53.7096,"lon":-1.90794,"postcode":"HX6 2LA","la":"Calderdale","era":"trad","nn":179,"risk":25,"cat":"green"},{"name":"The Courtyard","lat":53.72065,"lon":-1.85999,"postcode":"HX1 1BX","la":"Calderdale","era":"mod","nn":40,"risk":24,"cat":"green"},{"name":"The Drop Inn","lat":53.68689,"lon":-1.83227,"postcode":"HX5 9DU","la":"Calderdale","era":"trad","nn":236,"risk":26,"cat":"green"},{"name":"The Feathers","lat":53.7145,"lon":-1.88284,"postcode":"HX1 3JL","la":"Calderdale","era":"other","nn":277,"risk":46,"cat":"amber"},{"name":"The Flying Dutchman","lat":53.73384,"lon":-1.86495,"postcode":"HX3 6HG","la":"Calderdale","era":"other","nn":782,"risk":34,"cat":"amber"},{"name":"The Flying Pig","lat":53.74117,"lon":-1.89602,"postcode":"HX2 8TX","la":"Calderdale","era":"other","nn":947,"risk":51,"cat":"amber"},{"name":"The Friendly Inn","lat":53.73762,"lon":-1.87497,"postcode":"HX3 5QG","la":"Calderdale","era":"trad","nn":515,"risk":33,"cat":"amber"},{"name":"The Grayston Unity","lat":53.72085,"lon":-1.85905,"postcode":"HX1 1PU","la":"Calderdale","era":"other","nn":39,"risk":24,"cat":"green"},{"name":"The Griffin Inn","lat":53.67589,"lon":-1.91268,"postcode":"HX4 0AQ","la":"Calderdale","era":"trad","nn":1861,"risk":60,"cat":"amber"},{"name":"The Hollins Mill Pub","lat":53.70894,"lon":-1.9127,"postcode":"HX6 2QG","la":"Calderdale","era":"trad","nn":67,"risk":24,"cat":"green"},{"name":"The Hourglass Bar","lat":53.72178,"lon":-1.85953,"postcode":"HX1 1DU","la":"Calderdale","era":"other","nn":77,"risk":25,"cat":"green"},{"name":"The Irish Centre","lat":53.71992,"lon":-1.86604,"postcode":"HX1 2EQ","la":"Calderdale","era":"other","nn":205,"risk":25,"cat":"green"},{"name":"The Jubilee","lat":53.72275,"lon":-1.8591,"postcode":"HX1 1PB","la":"Calderdale","era":"other","nn":80,"risk":25,"cat":"green"},{"name":"The Last Drop / Lewins Ale House","lat":53.72185,"lon":-1.86423,"postcode":"HX1 5AB","la":"Calderdale","era":"other","nn":84,"risk":25,"cat":"green"},{"name":"The Last Post","lat":53.67414,"lon":-1.94205,"postcode":"HX6 4DA","la":"Calderdale","era":"other","nn":18,"risk":24,"cat":"green"},{"name":"The Lightcliffe Club (rating For Wet Sales)","lat":53.72453,"lon":-1.80425,"postcode":"HX3 8AU","la":"Calderdale","era":"other","nn":503,"risk":45,"cat":"amber"},{"name":"The Loose Goose Inn","lat":53.70703,"lon":-1.91319,"postcode":"HX6 3AN","la":"Calderdale","era":"trad","nn":59,"risk":24,"cat":"green"},{"name":"The Malt House Bar & Restaurant","lat":53.66051,"lon":-1.94953,"postcode":"HX6 4QB","la":"Calderdale","era":"mod","nn":1461,"risk":57,"cat":"amber"},{"name":"The Nut House","lat":53.72283,"lon":-1.86309,"postcode":"HX1 1HS","la":"Calderdale","era":"other","nn":0,"risk":24,"cat":"green"},{"name":"The Royal Oak","lat":53.72056,"lon":-1.8594,"postcode":"HX1 2HX","la":"Calderdale","era":"trad","nn":39,"risk":24,"cat":"green"},{"name":"The Shepherds Rest","lat":53.71137,"lon":-1.9003,"postcode":"HX6 2BD","la":"Calderdale","era":"other","nn":99,"risk":25,"cat":"green"},{"name":"The Silk Mill","lat":53.67414,"lon":-1.94232,"postcode":"HX6 4EB","la":"Calderdale","era":"trad","nn":18,"risk":24,"cat":"green"},{"name":"The Swan Tavern","lat":53.67323,"lon":-1.94399,"postcode":"HX6 4DP","la":"Calderdale","era":"trad","nn":149,"risk":25,"cat":"green"},{"name":"The Victorian Craft Beer Cafe","lat":53.72144,"lon":-1.8622,"postcode":"HX1 1LN","la":"Calderdale","era":"other","nn":15,"risk":24,"cat":"green"},{"name":"The Watchmakers Bar And Grill","lat":53.72282,"lon":-1.86104,"postcode":"HX1 1TQ","la":"Calderdale","era":"mod","nn":36,"risk":24,"cat":"green"},{"name":"Union Cross","lat":53.72335,"lon":-1.86004,"postcode":"HX1 1TN","la":"Calderdale","era":"trad","nn":12,"risk":24,"cat":"green"},{"name":"Upper George Hotel","lat":53.72308,"lon":-1.86136,"postcode":"HX1 1TT","la":"Calderdale","era":"trad","nn":36,"risk":24,"cat":"green"},{"name":"Vocation And Co Halifax","lat":53.72145,"lon":-1.86055,"postcode":"HX1 1BS","la":"Calderdale","era":"other","nn":24,"risk":24,"cat":"green"},{"name":"Vocation Brewery","lat":53.74069,"lon":-2.0115,"postcode":"HX7 8AD","la":"Calderdale","era":"other","nn":20,"risk":24,"cat":"green"},{"name":"Wainhouse Tavern","lat":53.71337,"lon":-1.8866,"postcode":"HX2 7DR","la":"Calderdale","era":"mod","nn":277,"risk":31,"cat":"amber"},{"name":"Wellington Inn","lat":53.68395,"lon":-1.83445,"postcode":"HX5 0DQ","la":"Calderdale","era":"trad","nn":238,"risk":26,"cat":"green"},{"name":"West End Bowling Club","lat":53.70484,"lon":-1.91605,"postcode":"HX6 3BB","la":"Calderdale","era":"other","nn":273,"risk":26,"cat":"green"},{"name":"West End Golf Club","lat":53.72652,"lon":-1.90674,"postcode":"HX2 0NT","la":"Calderdale","era":"other","nn":731,"risk":47,"cat":"amber"},{"name":"White Lion Inn","lat":53.74934,"lon":-2.02136,"postcode":"HX7 7NB","la":"Calderdale","era":"trad","nn":942,"risk":33,"cat":"amber"},{"name":"White Swan Hotel","lat":53.74215,"lon":-2.01267,"postcode":"HX7 8EX","la":"Calderdale","era":"trad","nn":0,"risk":24,"cat":"green"},{"name":"William Iv Inn","lat":53.70994,"lon":-1.90529,"postcode":"HX6 2AF","la":"Calderdale","era":"trad","nn":103,"risk":25,"cat":"green"},{"name":"Windmill Tavern Kitchen","lat":53.73529,"lon":-1.83053,"postcode":"HX3 7BZ","la":"Calderdale","era":"other","nn":578,"risk":48,"cat":"amber"},{"name":"Yates Halifax","lat":53.72269,"lon":-1.86256,"postcode":"HX1 1HS","la":"Calderdale","era":"other","nn":38,"risk":24,"cat":"green"}]