[{"name":"Albion Hotel","lat":51.40256,"lon":-0.34421,"postcode":"KT8 9HA","la":"Elmbridge","era":"other","nn":34,"risk":26,"cat":"green"},{"name":"Ashley Park","lat":51.37345,"lon":-0.41489,"postcode":"KT12 1JP","la":"Elmbridge","era":"other","nn":886,"risk":49,"cat":"amber"},{"name":"Barley Mow","lat":51.3684,"lon":-0.39688,"postcode":"KT12 4RS","la":"Elmbridge","era":"other","nn":144,"risk":27,"cat":"green"},{"name":"Black Swan","lat":51.30452,"lon":-0.43917,"postcode":"KT11 1NG","la":"Elmbridge","era":"trad","nn":2065,"risk":63,"cat":"red"},{"name":"Bricklayers Arms","lat":51.3663,"lon":-0.40213,"postcode":"KT12 5LS","la":"Elmbridge","era":"trad","nn":194,"risk":27,"cat":"green"},{"name":"Brightwater Brewery","lat":51.36102,"lon":-0.34828,"postcode":"KT10 0PB","la":"Elmbridge","era":"other","nn":259,"risk":27,"cat":"green"},{"name":"Burhill Golf Club","lat":51.35275,"lon":-0.4173,"postcode":"KT12 4BX","la":"Elmbridge","era":"other","nn":0,"risk":28,"cat":"green"},{"name":"Burwood Artisan Golf Club","lat":51.35275,"lon":-0.4173,"postcode":"KT12 4BX","la":"Elmbridge","era":"other","nn":0,"risk":28,"cat":"green"},{"name":"Clubhouse Solutions","lat":51.36385,"lon":-0.36176,"postcode":"KT10 9DU","la":"Elmbridge","era":"mod","nn":584,"risk":30,"cat":"green"},{"name":"Cobham Bowling Club","lat":51.33199,"lon":-0.41438,"postcode":"KT11 2AY","la":"Elmbridge","era":"other","nn":204,"risk":27,"cat":"green"},{"name":"Cobham Ex Servicemen's Club","lat":51.32884,"lon":-0.41186,"postcode":"KT11 3DG","la":"Elmbridge","era":"other","nn":50,"risk":26,"cat":"green"},{"name":"Cobham Football Club","lat":51.33018,"lon":-0.41391,"postcode":"KT11 1AF","la":"Elmbridge","era":"other","nn":176,"risk":27,"cat":"green"},{"name":"Cobham Rugby & Sports Association","lat":51.33879,"lon":-0.3944,"postcode":"KT11 2BU","la":"Elmbridge","era":"other","nn":1580,"risk":59,"cat":"amber"},{"name":"Cobham Village Club","lat":51.33225,"lon":-0.41878,"postcode":"KT11 1HZ","la":"Elmbridge","era":"other","nn":307,"risk":28,"cat":"green"},{"name":"Coppa Club","lat":51.32929,"lon":-0.41181,"postcode":"KT11 1AA","la":"Elmbridge","era":"other","nn":50,"risk":26,"cat":"green"},{"name":"Downside Sports & Social Club","lat":51.31106,"lon":-0.40958,"postcode":"KT11 3NU","la":"Elmbridge","era":"mod","nn":171,"risk":47,"cat":"amber"},{"name":"East Molesey Cricket Club","lat":51.40843,"lon":-0.35391,"postcode":"KT8 9AL","la":"Elmbridge","era":"other","nn":297,"risk":28,"cat":"green"},{"name":"Elmbridge Arms","lat":51.37293,"lon":-0.45812,"postcode":"KT13 8AB","la":"Elmbridge","era":"trad","nn":353,"risk":28,"cat":"green"},{"name":"Elmbridge Canoe Club","lat":51.38174,"lon":-0.45379,"postcode":"KT13 8LT","la":"Elmbridge","era":"trad","nn":216,"risk":27,"cat":"green"},{"name":"Ember Sports Club","lat":51.38606,"lon":-0.35823,"postcode":"KT10 8HL","la":"Elmbridge","era":"other","nn":748,"risk":36,"cat":"amber"},{"name":"Esher Bowling Club","lat":51.36989,"lon":-0.36073,"postcode":"KT10 9RP","la":"Elmbridge","era":"other","nn":282,"risk":28,"cat":"green"},{"name":"Esher Cricket Club","lat":51.36813,"lon":-0.35613,"postcode":"KT10 9NU","la":"Elmbridge","era":"other","nn":375,"risk":28,"cat":"green"},{"name":"Esher Rugby Club","lat":51.37894,"lon":-0.38951,"postcode":"KT12 3PF","la":"Elmbridge","era":"other","nn":380,"risk":46,"cat":"amber"},{"name":"Esher War Memorial Club","lat":51.36816,"lon":-0.36823,"postcode":"KT10 9QJ","la":"Elmbridge","era":"other","nn":188,"risk":27,"cat":"green"},{"name":"Ex Molesey Football Club","lat":51.402,"lon":-0.36745,"postcode":"KT8 2JG","la":"Elmbridge","era":"other","nn":211,"risk":27,"cat":"green"},{"name":"George & Dragon","lat":51.39007,"lon":-0.33347,"postcode":"KT7 0RY","la":"Elmbridge","era":"trad","nn":182,"risk":27,"cat":"green"},{"name":"Georgie's Coffee House and Wine Bar","lat":51.37473,"lon":-0.33796,"postcode":"KT10 0SH","la":"Elmbridge","era":"mod","nn":857,"risk":37,"cat":"amber"},{"name":"Hare and Hounds","lat":51.35992,"lon":-0.33949,"postcode":"KT10 0JL","la":"Elmbridge","era":"trad","nn":319,"risk":33,"cat":"amber"},{"name":"Heaven & Hell Catering Ltd","lat":51.36767,"lon":-0.3986,"postcode":"KT12 4RS","la":"Elmbridge","era":"other","nn":144,"risk":27,"cat":"green"},{"name":"Hersham Bowling Club","lat":51.3723,"lon":-0.39442,"postcode":"KT12 4QZ","la":"Elmbridge","era":"other","nn":467,"risk":29,"cat":"green"},{"name":"Hersham Golf Club","lat":51.37554,"lon":-0.39009,"postcode":"KT12 4RA","la":"Elmbridge","era":"other","nn":380,"risk":31,"cat":"amber"},{"name":"Hersham Sports & Social Club","lat":51.37095,"lon":-0.40276,"postcode":"KT12 5QL","la":"Elmbridge","era":"mod","nn":118,"risk":26,"cat":"green"},{"name":"Hummings","lat":51.36965,"lon":-0.36487,"postcode":"KT10 9RQ","la":"Elmbridge","era":"other","nn":7,"risk":26,"cat":"green"},{"name":"Imber Court Sports Club","lat":51.39076,"lon":-0.35004,"postcode":"KT8 0BT","la":"Elmbridge","era":"other","nn":663,"risk":30,"cat":"green"},{"name":"Island Barn Reservoir Sailing Club","lat":51.39618,"lon":-0.36885,"postcode":"KT8 2LF","la":"Elmbridge","era":"other","nn":655,"risk":33,"cat":"amber"},{"name":"Kingston Grammar Sports Field","lat":51.39363,"lon":-0.33344,"postcode":"KT7 0QQ","la":"Elmbridge","era":"trad","nn":0,"risk":26,"cat":"green"},{"name":"Long Ditton Cricket Club","lat":51.38333,"lon":-0.32137,"postcode":"KT6 5HT","la":"Elmbridge","era":"other","nn":222,"risk":27,"cat":"green"},{"name":"Marney's Village Inn","lat":51.38378,"lon":-0.34809,"postcode":"KT10 8JN","la":"Elmbridge","era":"trad","nn":195,"risk":27,"cat":"green"},{"name":"Marquis of Granby","lat":51.37839,"lon":-0.35053,"postcode":"KT10 9AL","la":"Elmbridge","era":"other","nn":0,"risk":26,"cat":"green"},{"name":"Minnow","lat":51.38032,"lon":-0.45591,"postcode":"KT13 8NG","la":"Elmbridge","era":"trad","nn":189,"risk":27,"cat":"green"},{"name":"Molesey Boat Club","lat":51.40473,"lon":-0.34642,"postcode":"KT8 9AJ","la":"Elmbridge","era":"other","nn":252,"risk":27,"cat":"green"},{"name":"Oatlands Park Village Club","lat":51.37062,"lon":-0.43757,"postcode":"KT13 9PZ","la":"Elmbridge","era":"other","nn":312,"risk":33,"cat":"amber"},{"name":"Old Cranleighan Sports Club","lat":51.38204,"lon":-0.34185,"postcode":"KT7 0HB","la":"Elmbridge","era":"other","nn":376,"risk":28,"cat":"green"},{"name":"Old Manor Inn","lat":51.38914,"lon":-0.42224,"postcode":"KT12 2NZ","la":"Elmbridge","era":"trad","nn":108,"risk":26,"cat":"green"},{"name":"Old Plough","lat":51.31955,"lon":-0.38876,"postcode":"KT11 3BN","la":"Elmbridge","era":"trad","nn":263,"risk":47,"cat":"amber"},{"name":"Oxshott Village Sports Club","lat":51.33127,"lon":-0.36574,"postcode":"KT22 0RF","la":"Elmbridge","era":"other","nn":255,"risk":32,"cat":"amber"},{"name":"Prince of Wales","lat":51.40284,"lon":-0.3444,"postcode":"KT8 9EU","la":"Elmbridge","era":"trad","nn":34,"risk":26,"cat":"green"},{"name":"Prince of Wales","lat":51.36463,"lon":-0.37909,"postcode":"KT10 8LA","la":"Elmbridge","era":"trad","nn":850,"risk":52,"cat":"amber"},{"name":"Reeds Weybridge RFC Ltd","lat":51.35328,"lon":-0.42984,"postcode":"KT12 4EJ","la":"Elmbridge","era":"other","nn":203,"risk":27,"cat":"green"},{"name":"Royal British Legion Club","lat":51.39895,"lon":-0.35426,"postcode":"KT8 0ST","la":"Elmbridge","era":"trad","nn":121,"risk":26,"cat":"green"},{"name":"Sextons Bar","lat":51.38211,"lon":-0.34726,"postcode":"KT7 0JP","la":"Elmbridge","era":"other","nn":195,"risk":27,"cat":"green"},{"name":"Silvermere Golf Club, Inn on Lake","lat":51.33511,"lon":-0.45232,"postcode":"KT11 1EF","la":"Elmbridge","era":"trad","nn":1269,"risk":57,"cat":"amber"},{"name":"St. Georges Hill Artisan Section","lat":51.35191,"lon":-0.45018,"postcode":"KT13 0NL","la":"Elmbridge","era":"trad","nn":0,"risk":46,"cat":"amber"},{"name":"St. Georges Hill Golf Club","lat":51.35191,"lon":-0.45018,"postcode":"KT13 0NL","la":"Elmbridge","era":"trad","nn":0,"risk":46,"cat":"amber"},{"name":"St. Georges Hill Lawn Tennis Club","lat":51.35749,"lon":-0.4385,"postcode":"KT13 0LL","la":"Elmbridge","era":"trad","nn":762,"risk":36,"cat":"amber"},{"name":"Stoke D'Abernon Cricket Club","lat":51.32049,"lon":-0.38528,"postcode":"KT11 3PS","la":"Elmbridge","era":"other","nn":263,"risk":47,"cat":"amber"},{"name":"Surbiton Golf Club","lat":51.3699,"lon":-0.32444,"postcode":"KT9 1UG","la":"Elmbridge","era":"other","nn":940,"risk":52,"cat":"amber"},{"name":"Surbiton Hockey Club","lat":51.38287,"lon":-0.32447,"postcode":"KT7 0AE","la":"Elmbridge","era":"other","nn":222,"risk":27,"cat":"green"},{"name":"Thames Ditton & Esher Golf Club","lat":51.37838,"lon":-0.35053,"postcode":"KT10 9AL","la":"Elmbridge","era":"other","nn":0,"risk":26,"cat":"green"},{"name":"Thames Ditton Cricket Club","lat":51.38693,"lon":-0.33128,"postcode":"KT7 0BT","la":"Elmbridge","era":"other","nn":216,"risk":27,"cat":"green"},{"name":"Thames Ditton Lawn Tennis Club","lat":51.3882,"lon":-0.34141,"postcode":"KT7 0HX","la":"Elmbridge","era":"other","nn":589,"risk":30,"cat":"green"},{"name":"The Albany","lat":51.3964,"lon":-0.33628,"postcode":"KT7 0QY","la":"Elmbridge","era":"other","nn":112,"risk":26,"cat":"green"},{"name":"The Albert Arms","lat":51.36933,"lon":-0.36626,"postcode":"KT10 9QS","la":"Elmbridge","era":"trad","nn":103,"risk":26,"cat":"green"},{"name":"The Angel Inn","lat":51.38558,"lon":-0.32904,"postcode":"KT7 0AU","la":"Elmbridge","era":"trad","nn":216,"risk":27,"cat":"green"},{"name":"The Anglers","lat":51.39007,"lon":-0.4218,"postcode":"KT12 2PF","la":"Elmbridge","era":"other","nn":0,"risk":26,"cat":"green"},{"name":"The Bear","lat":51.32717,"lon":-0.40922,"postcode":"KT11 3DX","la":"Elmbridge","era":"other","nn":261,"risk":27,"cat":"green"},{"name":"The Bear","lat":51.36968,"lon":-0.36478,"postcode":"KT10 9RQ","la":"Elmbridge","era":"other","nn":7,"risk":26,"cat":"green"},{"name":"The Bear Inn","lat":51.32934,"lon":-0.35489,"postcode":"KT22 0JE","la":"Elmbridge","era":"trad","nn":318,"risk":33,"cat":"amber"},{"name":"The Bear Public House","lat":51.38704,"lon":-0.42142,"postcode":"KT12 1AH","la":"Elmbridge","era":"other","nn":0,"risk":26,"cat":"green"},{"name":"The Bell","lat":51.39778,"lon":-0.35429,"postcode":"KT8 0SS","la":"Elmbridge","era":"other","nn":130,"risk":26,"cat":"green"},{"name":"The Cannon Public House","lat":51.40209,"lon":-0.37048,"postcode":"KT8 2NA","la":"Elmbridge","era":"other","nn":211,"risk":27,"cat":"green"},{"name":"The City Arms","lat":51.39105,"lon":-0.32251,"postcode":"KT7 0XE","la":"Elmbridge","era":"trad","nn":261,"risk":27,"cat":"green"},{"name":"The Cricketers","lat":51.31173,"lon":-0.41179,"postcode":"KT11 3NX","la":"Elmbridge","era":"other","nn":171,"risk":47,"cat":"amber"},{"name":"The Dittons Skiff & Punting Club","lat":51.39683,"lon":-0.33482,"postcode":"KT7 0QH","la":"Elmbridge","era":"other","nn":112,"risk":26,"cat":"green"},{"name":"The Europa Public House","lat":51.40111,"lon":-0.35926,"postcode":"KT8 0DX","la":"Elmbridge","era":"other","nn":387,"risk":28,"cat":"green"},{"name":"The Ferry","lat":51.3896,"lon":-0.32546,"postcode":"KT7 0XY","la":"Elmbridge","era":"other","nn":261,"risk":27,"cat":"green"},{"name":"The Flintgate (Food)","lat":51.37296,"lon":-0.44006,"postcode":"KT13 9LA","la":"Elmbridge","era":"other","nn":312,"risk":33,"cat":"amber"},{"name":"The Foley","lat":51.35977,"lon":-0.34514,"postcode":"KT10 0LZ","la":"Elmbridge","era":"other","nn":259,"risk":30,"cat":"green"},{"name":"The Foundry Restaurant & Bar","lat":51.39155,"lon":-0.33235,"postcode":"KT7 0SF","la":"Elmbridge","era":"mod","nn":182,"risk":27,"cat":"green"},{"name":"The George Inn (Food Business)","lat":51.38704,"lon":-0.42142,"postcode":"KT12 1AH","la":"Elmbridge","era":"trad","nn":0,"risk":26,"cat":"green"},{"name":"The Griffin","lat":51.35938,"lon":-0.33497,"postcode":"KT10 0HW","la":"Elmbridge","era":"trad","nn":319,"risk":33,"cat":"amber"},{"name":"The Hand & Spear","lat":51.36251,"lon":-0.45913,"postcode":"KT13 8TX","la":"Elmbridge","era":"other","nn":603,"risk":47,"cat":"amber"},{"name":"The Limping Fox","lat":51.38597,"lon":-0.32412,"postcode":"KT7 0UX","la":"Elmbridge","era":"trad","nn":345,"risk":28,"cat":"green"},{"name":"The Oatlands Chaser","lat":51.37526,"lon":-0.42869,"postcode":"KT13 9RW","la":"Elmbridge","era":"other","nn":804,"risk":34,"cat":"amber"},{"name":"The Old Crown","lat":51.37865,"lon":-0.45547,"postcode":"KT13 8LP","la":"Elmbridge","era":"trad","nn":189,"risk":27,"cat":"green"},{"name":"The Oxshott Club","lat":51.33086,"lon":-0.36213,"postcode":"KT22 0LE","la":"Elmbridge","era":"other","nn":255,"risk":32,"cat":"amber"},{"name":"The Pavilion Sports & Fitness Club","lat":51.40569,"lon":-0.35774,"postcode":"KT8 9DX","la":"Elmbridge","era":"trad","nn":405,"risk":28,"cat":"green"},{"name":"The Plough","lat":51.32171,"lon":-0.41252,"postcode":"KT11 3LT","la":"Elmbridge","era":"trad","nn":649,"risk":30,"cat":"green"},{"name":"The Plough & Harrow","lat":51.38314,"lon":-0.31803,"postcode":"KT6 5JD","la":"Elmbridge","era":"trad","nn":233,"risk":27,"cat":"green"},{"name":"The Poyntz Arms","lat":51.40002,"lon":-0.35396,"postcode":"KT8 0DP","la":"Elmbridge","era":"trad","nn":121,"risk":26,"cat":"green"},{"name":"The Queen's Head","lat":51.37131,"lon":-0.46436,"postcode":"KT13 8XS","la":"Elmbridge","era":"trad","nn":126,"risk":26,"cat":"green"},{"name":"The Regent","lat":51.38707,"lon":-0.41894,"postcode":"KT12 2QP","la":"Elmbridge","era":"other","nn":0,"risk":26,"cat":"green"},{"name":"The Royal George","lat":51.37079,"lon":-0.40109,"postcode":"KT12 5QJ","la":"Elmbridge","era":"trad","nn":118,"risk":26,"cat":"green"},{"name":"The Royal Oak","lat":51.40311,"lon":-0.37319,"postcode":"KT8 2QG","la":"Elmbridge","era":"trad","nn":219,"risk":30,"cat":"green"},{"name":"The Running Mare","lat":51.32433,"lon":-0.40128,"postcode":"KT11 3EZ","la":"Elmbridge","era":"other","nn":635,"risk":33,"cat":"amber"},{"name":"The Swan","lat":51.39007,"lon":-0.4218,"postcode":"KT12 2PF","la":"Elmbridge","era":"trad","nn":0,"risk":26,"cat":"green"},{"name":"The Swan Inn","lat":51.36362,"lon":-0.35336,"postcode":"KT10 9BS","la":"Elmbridge","era":"trad","nn":457,"risk":29,"cat":"green"},{"name":"The Terrace Bar","lat":51.37285,"lon":-0.36498,"postcode":"KT10 8AN","la":"Elmbridge","era":"other","nn":167,"risk":27,"cat":"green"},{"name":"The Victoria","lat":51.33203,"lon":-0.35641,"postcode":"KT22 0JR","la":"Elmbridge","era":"trad","nn":318,"risk":33,"cat":"amber"},{"name":"The Walton Village","lat":51.38571,"lon":-0.4187,"postcode":"KT12 1DG","la":"Elmbridge","era":"other","nn":152,"risk":27,"cat":"green"},{"name":"The Watermans Arms","lat":51.36583,"lon":-0.39944,"postcode":"KT12 5LT","la":"Elmbridge","era":"trad","nn":194,"risk":27,"cat":"green"},{"name":"The Waverley Inn","lat":51.36784,"lon":-0.46065,"postcode":"KT13 8TH","la":"Elmbridge","era":"trad","nn":412,"risk":28,"cat":"green"},{"name":"The Weir Hotel","lat":51.40158,"lon":-0.41111,"postcode":"KT12 2JB","la":"Elmbridge","era":"other","nn":302,"risk":28,"cat":"green"},{"name":"The Wheatsheaf","lat":51.37178,"lon":-0.36666,"postcode":"KT10 8AG","la":"Elmbridge","era":"trad","nn":167,"risk":27,"cat":"green"},{"name":"Tiffinian Association Limited","lat":51.3968,"lon":-0.34734,"postcode":"KT8 9LU","la":"Elmbridge","era":"other","nn":494,"risk":29,"cat":"green"},{"name":"Walton Comrades Club","lat":51.39329,"lon":-0.41475,"postcode":"KT12 2LF","la":"Elmbridge","era":"other","nn":151,"risk":27,"cat":"green"},{"name":"Walton on Thames Cricket Club","lat":51.38186,"lon":-0.42206,"postcode":"KT12 1ET","la":"Elmbridge","era":"other","nn":487,"risk":29,"cat":"green"},{"name":"Walton Rowing Club","lat":51.39446,"lon":-0.41583,"postcode":"KT12 2JA","la":"Elmbridge","era":"other","nn":151,"risk":27,"cat":"green"},{"name":"Walton Working Mens Club","lat":51.38707,"lon":-0.41894,"postcode":"KT12 2QP","la":"Elmbridge","era":"trad","nn":0,"risk":26,"cat":"green"},{"name":"Walton, Hersham & Oatlands Cons Club","lat":51.38879,"lon":-0.41853,"postcode":"KT12 2PB","la":"Elmbridge","era":"other","nn":194,"risk":27,"cat":"green"},{"name":"Walton-on-Thames Bowling Club","lat":51.38356,"lon":-0.41536,"postcode":"KT12 1LH","la":"Elmbridge","era":"other","nn":333,"risk":28,"cat":"green"},{"name":"Weybridge Conservative Club","lat":51.37136,"lon":-0.46254,"postcode":"KT13 8DL","la":"Elmbridge","era":"other","nn":126,"risk":26,"cat":"green"},{"name":"Weybridge Cricket Club","lat":51.36868,"lon":-0.45117,"postcode":"KT13 9BY","la":"Elmbridge","era":"other","nn":665,"risk":30,"cat":"green"},{"name":"Weybridge Vandals RFC & CC","lat":51.38466,"lon":-0.4379,"postcode":"KT12 1QP","la":"Elmbridge","era":"other","nn":747,"risk":51,"cat":"amber"},{"name":"Whiteley Village Club/Therapy Pool","lat":51.35177,"lon":-0.43151,"postcode":"KT12 4DN","la":"Elmbridge","era":"other","nn":203,"risk":27,"cat":"green"},{"name":"Whiteley Village Cricket Club","lat":51.35506,"lon":-0.42683,"postcode":"KT12 4EL","la":"Elmbridge","era":"other","nn":289,"risk":28,"cat":"green"},{"name":"Ye Olde Swan","lat":51.39363,"lon":-0.33344,"postcode":"KT7 0QQ","la":"Elmbridge","era":"trad","nn":0,"risk":26,"cat":"green"},{"name":"Assembly Rooms","lat":51.33275,"lon":-0.26954,"postcode":"KT19 8EH","la":"Epsom and Ewell","era":"mod","nn":91,"risk":28,"cat":"green"},{"name":"Be At One","lat":51.3343,"lon":-0.26642,"postcode":"KT19 8AG","la":"Epsom and Ewell","era":"other","nn":101,"risk":28,"cat":"green"},{"name":"Boogie Lounge","lat":51.33374,"lon":-0.26755,"postcode":"KT19 8AY","la":"Epsom and Ewell","era":"mod","nn":101,"risk":28,"cat":"green"},{"name":"Cricketers Inn","lat":51.3317,"lon":-0.2821,"postcode":"KT18 7SR","la":"Epsom and Ewell","era":"trad","nn":106,"risk":31,"cat":"amber"},{"name":"Derby Arms","lat":51.31452,"lon":-0.2547,"postcode":"KT18 5LE","la":"Epsom and Ewell","era":"trad","nn":1816,"risk":63,"cat":"red"},{"name":"Marquis Of Granby","lat":51.33328,"lon":-0.27189,"postcode":"KT18 7RJ","la":"Epsom and Ewell","era":"other","nn":86,"risk":28,"cat":"green"},{"name":"Mason's Bar","lat":51.36292,"lon":-0.24724,"postcode":"KT17 2HU","la":"Epsom and Ewell","era":"trad","nn":63,"risk":45,"cat":"amber"},{"name":"Mccaffertys","lat":51.33287,"lon":-0.27084,"postcode":"KT19 8BT","la":"Epsom and Ewell","era":"other","nn":86,"risk":28,"cat":"green"},{"name":"Queen Adelaide","lat":51.36354,"lon":-0.25696,"postcode":"KT19 0SH","la":"Epsom and Ewell","era":"trad","nn":653,"risk":50,"cat":"amber"},{"name":"Stir Bar","lat":51.33474,"lon":-0.2638,"postcode":"KT17 1HH","la":"Epsom and Ewell","era":"other","nn":40,"risk":28,"cat":"green"},{"name":"The Barley Mow","lat":51.33409,"lon":-0.25804,"postcode":"KT17 4EA","la":"Epsom and Ewell","era":"other","nn":93,"risk":28,"cat":"green"},{"name":"The Blenheim Arms","lat":51.34057,"lon":-0.27126,"postcode":"KT19 8RA","la":"Epsom and Ewell","era":"trad","nn":774,"risk":33,"cat":"amber"},{"name":"The Ewell Tap & Bottle Shop","lat":51.34728,"lon":-0.25058,"postcode":"KT17 1NP","la":"Epsom and Ewell","era":"mod","nn":83,"risk":33,"cat":"amber"},{"name":"The Famous Green Man","lat":51.34774,"lon":-0.24963,"postcode":"KT17 1RX","la":"Epsom and Ewell","era":"other","nn":83,"risk":33,"cat":"amber"},{"name":"The Faraday","lat":51.33322,"lon":-0.26338,"postcode":"KT17 4NY","la":"Epsom and Ewell","era":"other","nn":172,"risk":29,"cat":"green"},{"name":"The Jolly Coopers","lat":51.3308,"lon":-0.28157,"postcode":"KT18 7SD","la":"Epsom and Ewell","era":"trad","nn":106,"risk":31,"cat":"amber"},{"name":"The Railway Guard Public House","lat":51.33336,"lon":-0.25737,"postcode":"KT17 4DZ","la":"Epsom and Ewell","era":"trad","nn":93,"risk":28,"cat":"green"},{"name":"The Rifleman","lat":51.33467,"lon":-0.26436,"postcode":"KT17 1BB","la":"Epsom and Ewell","era":"other","nn":40,"risk":28,"cat":"green"},{"name":"The Rising Sun","lat":51.33093,"lon":-0.26323,"postcode":"KT18 5DX","la":"Epsom and Ewell","era":"other","nn":181,"risk":29,"cat":"green"},{"name":"The Spring Tavern","lat":51.35144,"lon":-0.25017,"postcode":"KT17 2AY","la":"Epsom and Ewell","era":"other","nn":63,"risk":33,"cat":"amber"},{"name":"The Station","lat":51.36345,"lon":-0.24755,"postcode":"KT17 2JA","la":"Epsom and Ewell","era":"other","nn":63,"risk":45,"cat":"amber"},{"name":"Village Cooks","lat":51.3305,"lon":-0.26004,"postcode":"KT17 4QB","la":"Epsom and Ewell","era":"other","nn":58,"risk":28,"cat":"green"},{"name":"Wheatsheaf Inn","lat":51.35193,"lon":-0.25065,"postcode":"KT17 2AA","la":"Epsom and Ewell","era":"trad","nn":63,"risk":33,"cat":"amber"},{"name":"Ye Olde Kings Head","lat":51.33087,"lon":-0.26062,"postcode":"KT17 4QB","la":"Epsom and Ewell","era":"trad","nn":58,"risk":28,"cat":"green"},{"name":"King William IV","lat":51.26517,"lon":-0.45656,"postcode":"KT24 6BG","la":"Guildford","era":"trad","nn":735,"risk":51,"cat":"amber"},{"name":"The Barley Mow","lat":51.27139,"lon":-0.45298,"postcode":"KT24 6HR","la":"Guildford","era":"other","nn":735,"risk":51,"cat":"amber"},{"name":"The Plough","lat":51.27263,"lon":-0.40182,"postcode":"KT24 5SW","la":"Guildford","era":"trad","nn":141,"risk":47,"cat":"amber"},{"name":"The Queen Stage","lat":51.272,"lon":-0.40006,"postcode":"KT24 5LU","la":"Guildford","era":"trad","nn":141,"risk":47,"cat":"amber"},{"name":"Bacchus Late Bar & Venue","lat":51.40993,"lon":-0.30544,"postcode":"KT1 1RJ","la":"Kingston upon Thames","era":"mod","nn":92,"risk":27,"cat":"green"},{"name":"Bar Malden","lat":51.40349,"lon":-0.25644,"postcode":"KT3 4HG","la":"Kingston upon Thames","era":"mod","nn":110,"risk":27,"cat":"green"},{"name":"Black Horse T/A 88th St T/A Value Mighty T/A Sin City Burger","lat":51.41354,"lon":-0.28722,"postcode":"KT2 6QP","la":"Kingston upon Thames","era":"trad","nn":123,"risk":27,"cat":"green"},{"name":"Boaters","lat":51.41896,"lon":-0.30562,"postcode":"KT2 5AU","la":"Kingston upon Thames","era":"other","nn":298,"risk":29,"cat":"green"},{"name":"Brave New World","lat":51.39303,"lon":-0.29572,"postcode":"KT5 8RA","la":"Kingston upon Thames","era":"other","nn":346,"risk":29,"cat":"green"},{"name":"Coombe Hill Golf Club","lat":51.41802,"lon":-0.26215,"postcode":"KT2 7DF","la":"Kingston upon Thames","era":"other","nn":733,"risk":49,"cat":"amber"},{"name":"Coronation Hall","lat":51.39362,"lon":-0.30372,"postcode":"KT6 4LQ","la":"Kingston upon Thames","era":"other","nn":129,"risk":27,"cat":"green"},{"name":"Duke Of York","lat":51.39194,"lon":-0.30674,"postcode":"KT6 4NQ","la":"Kingston upon Thames","era":"trad","nn":40,"risk":27,"cat":"green"},{"name":"Fulham Football Club Foundation","lat":51.39126,"lon":-0.2472,"postcode":"KT3 6PT","la":"Kingston upon Thames","era":"other","nn":541,"risk":30,"cat":"green"},{"name":"Goals Soccer Centre","lat":51.37732,"lon":-0.27737,"postcode":"KT5 9NT","la":"Kingston upon Thames","era":"other","nn":222,"risk":48,"cat":"amber"},{"name":"Gordon Bennett Bar & Kitchen","lat":51.3948,"lon":-0.30819,"postcode":"KT6 4AG","la":"Kingston upon Thames","era":"mod","nn":48,"risk":27,"cat":"green"},{"name":"Grafton Club","lat":51.40304,"lon":-0.25862,"postcode":"KT3 3AA","la":"Kingston upon Thames","era":"other","nn":159,"risk":28,"cat":"green"},{"name":"Harts Boatyard","lat":51.39696,"lon":-0.312,"postcode":"KT6 4HJ","la":"Kingston upon Thames","era":"other","nn":126,"risk":27,"cat":"green"},{"name":"Hollywood Bowl","lat":51.37782,"lon":-0.28047,"postcode":"KT5 9PB","la":"Kingston upon Thames","era":"trad","nn":222,"risk":48,"cat":"amber"},{"name":"Kai's Thai Food @ The Cocoanut","lat":51.40687,"lon":-0.29851,"postcode":"KT1 2RF","la":"Kingston upon Thames","era":"other","nn":265,"risk":28,"cat":"green"},{"name":"Kings Tun","lat":51.41139,"lon":-0.30085,"postcode":"KT1 1QT","la":"Kingston upon Thames","era":"trad","nn":50,"risk":27,"cat":"green"},{"name":"Kingston Rugby Club","lat":51.37236,"lon":-0.30739,"postcode":"KT9 1PL","la":"Kingston upon Thames","era":"trad","nn":205,"risk":30,"cat":"green"},{"name":"Kingston Working Mens Club","lat":51.41123,"lon":-0.29945,"postcode":"KT2 6ND","la":"Kingston upon Thames","era":"trad","nn":78,"risk":27,"cat":"green"},{"name":"Malden Bowling Club","lat":51.40646,"lon":-0.25954,"postcode":"KT3 3TW","la":"Kingston upon Thames","era":"other","nn":285,"risk":28,"cat":"green"},{"name":"Malden Golf Club","lat":51.41002,"lon":-0.25843,"postcode":"KT3 4RS","la":"Kingston upon Thames","era":"other","nn":285,"risk":28,"cat":"green"},{"name":"Malden Manor Bowling Club","lat":51.38676,"lon":-0.25012,"postcode":"KT3 6AU","la":"Kingston upon Thames","era":"other","nn":541,"risk":35,"cat":"amber"},{"name":"Malden Wanderers Cricket & Lawn Tennis Club","lat":51.40841,"lon":-0.25522,"postcode":"KT3 4LE","la":"Kingston upon Thames","era":"other","nn":285,"risk":28,"cat":"green"},{"name":"Minima Yacht Club","lat":51.40769,"lon":-0.30825,"postcode":"KT1 1HN","la":"Kingston upon Thames","era":"other","nn":64,"risk":27,"cat":"green"},{"name":"Monkey Puzzle","lat":51.34862,"lon":-0.31479,"postcode":"KT9 2NE","la":"Kingston upon Thames","era":"trad","nn":1327,"risk":58,"cat":"amber"},{"name":"New Malden Tennis, Squash & Badminton Club","lat":51.39345,"lon":-0.2563,"postcode":"KT3 5RG","la":"Kingston upon Thames","era":"other","nn":611,"risk":33,"cat":"amber"},{"name":"O'Neills","lat":51.40911,"lon":-0.30551,"postcode":"KT1 1BQ","la":"Kingston upon Thames","era":"other","nn":70,"risk":27,"cat":"green"},{"name":"Pryzm","lat":51.41099,"lon":-0.3005,"postcode":"KT1 1QP","la":"Kingston upon Thames","era":"other","nn":50,"risk":27,"cat":"green"},{"name":"Queens Head","lat":51.41862,"lon":-0.30135,"postcode":"KT2 5HA","la":"Kingston upon Thames","era":"trad","nn":298,"risk":29,"cat":"green"},{"name":"Royal British Legion Chessington","lat":51.35838,"lon":-0.29924,"postcode":"KT9 2DR","la":"Kingston upon Thames","era":"trad","nn":646,"risk":51,"cat":"amber"},{"name":"Royal British Legion Club Surbiton","lat":51.38653,"lon":-0.29288,"postcode":"KT5 9AL","la":"Kingston upon Thames","era":"trad","nn":199,"risk":28,"cat":"green"},{"name":"Spring Grove Public House","lat":51.40329,"lon":-0.29945,"postcode":"KT1 2SF","la":"Kingston upon Thames","era":"other","nn":342,"risk":29,"cat":"green"},{"name":"Star Gun Club","lat":51.32911,"lon":-0.3292,"postcode":"KT22 0DP","la":"Kingston upon Thames","era":"other","nn":1102,"risk":57,"cat":"amber"},{"name":"Steins","lat":51.40713,"lon":-0.30804,"postcode":"KT1 1HN","la":"Kingston upon Thames","era":"other","nn":13,"risk":27,"cat":"green"},{"name":"Surbiton Croquet Club","lat":51.38744,"lon":-0.28944,"postcode":"KT5 9AA","la":"Kingston upon Thames","era":"other","nn":259,"risk":28,"cat":"green"},{"name":"Surbiton Masonic Hall Limited","lat":51.39516,"lon":-0.30519,"postcode":"KT6 4BN","la":"Kingston upon Thames","era":"trad","nn":160,"risk":28,"cat":"green"},{"name":"Surbiton Methodist Tennis Club","lat":51.39218,"lon":-0.29093,"postcode":"KT5 8NE","la":"Kingston upon Thames","era":"other","nn":176,"risk":28,"cat":"green"},{"name":"Surbiton Racket & Fitness Club","lat":51.39367,"lon":-0.29008,"postcode":"KT5 8JT","la":"Kingston upon Thames","era":"other","nn":176,"risk":28,"cat":"green"},{"name":"Tenpin Megabowl","lat":51.41195,"lon":-0.29953,"postcode":"KT1 1QJ","la":"Kingston upon Thames","era":"other","nn":81,"risk":27,"cat":"green"},{"name":"The Albert","lat":51.41622,"lon":-0.28396,"postcode":"KT2 7PX","la":"Kingston upon Thames","era":"other","nn":374,"risk":29,"cat":"green"},{"name":"The Albion Tavern","lat":51.40922,"lon":-0.29792,"postcode":"KT1 2PY","la":"Kingston upon Thames","era":"other","nn":163,"risk":28,"cat":"green"},{"name":"The Antelope","lat":51.39518,"lon":-0.30788,"postcode":"KT6 4AW","la":"Kingston upon Thames","era":"other","nn":48,"risk":27,"cat":"green"},{"name":"The Berrylands","lat":51.39811,"lon":-0.28068,"postcode":"KT5 8LS","la":"Kingston upon Thames","era":"other","nn":819,"risk":50,"cat":"amber"},{"name":"The Bishop","lat":51.4103,"lon":-0.308,"postcode":"KT1 1PY","la":"Kingston upon Thames","era":"trad","nn":58,"risk":27,"cat":"green"},{"name":"The Black Lion","lat":51.39207,"lon":-0.31045,"postcode":"KT6 5PL","la":"Kingston upon Thames","era":"trad","nn":65,"risk":27,"cat":"green"},{"name":"The Bricklayers Arms","lat":51.4092,"lon":-0.29184,"postcode":"KT1 3DS","la":"Kingston upon Thames","era":"trad","nn":422,"risk":29,"cat":"green"},{"name":"The Canbury Arms","lat":51.4134,"lon":-0.29656,"postcode":"KT2 6LQ","la":"Kingston upon Thames","era":"trad","nn":261,"risk":28,"cat":"green"},{"name":"The Cardinal PH, Peppe Restaurant T/A Cucuzza Feat Peppe","lat":51.42656,"lon":-0.29823,"postcode":"KT2 5QG","la":"Kingston upon Thames","era":"other","nn":800,"risk":37,"cat":"amber"},{"name":"The Chessington Oak","lat":51.36397,"lon":-0.29671,"postcode":"KT9 1HX","la":"Kingston upon Thames","era":"trad","nn":646,"risk":33,"cat":"amber"},{"name":"The Cricketers","lat":51.36783,"lon":-0.31132,"postcode":"KT9 1NQ","la":"Kingston upon Thames","era":"other","nn":311,"risk":29,"cat":"green"},{"name":"The Druids Head","lat":51.40921,"lon":-0.30651,"postcode":"KT1 1JT","la":"Kingston upon Thames","era":"trad","nn":70,"risk":27,"cat":"green"},{"name":"The Duke Of Buckingham","lat":51.40191,"lon":-0.29505,"postcode":"KT1 3BB","la":"Kingston upon Thames","era":"trad","nn":342,"risk":29,"cat":"green"},{"name":"The Fighting Cocks","lat":51.41067,"lon":-0.29816,"postcode":"KT2 6QA","la":"Kingston upon Thames","era":"other","nn":109,"risk":27,"cat":"green"},{"name":"The Fox & Hounds","lat":51.39584,"lon":-0.31179,"postcode":"KT6 4HS","la":"Kingston upon Thames","era":"trad","nn":126,"risk":27,"cat":"green"},{"name":"The Gazebo","lat":51.41082,"lon":-0.3081,"postcode":"KT1 1QN","la":"Kingston upon Thames","era":"other","nn":58,"risk":27,"cat":"green"},{"name":"The Glasshouse","lat":51.4043,"lon":-0.25733,"postcode":"KT3 4QE","la":"Kingston upon Thames","era":"other","nn":110,"risk":27,"cat":"green"},{"name":"The Grey Horse","lat":51.41433,"lon":-0.30041,"postcode":"KT2 5EE","la":"Kingston upon Thames","era":"trad","nn":271,"risk":28,"cat":"green"},{"name":"The Grove","lat":51.39667,"lon":-0.3063,"postcode":"KT6 4BX","la":"Kingston upon Thames","era":"other","nn":184,"risk":28,"cat":"green"},{"name":"The Lamb Inn","lat":51.39205,"lon":-0.31138,"postcode":"KT6 5NF","la":"Kingston upon Thames","era":"trad","nn":65,"risk":27,"cat":"green"},{"name":"The Lucky Rover","lat":51.36795,"lon":-0.30684,"postcode":"KT9 1NY","la":"Kingston upon Thames","era":"other","nn":177,"risk":28,"cat":"green"},{"name":"The Maypole","lat":51.38263,"lon":-0.30089,"postcode":"KT6 5BH","la":"Kingston upon Thames","era":"other","nn":509,"risk":33,"cat":"amber"},{"name":"The Mill","lat":51.40702,"lon":-0.30814,"postcode":"KT1 1HN","la":"Kingston upon Thames","era":"trad","nn":13,"risk":27,"cat":"green"},{"name":"The Norbiton","lat":51.41374,"lon":-0.28897,"postcode":"KT2 6PW","la":"Kingston upon Thames","era":"other","nn":123,"risk":27,"cat":"green"},{"name":"The North Star","lat":51.37093,"lon":-0.30554,"postcode":"KT9 1EQ","la":"Kingston upon Thames","era":"other","nn":205,"risk":28,"cat":"green"},{"name":"The Park Tavern","lat":51.41954,"lon":-0.28763,"postcode":"KT2 6AP","la":"Kingston upon Thames","era":"other","nn":449,"risk":30,"cat":"green"},{"name":"The Prince Of Wales","lat":51.38965,"lon":-0.29756,"postcode":"KT6 6AL","la":"Kingston upon Thames","era":"trad","nn":397,"risk":29,"cat":"green"},{"name":"The Ram","lat":51.40817,"lon":-0.30773,"postcode":"KT1 1HL","la":"Kingston upon Thames","era":"trad","nn":54,"risk":27,"cat":"green"},{"name":"The Rhodrons Club","lat":51.36646,"lon":-0.30594,"postcode":"KT9 1BA","la":"Kingston upon Thames","era":"other","nn":177,"risk":28,"cat":"green"},{"name":"The Royal Oak","lat":51.38525,"lon":-0.29488,"postcode":"KT6 7AA","la":"Kingston upon Thames","era":"trad","nn":199,"risk":28,"cat":"green"},{"name":"The Shy Horse","lat":51.3371,"lon":-0.31982,"postcode":"KT9 2NQ","la":"Kingston upon Thames","era":"trad","nn":1102,"risk":57,"cat":"amber"},{"name":"The Surbiton Club","lat":51.39377,"lon":-0.30574,"postcode":"KT6 4QL","la":"Kingston upon Thames","era":"other","nn":131,"risk":27,"cat":"green"},{"name":"The Surbiton Flyer","lat":51.39271,"lon":-0.30489,"postcode":"KT6 4NS","la":"Kingston upon Thames","era":"other","nn":129,"risk":27,"cat":"green"},{"name":"The Victoria","lat":51.39221,"lon":-0.30712,"postcode":"KT6 4JT","la":"Kingston upon Thames","era":"trad","nn":40,"risk":27,"cat":"green"},{"name":"The Watchman","lat":51.39889,"lon":-0.25509,"postcode":"KT3 4ES","la":"Kingston upon Thames","era":"other","nn":520,"risk":30,"cat":"green"},{"name":"The Wych Elm Pub","lat":51.41711,"lon":-0.29416,"postcode":"KT2 6HT","la":"Kingston upon Thames","era":"trad","nn":154,"risk":28,"cat":"green"},{"name":"Waggon & Horses","lat":51.39899,"lon":-0.30159,"postcode":"KT6 4TW","la":"Kingston upon Thames","era":"trad","nn":417,"risk":29,"cat":"green"},{"name":"Wheelwrights Arms","lat":51.41062,"lon":-0.30162,"postcode":"KT1 1NP","la":"Kingston upon Thames","era":"trad","nn":88,"risk":27,"cat":"green"},{"name":"Willoughby Arms","lat":51.41624,"lon":-0.29243,"postcode":"KT2 6LN","la":"Kingston upon Thames","era":"trad","nn":154,"risk":28,"cat":"green"},{"name":"Woodies Freehouse","lat":51.39221,"lon":-0.2674,"postcode":"KT3 5DX","la":"Kingston upon Thames","era":"other","nn":782,"risk":52,"cat":"amber"},{"name":"Woody's","lat":51.40844,"lon":-0.30836,"postcode":"KT1 1HH","la":"Kingston upon Thames","era":"other","nn":54,"risk":27,"cat":"green"},{"name":"Earl Beatty","lat":51.3949,"lon":-0.23825,"postcode":"KT3 6JF","la":"Merton","era":"other","nn":188,"risk":32,"cat":"amber"},{"name":"KCS Old  Boys RFC","lat":51.39444,"lon":-0.23563,"postcode":"KT3 6LX","la":"Merton","era":"other","nn":0,"risk":31,"cat":"amber"},{"name":"Kings College School Sports Ground","lat":51.39734,"lon":-0.23163,"postcode":"KT3 6JB","la":"Merton","era":"trad","nn":425,"risk":34,"cat":"amber"},{"name":"Old Tenisonians Sports Club","lat":51.39444,"lon":-0.23563,"postcode":"KT3 6LX","la":"Merton","era":"other","nn":0,"risk":31,"cat":"amber"},{"name":"Dukes Head","lat":51.29561,"lon":-0.32725,"postcode":"KT22 8AG","la":"Mole Valley","era":"trad","nn":54,"risk":34,"cat":"amber"},{"name":"Edmund Tylney","lat":51.29517,"lon":-0.32757,"postcode":"KT22 8AW","la":"Mole Valley","era":"other","nn":54,"risk":34,"cat":"amber"},{"name":"Leg Of Mutton And Cauliflower (Ph)","lat":51.30924,"lon":-0.29945,"postcode":"KT21 1AZ","la":"Mole Valley","era":"other","nn":84,"risk":49,"cat":"amber"},{"name":"Penny Black","lat":51.29554,"lon":-0.33058,"postcode":"KT22 7AX","la":"Mole Valley","era":"other","nn":99,"risk":34,"cat":"amber"},{"name":"Royal Oak","lat":51.27842,"lon":-0.3737,"postcode":"KT23 4AG","la":"Mole Valley","era":"trad","nn":706,"risk":54,"cat":"amber"},{"name":"The Anchor","lat":51.28254,"lon":-0.36598,"postcode":"KT23 4AH","la":"Mole Valley","era":"trad","nn":706,"risk":56,"cat":"amber"},{"name":"The Bell","lat":51.29034,"lon":-0.35614,"postcode":"KT22 9ND","la":"Mole Valley","era":"other","nn":1104,"risk":61,"cat":"red"},{"name":"The Brewery Inn","lat":51.30931,"lon":-0.30065,"postcode":"KT21 2AD","la":"Mole Valley","era":"trad","nn":84,"risk":49,"cat":"amber"},{"name":"The Cock Inn","lat":51.27977,"lon":-0.27411,"postcode":"KT18 6LE","la":"Mole Valley","era":"trad","nn":1924,"risk":67,"cat":"red"},{"name":"The Plough","lat":51.30297,"lon":-0.32998,"postcode":"KT22 7SP","la":"Mole Valley","era":"trad","nn":827,"risk":40,"cat":"amber"},{"name":"The Running Horse","lat":51.29487,"lon":-0.33151,"postcode":"KT22 8BZ","la":"Mole Valley","era":"trad","nn":99,"risk":34,"cat":"amber"},{"name":"The Woodman","lat":51.31422,"lon":-0.30792,"postcode":"KT21 2DA","la":"Mole Valley","era":"other","nn":743,"risk":54,"cat":"amber"},{"name":"The Ye Olde Windsor Castle","lat":51.27972,"lon":-0.38772,"postcode":"KT23 3AA","la":"Mole Valley","era":"other","nn":986,"risk":58,"cat":"amber"},{"name":"Banstead Athletic Football Club","lat":51.30279,"lon":-0.23419,"postcode":"KT20 5JG","la":"Reigate and Banstead","era":"other","nn":1014,"risk":56,"cat":"amber"},{"name":"Blue Anchor","lat":51.28724,"lon":-0.22791,"postcode":"KT20 5SL","la":"Reigate and Banstead","era":"trad","nn":0,"risk":32,"cat":"amber"},{"name":"Burgh Heath Comrades And Social Club","lat":51.30365,"lon":-0.21966,"postcode":"KT20 6BW","la":"Reigate and Banstead","era":"mod","nn":991,"risk":54,"cat":"amber"},{"name":"Dukes Head","lat":51.28724,"lon":-0.22791,"postcode":"KT20 5SL","la":"Reigate and Banstead","era":"trad","nn":0,"risk":32,"cat":"amber"},{"name":"Fox And Hounds Public House","lat":51.28301,"lon":-0.24693,"postcode":"KT20 7RU","la":"Reigate and Banstead","era":"trad","nn":410,"risk":47,"cat":"amber"},{"name":"Kingswood Village Club","lat":51.27255,"lon":-0.21338,"postcode":"KT20 6SZ","la":"Reigate and Banstead","era":"trad","nn":1603,"risk":61,"cat":"red"},{"name":"Tadworth Social Club","lat":51.28939,"lon":-0.22665,"postcode":"KT20 5SA","la":"Reigate and Banstead","era":"mod","nn":254,"risk":34,"cat":"amber"},{"name":"The Bell","lat":51.28677,"lon":-0.2426,"postcode":"KT20 7UJ","la":"Reigate and Banstead","era":"other","nn":384,"risk":47,"cat":"amber"},{"name":"The Blue Ball","lat":51.28346,"lon":-0.24108,"postcode":"KT20 7UE","la":"Reigate and Banstead","era":"other","nn":384,"risk":47,"cat":"amber"},{"name":"The Grumpy Mole","lat":51.29165,"lon":-0.22541,"postcode":"KT20 5RX","la":"Reigate and Banstead","era":"other","nn":266,"risk":31,"cat":"amber"},{"name":"The Kingswood Arms","lat":51.29537,"lon":-0.21436,"postcode":"KT20 6EB","la":"Reigate and Banstead","era":"trad","nn":873,"risk":50,"cat":"amber"},{"name":"Hampton Court Palace Golf Club","lat":51.41096,"lon":-0.31156,"postcode":"KT1 4AE","la":"Richmond upon Thames","era":"other","nn":83,"risk":26,"cat":"green"},{"name":"Thames Motor Yacht Club","lat":51.40931,"lon":-0.34987,"postcode":"KT8 9BW","la":"Richmond upon Thames","era":"other","nn":297,"risk":28,"cat":"green"},{"name":"The Foresters Arms","lat":51.41401,"lon":-0.31257,"postcode":"KT1 4DG","la":"Richmond upon Thames","era":"trad","nn":201,"risk":27,"cat":"green"},{"name":"The Swan","lat":51.41259,"lon":-0.31078,"postcode":"KT1 4DB","la":"Richmond upon Thames","era":"trad","nn":109,"risk":26,"cat":"green"},{"name":"The White Hart","lat":51.4117,"lon":-0.31144,"postcode":"KT1 4DA","la":"Richmond upon Thames","era":"trad","nn":83,"risk":26,"cat":"green"},{"name":"Annapurne Kitchen","lat":51.37186,"lon":-0.48584,"postcode":"KT15 2BE","la":"Runnymede","era":"mod","nn":0,"risk":27,"cat":"green"},{"name":"Chertsey Bowling Club","lat":51.38619,"lon":-0.51232,"postcode":"KT16 9BW","la":"Runnymede","era":"other","nn":369,"risk":30,"cat":"green"},{"name":"Chertsey Cricket Club","lat":51.39369,"lon":-0.509,"postcode":"KT16 9DL","la":"Runnymede","era":"other","nn":168,"risk":29,"cat":"green"},{"name":"Chertsey Social Club","lat":51.38903,"lon":-0.50957,"postcode":"KT16 9HN","la":"Runnymede","era":"mod","nn":278,"risk":29,"cat":"green"},{"name":"Chertsey Town Football Club","lat":51.39305,"lon":-0.50681,"postcode":"KT16 9DW","la":"Runnymede","era":"other","nn":158,"risk":29,"cat":"green"},{"name":"Coach and Horses","lat":51.39447,"lon":-0.50663,"postcode":"KT16 9DG","la":"Runnymede","era":"trad","nn":158,"risk":29,"cat":"green"},{"name":"Fangrove Residents Club","lat":51.38503,"lon":-0.54113,"postcode":"KT16 0BN","la":"Runnymede","era":"other","nn":375,"risk":50,"cat":"amber"},{"name":"Hare Hill Social Club","lat":51.36507,"lon":-0.51172,"postcode":"KT15 1AT","la":"Runnymede","era":"mod","nn":671,"risk":35,"cat":"amber"},{"name":"Huntsmans Arms at Thorpe Park (Aramark Ltd)","lat":51.4051,"lon":-0.51232,"postcode":"KT16 8PN","la":"Runnymede","era":"trad","nn":759,"risk":50,"cat":"amber"},{"name":"National Reserve & Social Club","lat":51.37128,"lon":-0.49684,"postcode":"KT15 1QH","la":"Runnymede","era":"mod","nn":0,"risk":27,"cat":"green"},{"name":"New Haw Club and Institute","lat":51.35581,"lon":-0.48813,"postcode":"KT15 3NA","la":"Runnymede","era":"other","nn":345,"risk":50,"cat":"amber"},{"name":"Olde Swan Hotel","lat":51.39234,"lon":-0.50454,"postcode":"KT16 8AY","la":"Runnymede","era":"trad","nn":176,"risk":29,"cat":"green"},{"name":"Ottershaw Bowling Club","lat":51.36562,"lon":-0.53578,"postcode":"KT16 0NQ","la":"Runnymede","era":"other","nn":412,"risk":48,"cat":"amber"},{"name":"Ottershaw Social Club","lat":51.36444,"lon":-0.53016,"postcode":"KT16 0HG","la":"Runnymede","era":"mod","nn":412,"risk":48,"cat":"amber"},{"name":"Parkside Community Association","lat":51.34593,"lon":-0.49455,"postcode":"KT15 3BN","la":"Runnymede","era":"other","nn":560,"risk":49,"cat":"amber"},{"name":"Penton Community and Social Club","lat":51.40872,"lon":-0.50158,"postcode":"KT16 8QP","la":"Runnymede","era":"mod","nn":187,"risk":31,"cat":"amber"},{"name":"Penton Hook Yacht Club","lat":51.40951,"lon":-0.50397,"postcode":"KT16 8PY","la":"Runnymede","era":"other","nn":187,"risk":46,"cat":"amber"},{"name":"RAOB GLE Club","lat":51.36908,"lon":-0.5006,"postcode":"KT15 1SQ","la":"Runnymede","era":"other","nn":97,"risk":28,"cat":"green"},{"name":"Royal British Legion (Addlestone)","lat":51.36937,"lon":-0.49929,"postcode":"KT15 1SG","la":"Runnymede","era":"trad","nn":0,"risk":27,"cat":"green"},{"name":"Royal Marine","lat":51.38678,"lon":-0.54574,"postcode":"KT16 0AN","la":"Runnymede","era":"trad","nn":375,"risk":50,"cat":"amber"},{"name":"Salvation Army Church and Community Centre","lat":51.36937,"lon":-0.49929,"postcode":"KT15 1SG","la":"Runnymede","era":"other","nn":0,"risk":27,"cat":"green"},{"name":"The Black Prince","lat":51.34838,"lon":-0.5016,"postcode":"KT15 3NT","la":"Runnymede","era":"trad","nn":560,"risk":36,"cat":"amber"},{"name":"The Castle Inn","lat":51.35779,"lon":-0.53297,"postcode":"KT16 0LW","la":"Runnymede","era":"trad","nn":764,"risk":50,"cat":"amber"},{"name":"The Chertsey and District SS and NR Club","lat":51.38924,"lon":-0.50558,"postcode":"KT16 9DR","la":"Runnymede","era":"other","nn":278,"risk":29,"cat":"green"},{"name":"The Cricketers/K-Town/Chik Box/Locked and Loaded","lat":51.35911,"lon":-0.51321,"postcode":"KT15 1EY","la":"Runnymede","era":"other","nn":671,"risk":52,"cat":"amber"},{"name":"The Crouch Oak","lat":51.37186,"lon":-0.48584,"postcode":"KT15 2BE","la":"Runnymede","era":"trad","nn":0,"risk":27,"cat":"green"},{"name":"The Crown Chertsey","lat":51.39182,"lon":-0.50187,"postcode":"KT16 8AP","la":"Runnymede","era":"trad","nn":194,"risk":29,"cat":"green"},{"name":"The Golden Grove","lat":51.39441,"lon":-0.51878,"postcode":"KT16 9EN","la":"Runnymede","era":"other","nn":253,"risk":29,"cat":"green"},{"name":"The Holly Tree","lat":51.37165,"lon":-0.49324,"postcode":"KT15 1TN","la":"Runnymede","era":"trad","nn":253,"risk":29,"cat":"green"},{"name":"The Pelican Pub","lat":51.36928,"lon":-0.47525,"postcode":"KT15 2SB","la":"Runnymede","era":"other","nn":789,"risk":35,"cat":"amber"},{"name":"The Queens Arms","lat":51.36931,"lon":-0.49827,"postcode":"KT15 1SF","la":"Runnymede","era":"trad","nn":71,"risk":28,"cat":"green"},{"name":"The Twynersh","lat":51.3948,"lon":-0.51519,"postcode":"KT16 9EJ","la":"Runnymede","era":"other","nn":253,"risk":29,"cat":"green"},{"name":"The Victoria","lat":51.34393,"lon":-0.5134,"postcode":"KT15 3QE","la":"Runnymede","era":"trad","nn":688,"risk":37,"cat":"amber"},{"name":"Waggon & Horses Addlestone","lat":51.37128,"lon":-0.49684,"postcode":"KT15 1QH","la":"Runnymede","era":"trad","nn":0,"risk":27,"cat":"green"},{"name":"Weybridge Rowing Club","lat":51.37909,"lon":-0.4604,"postcode":"KT13 8LG","la":"Runnymede","era":"other","nn":39,"risk":28,"cat":"green"},{"name":"White Hart","lat":51.35885,"lon":-0.48719,"postcode":"KT15 2DS","la":"Runnymede","era":"trad","nn":345,"risk":50,"cat":"amber"},{"name":"Kingfisher","lat":51.38987,"lon":-0.48281,"postcode":"KT16 8LF","la":"Spelthorne","era":"trad","nn":1341,"risk":60,"cat":"amber"},{"name":"The Brook","lat":51.37974,"lon":-0.24406,"postcode":"KT4 8DR","la":"Sutton","era":"other","nn":606,"risk":50,"cat":"amber"},{"name":"The North End Tavern/ 8th Street/ Value Mighty/Sin City","lat":51.37645,"lon":-0.23709,"postcode":"KT4 8ST","la":"Sutton","era":"other","nn":606,"risk":50,"cat":"amber"},{"name":"Weybridge Rowing Club","lat":51.37876,"lon":-0.4602,"postcode":"KT13 8LG","la":"Runnymede","era":"other","nn":39,"risk":28,"cat":"green"},{"name":"Harvester Restaurant","lat":51.33586,"lon":-0.50652,"postcode":"KT14 6JA","la":"Woking","era":"trad","nn":412,"risk":50,"cat":"amber"},{"name":"Plough Public House","lat":51.33871,"lon":-0.47417,"postcode":"KT14 7QT","la":"Woking","era":"trad","nn":301,"risk":49,"cat":"amber"},{"name":"Queens Head Public House","lat":51.33975,"lon":-0.48163,"postcode":"KT14 7QG","la":"Woking","era":"trad","nn":531,"risk":39,"cat":"amber"},{"name":"The Blue Anchor","lat":51.33815,"lon":-0.46992,"postcode":"KT14 7RL","la":"Woking","era":"trad","nn":301,"risk":49,"cat":"amber"},{"name":"The Station","lat":51.34011,"lon":-0.50559,"postcode":"KT14 6DR","la":"Woking","era":"other","nn":112,"risk":33,"cat":"amber"},{"name":"The Warehouse Gym","lat":51.34593,"lon":-0.48303,"postcode":"KT14 7JX","la":"Woking","era":"mod","nn":694,"risk":52,"cat":"amber"},{"name":"West Byfleet Social Club","lat":51.33935,"lon":-0.50453,"postcode":"KT14 6NE","la":"Woking","era":"mod","nn":112,"risk":36,"cat":"amber"}]