[{"name":"Baltic Amber","lat":52.07112,"lon":0.44108,"postcode":"CB9 7AE","la":"Braintree","era":"other","nn":1110,"risk":56,"cat":"amber"},{"name":"Fox And Hounds","lat":52.04361,"lon":0.44884,"postcode":"CB9 7DQ","la":"Braintree","era":"trad","nn":177,"risk":47,"cat":"amber"},{"name":"Haverhill Golf Club","lat":52.07644,"lon":0.46541,"postcode":"CB9 7UW","la":"Braintree","era":"other","nn":1073,"risk":56,"cat":"amber"},{"name":"Helions Bumpstead Sports Pavillion Club","lat":52.04936,"lon":0.40944,"postcode":"CB9 7AQ","la":"Braintree","era":"trad","nn":310,"risk":48,"cat":"amber"},{"name":"Steeple Bumpstead Bowls Club","lat":52.03496,"lon":0.43345,"postcode":"CB9 7DY","la":"Braintree","era":"other","nn":1252,"risk":57,"cat":"amber"},{"name":"The Red Lion","lat":52.06836,"lon":0.47401,"postcode":"CB9 7XF","la":"Braintree","era":"trad","nn":1073,"risk":56,"cat":"amber"},{"name":"The Red Lion PH","lat":52.04276,"lon":0.44665,"postcode":"CB9 7DG","la":"Braintree","era":"trad","nn":177,"risk":47,"cat":"amber"},{"name":"The Three Horseshoes","lat":52.04719,"lon":0.40659,"postcode":"CB9 7AL","la":"Braintree","era":"trad","nn":310,"risk":48,"cat":"amber"},{"name":"A&M Pub Services (The Ship)","lat":52.23109,"lon":0.12882,"postcode":"CB4 2LG","la":"Cambridge","era":"trad","nn":1057,"risk":56,"cat":"amber"},{"name":"Admiral Casino","lat":52.2067,"lon":0.1201,"postcode":"CB2 3HX","la":"Cambridge","era":"other","nn":50,"risk":26,"cat":"green"},{"name":"Baron Of Beef","lat":52.20893,"lon":0.11815,"postcode":"CB2 1UF","la":"Cambridge","era":"other","nn":10,"risk":26,"cat":"green"},{"name":"Boathouse Public House","lat":52.21368,"lon":0.1237,"postcode":"CB4 3AX","la":"Cambridge","era":"mod","nn":25,"risk":26,"cat":"green"},{"name":"Burleigh arms","lat":52.20826,"lon":0.13281,"postcode":"CB5 8EG","la":"Cambridge","era":"trad","nn":339,"risk":28,"cat":"green"},{"name":"Cambridge North (Girton) Premier inn","lat":52.22227,"lon":0.09361,"postcode":"CB3 0DL","la":"Cambridge","era":"trad","nn":1415,"risk":58,"cat":"amber"},{"name":"Champion Of The Thames","lat":52.2073,"lon":0.12439,"postcode":"CB1 1LN","la":"Cambridge","era":"other","nn":56,"risk":26,"cat":"green"},{"name":"Cherry Hinton Constitutional Club","lat":52.18791,"lon":0.14366,"postcode":"CB1 7AJ","la":"Cambridge","era":"other","nn":216,"risk":27,"cat":"green"},{"name":"Chesterton Mens Club","lat":52.21803,"lon":0.14394,"postcode":"CB4 1NS","la":"Cambridge","era":"other","nn":104,"risk":26,"cat":"green"},{"name":"D'Arrys Wine Bar & Liquor Loft","lat":52.20716,"lon":0.12162,"postcode":"CB1 1LN","la":"Cambridge","era":"mod","nn":56,"risk":26,"cat":"green"},{"name":"De Luca Cucina & Bar","lat":52.2002,"lon":0.12676,"postcode":"CB2 1AW","la":"Cambridge","era":"other","nn":30,"risk":26,"cat":"green"},{"name":"Earl of Beaconsfield","lat":52.1985,"lon":0.14232,"postcode":"CB1 3AA","la":"Cambridge","era":"other","nn":230,"risk":27,"cat":"green"},{"name":"Earl Of Derby","lat":52.19215,"lon":0.13407,"postcode":"CB2 1PG","la":"Cambridge","era":"other","nn":293,"risk":28,"cat":"green"},{"name":"Eating Inn","lat":52.18414,"lon":0.17231,"postcode":"CB1 9JL","la":"Cambridge","era":"trad","nn":197,"risk":47,"cat":"amber"},{"name":"Fort St George","lat":52.21119,"lon":0.12995,"postcode":"CB4 1HA","la":"Cambridge","era":"trad","nn":379,"risk":28,"cat":"green"},{"name":"Free Press PH","lat":52.20479,"lon":0.13042,"postcode":"CB1 1DU","la":"Cambridge","era":"other","nn":173,"risk":27,"cat":"green"},{"name":"Green Dragon Public House","lat":52.21797,"lon":0.14545,"postcode":"CB4 1NZ","la":"Cambridge","era":"trad","nn":104,"risk":26,"cat":"green"},{"name":"Hidden Rooms","lat":52.20825,"lon":0.11969,"postcode":"CB5 8BA","la":"Cambridge","era":"mod","nn":0,"risk":26,"cat":"green"},{"name":"King Street Run P.H.","lat":52.20719,"lon":0.12519,"postcode":"CB1 1LN","la":"Cambridge","era":"trad","nn":56,"risk":26,"cat":"green"},{"name":"Lola Lo","lat":52.20442,"lon":0.12011,"postcode":"CB2 3AE","la":"Cambridge","era":"other","nn":116,"risk":27,"cat":"green"},{"name":"Lord Byron Inn","lat":52.17447,"lon":0.11061,"postcode":"CB2 9LA","la":"Cambridge","era":"trad","nn":157,"risk":44,"cat":"amber"},{"name":"Monty's Catering @ Queen Ediths PH","lat":52.18022,"lon":0.15302,"postcode":"CB1 8QN","la":"Cambridge","era":"trad","nn":0,"risk":43,"cat":"amber"},{"name":"Old Spring Public House","lat":52.21446,"lon":0.12788,"postcode":"CB4 1HB","la":"Cambridge","era":"other","nn":94,"risk":26,"cat":"green"},{"name":"Panton Arms","lat":52.19641,"lon":0.12523,"postcode":"CB2 1HL","la":"Cambridge","era":"trad","nn":51,"risk":26,"cat":"green"},{"name":"Partyman World of Play","lat":52.21532,"lon":0.15123,"postcode":"CB5 8HY","la":"Cambridge","era":"other","nn":491,"risk":29,"cat":"green"},{"name":"Prince Regent","lat":52.19993,"lon":0.12692,"postcode":"CB2 1AW","la":"Cambridge","era":"trad","nn":29,"risk":26,"cat":"green"},{"name":"Queen Edith Public House","lat":52.18022,"lon":0.15302,"postcode":"CB1 8QN","la":"Cambridge","era":"trad","nn":0,"risk":43,"cat":"amber"},{"name":"Salisbury Arms","lat":52.19836,"lon":0.13506,"postcode":"CB1 2DW","la":"Cambridge","era":"trad","nn":112,"risk":27,"cat":"green"},{"name":"Sir Isaac Newton","lat":52.21349,"lon":0.1122,"postcode":"CB3 0AJ","la":"Cambridge","era":"other","nn":194,"risk":27,"cat":"green"},{"name":"Six Bells","lat":52.20038,"lon":0.13439,"postcode":"CB1 2HS","la":"Cambridge","era":"other","nn":122,"risk":27,"cat":"green"},{"name":"Ta Bouche","lat":52.20627,"lon":0.11995,"postcode":"CB2 3PF","la":"Cambridge","era":"other","nn":50,"risk":26,"cat":"green"},{"name":"The Alex","lat":52.20387,"lon":0.13939,"postcode":"CB1 2LL","la":"Cambridge","era":"other","nn":163,"risk":27,"cat":"green"},{"name":"The Alma","lat":52.19597,"lon":0.12543,"postcode":"CB2 1HW","la":"Cambridge","era":"other","nn":51,"risk":26,"cat":"green"},{"name":"The Anchor Public House","lat":52.20193,"lon":0.11578,"postcode":"CB3 9EL","la":"Cambridge","era":"trad","nn":62,"risk":26,"cat":"green"},{"name":"The Bath House","lat":52.20412,"lon":0.11847,"postcode":"CB2 3QN","la":"Cambridge","era":"other","nn":38,"risk":26,"cat":"green"},{"name":"The Blue Moon","lat":52.20488,"lon":0.13663,"postcode":"CB1 2LF","la":"Cambridge","era":"other","nn":195,"risk":27,"cat":"green"},{"name":"The Brook","lat":52.19608,"lon":0.1553,"postcode":"CB1 3NW","la":"Cambridge","era":"other","nn":392,"risk":34,"cat":"amber"},{"name":"The Cambridge Blue","lat":52.20242,"lon":0.13911,"postcode":"CB1 2LG","la":"Cambridge","era":"other","nn":163,"risk":27,"cat":"green"},{"name":"The Cambridge Brew House","lat":52.20746,"lon":0.12228,"postcode":"CB1 1LH","la":"Cambridge","era":"other","nn":56,"risk":26,"cat":"green"},{"name":"The Cambridge Tap","lat":52.2034,"lon":0.12341,"postcode":"CB2 3AR","la":"Cambridge","era":"mod","nn":61,"risk":26,"cat":"green"},{"name":"The Carlton Arms Public House","lat":52.22216,"lon":0.11889,"postcode":"CB4 2BY","la":"Cambridge","era":"trad","nn":777,"risk":34,"cat":"amber"},{"name":"The Carpenters Arms","lat":52.21577,"lon":0.11428,"postcode":"CB4 3DZ","la":"Cambridge","era":"trad","nn":261,"risk":28,"cat":"green"},{"name":"The Castle Inn","lat":52.21196,"lon":0.11359,"postcode":"CB3 0AJ","la":"Cambridge","era":"trad","nn":161,"risk":27,"cat":"green"},{"name":"The Corner House","lat":52.20953,"lon":0.14341,"postcode":"CB5 8JE","la":"Cambridge","era":"other","nn":41,"risk":26,"cat":"green"},{"name":"The Devonshire Arms","lat":52.19897,"lon":0.13891,"postcode":"CB1 2BH","la":"Cambridge","era":"trad","nn":50,"risk":26,"cat":"green"},{"name":"The Dobblers Inn","lat":52.20547,"lon":0.14008,"postcode":"CB1 2QF","la":"Cambridge","era":"trad","nn":184,"risk":27,"cat":"green"},{"name":"The Duchess Of Cambridge","lat":52.17451,"lon":0.11291,"postcode":"CB2 9HZ","la":"Cambridge","era":"other","nn":157,"risk":44,"cat":"amber"},{"name":"The Duke Of Cambridge","lat":52.20496,"lon":0.13343,"postcode":"CB1 1BG","la":"Cambridge","era":"trad","nn":45,"risk":26,"cat":"green"},{"name":"The Eagle Public House","lat":52.20402,"lon":0.11794,"postcode":"CB2 3QN","la":"Cambridge","era":"trad","nn":38,"risk":26,"cat":"green"},{"name":"The Emperor Public House","lat":52.19715,"lon":0.12951,"postcode":"CB2 1NW","la":"Cambridge","era":"other","nn":303,"risk":28,"cat":"green"},{"name":"The Empress","lat":52.19914,"lon":0.14737,"postcode":"CB1 3AX","la":"Cambridge","era":"other","nn":287,"risk":28,"cat":"green"},{"name":"The Geldart","lat":52.20363,"lon":0.1421,"postcode":"CB1 2PF","la":"Cambridge","era":"other","nn":187,"risk":27,"cat":"green"},{"name":"The Golden Hind","lat":52.22791,"lon":0.14558,"postcode":"CB4 1SP","la":"Cambridge","era":"other","nn":838,"risk":52,"cat":"amber"},{"name":"The Grain and Hop Store","lat":52.20065,"lon":0.12666,"postcode":"CB2 1AB","la":"Cambridge","era":"other","nn":51,"risk":26,"cat":"green"},{"name":"The Granta","lat":52.19969,"lon":0.1139,"postcode":"CB3 9EX","la":"Cambridge","era":"other","nn":247,"risk":27,"cat":"green"},{"name":"The Grapes","lat":52.215,"lon":0.11066,"postcode":"CB4 3JB","la":"Cambridge","era":"other","nn":198,"risk":27,"cat":"green"},{"name":"The Green Man","lat":52.17656,"lon":0.11311,"postcode":"CB2 9HZ","la":"Cambridge","era":"other","nn":228,"risk":45,"cat":"amber"},{"name":"The Hawks Club","lat":52.2094,"lon":0.11862,"postcode":"CB5 8AF","la":"Cambridge","era":"other","nn":51,"risk":26,"cat":"green"},{"name":"The Junction","lat":52.19085,"lon":0.1378,"postcode":"CB1 7GX","la":"Cambridge","era":"other","nn":293,"risk":28,"cat":"green"},{"name":"The Kingston Arms","lat":52.20038,"lon":0.13967,"postcode":"CB1 2NU","la":"Cambridge","era":"trad","nn":117,"risk":27,"cat":"green"},{"name":"The Lab","lat":52.19998,"lon":0.1265,"postcode":"CB2 1DP","la":"Cambridge","era":"other","nn":29,"risk":26,"cat":"green"},{"name":"The Live and Let Live","lat":52.19937,"lon":0.13506,"postcode":"CB1 2EA","la":"Cambridge","era":"other","nn":112,"risk":27,"cat":"green"},{"name":"The Maypole P.H.","lat":52.20967,"lon":0.11923,"postcode":"CB5 8AF","la":"Cambridge","era":"other","nn":51,"risk":26,"cat":"green"},{"name":"The Mill","lat":52.20143,"lon":0.11616,"postcode":"CB2 1RX","la":"Cambridge","era":"trad","nn":62,"risk":26,"cat":"green"},{"name":"The Milton Arms Public House","lat":52.22284,"lon":0.13649,"postcode":"CB4 1XG","la":"Cambridge","era":"trad","nn":736,"risk":36,"cat":"amber"},{"name":"The Mitre Public House","lat":52.20887,"lon":0.11825,"postcode":"CB2 1UF","la":"Cambridge","era":"other","nn":10,"risk":26,"cat":"green"},{"name":"The Petersfield","lat":52.20128,"lon":0.14074,"postcode":"CB1 2QA","la":"Cambridge","era":"other","nn":123,"risk":27,"cat":"green"},{"name":"The Pickerel Inn","lat":52.2099,"lon":0.1162,"postcode":"CB3 0AF","la":"Cambridge","era":"trad","nn":171,"risk":27,"cat":"green"},{"name":"The Portland Arms","lat":52.21447,"lon":0.1246,"postcode":"CB4 3BA","la":"Cambridge","era":"trad","nn":72,"risk":26,"cat":"green"},{"name":"The Punter","lat":52.21053,"lon":0.11329,"postcode":"CB3 0AE","la":"Cambridge","era":"other","nn":161,"risk":27,"cat":"green"},{"name":"The Rad","lat":52.20764,"lon":0.12673,"postcode":"CB1 1LD","la":"Cambridge","era":"other","nn":116,"risk":27,"cat":"green"},{"name":"The Rathmore Club","lat":52.18852,"lon":0.13991,"postcode":"CB1 7AA","la":"Cambridge","era":"other","nn":264,"risk":28,"cat":"green"},{"name":"The Red Bull","lat":52.19646,"lon":0.10871,"postcode":"CB3 9JZ","la":"Cambridge","era":"trad","nn":504,"risk":34,"cat":"amber"},{"name":"The Red Lion","lat":52.1859,"lon":0.172,"postcode":"CB1 9JP","la":"Cambridge","era":"trad","nn":197,"risk":47,"cat":"amber"},{"name":"The Regal","lat":52.20286,"lon":0.12359,"postcode":"CB2 3AR","la":"Cambridge","era":"other","nn":61,"risk":26,"cat":"green"},{"name":"The Rock","lat":52.18752,"lon":0.14675,"postcode":"CB1 7AW","la":"Cambridge","era":"other","nn":216,"risk":27,"cat":"green"},{"name":"The Royal Standard","lat":52.19701,"lon":0.14976,"postcode":"CB1 3NL","la":"Cambridge","era":"trad","nn":287,"risk":28,"cat":"green"},{"name":"The Seven Stars Public House","lat":52.20976,"lon":0.14387,"postcode":"CB5 8JE","la":"Cambridge","era":"other","nn":41,"risk":26,"cat":"green"},{"name":"The Station Tavern","lat":52.19479,"lon":0.13653,"postcode":"CB1 2GA","la":"Cambridge","era":"other","nn":338,"risk":28,"cat":"green"},{"name":"The Tram Depot","lat":52.20447,"lon":0.1329,"postcode":"CB1 1DY","la":"Cambridge","era":"other","nn":65,"risk":26,"cat":"green"},{"name":"The Waterman","lat":52.2141,"lon":0.12546,"postcode":"CB4 3AX","la":"Cambridge","era":"other","nn":72,"risk":26,"cat":"green"},{"name":"the white swan","lat":52.19936,"lon":0.13926,"postcode":"CB1 2AZ","la":"Cambridge","era":"trad","nn":50,"risk":26,"cat":"green"},{"name":"The Wrestlers","lat":52.21105,"lon":0.14628,"postcode":"CB5 8JE","la":"Cambridge","era":"other","nn":218,"risk":27,"cat":"green"},{"name":"Thirsty","lat":52.21425,"lon":0.12654,"postcode":"CB4 1EN","la":"Cambridge","era":"other","nn":75,"risk":26,"cat":"green"},{"name":"Tivoli","lat":52.21352,"lon":0.12396,"postcode":"CB4 3AX","la":"Cambridge","era":"other","nn":25,"risk":26,"cat":"green"},{"name":"University Pitt Club","lat":52.20825,"lon":0.11969,"postcode":"CB5 8BA","la":"Cambridge","era":"other","nn":0,"risk":26,"cat":"green"},{"name":"WT's Sports Bar Ltd","lat":52.20528,"lon":0.13384,"postcode":"CB1 1DG","la":"Cambridge","era":"mod","nn":45,"risk":26,"cat":"green"},{"name":"Cambridge And Newmarket Polo Club","lat":52.26599,"lon":0.22284,"postcode":"CB25 9HF","la":"East Cambridgeshire","era":"other","nn":1859,"risk":64,"cat":"red"},{"name":"Cheveley Royal British Legion Club","lat":52.21938,"lon":0.46418,"postcode":"CB8 9DG","la":"East Cambridgeshire","era":"trad","nn":421,"risk":52,"cat":"amber"},{"name":"Drayman's Son","lat":52.39838,"lon":0.26771,"postcode":"CB7 4AA","la":"East Cambridgeshire","era":"other","nn":28,"risk":29,"cat":"green"},{"name":"Ely City Football Club","lat":52.41067,"lon":0.24911,"postcode":"CB6 2SH","la":"East Cambridgeshire","era":"other","nn":241,"risk":51,"cat":"amber"},{"name":"Ely City Golf Course Ltd","lat":52.39397,"lon":0.25337,"postcode":"CB7 4HX","la":"East Cambridgeshire","era":"other","nn":590,"risk":33,"cat":"amber"},{"name":"George & Dragon","lat":52.2825,"lon":0.40799,"postcode":"CB8 7LX","la":"East Cambridgeshire","era":"trad","nn":2903,"risk":72,"cat":"red"},{"name":"Isle Of Ely","lat":52.40958,"lon":0.25218,"postcode":"CB6 2FE","la":"East Cambridgeshire","era":"other","nn":241,"risk":51,"cat":"amber"},{"name":"Little Downham Anchor","lat":52.43279,"lon":0.24097,"postcode":"CB6 2ST","la":"East Cambridgeshire","era":"trad","nn":336,"risk":51,"cat":"amber"},{"name":"Littleport Ex-Servicemens Club","lat":52.45896,"lon":0.30549,"postcode":"CB6 1PZ","la":"East Cambridgeshire","era":"other","nn":244,"risk":51,"cat":"amber"},{"name":"Marquis Of Granby","lat":52.20122,"lon":0.39906,"postcode":"CB8 9TJ","la":"East Cambridgeshire","era":"other","nn":1472,"risk":62,"cat":"red"},{"name":"Red Lion","lat":52.3484,"lon":0.21882,"postcode":"CB6 3LD","la":"East Cambridgeshire","era":"trad","nn":4376,"risk":82,"cat":"red"},{"name":"Red Lion","lat":52.1682,"lon":0.37618,"postcode":"CB8 0RA","la":"East Cambridgeshire","era":"trad","nn":1331,"risk":61,"cat":"red"},{"name":"Red Lion Pub","lat":52.17914,"lon":0.46314,"postcode":"CB8 9PD","la":"East Cambridgeshire","era":"trad","nn":3179,"risk":74,"cat":"red"},{"name":"Rosewood Pavilion","lat":52.31358,"lon":0.44285,"postcode":"CB7 5QH","la":"East Cambridgeshire","era":"trad","nn":848,"risk":55,"cat":"amber"},{"name":"Soham Comrades Club","lat":52.33444,"lon":0.3377,"postcode":"CB7 5JG","la":"East Cambridgeshire","era":"other","nn":81,"risk":47,"cat":"amber"},{"name":"Sutton & District Conservative Club","lat":52.38784,"lon":0.11564,"postcode":"CB6 2NW","la":"East Cambridgeshire","era":"other","nn":0,"risk":49,"cat":"amber"},{"name":"Sutton & District Royal British Legion","lat":51.02707,"lon":-2.75309,"postcode":"CB6 2QQ","la":"East Cambridgeshire","era":"trad","nn":351,"risk":49,"cat":"amber"},{"name":"Thai Plough","lat":52.4317,"lon":0.23635,"postcode":"CB6 2SX","la":"East Cambridgeshire","era":"trad","nn":336,"risk":51,"cat":"amber"},{"name":"The Anchor","lat":52.2825,"lon":0.32483,"postcode":"CB25 0BA","la":"East Cambridgeshire","era":"trad","nn":0,"risk":49,"cat":"amber"},{"name":"The Bell","lat":52.22263,"lon":0.25858,"postcode":"CB25 9DA","la":"East Cambridgeshire","era":"other","nn":1649,"risk":63,"cat":"red"},{"name":"The Bell Inn","lat":52.27204,"lon":0.49362,"postcode":"CB8 7PP","la":"East Cambridgeshire","era":"trad","nn":641,"risk":53,"cat":"amber"},{"name":"The Black Horse","lat":52.23911,"lon":0.27811,"postcode":"CB25 0HP","la":"East Cambridgeshire","era":"trad","nn":1838,"risk":64,"cat":"red"},{"name":"The Boot","lat":52.19154,"lon":0.38433,"postcode":"CB8 9UW","la":"East Cambridgeshire","era":"other","nn":1472,"risk":62,"cat":"red"},{"name":"The Bull","lat":52.17429,"lon":0.39299,"postcode":"CB8 9NH","la":"East Cambridgeshire","era":"trad","nn":1331,"risk":61,"cat":"red"},{"name":"The Carpenters Arms","lat":52.32816,"lon":0.34955,"postcode":"CB7 5AE","la":"East Cambridgeshire","era":"trad","nn":283,"risk":48,"cat":"amber"},{"name":"The Chequers","lat":52.38784,"lon":0.11564,"postcode":"CB6 2NW","la":"East Cambridgeshire","era":"other","nn":0,"risk":49,"cat":"amber"},{"name":"The Chequers Public House","lat":52.31184,"lon":0.38777,"postcode":"CB7 5NG","la":"East Cambridgeshire","era":"other","nn":3169,"risk":74,"cat":"red"},{"name":"The Cherry Tree","lat":52.32608,"lon":0.34716,"postcode":"CB7 5AH","la":"East Cambridgeshire","era":"other","nn":283,"risk":48,"cat":"amber"},{"name":"The Crown Inn","lat":52.4568,"lon":0.30612,"postcode":"CB6 1PJ","la":"East Cambridgeshire","era":"trad","nn":244,"risk":51,"cat":"amber"},{"name":"The Cutter","lat":52.39392,"lon":0.26719,"postcode":"CB7 4BN","la":"East Cambridgeshire","era":"other","nn":490,"risk":32,"cat":"amber"},{"name":"The Dykes End","lat":52.27128,"lon":0.29447,"postcode":"CB25 0JD","la":"East Cambridgeshire","era":"other","nn":2163,"risk":66,"cat":"red"},{"name":"The Five Bells","lat":52.2727,"lon":0.32735,"postcode":"CB25 0HD","la":"East Cambridgeshire","era":"other","nn":1104,"risk":59,"cat":"amber"},{"name":"The Five Miles From Anywhere No Hurry Inn","lat":52.30795,"lon":0.2532,"postcode":"CB7 5ZR","la":"East Cambridgeshire","era":"trad","nn":3310,"risk":74,"cat":"red"},{"name":"The Fountain","lat":52.33493,"lon":0.33683,"postcode":"CB7 5DS","la":"East Cambridgeshire","era":"other","nn":81,"risk":47,"cat":"amber"},{"name":"The Fountain","lat":52.39724,"lon":0.26023,"postcode":"CB7 4JF","la":"East Cambridgeshire","era":"other","nn":0,"risk":29,"cat":"green"},{"name":"The Fox PH","lat":52.2825,"lon":0.32483,"postcode":"CB25 0BA","la":"East Cambridgeshire","era":"trad","nn":0,"risk":49,"cat":"amber"},{"name":"The Griffin","lat":52.34248,"lon":0.41077,"postcode":"CB7 5RX","la":"East Cambridgeshire","era":"trad","nn":174,"risk":48,"cat":"amber"},{"name":"The Hereward","lat":52.40004,"lon":0.26427,"postcode":"CB7 4LZ","la":"East Cambridgeshire","era":"other","nn":37,"risk":29,"cat":"green"},{"name":"The High Flyer","lat":52.40125,"lon":0.26681,"postcode":"CB7 4PQ","la":"East Cambridgeshire","era":"other","nn":190,"risk":30,"cat":"green"},{"name":"The Humble Pig","lat":52.39651,"lon":0.14943,"postcode":"CB6 2LA","la":"East Cambridgeshire","era":"other","nn":238,"risk":50,"cat":"amber"},{"name":"The Kings Arms","lat":52.40004,"lon":0.26105,"postcode":"CB7 4ES","la":"East Cambridgeshire","era":"trad","nn":103,"risk":30,"cat":"green"},{"name":"The Maids Head","lat":52.31181,"lon":0.30147,"postcode":"CB7 5XR","la":"East Cambridgeshire","era":"trad","nn":3310,"risk":74,"cat":"red"},{"name":"The Merry Monk","lat":52.34134,"lon":0.40712,"postcode":"CB7 5SB","la":"East Cambridgeshire","era":"trad","nn":278,"risk":48,"cat":"amber"},{"name":"The Minster Tavern","lat":52.39949,"lon":0.26227,"postcode":"CB7 4EL","la":"East Cambridgeshire","era":"other","nn":103,"risk":30,"cat":"green"},{"name":"The Plough And Harrow (Cambs)","lat":52.44686,"lon":0.29879,"postcode":"CB6 1HJ","la":"East Cambridgeshire","era":"trad","nn":1212,"risk":60,"cat":"amber"},{"name":"The Prince Albert","lat":52.39724,"lon":0.26023,"postcode":"CB7 4JF","la":"East Cambridgeshire","era":"trad","nn":0,"risk":29,"cat":"green"},{"name":"The Red Lion","lat":52.2156,"lon":0.46385,"postcode":"CB8 9RH","la":"East Cambridgeshire","era":"trad","nn":421,"risk":52,"cat":"amber"},{"name":"The Red Lion","lat":52.25183,"lon":0.29533,"postcode":"CB25 0LD","la":"East Cambridgeshire","era":"trad","nn":1838,"risk":64,"cat":"red"},{"name":"The Reindeer","lat":52.20792,"lon":0.45498,"postcode":"CB8 9RS","la":"East Cambridgeshire","era":"other","nn":1047,"risk":59,"cat":"amber"},{"name":"The Rising Sun","lat":52.34354,"lon":0.41264,"postcode":"CB7 5RT","la":"East Cambridgeshire","era":"other","nn":174,"risk":48,"cat":"amber"},{"name":"The Royal Standard","lat":52.39832,"lon":0.26731,"postcode":"CB7 4AF","la":"East Cambridgeshire","era":"trad","nn":28,"risk":29,"cat":"green"},{"name":"The Ship","lat":52.33163,"lon":0.33878,"postcode":"CB7 5HD","la":"East Cambridgeshire","era":"trad","nn":321,"risk":34,"cat":"amber"},{"name":"The Tharp Arms","lat":52.30272,"lon":0.43501,"postcode":"CB7 5PR","la":"East Cambridgeshire","era":"trad","nn":1320,"risk":61,"cat":"red"},{"name":"The Three Blackbirds","lat":52.19676,"lon":0.4264,"postcode":"CB8 9SQ","la":"East Cambridgeshire","era":"other","nn":1929,"risk":65,"cat":"red"},{"name":"The Three Kings","lat":52.36131,"lon":0.14955,"postcode":"CB6 3XD","la":"East Cambridgeshire","era":"trad","nn":3741,"risk":78,"cat":"red"},{"name":"The Three Pickerels PH","lat":52.40938,"lon":0.11908,"postcode":"CB6 2AR","la":"East Cambridgeshire","era":"other","nn":2271,"risk":67,"cat":"red"},{"name":"The Townhouse","lat":52.40037,"lon":0.26442,"postcode":"CB7 4LS","la":"East Cambridgeshire","era":"other","nn":37,"risk":29,"cat":"green"},{"name":"The Village Inn","lat":52.38691,"lon":0.20556,"postcode":"CB6 2HQ","la":"East Cambridgeshire","era":"trad","nn":3338,"risk":75,"cat":"red"},{"name":"The White Horse","lat":52.39795,"lon":0.14681,"postcode":"CB6 2LF","la":"East Cambridgeshire","era":"trad","nn":238,"risk":50,"cat":"amber"},{"name":"West End House","lat":52.39929,"lon":0.25366,"postcode":"CB6 3AY","la":"East Cambridgeshire","era":"other","nn":501,"risk":32,"cat":"amber"},{"name":"Abington Social Club","lat":52.11637,"lon":0.22974,"postcode":"CB21 6AH","la":"South Cambridgeshire","era":"mod","nn":630,"risk":51,"cat":"amber"},{"name":"Beach Social Club","lat":52.26433,"lon":0.18801,"postcode":"CB25 9NJ","la":"South Cambridgeshire","era":"mod","nn":235,"risk":46,"cat":"amber"},{"name":"Blue Ball Inn","lat":52.18328,"lon":0.09403,"postcode":"CB3 9NQ","la":"South Cambridgeshire","era":"trad","nn":241,"risk":46,"cat":"amber"},{"name":"Blue lion","lat":52.20761,"lon":0.00676,"postcode":"CB23 7QU","la":"South Cambridgeshire","era":"trad","nn":690,"risk":52,"cat":"amber"},{"name":"Bridge Hotel","lat":52.25809,"lon":0.19876,"postcode":"CB25 9HZ","la":"South Cambridgeshire","era":"other","nn":991,"risk":54,"cat":"amber"},{"name":"Caldecote Social Club","lat":52.21024,"lon":-0.02169,"postcode":"CB23 7NX","la":"South Cambridgeshire","era":"mod","nn":1961,"risk":63,"cat":"red"},{"name":"Cam Spice","lat":52.16291,"lon":-0.00642,"postcode":"CB23 1HN","la":"South Cambridgeshire","era":"other","nn":1618,"risk":61,"cat":"red"},{"name":"Chutney Joe","lat":52.21833,"lon":-0.06825,"postcode":"CB23 6JX","la":"South Cambridgeshire","era":"other","nn":34,"risk":47,"cat":"amber"},{"name":"Dog & Duck","lat":52.09791,"lon":0.27723,"postcode":"CB21 4HS","la":"South Cambridgeshire","era":"other","nn":266,"risk":46,"cat":"amber"},{"name":"Duke of Wellington","lat":52.31448,"lon":0.0631,"postcode":"CB24 5HS","la":"South Cambridgeshire","era":"trad","nn":87,"risk":32,"cat":"amber"},{"name":"Elsworth Sports Club","lat":52.25487,"lon":-0.0762,"postcode":"CB23 4JD","la":"South Cambridgeshire","era":"other","nn":133,"risk":45,"cat":"amber"},{"name":"Forum House Chinese Restaurant","lat":52.1467,"lon":0.13383,"postcode":"CB22 5LZ","la":"South Cambridgeshire","era":"mod","nn":229,"risk":33,"cat":"amber"},{"name":"Fulbourn Institute","lat":52.17926,"lon":0.22455,"postcode":"CB21 5BS","la":"South Cambridgeshire","era":"other","nn":111,"risk":45,"cat":"amber"},{"name":"Girton Golf Club","lat":52.24405,"lon":0.07687,"postcode":"CB3 0QE","la":"South Cambridgeshire","era":"other","nn":418,"risk":47,"cat":"amber"},{"name":"Gog Magog Golf Club","lat":52.16552,"lon":0.16248,"postcode":"CB22 3AB","la":"South Cambridgeshire","era":"other","nn":1757,"risk":61,"cat":"red"},{"name":"Graystones","lat":52.09201,"lon":0.15871,"postcode":"CB22 4RP","la":"South Cambridgeshire","era":"other","nn":268,"risk":46,"cat":"amber"},{"name":"Hardwick Sports And Social Club","lat":52.21369,"lon":0.00882,"postcode":"CB23 7XR","la":"South Cambridgeshire","era":"mod","nn":690,"risk":52,"cat":"amber"},{"name":"Hare and Hounds Harlton","lat":52.15161,"lon":0.0282,"postcode":"CB23 1ES","la":"South Cambridgeshire","era":"trad","nn":1110,"risk":57,"cat":"amber"},{"name":"House of Spice & Little Rose Pub","lat":52.14922,"lon":0.05639,"postcode":"CB23 1JT","la":"South Cambridgeshire","era":"other","nn":1902,"risk":63,"cat":"red"},{"name":"Indian Ocean","lat":52.25309,"lon":0.10494,"postcode":"CB24 9JE","la":"South Cambridgeshire","era":"other","nn":54,"risk":27,"cat":"green"},{"name":"Jeabs Thai","lat":52.24156,"lon":0.08147,"postcode":"CB3 0QD","la":"South Cambridgeshire","era":"other","nn":0,"risk":44,"cat":"amber"},{"name":"John Barleycorn","lat":52.09441,"lon":0.15894,"postcode":"CB22 4PP","la":"South Cambridgeshire","era":"other","nn":268,"risk":46,"cat":"amber"},{"name":"King William IV","lat":52.25491,"lon":0.10421,"postcode":"CB24 9EP","la":"South Cambridgeshire","era":"trad","nn":208,"risk":28,"cat":"green"},{"name":"Kings Head","lat":52.12423,"lon":0.16929,"postcode":"CB22 3BG","la":"South Cambridgeshire","era":"trad","nn":66,"risk":45,"cat":"amber"},{"name":"Kings Head","lat":52.22139,"lon":0.16988,"postcode":"CB5 8ST","la":"South Cambridgeshire","era":"trad","nn":311,"risk":49,"cat":"amber"},{"name":"La Pergola","lat":52.15411,"lon":0.01245,"postcode":"CB23 1HA","la":"South Cambridgeshire","era":"other","nn":1110,"risk":57,"cat":"amber"},{"name":"Lalbagh Restaurant","lat":52.19418,"lon":-0.0629,"postcode":"CB23 2SH","la":"South Cambridgeshire","era":"other","nn":412,"risk":50,"cat":"amber"},{"name":"Lion and Lamb","lat":52.24376,"lon":0.16187,"postcode":"CB24 6DF","la":"South Cambridgeshire","era":"trad","nn":64,"risk":32,"cat":"amber"},{"name":"Queens Head","lat":52.12458,"lon":0.09955,"postcode":"CB22 7PG","la":"South Cambridgeshire","era":"trad","nn":2125,"risk":64,"cat":"red"},{"name":"Red Lion Public House","lat":52.18036,"lon":0.09556,"postcode":"CB3 9NF","la":"South Cambridgeshire","era":"trad","nn":161,"risk":45,"cat":"amber"},{"name":"Rose and Crown","lat":52.25145,"lon":0.10901,"postcode":"CB24 9JB","la":"South Cambridgeshire","era":"trad","nn":51,"risk":27,"cat":"green"},{"name":"Royal Bengal","lat":52.3148,"lon":0.06193,"postcode":"CB24 5HS","la":"South Cambridgeshire","era":"trad","nn":87,"risk":32,"cat":"amber"},{"name":"Shelford Rugby Club","lat":52.15845,"lon":0.12192,"postcode":"CB22 5JU","la":"South Cambridgeshire","era":"other","nn":1288,"risk":58,"cat":"amber"},{"name":"Tai Yuen","lat":52.18742,"lon":-0.01272,"postcode":"CB23 2RL","la":"South Cambridgeshire","era":"other","nn":2240,"risk":65,"cat":"red"},{"name":"Tawa Lounge","lat":52.25143,"lon":0.10826,"postcode":"CB24 9JA","la":"South Cambridgeshire","era":"mod","nn":51,"risk":27,"cat":"green"},{"name":"The Admiral Vernon","lat":52.31647,"lon":0.01651,"postcode":"CB24 5NB","la":"South Cambridgeshire","era":"other","nn":2179,"risk":64,"cat":"red"},{"name":"The Bank MicroPub","lat":52.31289,"lon":0.05682,"postcode":"CB24 5ES","la":"South Cambridgeshire","era":"other","nn":329,"risk":34,"cat":"amber"},{"name":"The Bees In The Wall","lat":52.11602,"lon":0.14137,"postcode":"CB22 4NZ","la":"South Cambridgeshire","era":"other","nn":538,"risk":48,"cat":"amber"},{"name":"The Bell Inn","lat":52.13121,"lon":0.32045,"postcode":"CB21 4DZ","la":"South Cambridgeshire","era":"trad","nn":259,"risk":49,"cat":"amber"},{"name":"The Black Bull","lat":52.13135,"lon":0.31667,"postcode":"CB21 4DJ","la":"South Cambridgeshire","era":"trad","nn":259,"risk":49,"cat":"amber"},{"name":"The Black Bull","lat":52.2823,"lon":0.04473,"postcode":"CB24 3BS","la":"South Cambridgeshire","era":"trad","nn":224,"risk":48,"cat":"amber"},{"name":"The Black Horse","lat":52.29211,"lon":0.0891,"postcode":"CB24 8QE","la":"South Cambridgeshire","era":"trad","nn":2442,"risk":66,"cat":"red"},{"name":"The Black Horse Public House","lat":52.23972,"lon":0.02199,"postcode":"CB23 8DA","la":"South Cambridgeshire","era":"trad","nn":1708,"risk":61,"cat":"red"},{"name":"The Boot","lat":52.25161,"lon":0.10633,"postcode":"CB24 9LG","la":"South Cambridgeshire","era":"other","nn":133,"risk":28,"cat":"green"},{"name":"The Brewers Inn","lat":52.24397,"lon":0.16479,"postcode":"CB24 6AD","la":"South Cambridgeshire","era":"trad","nn":129,"risk":33,"cat":"amber"},{"name":"The Carpenters Arms","lat":52.19306,"lon":0.26652,"postcode":"CB21 5JD","la":"South Cambridgeshire","era":"trad","nn":287,"risk":49,"cat":"amber"},{"name":"The Chequers","lat":52.28535,"lon":0.12526,"postcode":"CB24 8QP","la":"South Cambridgeshire","era":"other","nn":332,"risk":49,"cat":"amber"},{"name":"The Chestnut Tree","lat":52.14122,"lon":0.34887,"postcode":"CB21 5LT","la":"South Cambridgeshire","era":"other","nn":2237,"risk":65,"cat":"red"},{"name":"The Crown","lat":52.09623,"lon":0.27445,"postcode":"CB21 4HS","la":"South Cambridgeshire","era":"trad","nn":266,"risk":46,"cat":"amber"},{"name":"The Crown and Punchbowl","lat":52.2413,"lon":0.18581,"postcode":"CB25 9JG","la":"South Cambridgeshire","era":"trad","nn":378,"risk":49,"cat":"amber"},{"name":"The Fox","lat":52.25505,"lon":0.02062,"postcode":"CB23 8DY","la":"South Cambridgeshire","era":"trad","nn":1708,"risk":61,"cat":"red"},{"name":"The George","lat":52.24156,"lon":0.08147,"postcode":"CB3 0QD","la":"South Cambridgeshire","era":"trad","nn":0,"risk":44,"cat":"amber"},{"name":"The George & Dragon","lat":52.2563,"lon":-0.06882,"postcode":"CB23 4JQ","la":"South Cambridgeshire","era":"trad","nn":406,"risk":47,"cat":"amber"},{"name":"The George Inn","lat":52.13069,"lon":0.20986,"postcode":"CB22 3AG","la":"South Cambridgeshire","era":"trad","nn":2093,"risk":64,"cat":"red"},{"name":"The Greyhound","lat":52.12461,"lon":0.16853,"postcode":"CB22 3BG","la":"South Cambridgeshire","era":"trad","nn":66,"risk":45,"cat":"amber"},{"name":"The Hoops","lat":52.18233,"lon":0.05683,"postcode":"CB23 7BD","la":"South Cambridgeshire","era":"other","nn":572,"risk":51,"cat":"amber"},{"name":"The Hop Bind","lat":52.2883,"lon":0.12447,"postcode":"CB24 8RZ","la":"South Cambridgeshire","era":"other","nn":332,"risk":49,"cat":"amber"},{"name":"The Missing Sock","lat":52.21926,"lon":0.23501,"postcode":"CB25 9AQ","la":"South Cambridgeshire","era":"other","nn":746,"risk":52,"cat":"amber"},{"name":"The Monkfield Arms","lat":52.21814,"lon":-0.06785,"postcode":"CB23 6AH","la":"South Cambridgeshire","era":"trad","nn":34,"risk":47,"cat":"amber"},{"name":"The Navigator Public House","lat":52.14033,"lon":0.12298,"postcode":"CB22 5ES","la":"South Cambridgeshire","era":"other","nn":1024,"risk":56,"cat":"amber"},{"name":"The Oak","lat":52.06573,"lon":0.38121,"postcode":"CB21 4SN","la":"South Cambridgeshire","era":"trad","nn":2653,"risk":68,"cat":"red"},{"name":"The Old Red Lion","lat":52.09969,"lon":0.34844,"postcode":"CB21 4QF","la":"South Cambridgeshire","era":"trad","nn":3240,"risk":72,"cat":"red"},{"name":"The Pavilion","lat":52.28201,"lon":0.04148,"postcode":"CB24 3DW","la":"South Cambridgeshire","era":"trad","nn":224,"risk":48,"cat":"amber"},{"name":"The Plough","lat":52.20987,"lon":0.06646,"postcode":"CB23 7PL","la":"South Cambridgeshire","era":"trad","nn":2307,"risk":65,"cat":"red"},{"name":"The Plough","lat":52.15041,"lon":0.13552,"postcode":"CB22 5EH","la":"South Cambridgeshire","era":"trad","nn":220,"risk":46,"cat":"amber"},{"name":"The Plough and Fleece","lat":52.23799,"lon":0.18453,"postcode":"CB25 9JG","la":"South Cambridgeshire","era":"trad","nn":378,"risk":49,"cat":"amber"},{"name":"The Plough Inn","lat":52.22398,"lon":0.16816,"postcode":"CB5 8SX","la":"South Cambridgeshire","era":"trad","nn":311,"risk":49,"cat":"amber"},{"name":"The Plough Public House","lat":52.09025,"lon":0.15544,"postcode":"CB22 4RP","la":"South Cambridgeshire","era":"trad","nn":297,"risk":46,"cat":"amber"},{"name":"The Poacher","lat":52.2548,"lon":-0.07426,"postcode":"CB23 4JS","la":"South Cambridgeshire","era":"other","nn":133,"risk":45,"cat":"amber"},{"name":"The Porterhouse","lat":52.31018,"lon":0.05492,"postcode":"CB24 5HF","la":"South Cambridgeshire","era":"other","nn":329,"risk":34,"cat":"amber"},{"name":"The Queens Head","lat":52.13702,"lon":0.07592,"postcode":"CB22 7NH","la":"South Cambridgeshire","era":"trad","nn":1902,"risk":63,"cat":"red"},{"name":"The Railway Vue","lat":52.24259,"lon":0.11092,"postcode":"CB24 9NP","la":"South Cambridgeshire","era":"trad","nn":993,"risk":51,"cat":"amber"},{"name":"The Red House","lat":52.16924,"lon":-0.07598,"postcode":"CB23 2UT","la":"South Cambridgeshire","era":"other","nn":2534,"risk":67,"cat":"red"},{"name":"The Red Lion","lat":52.25274,"lon":0.10439,"postcode":"CB24 9JD","la":"South Cambridgeshire","era":"trad","nn":54,"risk":27,"cat":"green"},{"name":"The Red Lion","lat":52.08398,"lon":0.18228,"postcode":"CB10 1QY","la":"South Cambridgeshire","era":"trad","nn":1842,"risk":62,"cat":"red"},{"name":"The Royal Oak Barrington","lat":52.12608,"lon":0.02884,"postcode":"CB22 7RZ","la":"South Cambridgeshire","era":"trad","nn":1690,"risk":61,"cat":"red"},{"name":"The Rupert Brooke","lat":52.18113,"lon":0.09357,"postcode":"CB3 9NQ","la":"South Cambridgeshire","era":"other","nn":161,"risk":45,"cat":"amber"},{"name":"The Six Bells","lat":52.18336,"lon":0.22182,"postcode":"CB21 5DH","la":"South Cambridgeshire","era":"other","nn":492,"risk":48,"cat":"amber"},{"name":"The Square and Compasses","lat":52.14876,"lon":0.13375,"postcode":"CB22 5EH","la":"South Cambridgeshire","era":"other","nn":220,"risk":46,"cat":"amber"},{"name":"The Sun Inn","lat":52.26556,"lon":0.19082,"postcode":"CB25 9HR","la":"South Cambridgeshire","era":"trad","nn":80,"risk":32,"cat":"amber"},{"name":"The Three Horseshoes","lat":52.14486,"lon":0.14713,"postcode":"CB22 5DS","la":"South Cambridgeshire","era":"trad","nn":930,"risk":53,"cat":"amber"},{"name":"The Three Horseshoes","lat":52.22537,"lon":0.04337,"postcode":"CB23 8AB","la":"South Cambridgeshire","era":"trad","nn":2160,"risk":64,"cat":"red"},{"name":"The White Hart Inn","lat":52.17836,"lon":0.22386,"postcode":"CB21 5BZ","la":"South Cambridgeshire","era":"trad","nn":111,"risk":45,"cat":"amber"},{"name":"The White Horse","lat":52.26617,"lon":0.19144,"postcode":"CB25 9HP","la":"South Cambridgeshire","era":"trad","nn":80,"risk":45,"cat":"amber"},{"name":"The White Horse","lat":52.11526,"lon":0.05894,"postcode":"CB22 6RP","la":"South Cambridgeshire","era":"trad","nn":1878,"risk":62,"cat":"red"},{"name":"The White Horse Inn","lat":52.30169,"lon":-0.00452,"postcode":"CB24 4QG","la":"South Cambridgeshire","era":"trad","nn":2179,"risk":64,"cat":"red"},{"name":"The white lion","lat":52.12052,"lon":0.16894,"postcode":"CB22 3HJ","la":"South Cambridgeshire","era":"trad","nn":413,"risk":47,"cat":"amber"},{"name":"The White Swan","lat":52.22285,"lon":0.22576,"postcode":"CB25 9AB","la":"South Cambridgeshire","era":"trad","nn":746,"risk":52,"cat":"amber"},{"name":"The White Swan","lat":52.28218,"lon":-0.0629,"postcode":"CB23 4LN","la":"South Cambridgeshire","era":"trad","nn":2299,"risk":65,"cat":"red"},{"name":"The Willow Tree","lat":52.19048,"lon":-0.06253,"postcode":"CB23 2SQ","la":"South Cambridgeshire","era":"trad","nn":412,"risk":50,"cat":"amber"},{"name":"Three Hills","lat":52.08227,"lon":0.31042,"postcode":"CB21 4PW","la":"South Cambridgeshire","era":"other","nn":2525,"risk":67,"cat":"red"},{"name":"Three Horseshoes Comberton","lat":52.18547,"lon":0.02,"postcode":"CB23 7DZ","la":"South Cambridgeshire","era":"trad","nn":2240,"risk":65,"cat":"red"},{"name":"Three Tuns","lat":52.11673,"lon":0.23895,"postcode":"CB21 6AB","la":"South Cambridgeshire","era":"other","nn":630,"risk":51,"cat":"amber"},{"name":"Three Tuns","lat":52.29607,"lon":-0.03788,"postcode":"CB24 4SJ","la":"South Cambridgeshire","era":"other","nn":2299,"risk":65,"cat":"red"},{"name":"Tickell Arms","lat":52.11369,"lon":0.14829,"postcode":"CB22 4NZ","la":"South Cambridgeshire","era":"trad","nn":97,"risk":45,"cat":"amber"},{"name":"Waggon and Horses","lat":52.09749,"lon":0.28299,"postcode":"CB21 4JT","la":"South Cambridgeshire","era":"trad","nn":396,"risk":47,"cat":"amber"},{"name":"Waggon and Horses","lat":52.24474,"lon":0.16337,"postcode":"CB24 6DF","la":"South Cambridgeshire","era":"trad","nn":129,"risk":33,"cat":"amber"},{"name":"White Horse","lat":52.17854,"lon":0.06251,"postcode":"CB23 7BG","la":"South Cambridgeshire","era":"trad","nn":572,"risk":51,"cat":"amber"},{"name":"White Horse","lat":52.26053,"lon":0.06423,"postcode":"CB24 3AB","la":"South Cambridgeshire","era":"trad","nn":2024,"risk":63,"cat":"red"},{"name":"White Horse Inn","lat":52.24324,"lon":0.16145,"postcode":"CB24 6AJ","la":"South Cambridgeshire","era":"trad","nn":64,"risk":32,"cat":"amber"},{"name":"Whittlesford Social Club","lat":52.11282,"lon":0.14845,"postcode":"CB22 4LT","la":"South Cambridgeshire","era":"mod","nn":97,"risk":45,"cat":"amber"},{"name":"Wilbraham Memorial Hall","lat":52.19563,"lon":0.26627,"postcode":"CB21 5JG","la":"South Cambridgeshire","era":"other","nn":287,"risk":49,"cat":"amber"},{"name":"Cricketers Arms","lat":51.94587,"lon":0.19672,"postcode":"CB11 3YG","la":"Uttlesford","era":"trad","nn":426,"risk":52,"cat":"amber"},{"name":"Duke Of York","lat":52.02016,"lon":0.23991,"postcode":"CB10 1EA","la":"Uttlesford","era":"trad","nn":141,"risk":30,"cat":"green"},{"name":"Fleur De Lys Widdington Limited","lat":51.96188,"lon":0.23792,"postcode":"CB11 3SG","la":"Uttlesford","era":"other","nn":2534,"risk":69,"cat":"red"},{"name":"GT Chesterford Bowls Club","lat":52.06346,"lon":0.19331,"postcode":"CB10 1NS","la":"Uttlesford","era":"other","nn":645,"risk":51,"cat":"amber"},{"name":"Newport Club","lat":51.98497,"lon":0.21435,"postcode":"CB11 3RB","la":"Uttlesford","era":"other","nn":117,"risk":47,"cat":"amber"},{"name":"Old English Gentleman","lat":52.02173,"lon":0.24046,"postcode":"CB10 1EJ","la":"Uttlesford","era":"other","nn":89,"risk":29,"cat":"green"},{"name":"ONION","lat":52.01924,"lon":0.24237,"postcode":"CB11 3HQ","la":"Uttlesford","era":"other","nn":0,"risk":29,"cat":"green"},{"name":"Quendon Bowling Club","lat":51.94908,"lon":0.20012,"postcode":"CB11 3XQ","la":"Uttlesford","era":"other","nn":426,"risk":52,"cat":"amber"},{"name":"Radwinter Bowling Club","lat":52.01606,"lon":0.3375,"postcode":"CB10 2TX","la":"Uttlesford","era":"other","nn":4575,"risk":83,"cat":"red"},{"name":"Saffron Snooker Club","lat":52.0207,"lon":0.25581,"postcode":"CB11 3AQ","la":"Uttlesford","era":"other","nn":620,"risk":38,"cat":"amber"},{"name":"Saffron Walden Golf Club","lat":52.02544,"lon":0.23305,"postcode":"CB10 1BX","la":"Uttlesford","era":"other","nn":248,"risk":31,"cat":"amber"},{"name":"Saffron Walden Town Bowls Club","lat":52.02228,"lon":0.23721,"postcode":"CB10 1AG","la":"Uttlesford","era":"other","nn":169,"risk":30,"cat":"green"},{"name":"Saffron Walden Town Football Club","lat":52.02747,"lon":0.24171,"postcode":"CB10 2DU","la":"Uttlesford","era":"other","nn":379,"risk":32,"cat":"amber"},{"name":"The Axe","lat":52.02534,"lon":0.25079,"postcode":"CB10 2AT","la":"Uttlesford","era":"other","nn":620,"risk":33,"cat":"amber"},{"name":"The Axe And Compasses","lat":51.98822,"lon":0.15882,"postcode":"CB11 4EX","la":"Uttlesford","era":"other","nn":2500,"risk":69,"cat":"red"},{"name":"The Bull Public House","lat":51.98977,"lon":0.09199,"postcode":"CB11 4SB","la":"Uttlesford","era":"trad","nn":2556,"risk":69,"cat":"red"},{"name":"The Coach & Horses","lat":51.98999,"lon":0.21418,"postcode":"CB11 3TR","la":"Uttlesford","era":"trad","nn":443,"risk":49,"cat":"amber"},{"name":"The Cross Keys","lat":52.02345,"lon":0.2388,"postcode":"CB10 1AX","la":"Uttlesford","era":"trad","nn":145,"risk":30,"cat":"green"},{"name":"The Crown And Thistle","lat":52.06384,"lon":0.20272,"postcode":"CB10 1PL","la":"Uttlesford","era":"trad","nn":0,"risk":46,"cat":"amber"},{"name":"The Crown Inn","lat":52.05031,"lon":0.25224,"postcode":"CB10 1XA","la":"Uttlesford","era":"trad","nn":2641,"risk":70,"cat":"red"},{"name":"The Eight Bells Ltd","lat":52.02529,"lon":0.23667,"postcode":"CB10 1BU","la":"Uttlesford","era":"other","nn":248,"risk":31,"cat":"amber"},{"name":"The Fox & Hounds","lat":51.96683,"lon":0.14758,"postcode":"CB11 4QR","la":"Uttlesford","era":"trad","nn":2268,"risk":67,"cat":"red"},{"name":"The Gate","lat":51.99261,"lon":0.39242,"postcode":"CB10 2RL","la":"Uttlesford","era":"other","nn":4575,"risk":83,"cat":"red"},{"name":"The Kings Arms","lat":52.02412,"lon":0.24061,"postcode":"CB10 1HQ","la":"Uttlesford","era":"trad","nn":145,"risk":30,"cat":"green"},{"name":"The Plough","lat":51.97698,"lon":0.26563,"postcode":"CB11 3LE","la":"Uttlesford","era":"trad","nn":2534,"risk":69,"cat":"red"},{"name":"The Plough","lat":52.06384,"lon":0.20272,"postcode":"CB10 1PL","la":"Uttlesford","era":"trad","nn":0,"risk":46,"cat":"amber"},{"name":"The Queens Head","lat":52.03408,"lon":0.20907,"postcode":"CB11 4TD","la":"Uttlesford","era":"trad","nn":1901,"risk":65,"cat":"red"},{"name":"The Railway Arms","lat":52.01924,"lon":0.24237,"postcode":"CB11 3HQ","la":"Uttlesford","era":"trad","nn":0,"risk":29,"cat":"green"},{"name":"The Temeraire","lat":52.02137,"lon":0.23929,"postcode":"CB10 1AA","la":"Uttlesford","era":"other","nn":89,"risk":29,"cat":"green"},{"name":"White Horse Inn","lat":51.98601,"lon":0.21445,"postcode":"CB11 3RF","la":"Uttlesford","era":"trad","nn":117,"risk":47,"cat":"amber"},{"name":"Bar Vu","lat":52.08139,"lon":0.44095,"postcode":"CB9 8DA","la":"West Suffolk","era":"mod","nn":32,"risk":29,"cat":"green"},{"name":"Barnardiston Arms","lat":52.08993,"lon":0.48608,"postcode":"CB9 7NA","la":"West Suffolk","era":"trad","nn":2061,"risk":63,"cat":"red"},{"name":"Cherry Tree Newmarket","lat":52.25194,"lon":0.39577,"postcode":"CB8 0EL","la":"West Suffolk","era":"other","nn":250,"risk":46,"cat":"amber"},{"name":"Exning Road Working Men's Club","lat":52.25046,"lon":0.39854,"postcode":"CB8 0AB","la":"West Suffolk","era":"trad","nn":250,"risk":28,"cat":"green"},{"name":"Foresters Club","lat":52.24318,"lon":0.40636,"postcode":"CB8 8EN","la":"West Suffolk","era":"other","nn":0,"risk":27,"cat":"green"},{"name":"Gee Gees Wine Bar","lat":52.24329,"lon":0.40746,"postcode":"CB8 8ES","la":"West Suffolk","era":"other","nn":74,"risk":27,"cat":"green"},{"name":"GREENE KING PLC","lat":52.0811,"lon":0.441,"postcode":"CB9 8AH","la":"West Suffolk","era":"trad","nn":32,"risk":29,"cat":"green"},{"name":"Jockey Club","lat":52.24294,"lon":0.40513,"postcode":"CB8 8JL","la":"West Suffolk","era":"other","nn":46,"risk":27,"cat":"green"},{"name":"Kings","lat":52.24318,"lon":0.40636,"postcode":"CB8 8EN","la":"West Suffolk","era":"trad","nn":0,"risk":27,"cat":"green"},{"name":"Lidgate Star","lat":52.19123,"lon":0.51903,"postcode":"CB8 9PP","la":"West Suffolk","era":"other","nn":3056,"risk":70,"cat":"red"},{"name":"MK Catering","lat":52.24258,"lon":0.40296,"postcode":"CB8 9AE","la":"West Suffolk","era":"other","nn":153,"risk":28,"cat":"green"},{"name":"Newmarket Avenue Bowls Club","lat":52.2399,"lon":0.40671,"postcode":"CB8 9AY","la":"West Suffolk","era":"other","nn":354,"risk":29,"cat":"green"},{"name":"Newmarket Lawn Tennis Club","lat":52.24206,"lon":0.39064,"postcode":"CB8 0NQ","la":"West Suffolk","era":"other","nn":705,"risk":34,"cat":"amber"},{"name":"Newmarket Operatic Music & Dramatic","lat":52.24378,"lon":0.40061,"postcode":"CB8 0JW","la":"West Suffolk","era":"trad","nn":208,"risk":28,"cat":"green"},{"name":"Queens Head","lat":52.08365,"lon":0.43725,"postcode":"CB9 9DZ","la":"West Suffolk","era":"trad","nn":44,"risk":29,"cat":"green"},{"name":"The Affleck Arms","lat":52.22605,"lon":0.52012,"postcode":"CB8 8TG","la":"West Suffolk","era":"trad","nn":3644,"risk":75,"cat":"red"},{"name":"The Ark Newmarket","lat":52.24334,"lon":0.40499,"postcode":"CB8 8JH","la":"West Suffolk","era":"other","nn":46,"risk":27,"cat":"green"},{"name":"The Bull","lat":52.0832,"lon":0.43724,"postcode":"CB9 8HB","la":"West Suffolk","era":"trad","nn":50,"risk":29,"cat":"green"},{"name":"The Bull Public House","lat":52.24523,"lon":0.40788,"postcode":"CB8 8LB","la":"West Suffolk","era":"trad","nn":20,"risk":27,"cat":"green"},{"name":"The Bushel","lat":52.24453,"lon":0.40607,"postcode":"CB8 8EE","la":"West Suffolk","era":"other","nn":114,"risk":27,"cat":"green"},{"name":"The Cock Inn","lat":52.12819,"lon":0.44973,"postcode":"CB9 7LA","la":"West Suffolk","era":"trad","nn":2735,"risk":68,"cat":"red"},{"name":"The Fox Inn","lat":52.2036,"lon":0.55908,"postcode":"CB8 8TR","la":"West Suffolk","era":"trad","nn":3057,"risk":70,"cat":"red"},{"name":"The Golden Lion Public House","lat":52.24505,"lon":0.40785,"postcode":"CB8 8LB","la":"West Suffolk","era":"trad","nn":2,"risk":27,"cat":"green"},{"name":"The Greyhound Inn","lat":52.17197,"lon":0.55101,"postcode":"CB8 8XS","la":"West Suffolk","era":"trad","nn":3056,"risk":70,"cat":"red"},{"name":"The Kentford","lat":52.27243,"lon":0.50302,"postcode":"CB8 7PR","la":"West Suffolk","era":"other","nn":641,"risk":51,"cat":"amber"},{"name":"The New Wellington Public House","lat":52.24173,"lon":0.41919,"postcode":"CB8 8AD","la":"West Suffolk","era":"trad","nn":462,"risk":30,"cat":"green"},{"name":"The Ormonde Table Table","lat":52.21372,"lon":0.44009,"postcode":"CB8 8FF","la":"West Suffolk","era":"other","nn":1202,"risk":57,"cat":"amber"},{"name":"The Packhorse Inn","lat":52.25283,"lon":0.48447,"postcode":"CB8 8SP","la":"West Suffolk","era":"trad","nn":2224,"risk":65,"cat":"red"},{"name":"The Prince of Wales Public House","lat":52.2419,"lon":0.41241,"postcode":"CB8 8HF","la":"West Suffolk","era":"trad","nn":371,"risk":29,"cat":"green"},{"name":"The Red Lion","lat":52.10634,"lon":0.46814,"postcode":"CB9 7HA","la":"West Suffolk","era":"trad","nn":2198,"risk":64,"cat":"red"},{"name":"The Three Ways","lat":52.1596,"lon":0.505,"postcode":"CB8 9QD","la":"West Suffolk","era":"other","nn":3426,"risk":73,"cat":"red"},{"name":"The Waggon & Horses","lat":52.24505,"lon":0.40788,"postcode":"CB8 8LB","la":"West Suffolk","era":"trad","nn":2,"risk":27,"cat":"green"},{"name":"The Wheatsheaf","lat":52.26398,"lon":0.37013,"postcode":"CB8 7HA","la":"West Suffolk","era":"trad","nn":240,"risk":46,"cat":"amber"},{"name":"The White Horse Inn","lat":52.10424,"lon":0.40486,"postcode":"CB9 7SH","la":"West Suffolk","era":"trad","nn":3163,"risk":71,"cat":"red"},{"name":"The White Horse Inn","lat":52.26459,"lon":0.37507,"postcode":"CB8 7EH","la":"West Suffolk","era":"trad","nn":343,"risk":46,"cat":"amber"},{"name":"The White Swan","lat":52.26598,"lon":0.36882,"postcode":"CB8 7EW","la":"West Suffolk","era":"trad","nn":240,"risk":46,"cat":"amber"},{"name":"The Woolpack","lat":52.08403,"lon":0.43745,"postcode":"CB9 9EF","la":"West Suffolk","era":"trad","nn":44,"risk":29,"cat":"green"},{"name":"Unique","lat":52.24353,"lon":0.40645,"postcode":"CB8 8EW","la":"West Suffolk","era":"other","nn":39,"risk":27,"cat":"green"}]