[{"name":"30 Social Club","lat":55.86051,"lon":-3.7509,"postcode":"ML7 5QD","la":"North Lanarkshire","era":"mod","nn":0,"risk":40,"cat":"amber"},{"name":"32 Social Club","lat":55.81604,"lon":-3.78888,"postcode":"ML7 5EB","la":"North Lanarkshire","era":"mod","nn":432,"risk":45,"cat":"amber"},{"name":"AC Caterers, Bank Social Club","lat":55.85734,"lon":-4.03502,"postcode":"ML5 1DE","la":"North Lanarkshire","era":"mod","nn":0,"risk":22,"cat":"green"},{"name":"Airdrie Bowling Club","lat":55.86502,"lon":-3.98305,"postcode":"ML6 0AN","la":"North Lanarkshire","era":"other","nn":108,"risk":23,"cat":"green"},{"name":"Airdrie Central Bowling Club","lat":55.87124,"lon":-3.97347,"postcode":"ML6 6ET","la":"North Lanarkshire","era":"other","nn":196,"risk":23,"cat":"green"},{"name":"Airdrie District Lol No 1","lat":55.86667,"lon":-3.97701,"postcode":"ML6 6AL","la":"North Lanarkshire","era":"other","nn":23,"risk":22,"cat":"green"},{"name":"Airdrie Golf Club","lat":55.87893,"lon":-3.99135,"postcode":"ML6 0PQ","la":"North Lanarkshire","era":"other","nn":861,"risk":46,"cat":"amber"},{"name":"Airdrie Service Club Ltd","lat":55.87344,"lon":-3.97442,"postcode":"ML6 6LT","la":"North Lanarkshire","era":"other","nn":75,"risk":23,"cat":"green"},{"name":"Airdrie Working Mens Social Cl","lat":55.86542,"lon":-3.98093,"postcode":"ML6 6BN","la":"North Lanarkshire","era":"other","nn":0,"risk":22,"cat":"green"},{"name":"Allanton Miners Welfare Social Club","lat":55.80056,"lon":-3.83654,"postcode":"ML7 5AX","la":"North Lanarkshire","era":"mod","nn":2602,"risk":63,"cat":"red"},{"name":"Baird & Scottish Social & Recr","lat":55.86864,"lon":-4.04207,"postcode":"ML5 2EU","la":"North Lanarkshire","era":"mod","nn":0,"risk":22,"cat":"green"},{"name":"Ballroom Bellshill","lat":55.81886,"lon":-4.01938,"postcode":"ML4 1AB","la":"North Lanarkshire","era":"other","nn":87,"risk":23,"cat":"green"},{"name":"Bar 6","lat":55.77448,"lon":-3.92186,"postcode":"ML2 7AT","la":"North Lanarkshire","era":"mod","nn":80,"risk":23,"cat":"green"},{"name":"Bellshill & Mossend Bowling Cl","lat":55.82579,"lon":-4.01734,"postcode":"ML4 1LY","la":"North Lanarkshire","era":"other","nn":638,"risk":26,"cat":"green"},{"name":"Beltane Outdoor Bowling Club","lat":55.7706,"lon":-3.92639,"postcode":"ML2 0HA","la":"North Lanarkshire","era":"other","nn":295,"risk":24,"cat":"green"},{"name":"Big Tree Bar","lat":55.85166,"lon":-4.02052,"postcode":"ML5 4EJ","la":"North Lanarkshire","era":"other","nn":64,"risk":25,"cat":"green"},{"name":"Brandon Bar","lat":55.78724,"lon":-3.98654,"postcode":"ML1 1XA","la":"North Lanarkshire","era":"other","nn":58,"risk":22,"cat":"green"},{"name":"Brandon Works","lat":55.79112,"lon":-3.99208,"postcode":"ML1 1JJ","la":"North Lanarkshire","era":"mod","nn":0,"risk":22,"cat":"green"},{"name":"Brandy Bar","lat":55.84346,"lon":-3.87522,"postcode":"ML7 4LH","la":"North Lanarkshire","era":"other","nn":159,"risk":43,"cat":"amber"},{"name":"Brass Button","lat":55.79512,"lon":-4.00982,"postcode":"ML1 3PB","la":"North Lanarkshire","era":"other","nn":626,"risk":46,"cat":"amber"},{"name":"Bridges Bar","lat":55.81447,"lon":-3.97709,"postcode":"ML1 4LY","la":"North Lanarkshire","era":"other","nn":157,"risk":23,"cat":"green"},{"name":"Broomknowe Bar","lat":55.86559,"lon":-3.98089,"postcode":"ML6 6BN","la":"North Lanarkshire","era":"other","nn":19,"risk":22,"cat":"green"},{"name":"Burns Bar","lat":55.81905,"lon":-4.01802,"postcode":"ML4 1BA","la":"North Lanarkshire","era":"other","nn":3,"risk":22,"cat":"green"},{"name":"Burns Tavern","lat":55.79233,"lon":-3.98876,"postcode":"ML1 1NA","la":"North Lanarkshire","era":"other","nn":51,"risk":22,"cat":"green"},{"name":"Calderbank Bowling Club","lat":55.84134,"lon":-3.96472,"postcode":"ML6 9SL","la":"North Lanarkshire","era":"other","nn":135,"risk":40,"cat":"amber"},{"name":"Caldercraig Bowling Club","lat":55.8671,"lon":-3.94326,"postcode":"ML6 8LZ","la":"North Lanarkshire","era":"other","nn":444,"risk":43,"cat":"amber"},{"name":"Cambusnethan Miners Welfare","lat":55.77837,"lon":-3.88837,"postcode":"ML2 8PY","la":"North Lanarkshire","era":"other","nn":508,"risk":31,"cat":"amber"},{"name":"Carat Catering Drumpellier Golf Club Kitchen","lat":55.86892,"lon":-4.06575,"postcode":"ML5 1RX","la":"North Lanarkshire","era":"mod","nn":1398,"risk":54,"cat":"amber"},{"name":"Carousel Bar","lat":55.81634,"lon":-4.02654,"postcode":"ML4 1AG","la":"North Lanarkshire","era":"other","nn":124,"risk":23,"cat":"green"},{"name":"Carsons","lat":55.85307,"lon":-4.02067,"postcode":"ML5 4EL","la":"North Lanarkshire","era":"other","nn":92,"risk":23,"cat":"green"},{"name":"Cellar Bar","lat":55.86586,"lon":-3.98392,"postcode":"ML6 0AS","la":"North Lanarkshire","era":"other","nn":0,"risk":22,"cat":"green"},{"name":"Cesars Bar","lat":55.82277,"lon":-4.04673,"postcode":"ML4 3JG","la":"North Lanarkshire","era":"other","nn":0,"risk":27,"cat":"green"},{"name":"Cesar's Bar","lat":55.82277,"lon":-4.04673,"postcode":"ML4 3JG","la":"North Lanarkshire","era":"other","nn":0,"risk":27,"cat":"green"},{"name":"Cheers Bar and Avenue Night Club","lat":55.8621,"lon":-4.02405,"postcode":"ML5 3EG","la":"North Lanarkshire","era":"mod","nn":30,"risk":22,"cat":"green"},{"name":"Clarkston Bowling Club","lat":55.87104,"lon":-3.9422,"postcode":"ML6 8PE","la":"North Lanarkshire","era":"other","nn":444,"risk":45,"cat":"amber"},{"name":"Cliftonville Cafe, Coatbridge Indoor Bowling Club","lat":55.86223,"lon":-4.00501,"postcode":"ML5 3PU","la":"North Lanarkshire","era":"other","nn":126,"risk":25,"cat":"green"},{"name":"Club 100","lat":55.78114,"lon":-3.98207,"postcode":"ML1 2PP","la":"North Lanarkshire","era":"other","nn":222,"risk":24,"cat":"green"},{"name":"Club 100","lat":55.8219,"lon":-3.967,"postcode":"ML1 4SG","la":"North Lanarkshire","era":"other","nn":149,"risk":28,"cat":"green"},{"name":"Clydesdale Bar","lat":55.75488,"lon":-3.90984,"postcode":"ML2 0QF","la":"North Lanarkshire","era":"other","nn":334,"risk":44,"cat":"amber"},{"name":"Coatbridge Bowling Club","lat":55.862,"lon":-4.03681,"postcode":"ML5 1PP","la":"North Lanarkshire","era":"other","nn":188,"risk":23,"cat":"green"},{"name":"Coatdyke Bowling Club","lat":55.86453,"lon":-4.0006,"postcode":"ML6 0BE","la":"North Lanarkshire","era":"other","nn":312,"risk":24,"cat":"green"},{"name":"Colville Park Golf Club","lat":55.8013,"lon":-3.98241,"postcode":"ML1 4UG","la":"North Lanarkshire","era":"other","nn":714,"risk":47,"cat":"amber"},{"name":"Craigneuk Orange Hall","lat":55.77739,"lon":-3.94965,"postcode":"ML2 7SR","la":"North Lanarkshire","era":"other","nn":595,"risk":46,"cat":"amber"},{"name":"Crosskeys Inn","lat":55.77297,"lon":-3.9189,"postcode":"ML2 8AN","la":"North Lanarkshire","era":"trad","nn":38,"risk":22,"cat":"green"},{"name":"Crown Bar","lat":55.81861,"lon":-4.025,"postcode":"ML4 1AE","la":"North Lanarkshire","era":"trad","nn":55,"risk":22,"cat":"green"},{"name":"Crown Bar","lat":55.82319,"lon":-3.96768,"postcode":"ML1 4TP","la":"North Lanarkshire","era":"trad","nn":149,"risk":28,"cat":"green"},{"name":"Cue Here","lat":55.86684,"lon":-3.97952,"postcode":"ML6 6AH","la":"North Lanarkshire","era":"other","nn":62,"risk":22,"cat":"green"},{"name":"Dalzell Bowling Club","lat":55.78184,"lon":-3.97874,"postcode":"ML1 2AF","la":"North Lanarkshire","era":"other","nn":222,"risk":24,"cat":"green"},{"name":"Dalziel Clubhouse,Dalziel Park","lat":55.79858,"lon":-3.9423,"postcode":"ML1 5RZ","la":"North Lanarkshire","era":"other","nn":0,"risk":42,"cat":"amber"},{"name":"Delaney's Bar and Lounge","lat":55.80089,"lon":-3.91724,"postcode":"ML1 5QR","la":"North Lanarkshire","era":"mod","nn":952,"risk":49,"cat":"amber"},{"name":"Diamonds","lat":55.86583,"lon":-3.98197,"postcode":"ML6 0AH","la":"North Lanarkshire","era":"other","nn":0,"risk":22,"cat":"green"},{"name":"Dragon's Den (Dalziel Rugby Club)","lat":55.79858,"lon":-3.9423,"postcode":"ML1 5RZ","la":"North Lanarkshire","era":"trad","nn":0,"risk":42,"cat":"amber"},{"name":"Drumgelloch Bar","lat":55.87313,"lon":-3.9822,"postcode":"ML6 6NR","la":"North Lanarkshire","era":"other","nn":487,"risk":25,"cat":"green"},{"name":"Eagle Inn","lat":55.85646,"lon":-4.04619,"postcode":"ML5 1EJ","la":"North Lanarkshire","era":"trad","nn":536,"risk":26,"cat":"green"},{"name":"Easter Moffat Golf Club","lat":55.87619,"lon":-3.92137,"postcode":"ML6 8NP","la":"North Lanarkshire","era":"other","nn":1420,"risk":54,"cat":"amber"},{"name":"Eden Night Club (Envy Bar)","lat":55.86218,"lon":-4.02359,"postcode":"ML5 3EG","la":"North Lanarkshire","era":"other","nn":30,"risk":22,"cat":"green"},{"name":"Electric Bar","lat":55.78252,"lon":-3.99625,"postcode":"ML1 3AW","la":"North Lanarkshire","era":"other","nn":513,"risk":26,"cat":"green"},{"name":"Franklyns Bar","lat":55.81827,"lon":-4.02618,"postcode":"ML4 1AQ","la":"North Lanarkshire","era":"other","nn":36,"risk":22,"cat":"green"},{"name":"Frequency","lat":55.86362,"lon":-4.02652,"postcode":"ML5 3EB","la":"North Lanarkshire","era":"other","nn":0,"risk":22,"cat":"green"},{"name":"Gates Bar","lat":55.81887,"lon":-4.02084,"postcode":"ML4 1AB","la":"North Lanarkshire","era":"other","nn":91,"risk":23,"cat":"green"},{"name":"Girdwood's Bar","lat":55.77291,"lon":-3.92408,"postcode":"ML2 7AS","la":"North Lanarkshire","era":"other","nn":197,"risk":23,"cat":"green"},{"name":"Glengowan Bowling Club","lat":55.8893,"lon":-3.88351,"postcode":"ML6 7RE","la":"North Lanarkshire","era":"other","nn":182,"risk":43,"cat":"amber"},{"name":"Glenmavis Social Club","lat":55.88574,"lon":-3.9996,"postcode":"ML6 0PS","la":"North Lanarkshire","era":"mod","nn":916,"risk":48,"cat":"amber"},{"name":"Gordon Black Caterers @ Lodge Airdrie St. John 166","lat":55.86542,"lon":-3.98093,"postcode":"ML6 6BN","la":"North Lanarkshire","era":"other","nn":0,"risk":22,"cat":"green"},{"name":"Greengairs Bowling Club","lat":55.90844,"lon":-3.95719,"postcode":"ML6 7TA","la":"North Lanarkshire","era":"other","nn":1088,"risk":52,"cat":"amber"},{"name":"Greengairs Social Club","lat":55.9137,"lon":-3.94247,"postcode":"ML6 7TE","la":"North Lanarkshire","era":"mod","nn":1088,"risk":52,"cat":"amber"},{"name":"Harty's Function Suite","lat":55.86703,"lon":-3.97665,"postcode":"ML6 6AW","la":"North Lanarkshire","era":"trad","nn":46,"risk":22,"cat":"green"},{"name":"Hibernian Social & Recreationa","lat":55.80967,"lon":-3.9539,"postcode":"ML1 5AR","la":"North Lanarkshire","era":"mod","nn":880,"risk":48,"cat":"amber"},{"name":"Holytown LOL 121 Orange Hall","lat":55.82531,"lon":-3.97016,"postcode":"ML1 4TY","la":"North Lanarkshire","era":"other","nn":282,"risk":29,"cat":"green"},{"name":"Horse & Anchor","lat":55.77846,"lon":-3.8965,"postcode":"ML2 8PW","la":"North Lanarkshire","era":"trad","nn":280,"risk":29,"cat":"green"},{"name":"Horseshoe Bar","lat":55.79057,"lon":-3.99341,"postcode":"ML1 1BH","la":"North Lanarkshire","era":"trad","nn":0,"risk":22,"cat":"green"},{"name":"Horseshoe Bar","lat":55.86177,"lon":-4.00145,"postcode":"ML6 9AF","la":"North Lanarkshire","era":"trad","nn":183,"risk":26,"cat":"green"},{"name":"Houldsworth Bowling Club","lat":55.77378,"lon":-3.91234,"postcode":"ML2 8HU","la":"North Lanarkshire","era":"other","nn":364,"risk":25,"cat":"green"},{"name":"Hype Night Club","lat":55.78765,"lon":-3.98597,"postcode":"ML1 1RS","la":"North Lanarkshire","era":"other","nn":58,"risk":22,"cat":"green"},{"name":"I-Kandy","lat":55.86661,"lon":-3.97447,"postcode":"ML6 6DE","la":"North Lanarkshire","era":"other","nn":144,"risk":23,"cat":"green"},{"name":"Imperial Bar","lat":55.86586,"lon":-3.98392,"postcode":"ML6 0AS","la":"North Lanarkshire","era":"other","nn":0,"risk":22,"cat":"green"},{"name":"Imperial Bar","lat":55.77509,"lon":-3.92253,"postcode":"ML2 7AU","la":"North Lanarkshire","era":"other","nn":80,"risk":23,"cat":"green"},{"name":"Imperial Social Club","lat":55.81907,"lon":-4.01804,"postcode":"ML4 1BA","la":"North Lanarkshire","era":"mod","nn":3,"risk":22,"cat":"green"},{"name":"Innishmohr, 30s and Sugar Sugar","lat":55.86123,"lon":-4.023,"postcode":"ML5 3BJ","la":"North Lanarkshire","era":"trad","nn":24,"risk":22,"cat":"green"},{"name":"Juniors Pool and Sports Bar","lat":55.79056,"lon":-3.99338,"postcode":"ML1 1BH","la":"North Lanarkshire","era":"other","nn":0,"risk":22,"cat":"green"},{"name":"King Lud","lat":55.78048,"lon":-3.95741,"postcode":"ML2 7XD","la":"North Lanarkshire","era":"trad","nn":595,"risk":46,"cat":"amber"},{"name":"La Ronde and Legends Pool Hall","lat":55.86865,"lon":-4.04207,"postcode":"ML5 2EU","la":"North Lanarkshire","era":"other","nn":0,"risk":22,"cat":"green"},{"name":"Lanarkshire Bowling Club","lat":55.77257,"lon":-3.93372,"postcode":"ML2 0HL","la":"North Lanarkshire","era":"other","nn":508,"risk":26,"cat":"green"},{"name":"Lay By","lat":55.84287,"lon":-3.87754,"postcode":"ML7 4LW","la":"North Lanarkshire","era":"other","nn":159,"risk":43,"cat":"amber"},{"name":"Legends Bar","lat":55.86648,"lon":-3.97691,"postcode":"ML6 6DE","la":"North Lanarkshire","era":"other","nn":23,"risk":22,"cat":"green"},{"name":"Lodge Murdostoun Castle","lat":55.80938,"lon":-3.91919,"postcode":"ML1 5PP","la":"North Lanarkshire","era":"other","nn":952,"risk":49,"cat":"amber"},{"name":"Lodge St. Clair","lat":55.77769,"lon":-3.90076,"postcode":"ML2 8NN","la":"North Lanarkshire","era":"other","nn":86,"risk":25,"cat":"green"},{"name":"Lodge St. Mary No 31","lat":55.7713,"lon":-3.91614,"postcode":"ML2 8AG","la":"North Lanarkshire","era":"other","nn":236,"risk":24,"cat":"green"},{"name":"Mason Arms","lat":55.86583,"lon":-3.98197,"postcode":"ML6 0AH","la":"North Lanarkshire","era":"trad","nn":0,"risk":22,"cat":"green"},{"name":"Masters Snooker Club","lat":55.77354,"lon":-3.92113,"postcode":"ML2 7AL","la":"North Lanarkshire","era":"other","nn":64,"risk":22,"cat":"green"},{"name":"Melody Bar","lat":55.77307,"lon":-3.92056,"postcode":"ML2 8AR","la":"North Lanarkshire","era":"other","nn":64,"risk":22,"cat":"green"},{"name":"Merlins Bar","lat":55.79056,"lon":-3.99338,"postcode":"ML1 1BH","la":"North Lanarkshire","era":"other","nn":0,"risk":22,"cat":"green"},{"name":"Mooneys","lat":55.81859,"lon":-4.02605,"postcode":"ML4 3DU","la":"North Lanarkshire","era":"other","nn":36,"risk":22,"cat":"green"},{"name":"Motherwell Bowling Club","lat":55.79069,"lon":-3.99525,"postcode":"ML1 3HU","la":"North Lanarkshire","era":"other","nn":116,"risk":23,"cat":"green"},{"name":"Motherwell Masonic Social Club","lat":55.79279,"lon":-3.99265,"postcode":"ML1 1BS","la":"North Lanarkshire","era":"other","nn":142,"risk":23,"cat":"green"},{"name":"Motherwell Miners Welfare Club","lat":55.78983,"lon":-4.00637,"postcode":"ML1 3HD","la":"North Lanarkshire","era":"other","nn":626,"risk":26,"cat":"green"},{"name":"Motherwell United Services Club","lat":55.78424,"lon":-3.98864,"postcode":"ML1 1TY","la":"North Lanarkshire","era":"other","nn":231,"risk":24,"cat":"green"},{"name":"New Alhambra Bar","lat":55.81835,"lon":-4.02425,"postcode":"ML4 1RE","la":"North Lanarkshire","era":"other","nn":55,"risk":22,"cat":"green"},{"name":"New Bellside Inn Ltd","lat":55.80315,"lon":-3.89642,"postcode":"ML1 5NX","la":"North Lanarkshire","era":"trad","nn":1326,"risk":54,"cat":"amber"},{"name":"New Century Bar","lat":55.78527,"lon":-3.98292,"postcode":"ML1 1RY","la":"North Lanarkshire","era":"other","nn":10,"risk":22,"cat":"green"},{"name":"New Stevenston Loyal Social Club","lat":55.81348,"lon":-3.97889,"postcode":"ML1 4JH","la":"North Lanarkshire","era":"mod","nn":0,"risk":22,"cat":"green"},{"name":"Newarthill Bowling Club","lat":55.81244,"lon":-3.94071,"postcode":"ML1 5JB","la":"North Lanarkshire","era":"other","nn":247,"risk":29,"cat":"green"},{"name":"Operative Lodge of Airdrie No 203","lat":55.86628,"lon":-3.97046,"postcode":"ML6 6DW","la":"North Lanarkshire","era":"other","nn":52,"risk":22,"cat":"green"},{"name":"Orange & Purple Social Club","lat":55.81465,"lon":-3.94017,"postcode":"ML1 5JH","la":"North Lanarkshire","era":"mod","nn":0,"risk":27,"cat":"green"},{"name":"Orbiston Bowling Club","lat":55.80868,"lon":-4.01933,"postcode":"ML4 2EY","la":"North Lanarkshire","era":"other","nn":828,"risk":33,"cat":"amber"},{"name":"Overtown & Waterloo Bowling Club","lat":55.75708,"lon":-3.90618,"postcode":"ML2 0QA","la":"North Lanarkshire","era":"other","nn":334,"risk":44,"cat":"amber"},{"name":"Owen's Bar","lat":55.86008,"lon":-4.00667,"postcode":"ML5 3RS","la":"North Lanarkshire","era":"other","nn":198,"risk":26,"cat":"green"},{"name":"Pig Iron","lat":55.78957,"lon":-3.9907,"postcode":"ML1 1RB","la":"North Lanarkshire","era":"other","nn":193,"risk":23,"cat":"green"},{"name":"Railway Inn","lat":55.84489,"lon":-3.96546,"postcode":"ML6 9SG","la":"North Lanarkshire","era":"trad","nn":263,"risk":41,"cat":"amber"},{"name":"Railway Inn","lat":55.8434,"lon":-3.94909,"postcode":"ML6 8SW","la":"North Lanarkshire","era":"trad","nn":326,"risk":44,"cat":"amber"},{"name":"Railway Tavern","lat":55.79112,"lon":-3.99208,"postcode":"ML1 1JJ","la":"North Lanarkshire","era":"trad","nn":0,"risk":22,"cat":"green"},{"name":"Railway Tavern","lat":55.88843,"lon":-3.88598,"postcode":"ML6 7RE","la":"North Lanarkshire","era":"trad","nn":182,"risk":43,"cat":"amber"},{"name":"Red Lion","lat":55.81268,"lon":-3.97842,"postcode":"ML1 4JS","la":"North Lanarkshire","era":"trad","nn":54,"risk":22,"cat":"green"},{"name":"Robert King Stewart Masonic Lodge, No.,919","lat":55.81348,"lon":-3.97889,"postcode":"ML1 4JH","la":"North Lanarkshire","era":"trad","nn":0,"risk":22,"cat":"green"},{"name":"Robin's Bar","lat":55.78898,"lon":-3.87271,"postcode":"ML2 9NB","la":"North Lanarkshire","era":"other","nn":1533,"risk":55,"cat":"amber"},{"name":"Ross' Bar","lat":55.77304,"lon":-3.91831,"postcode":"ML2 8AA","la":"North Lanarkshire","era":"other","nn":38,"risk":22,"cat":"green"},{"name":"Sandie's Bar","lat":55.8612,"lon":-4.0042,"postcode":"ML5 3RX","la":"North Lanarkshire","era":"other","nn":126,"risk":25,"cat":"green"},{"name":"Scottish Lithuanian Social Club","lat":55.81905,"lon":-4.00598,"postcode":"ML4 1PX","la":"North Lanarkshire","era":"mod","nn":506,"risk":26,"cat":"green"},{"name":"Shotts Bon Accord Football & S","lat":55.8251,"lon":-3.80964,"postcode":"ML7 4EY","la":"North Lanarkshire","era":"other","nn":352,"risk":44,"cat":"amber"},{"name":"Shotts Ironworks Bowling Club","lat":55.8193,"lon":-3.79264,"postcode":"ML7 5ET","la":"North Lanarkshire","era":"mod","nn":432,"risk":45,"cat":"amber"},{"name":"Skoosh Night Club","lat":55.79057,"lon":-3.99341,"postcode":"ML1 1BH","la":"North Lanarkshire","era":"other","nn":0,"risk":22,"cat":"green"},{"name":"Smiths","lat":55.86362,"lon":-4.02652,"postcode":"ML5 3EB","la":"North Lanarkshire","era":"other","nn":0,"risk":22,"cat":"green"},{"name":"Springwells Bowling Club","lat":55.86797,"lon":-3.96248,"postcode":"ML6 7EJ","la":"North Lanarkshire","era":"other","nn":532,"risk":26,"cat":"green"},{"name":"St Andrew Masonic Lodge","lat":55.86207,"lon":-4.03982,"postcode":"ML5 1LY","la":"North Lanarkshire","era":"trad","nn":188,"risk":23,"cat":"green"},{"name":"St. Andrew's Bar","lat":55.86437,"lon":-4.02949,"postcode":"ML5 3DG","la":"North Lanarkshire","era":"other","nn":0,"risk":22,"cat":"green"},{"name":"Swan Inn","lat":55.84633,"lon":-3.94862,"postcode":"ML6 8SA","la":"North Lanarkshire","era":"trad","nn":326,"risk":44,"cat":"amber"},{"name":"The Albert Bar","lat":55.86645,"lon":-3.97123,"postcode":"ML6 6DW","la":"North Lanarkshire","era":"other","nn":52,"risk":22,"cat":"green"},{"name":"The Alex James","lat":55.81734,"lon":-4.02568,"postcode":"ML4 1AG","la":"North Lanarkshire","era":"other","nn":108,"risk":23,"cat":"green"},{"name":"The Argyll Bar","lat":55.86247,"lon":-4.02458,"postcode":"ML5 3EL","la":"North Lanarkshire","era":"other","nn":27,"risk":22,"cat":"green"},{"name":"The Auld Hoose","lat":55.7774,"lon":-3.90204,"postcode":"ML2 8NN","la":"North Lanarkshire","era":"other","nn":86,"risk":25,"cat":"green"},{"name":"The Ball Room","lat":55.86127,"lon":-4.02872,"postcode":"ML5 3AA","la":"North Lanarkshire","era":"other","nn":195,"risk":23,"cat":"green"},{"name":"The Bank Social Club","lat":55.85734,"lon":-4.03502,"postcode":"ML5 1DE","la":"North Lanarkshire","era":"mod","nn":0,"risk":22,"cat":"green"},{"name":"The Barnyard","lat":55.85317,"lon":-4.02288,"postcode":"ML5 4DA","la":"North Lanarkshire","era":"mod","nn":139,"risk":23,"cat":"green"},{"name":"The Cherry Tree","lat":55.76887,"lon":-3.95544,"postcode":"ML2 0BH","la":"North Lanarkshire","era":"other","nn":1014,"risk":52,"cat":"amber"},{"name":"The Club","lat":55.81465,"lon":-3.94017,"postcode":"ML1 5JH","la":"North Lanarkshire","era":"other","nn":0,"risk":27,"cat":"green"},{"name":"The Columba Club","lat":55.86267,"lon":-4.02483,"postcode":"ML5 3EJ","la":"North Lanarkshire","era":"other","nn":27,"risk":22,"cat":"green"},{"name":"The Corner House","lat":55.81293,"lon":-3.97769,"postcode":"ML1 4JJ","la":"North Lanarkshire","era":"other","nn":54,"risk":22,"cat":"green"},{"name":"The Four Isles","lat":55.8594,"lon":-3.94909,"postcode":"ML6 8EQ","la":"North Lanarkshire","era":"other","nn":930,"risk":49,"cat":"amber"},{"name":"The Heritage Bar","lat":55.86437,"lon":-4.02949,"postcode":"ML5 3DG","la":"North Lanarkshire","era":"other","nn":0,"risk":22,"cat":"green"},{"name":"The Joker","lat":55.81254,"lon":-4.00531,"postcode":"ML4 2PL","la":"North Lanarkshire","era":"other","nn":726,"risk":45,"cat":"amber"},{"name":"The Mint Restaurant & Bar","lat":55.86293,"lon":-4.02773,"postcode":"ML5 3AU","la":"North Lanarkshire","era":"other","nn":107,"risk":23,"cat":"green"},{"name":"The New Coach House","lat":55.819,"lon":-4.02882,"postcode":"ML4 3DZ","la":"North Lanarkshire","era":"trad","nn":179,"risk":23,"cat":"green"},{"name":"The Old Post Office","lat":55.86136,"lon":-4.02331,"postcode":"ML5 3BJ","la":"North Lanarkshire","era":"other","nn":24,"risk":22,"cat":"green"},{"name":"The Old Wine Store","lat":55.82205,"lon":-3.80814,"postcode":"ML7 4EP","la":"North Lanarkshire","era":"other","nn":352,"risk":44,"cat":"amber"},{"name":"The Orb","lat":55.8138,"lon":-4.02896,"postcode":"ML4 2BB","la":"North Lanarkshire","era":"other","nn":320,"risk":24,"cat":"green"},{"name":"The Post","lat":55.84253,"lon":-3.9652,"postcode":"ML6 9SH","la":"North Lanarkshire","era":"other","nn":135,"risk":40,"cat":"amber"},{"name":"The Rams Head","lat":55.86828,"lon":-3.98205,"postcode":"ML6 6JQ","la":"North Lanarkshire","era":"trad","nn":225,"risk":24,"cat":"green"},{"name":"The Royal Bar","lat":55.86051,"lon":-3.7509,"postcode":"ML7 5QD","la":"North Lanarkshire","era":"trad","nn":0,"risk":40,"cat":"amber"},{"name":"The Segton Bar","lat":55.86437,"lon":-4.02949,"postcode":"ML5 3DG","la":"North Lanarkshire","era":"other","nn":0,"risk":22,"cat":"green"},{"name":"The Steelworks","lat":55.78354,"lon":-3.98516,"postcode":"ML1 1TT","la":"North Lanarkshire","era":"mod","nn":231,"risk":24,"cat":"green"},{"name":"The Thistle Bar","lat":55.873,"lon":-3.9735,"postcode":"ML6 6HU","la":"North Lanarkshire","era":"other","nn":75,"risk":23,"cat":"green"},{"name":"The War Office","lat":55.79395,"lon":-3.99362,"postcode":"ML1 1DQ","la":"North Lanarkshire","era":"other","nn":142,"risk":23,"cat":"green"},{"name":"The Whifflet Arms ltd","lat":55.85223,"lon":-4.02063,"postcode":"ML5 4EJ","la":"North Lanarkshire","era":"trad","nn":64,"risk":25,"cat":"green"},{"name":"The Whitehouse","lat":55.82125,"lon":-3.97793,"postcode":"ML1 4TA","la":"North Lanarkshire","era":"other","nn":663,"risk":27,"cat":"green"},{"name":"The Windmill Tavern","lat":55.78519,"lon":-3.98283,"postcode":"ML1 1RY","la":"North Lanarkshire","era":"trad","nn":10,"risk":22,"cat":"green"},{"name":"Torrance Park Golf Club","lat":55.82116,"lon":-3.94719,"postcode":"ML1 5UU","la":"North Lanarkshire","era":"other","nn":847,"risk":45,"cat":"amber"},{"name":"Treasury","lat":55.8663,"lon":-3.97974,"postcode":"ML6 6AB","la":"North Lanarkshire","era":"other","nn":62,"risk":22,"cat":"green"},{"name":"Victoria Bowling Club","lat":55.86414,"lon":-4.02366,"postcode":"ML5 3EU","la":"North Lanarkshire","era":"trad","nn":179,"risk":23,"cat":"green"},{"name":"Waverley Bar","lat":55.77647,"lon":-3.9263,"postcode":"ML2 7NG","la":"North Lanarkshire","era":"other","nn":252,"risk":24,"cat":"green"},{"name":"West End Bar","lat":55.86534,"lon":-3.98608,"postcode":"ML6 0BA","la":"North Lanarkshire","era":"other","nn":147,"risk":23,"cat":"green"},{"name":"West End Bowling Club","lat":55.86742,"lon":-4.0435,"postcode":"ML5 2EW","la":"North Lanarkshire","era":"other","nn":163,"risk":23,"cat":"green"},{"name":"Whifflet Bowling Club","lat":55.85399,"lon":-4.02794,"postcode":"ML5 4AX","la":"North Lanarkshire","era":"other","nn":329,"risk":24,"cat":"green"},{"name":"Wishaw Bowling Club","lat":55.77498,"lon":-3.92059,"postcode":"ML2 7LP","la":"North Lanarkshire","era":"other","nn":97,"risk":23,"cat":"green"},{"name":"Wishaw Golf Club","lat":55.77676,"lon":-3.9303,"postcode":"ML2 7PH","la":"North Lanarkshire","era":"other","nn":252,"risk":24,"cat":"green"},{"name":"Wishaw Malt","lat":55.774,"lon":-3.91893,"postcode":"ML2 7BL","la":"North Lanarkshire","era":"other","nn":114,"risk":23,"cat":"green"},{"name":"Woodcutter Bar","lat":55.79276,"lon":-3.98901,"postcode":"ML1 1JP","la":"North Lanarkshire","era":"other","nn":51,"risk":22,"cat":"green"},{"name":"Woodhall St Johns 305","lat":55.82043,"lon":-4.01369,"postcode":"ML4 1AU","la":"North Lanarkshire","era":"other","nn":310,"risk":24,"cat":"green"},{"name":"Woodside Bar","lat":55.85209,"lon":-4.04984,"postcode":"ML5 5RT","la":"North Lanarkshire","era":"other","nn":536,"risk":46,"cat":"amber"},{"name":"Wrangholm Bowling Club","lat":55.80721,"lon":-3.97797,"postcode":"ML1 4UQ","la":"North Lanarkshire","era":"other","nn":608,"risk":26,"cat":"green"},{"name":"Yesterdays","lat":55.86583,"lon":-3.98197,"postcode":"ML6 0AH","la":"North Lanarkshire","era":"other","nn":0,"risk":22,"cat":"green"},{"name":"Abington Bowling Club","lat":55.494,"lon":-3.69263,"postcode":"ML12 6SD","la":"South Lanarkshire","era":"other","nn":222,"risk":44,"cat":"amber"},{"name":"Academical Vaults","lat":55.77793,"lon":-4.05487,"postcode":"ML3 9AA","la":"South Lanarkshire","era":"other","nn":52,"risk":22,"cat":"green"},{"name":"Angelina's","lat":55.77,"lon":-4.05642,"postcode":"ML3 8PE","la":"South Lanarkshire","era":"trad","nn":532,"risk":26,"cat":"green"},{"name":"Auld Hoose","lat":55.76089,"lon":-4.04513,"postcode":"ML3 7QN","la":"South Lanarkshire","era":"other","nn":607,"risk":26,"cat":"green"},{"name":"Bar Strada","lat":55.7764,"lon":-4.03431,"postcode":"ML3 6DG","la":"South Lanarkshire","era":"mod","nn":31,"risk":22,"cat":"green"},{"name":"Bar West","lat":55.77778,"lon":-4.05236,"postcode":"ML3 0ET","la":"South Lanarkshire","era":"mod","nn":108,"risk":23,"cat":"green"},{"name":"Bar Zero","lat":55.77599,"lon":-4.033,"postcode":"ML3 7BL","la":"South Lanarkshire","era":"mod","nn":1,"risk":22,"cat":"green"},{"name":"Barleycorn","lat":55.76593,"lon":-4.04106,"postcode":"ML3 7LG","la":"South Lanarkshire","era":"other","nn":594,"risk":26,"cat":"green"},{"name":"Biggar Bowling Club","lat":55.62707,"lon":-3.51763,"postcode":"ML12 6AX","la":"South Lanarkshire","era":"other","nn":425,"risk":27,"cat":"green"},{"name":"Biggar Golf Club","lat":55.61941,"lon":-3.51186,"postcode":"ML12 6HA","la":"South Lanarkshire","era":"other","nn":917,"risk":46,"cat":"amber"},{"name":"Biggar Rugby Football Club","lat":55.60966,"lon":-3.51581,"postcode":"ML12 6JJ","la":"Scottish Borders","era":"other","nn":1113,"risk":55,"cat":"amber"},{"name":"Black Bull Inn","lat":55.63746,"lon":-3.88683,"postcode":"ML11 0EF","la":"South Lanarkshire","era":"trad","nn":245,"risk":44,"cat":"amber"},{"name":"Bowling Pavilion","lat":55.78232,"lon":-4.03483,"postcode":"ML3 6BY","la":"South Lanarkshire","era":"trad","nn":601,"risk":26,"cat":"green"},{"name":"Bully Inn","lat":55.7394,"lon":-4.02701,"postcode":"ML3 7XU","la":"South Lanarkshire","era":"trad","nn":386,"risk":45,"cat":"amber"},{"name":"Burnbank Hamilton Bowling Club","lat":55.77634,"lon":-4.08237,"postcode":"ML3 9TU","la":"South Lanarkshire","era":"other","nn":521,"risk":31,"cat":"amber"},{"name":"Butterburn Bar","lat":55.77106,"lon":-4.03841,"postcode":"ML3 7JQ","la":"South Lanarkshire","era":"other","nn":119,"risk":23,"cat":"green"},{"name":"Caley Bar","lat":55.73248,"lon":-3.83959,"postcode":"ML8 4AD","la":"South Lanarkshire","era":"other","nn":107,"risk":23,"cat":"green"},{"name":"Carluke Bowling Club","lat":55.73621,"lon":-3.84131,"postcode":"ML8 5EB","la":"South Lanarkshire","era":"other","nn":37,"risk":22,"cat":"green"},{"name":"Carluke Golf Club (bar only)","lat":55.73558,"lon":-3.86755,"postcode":"ML8 5HG","la":"South Lanarkshire","era":"mod","nn":778,"risk":47,"cat":"amber"},{"name":"Carluke Golf Course","lat":55.73336,"lon":-3.87934,"postcode":"ML8 5HG","la":"South Lanarkshire","era":"other","nn":778,"risk":47,"cat":"amber"},{"name":"Carluke Rovers Soc. Club","lat":55.73515,"lon":-3.82922,"postcode":"ML8 4DY","la":"South Lanarkshire","era":"other","nn":497,"risk":25,"cat":"green"},{"name":"Carnwath Bowling Club","lat":55.69829,"lon":-3.62596,"postcode":"ML11 8HJ","la":"South Lanarkshire","era":"other","nn":266,"risk":41,"cat":"amber"},{"name":"Carnwath Golf Club","lat":55.70074,"lon":-3.63148,"postcode":"ML11 8JX","la":"South Lanarkshire","era":"other","nn":414,"risk":42,"cat":"amber"},{"name":"Castlehill Bowling Green","lat":55.73923,"lon":-3.83247,"postcode":"ML8 4BG","la":"South Lanarkshire","era":"other","nn":497,"risk":25,"cat":"green"},{"name":"Central Bar","lat":55.74031,"lon":-3.97401,"postcode":"ML9 1DZ","la":"South Lanarkshire","era":"other","nn":157,"risk":26,"cat":"green"},{"name":"Chapelton Inn","lat":55.71176,"lon":-4.09498,"postcode":"ML10 6RY","la":"South Lanarkshire","era":"trad","nn":3307,"risk":68,"cat":"red"},{"name":"Coalburn Miners Welfare","lat":55.59094,"lon":-3.88972,"postcode":"ML11 0LH","la":"South Lanarkshire","era":"other","nn":0,"risk":40,"cat":"amber"},{"name":"Coalburn Miners Welfare Bowling Club","lat":55.59094,"lon":-3.88972,"postcode":"ML11 0LH","la":"South Lanarkshire","era":"other","nn":0,"risk":40,"cat":"amber"},{"name":"Con Calma Bar","lat":55.77632,"lon":-4.03359,"postcode":"ML3 6BU","la":"South Lanarkshire","era":"other","nn":46,"risk":22,"cat":"green"},{"name":"Coopers Bar","lat":55.7742,"lon":-4.04081,"postcode":"ML3 6AB","la":"South Lanarkshire","era":"trad","nn":180,"risk":23,"cat":"green"},{"name":"Cross Keys","lat":55.6232,"lon":-3.52653,"postcode":"ML12 6DA","la":"South Lanarkshire","era":"trad","nn":95,"risk":28,"cat":"green"},{"name":"Cross Keys Inn","lat":55.55836,"lon":-3.84649,"postcode":"ML11 0QG","la":"South Lanarkshire","era":"trad","nn":0,"risk":27,"cat":"green"},{"name":"Crown Tavern","lat":55.67545,"lon":-3.78149,"postcode":"ML11 7NE","la":"South Lanarkshire","era":"trad","nn":171,"risk":23,"cat":"green"},{"name":"Curly's","lat":55.74123,"lon":-3.97592,"postcode":"ML9 1AE","la":"South Lanarkshire","era":"other","nn":132,"risk":25,"cat":"green"},{"name":"Dalserf Bowling Club","lat":55.73063,"lon":-3.9344,"postcode":"ML9 3AF","la":"South Lanarkshire","era":"other","nn":1206,"risk":53,"cat":"amber"},{"name":"Doherty's","lat":55.77694,"lon":-4.03367,"postcode":"ML3 6BU","la":"South Lanarkshire","era":"other","nn":2,"risk":22,"cat":"green"},{"name":"Douglas Victoria Bowling Club","lat":55.55803,"lon":-3.84498,"postcode":"ML11 0PT","la":"South Lanarkshire","era":"trad","nn":102,"risk":28,"cat":"green"},{"name":"Douglas Water Golf Club","lat":55.59517,"lon":-3.78185,"postcode":"ML11 9LY","la":"South Lanarkshire","era":"other","nn":5728,"risk":80,"cat":"red"},{"name":"Eddlewood Bowling Club","lat":55.75709,"lon":-4.05494,"postcode":"ML3 8AG","la":"South Lanarkshire","era":"other","nn":0,"risk":22,"cat":"green"},{"name":"Empire Bar","lat":55.78348,"lon":-4.07373,"postcode":"ML3 0QG","la":"South Lanarkshire","era":"other","nn":151,"risk":23,"cat":"green"},{"name":"Forth & Wilsontown Bowling Club","lat":55.76937,"lon":-3.6855,"postcode":"ML11 8AE","la":"South Lanarkshire","era":"other","nn":477,"risk":43,"cat":"amber"},{"name":"GC Bar & Bistro","lat":55.7774,"lon":-4.03929,"postcode":"ML3 6JP","la":"South Lanarkshire","era":"mod","nn":207,"risk":23,"cat":"green"},{"name":"Glenlee Bar","lat":55.78422,"lon":-4.07576,"postcode":"ML3 0QZ","la":"South Lanarkshire","era":"other","nn":151,"risk":23,"cat":"green"},{"name":"Greenfield Social Club","lat":55.77864,"lon":-4.06647,"postcode":"ML3 9DZ","la":"South Lanarkshire","era":"mod","nn":401,"risk":25,"cat":"green"},{"name":"Guy's Inn","lat":55.75709,"lon":-4.05494,"postcode":"ML3 8AG","la":"South Lanarkshire","era":"trad","nn":0,"risk":22,"cat":"green"},{"name":"Hamilton Bowling Club","lat":55.77542,"lon":-4.03816,"postcode":"ML3 6AQ","la":"South Lanarkshire","era":"other","nn":124,"risk":23,"cat":"green"},{"name":"Hamilton Caledonian Bowling Cl","lat":55.776,"lon":-4.03302,"postcode":"ML3 7BL","la":"South Lanarkshire","era":"other","nn":0,"risk":22,"cat":"green"},{"name":"Hamilton Churches Drop In Centre","lat":55.78076,"lon":-4.051,"postcode":"ML3 0BT","la":"South Lanarkshire","era":"other","nn":309,"risk":24,"cat":"green"},{"name":"Hamilton Rugby Club","lat":55.77123,"lon":-4.04397,"postcode":"ML3 6QB","la":"South Lanarkshire","era":"other","nn":348,"risk":24,"cat":"green"},{"name":"Hemingways","lat":55.776,"lon":-4.03302,"postcode":"ML3 7BL","la":"South Lanarkshire","era":"other","nn":0,"risk":22,"cat":"green"},{"name":"Hollandbush Golf Club","lat":55.6231,"lon":-3.89216,"postcode":"ML11 0JS","la":"South Lanarkshire","era":"other","nn":4,"risk":42,"cat":"amber"},{"name":"Horse & Jockey","lat":55.6735,"lon":-3.77715,"postcode":"ML11 7ES","la":"South Lanarkshire","era":"trad","nn":70,"risk":22,"cat":"green"},{"name":"James Davie Catering","lat":55.62272,"lon":-3.52778,"postcode":"ML12 6DA","la":"South Lanarkshire","era":"other","nn":95,"risk":28,"cat":"green"},{"name":"Jilts","lat":55.77431,"lon":-4.03794,"postcode":"ML3 6AB","la":"South Lanarkshire","era":"other","nn":108,"risk":23,"cat":"green"},{"name":"JNKYRD","lat":55.77573,"lon":-4.03617,"postcode":"ML3 6AP","la":"South Lanarkshire","era":"other","nn":53,"risk":22,"cat":"green"},{"name":"John Carrigan's Eating House","lat":55.75585,"lon":-4.04884,"postcode":"ML3 8BG","la":"South Lanarkshire","era":"other","nn":406,"risk":25,"cat":"green"},{"name":"Laigh Bent Sports Club","lat":55.77616,"lon":-4.03455,"postcode":"ML3 6EE","la":"South Lanarkshire","era":"other","nn":31,"risk":22,"cat":"green"},{"name":"Lanark Bowling Club","lat":55.67698,"lon":-3.78172,"postcode":"ML11 7PZ","la":"South Lanarkshire","era":"other","nn":171,"risk":23,"cat":"green"},{"name":"Lanark Golf Course","lat":55.67237,"lon":-3.75374,"postcode":"ML11 7RX","la":"South Lanarkshire","era":"other","nn":1409,"risk":54,"cat":"amber"},{"name":"Lanark Thistle Bowling Club","lat":55.67317,"lon":-3.78033,"postcode":"ML11 9DZ","la":"South Lanarkshire","era":"other","nn":88,"risk":23,"cat":"green"},{"name":"Larkhall Golf Club","lat":55.7355,"lon":-3.95161,"postcode":"ML9 3AA","la":"South Lanarkshire","era":"other","nn":1206,"risk":53,"cat":"amber"},{"name":"Law Bowling Club","lat":55.7508,"lon":-3.88564,"postcode":"ML8 5JB","la":"South Lanarkshire","era":"other","nn":257,"risk":44,"cat":"amber"},{"name":"Lesmahagow Bowling Club","lat":55.63526,"lon":-3.88642,"postcode":"ML11 0ED","la":"South Lanarkshire","era":"other","nn":245,"risk":44,"cat":"amber"},{"name":"Lodge Abington Arbory 1081","lat":55.49225,"lon":-3.69435,"postcode":"ML12 6RY","la":"South Lanarkshire","era":"other","nn":222,"risk":44,"cat":"amber"},{"name":"Lodge Biggar Free Operatives","lat":55.59873,"lon":-3.59383,"postcode":"ML12 6LL","la":"South Lanarkshire","era":"other","nn":0,"risk":42,"cat":"amber"},{"name":"Lodge Mauldslie 1199","lat":55.68923,"lon":-3.66469,"postcode":"ML11 8RD","la":"South Lanarkshire","era":"other","nn":2444,"risk":62,"cat":"red"},{"name":"Lodge Nethan St. John No 1289","lat":55.6655,"lon":-3.92046,"postcode":"ML11 9RN","la":"South Lanarkshire","era":"other","nn":3765,"risk":71,"cat":"red"},{"name":"Lodge St John No 187","lat":55.7363,"lon":-3.83996,"postcode":"ML8 4BB","la":"South Lanarkshire","era":"other","nn":71,"risk":22,"cat":"green"},{"name":"Lodge St Thomas","lat":55.74192,"lon":-3.9742,"postcode":"ML9 2AG","la":"South Lanarkshire","era":"other","nn":132,"risk":25,"cat":"green"},{"name":"Lodge Union 244","lat":55.70033,"lon":-3.98278,"postcode":"ML9 3LW","la":"South Lanarkshire","era":"other","nn":244,"risk":41,"cat":"amber"},{"name":"Maisies Bar","lat":55.67281,"lon":-3.77885,"postcode":"ML11 9DT","la":"South Lanarkshire","era":"other","nn":17,"risk":22,"cat":"green"},{"name":"Manhattan Bar","lat":55.77566,"lon":-4.03446,"postcode":"ML3 7AR","la":"South Lanarkshire","era":"other","nn":55,"risk":22,"cat":"green"},{"name":"Masonic Lodge Newlands N0. 949","lat":55.59094,"lon":-3.88972,"postcode":"ML11 0LH","la":"South Lanarkshire","era":"trad","nn":0,"risk":40,"cat":"amber"},{"name":"Masons Arms","lat":55.70061,"lon":-3.62488,"postcode":"ML11 8HH","la":"South Lanarkshire","era":"trad","nn":266,"risk":41,"cat":"amber"},{"name":"Mavrix","lat":55.77353,"lon":-4.03691,"postcode":"ML3 7DR","la":"South Lanarkshire","era":"other","nn":90,"risk":23,"cat":"green"},{"name":"Miss D's","lat":55.67319,"lon":-3.77617,"postcode":"ML11 7JT","la":"South Lanarkshire","era":"other","nn":70,"risk":22,"cat":"green"},{"name":"ML3 Premium","lat":55.77881,"lon":-4.04288,"postcode":"ML3 6EU","la":"South Lanarkshire","era":"other","nn":274,"risk":24,"cat":"green"},{"name":"Mojito","lat":55.75724,"lon":-4.05578,"postcode":"ML3 8AG","la":"South Lanarkshire","era":"other","nn":55,"risk":22,"cat":"green"},{"name":"No7 Sports Bar","lat":55.67295,"lon":-3.77899,"postcode":"ML11 9DT","la":"South Lanarkshire","era":"other","nn":17,"risk":22,"cat":"green"},{"name":"Peter Miller @ Hollandbush","lat":55.62313,"lon":-3.8922,"postcode":"ML11 0JS","la":"South Lanarkshire","era":"trad","nn":4,"risk":42,"cat":"amber"},{"name":"Power League Soccer Centre","lat":55.78947,"lon":-4.05429,"postcode":"ML3 0DW","la":"South Lanarkshire","era":"other","nn":985,"risk":46,"cat":"amber"},{"name":"Quarter Boolin' Club","lat":55.73821,"lon":-4.03281,"postcode":"ML3 7XA","la":"South Lanarkshire","era":"mod","nn":386,"risk":45,"cat":"amber"},{"name":"Railway Inn","lat":55.73342,"lon":-3.83994,"postcode":"ML8 4AB","la":"South Lanarkshire","era":"trad","nn":107,"risk":23,"cat":"green"},{"name":"Roc/Digital","lat":55.776,"lon":-4.03302,"postcode":"ML3 7BL","la":"South Lanarkshire","era":"other","nn":0,"risk":22,"cat":"green"},{"name":"Royal British Legion","lat":55.76508,"lon":-3.68578,"postcode":"ML11 8AJ","la":"South Lanarkshire","era":"trad","nn":211,"risk":28,"cat":"green"},{"name":"St Bride Lodge Of Freemasons","lat":55.55836,"lon":-3.84649,"postcode":"ML11 0QG","la":"South Lanarkshire","era":"trad","nn":0,"risk":27,"cat":"green"},{"name":"Stonehouse Violet F C","lat":55.69205,"lon":-3.98849,"postcode":"ML9 3HH","la":"South Lanarkshire","era":"mod","nn":761,"risk":45,"cat":"amber"},{"name":"Strathaven Bowling Club","lat":55.67552,"lon":-4.07094,"postcode":"ML10 6DP","la":"South Lanarkshire","era":"other","nn":355,"risk":42,"cat":"amber"},{"name":"Strathaven Golf Club","lat":55.68566,"lon":-4.06969,"postcode":"ML10 6NL","la":"South Lanarkshire","era":"other","nn":923,"risk":46,"cat":"amber"},{"name":"Strathaven Rugby Football Club","lat":55.69156,"lon":-4.05569,"postcode":"ML10 6SY","la":"South Lanarkshire","era":"other","nn":1096,"risk":52,"cat":"amber"},{"name":"Street Level","lat":55.7365,"lon":-3.84104,"postcode":"ML8 5DZ","la":"South Lanarkshire","era":"other","nn":37,"risk":22,"cat":"green"},{"name":"Symington Tinto A.F.C","lat":55.59873,"lon":-3.59383,"postcode":"ML12 6LL","la":"South Lanarkshire","era":"other","nn":0,"risk":42,"cat":"amber"},{"name":"Thankerton Bowling Club","lat":55.62238,"lon":-3.63241,"postcode":"ML12 6PA","la":"South Lanarkshire","era":"other","nn":563,"risk":46,"cat":"amber"},{"name":"The Applebank Inn","lat":55.73396,"lon":-3.9871,"postcode":"ML9 1QU","la":"South Lanarkshire","era":"trad","nn":1015,"risk":52,"cat":"amber"},{"name":"The Auld Store Bar","lat":55.75132,"lon":-3.88165,"postcode":"ML8 5LN","la":"South Lanarkshire","era":"other","nn":257,"risk":44,"cat":"amber"},{"name":"The Back Road","lat":55.69815,"lon":-3.98299,"postcode":"ML9 3EE","la":"South Lanarkshire","era":"other","nn":244,"risk":41,"cat":"amber"},{"name":"The Bay Horse Hamilton","lat":55.7818,"lon":-4.04642,"postcode":"ML3 0AS","la":"South Lanarkshire","era":"trad","nn":309,"risk":24,"cat":"green"},{"name":"The Clydesdale Inn","lat":55.67368,"lon":-3.78144,"postcode":"ML11 9ET","la":"South Lanarkshire","era":"trad","nn":26,"risk":22,"cat":"green"},{"name":"The Colebrooke Arms","lat":55.4953,"lon":-3.77469,"postcode":"ML12 6SS","la":"South Lanarkshire","era":"trad","nn":5072,"risk":80,"cat":"red"},{"name":"The Fleming Arms","lat":55.62475,"lon":-3.523,"postcode":"ML12 6DL","la":"South Lanarkshire","era":"trad","nn":280,"risk":26,"cat":"green"},{"name":"The Inns","lat":55.7648,"lon":-3.68911,"postcode":"ML11 8BS","la":"South Lanarkshire","era":"trad","nn":211,"risk":28,"cat":"green"},{"name":"The Last Shift","lat":55.74068,"lon":-3.66629,"postcode":"ML11 8EY","la":"South Lanarkshire","era":"other","nn":2974,"risk":65,"cat":"red"},{"name":"The Libertine","lat":55.77695,"lon":-4.03369,"postcode":"ML3 6BU","la":"South Lanarkshire","era":"other","nn":2,"risk":22,"cat":"green"},{"name":"The Music Room","lat":55.7373,"lon":-3.97201,"postcode":"ML9 1EZ","la":"South Lanarkshire","era":"other","nn":357,"risk":27,"cat":"green"},{"name":"The Peacock and Ivy","lat":55.77779,"lon":-4.05409,"postcode":"ML3 9AA","la":"South Lanarkshire","era":"other","nn":52,"risk":22,"cat":"green"},{"name":"The Stonehouse","lat":55.77661,"lon":-4.03628,"postcode":"ML3 6DZ","la":"South Lanarkshire","era":"other","nn":63,"risk":22,"cat":"green"},{"name":"The Strathaven","lat":55.67722,"lon":-4.06468,"postcode":"ML10 6AW","la":"South Lanarkshire","era":"other","nn":125,"risk":28,"cat":"green"},{"name":"The Whisky Well","lat":55.76537,"lon":-4.0586,"postcode":"ML3 8NA","la":"South Lanarkshire","era":"other","nn":532,"risk":26,"cat":"green"},{"name":"Thee George Ltd","lat":55.77614,"lon":-4.03572,"postcode":"ML3 6AS","la":"South Lanarkshire","era":"trad","nn":53,"risk":22,"cat":"green"},{"name":"Udston Social Club","lat":55.78188,"lon":-4.06928,"postcode":"ML3 0NF","la":"South Lanarkshire","era":"mod","nn":331,"risk":27,"cat":"green"},{"name":"Universal Connections","lat":55.55488,"lon":-3.84918,"postcode":"ML11 0QA","la":"South Lanarkshire","era":"other","nn":423,"risk":30,"cat":"green"},{"name":"Victoria Bar","lat":55.77273,"lon":-4.03714,"postcode":"ML3 7HR","la":"South Lanarkshire","era":"trad","nn":87,"risk":23,"cat":"green"},{"name":"Village Inn","lat":55.62743,"lon":-3.63281,"postcode":"ML12 6NY","la":"South Lanarkshire","era":"trad","nn":563,"risk":46,"cat":"amber"},{"name":"Village Tavern","lat":55.74249,"lon":-3.97616,"postcode":"ML9 1AQ","la":"South Lanarkshire","era":"other","nn":138,"risk":25,"cat":"green"},{"name":"VIP Function Suite","lat":55.69665,"lon":-3.86239,"postcode":"ML8 5NJ","la":"South Lanarkshire","era":"other","nn":4218,"risk":74,"cat":"red"},{"name":"Wallace Cave","lat":55.6739,"lon":-3.78129,"postcode":"ML11 9ET","la":"South Lanarkshire","era":"other","nn":26,"risk":22,"cat":"green"},{"name":"Weavers","lat":55.67755,"lon":-4.06658,"postcode":"ML10 6LT","la":"South Lanarkshire","era":"other","nn":125,"risk":28,"cat":"green"},{"name":"Wee Man's","lat":55.67194,"lon":-3.78207,"postcode":"ML11 9EF","la":"South Lanarkshire","era":"other","nn":175,"risk":23,"cat":"green"},{"name":"Wee Thackit","lat":55.73454,"lon":-3.83867,"postcode":"ML8 4AL","la":"South Lanarkshire","era":"other","nn":148,"risk":23,"cat":"green"},{"name":"Wilsontown Ironworks St John","lat":55.76236,"lon":-3.6975,"postcode":"ML11 8EA","la":"South Lanarkshire","era":"mod","nn":591,"risk":44,"cat":"amber"},{"name":"Woodhead Bar","lat":55.75829,"lon":-4.06022,"postcode":"ML3 8DR","la":"South Lanarkshire","era":"trad","nn":301,"risk":24,"cat":"green"},{"name":"Woodside Bar","lat":55.77209,"lon":-4.03795,"postcode":"ML3 7JG","la":"South Lanarkshire","era":"other","nn":87,"risk":23,"cat":"green"},{"name":"Harthill Royals Junior Football Club","lat":55.86039,"lon":-3.74736,"postcode":"ML7 5QW","la":"North Lanarkshire","era":"trad","nn":221,"risk":41,"cat":"amber"}]