[{"name":"141 Club","lat":53.54502,"lon":-1.49539,"postcode":"S70 6LL","la":"Barnsley","era":"other","nn":585,"risk":24,"cat":"green"},{"name":"5ives Barnsley","lat":53.53728,"lon":-1.44862,"postcode":"S70 3JR","la":"Barnsley","era":"other","nn":380,"risk":25,"cat":"green"},{"name":"Alexandra W M C","lat":53.59793,"lon":-1.45833,"postcode":"S71 4RF","la":"Barnsley","era":"other","nn":304,"risk":22,"cat":"green"},{"name":"Anglers Rest","lat":53.51943,"lon":-1.39209,"postcode":"S73 0HS","la":"Barnsley","era":"other","nn":243,"risk":22,"cat":"green"},{"name":"Annie Murrays","lat":53.55328,"lon":-1.48116,"postcode":"S70 2QE","la":"Barnsley","era":"other","nn":28,"risk":20,"cat":"green"},{"name":"Athersley Social Club","lat":53.58112,"lon":-1.47319,"postcode":"S71 3AR","la":"Barnsley","era":"mod","nn":633,"risk":42,"cat":"amber"},{"name":"Barnsley & District Trades Council Club & Institute Ltd","lat":53.55139,"lon":-1.48808,"postcode":"S70 6AA","la":"Barnsley","era":"other","nn":0,"risk":20,"cat":"green"},{"name":"Barnsley (Dearne Valley) Premier Inn","lat":53.51613,"lon":-1.37791,"postcode":"S73 0UN","la":"Barnsley","era":"trad","nn":704,"risk":42,"cat":"amber"},{"name":"Barnsley Bowl","lat":53.57341,"lon":-1.46286,"postcode":"S71 2AZ","la":"Barnsley","era":"other","nn":945,"risk":47,"cat":"amber"},{"name":"Barnsley Central W.M.C.","lat":53.54057,"lon":-1.44708,"postcode":"S70 3AL","la":"Barnsley","era":"other","nn":380,"risk":25,"cat":"green"},{"name":"Barnsley Conservative Club","lat":53.55153,"lon":-1.48351,"postcode":"S70 1AW","la":"Barnsley","era":"other","nn":76,"risk":21,"cat":"green"},{"name":"Barnsley East Dene Wmc","lat":53.54831,"lon":-1.4701,"postcode":"S70 1UD","la":"Barnsley","era":"other","nn":144,"risk":21,"cat":"green"},{"name":"Barnsley Golf Sims","lat":53.56706,"lon":-1.50469,"postcode":"S75 1JN","la":"Barnsley","era":"other","nn":673,"risk":30,"cat":"green"},{"name":"Barnsley Premier Leisure","lat":53.57577,"lon":-1.41374,"postcode":"S72 8LH","la":"Barnsley","era":"other","nn":103,"risk":21,"cat":"green"},{"name":"Barrow W M C","lat":53.53075,"lon":-1.46619,"postcode":"S70 5EX","la":"Barnsley","era":"other","nn":328,"risk":22,"cat":"green"},{"name":"Barugh Green W M C","lat":53.56743,"lon":-1.53319,"postcode":"S75 1LD","la":"Barnsley","era":"other","nn":167,"risk":21,"cat":"green"},{"name":"Beggar And Gentleman","lat":53.50136,"lon":-1.43897,"postcode":"S74 9QR","la":"Barnsley","era":"other","nn":0,"risk":20,"cat":"green"},{"name":"Belmont WMC","lat":53.49982,"lon":-1.4398,"postcode":"S74 9AH","la":"Barnsley","era":"trad","nn":81,"risk":21,"cat":"green"},{"name":"Birdwell Venue","lat":53.50919,"lon":-1.4808,"postcode":"S70 5UY","la":"Barnsley","era":"other","nn":69,"risk":26,"cat":"green"},{"name":"Black and White","lat":53.55237,"lon":-1.47932,"postcode":"S70 1GW","la":"Barnsley","era":"other","nn":43,"risk":20,"cat":"green"},{"name":"Black Velvet","lat":53.55345,"lon":-1.47994,"postcode":"S70 2QN","la":"Barnsley","era":"other","nn":18,"risk":20,"cat":"green"},{"name":"Blacksmiths Arms","lat":53.52504,"lon":-1.67185,"postcode":"S36 9NQ","la":"Barnsley","era":"trad","nn":1553,"risk":53,"cat":"amber"},{"name":"Blunketts Bar","lat":53.50136,"lon":-1.43897,"postcode":"S74 9QR","la":"Barnsley","era":"other","nn":0,"risk":20,"cat":"green"},{"name":"Bluu Barr","lat":53.55268,"lon":-1.48253,"postcode":"S70 2ST","la":"Barnsley","era":"other","nn":36,"risk":20,"cat":"green"},{"name":"Bolton On Dearne Ex-Servicemens Social Club","lat":53.51853,"lon":-1.3156,"postcode":"S63 8AA","la":"Barnsley","era":"mod","nn":92,"risk":38,"cat":"amber"},{"name":"Boxers Arms","lat":53.51883,"lon":-1.31431,"postcode":"S63 8JB","la":"Barnsley","era":"trad","nn":92,"risk":38,"cat":"amber"},{"name":"Brierley Village Club","lat":53.59371,"lon":-1.38083,"postcode":"S72 9JG","la":"Barnsley","era":"other","nn":1648,"risk":54,"cat":"amber"},{"name":"Bullet Sports & Social Club","lat":53.57897,"lon":-1.37836,"postcode":"S72 7EJ","la":"Barnsley","era":"other","nn":226,"risk":39,"cat":"amber"},{"name":"Butchers Arms","lat":53.54463,"lon":-1.32079,"postcode":"S63 0QY","la":"Barnsley","era":"trad","nn":74,"risk":38,"cat":"amber"},{"name":"Carlton Village WMC & Institute","lat":53.58667,"lon":-1.45411,"postcode":"S71 3JT","la":"Barnsley","era":"other","nn":1006,"risk":50,"cat":"amber"},{"name":"Cawthorne Club","lat":53.56667,"lon":-1.57532,"postcode":"S75 4EY","la":"Barnsley","era":"other","nn":132,"risk":38,"cat":"amber"},{"name":"Cawthorne Cricket Club","lat":53.56782,"lon":-1.57483,"postcode":"S75 4HA","la":"Barnsley","era":"other","nn":132,"risk":38,"cat":"amber"},{"name":"Chambers","lat":53.5522,"lon":-1.48184,"postcode":"S70 1YA","la":"Barnsley","era":"other","nn":54,"risk":20,"cat":"green"},{"name":"Che Bar & Coco","lat":53.55214,"lon":-1.48404,"postcode":"S70 2RE","la":"Barnsley","era":"mod","nn":56,"risk":20,"cat":"green"},{"name":"Chennell's Bar","lat":53.55173,"lon":-1.48206,"postcode":"S70 1SS","la":"Barnsley","era":"other","nn":0,"risk":20,"cat":"green"},{"name":"Cherry Tree Inn","lat":53.58677,"lon":-1.58852,"postcode":"S75 4BE","la":"Barnsley","era":"trad","nn":1815,"risk":55,"cat":"amber"},{"name":"Cobcar Sports & Social","lat":53.49956,"lon":-1.42471,"postcode":"S74 8DA","la":"Barnsley","era":"mod","nn":184,"risk":21,"cat":"green"},{"name":"Commercial Inn","lat":53.5548,"lon":-1.49096,"postcode":"S70 2NN","la":"Barnsley","era":"trad","nn":101,"risk":21,"cat":"green"},{"name":"Conservative & Unionist Club","lat":53.52068,"lon":-1.39509,"postcode":"S73 0HF","la":"Barnsley","era":"other","nn":158,"risk":21,"cat":"green"},{"name":"Corner Pin","lat":53.55173,"lon":-1.48206,"postcode":"S70 1SS","la":"Barnsley","era":"other","nn":0,"risk":20,"cat":"green"},{"name":"Crane Moor W M C","lat":53.50672,"lon":-1.54631,"postcode":"S35 7AQ","la":"Barnsley","era":"other","nn":1193,"risk":51,"cat":"amber"},{"name":"Cross Inn","lat":53.60039,"lon":-1.46334,"postcode":"S71 4SE","la":"Barnsley","era":"trad","nn":429,"risk":28,"cat":"green"},{"name":"Cross Keys Hotel","lat":53.53385,"lon":-1.37073,"postcode":"S73 9JX","la":"Barnsley","era":"trad","nn":116,"risk":21,"cat":"green"},{"name":"Crossbar Social Club","lat":53.53442,"lon":-1.30086,"postcode":"S63 9HL","la":"Barnsley","era":"other","nn":33,"risk":20,"cat":"green"},{"name":"Crystal Palace Hotel","lat":53.52861,"lon":-1.64914,"postcode":"S36 9RH","la":"Barnsley","era":"other","nn":991,"risk":47,"cat":"amber"},{"name":"Cubley Hall","lat":53.51553,"lon":-1.63251,"postcode":"S36 9DF","la":"Barnsley","era":"other","nn":1132,"risk":50,"cat":"amber"},{"name":"Cudworth Industrial Sports & Social Club","lat":53.58519,"lon":-1.40991,"postcode":"S72 8AN","la":"Barnsley","era":"mod","nn":541,"risk":29,"cat":"green"},{"name":"Cudworth West End Institute & Club","lat":53.57492,"lon":-1.41859,"postcode":"S72 8DB","la":"Barnsley","era":"other","nn":155,"risk":21,"cat":"green"},{"name":"Dale Tavern","lat":53.52953,"lon":-1.4583,"postcode":"S70 5PG","la":"Barnsley","era":"other","nn":167,"risk":21,"cat":"green"},{"name":"Darfield Conservative Club","lat":53.53717,"lon":-1.37322,"postcode":"S73 9EZ","la":"Barnsley","era":"other","nn":0,"risk":20,"cat":"green"},{"name":"Darfield Cricket Club","lat":53.53717,"lon":-1.37322,"postcode":"S73 9EZ","la":"Barnsley","era":"other","nn":0,"risk":20,"cat":"green"},{"name":"Darfield Road W M C","lat":53.56603,"lon":-1.40516,"postcode":"S72 8RL","la":"Barnsley","era":"other","nn":648,"risk":45,"cat":"amber"},{"name":"Darfield Village Club WMC","lat":53.5346,"lon":-1.37194,"postcode":"S73 9ET","la":"Barnsley","era":"other","nn":116,"risk":21,"cat":"green"},{"name":"Darton Liberal W M C","lat":53.58446,"lon":-1.5315,"postcode":"S75 5NQ","la":"Barnsley","era":"other","nn":0,"risk":20,"cat":"green"},{"name":"Darton Tap","lat":53.58609,"lon":-1.53001,"postcode":"S75 5HQ","la":"Barnsley","era":"mod","nn":132,"risk":21,"cat":"green"},{"name":"Dearne Playhouse","lat":53.5293,"lon":-1.30869,"postcode":"S63 9EF","la":"Barnsley","era":"other","nn":168,"risk":21,"cat":"green"},{"name":"Dearne Sports and Social Club","lat":53.52807,"lon":-1.31018,"postcode":"S63 9EH","la":"Barnsley","era":"mod","nn":168,"risk":21,"cat":"green"},{"name":"Dearne Valley Farm","lat":53.50282,"lon":-1.47241,"postcode":"S70 5SZ","la":"Barnsley","era":"other","nn":456,"risk":23,"cat":"green"},{"name":"Digital Bar","lat":53.55173,"lon":-1.48206,"postcode":"S70 1SS","la":"Barnsley","era":"other","nn":0,"risk":20,"cat":"green"},{"name":"Dodworth Central Wmc","lat":53.54308,"lon":-1.52704,"postcode":"S75 3JA","la":"Barnsley","era":"other","nn":0,"risk":20,"cat":"green"},{"name":"Dodworth Miners Welfare Sports & Social Club","lat":53.54237,"lon":-1.52483,"postcode":"S75 3RF","la":"Barnsley","era":"mod","nn":0,"risk":20,"cat":"green"},{"name":"Dodworth Tap","lat":53.54308,"lon":-1.52704,"postcode":"S75 3JA","la":"Barnsley","era":"mod","nn":0,"risk":20,"cat":"green"},{"name":"Dodworth Valley","lat":53.54796,"lon":-1.51861,"postcode":"S75 3LF","la":"Barnsley","era":"other","nn":745,"risk":28,"cat":"green"},{"name":"Dove Inn","lat":53.54891,"lon":-1.47202,"postcode":"S70 1TP","la":"Barnsley","era":"trad","nn":66,"risk":20,"cat":"green"},{"name":"Eaden's Bar","lat":53.55303,"lon":-1.48237,"postcode":"S70 2SX","la":"Barnsley","era":"other","nn":16,"risk":20,"cat":"green"},{"name":"Eastfield Arms","lat":53.58321,"lon":-1.48726,"postcode":"S75 6DJ","la":"Barnsley","era":"trad","nn":957,"risk":47,"cat":"amber"},{"name":"Edmunds Arms","lat":53.51982,"lon":-1.47402,"postcode":"S70 5LW","la":"Barnsley","era":"trad","nn":759,"risk":30,"cat":"green"},{"name":"Elephant And Castle","lat":53.50655,"lon":-1.4063,"postcode":"S73 0NT","la":"Barnsley","era":"other","nn":376,"risk":40,"cat":"amber"},{"name":"Elsecar Sports and Social Club","lat":53.49482,"lon":-1.42485,"postcode":"S74 8ES","la":"Barnsley","era":"mod","nn":0,"risk":20,"cat":"green"},{"name":"Engineers Arms","lat":53.56222,"lon":-1.53279,"postcode":"S75 1PF","la":"Barnsley","era":"trad","nn":131,"risk":26,"cat":"green"},{"name":"Esmeraldas","lat":53.55224,"lon":-1.48294,"postcode":"S70 2QX","la":"Barnsley","era":"other","nn":0,"risk":20,"cat":"green"},{"name":"Falco Lounge","lat":53.55274,"lon":-1.47951,"postcode":"S70 1GW","la":"Barnsley","era":"mod","nn":21,"risk":20,"cat":"green"},{"name":"Fox And Hounds","lat":53.58941,"lon":-1.40582,"postcode":"S72 8QP","la":"Barnsley","era":"trad","nn":206,"risk":39,"cat":"amber"},{"name":"Funky Buddha Functions","lat":53.55325,"lon":-1.48219,"postcode":"S70 2PU","la":"Barnsley","era":"other","nn":0,"risk":20,"cat":"green"},{"name":"Furnace Inn","lat":53.49747,"lon":-1.43804,"postcode":"S74 9BG","la":"Barnsley","era":"trad","nn":238,"risk":22,"cat":"green"},{"name":"Gawber Road WMC","lat":53.56035,"lon":-1.50079,"postcode":"S75 2PR","la":"Barnsley","era":"other","nn":300,"risk":22,"cat":"green"},{"name":"Gawber Tap","lat":53.56063,"lon":-1.5053,"postcode":"S75 2RB","la":"Barnsley","era":"mod","nn":270,"risk":22,"cat":"green"},{"name":"Gentleman Jacks/Funny Gals","lat":53.55173,"lon":-1.48206,"postcode":"S70 1SS","la":"Barnsley","era":"other","nn":0,"risk":20,"cat":"green"},{"name":"George & Dragon","lat":53.55414,"lon":-1.48991,"postcode":"S70 2NW","la":"Barnsley","era":"trad","nn":101,"risk":21,"cat":"green"},{"name":"Gilroyd Social Club","lat":53.53737,"lon":-1.51595,"postcode":"S75 3PX","la":"Barnsley","era":"mod","nn":809,"risk":26,"cat":"green"},{"name":"Golden Nugget Wmc","lat":53.53359,"lon":-1.30067,"postcode":"S63 9HN","la":"Barnsley","era":"other","nn":94,"risk":21,"cat":"green"},{"name":"Goldthorpe Reform W M C","lat":53.5358,"lon":-1.29797,"postcode":"S63 9JN","la":"Barnsley","era":"other","nn":240,"risk":22,"cat":"green"},{"name":"Green Moor Sports Club","lat":53.49101,"lon":-1.5779,"postcode":"S35 7DQ","la":"Barnsley","era":"other","nn":1283,"risk":52,"cat":"amber"},{"name":"Grey Horse Inn","lat":53.55969,"lon":-1.49318,"postcode":"S75 2ST","la":"Barnsley","era":"trad","nn":136,"risk":21,"cat":"green"},{"name":"Grimethorpe W M C","lat":53.57712,"lon":-1.37695,"postcode":"S72 7EQ","la":"Barnsley","era":"other","nn":226,"risk":39,"cat":"amber"},{"name":"Harborough Hills Social Pub","lat":53.55678,"lon":-1.47464,"postcode":"S71 1BW","la":"Barnsley","era":"mod","nn":315,"risk":22,"cat":"green"},{"name":"Hare And Hounds Inn","lat":53.49765,"lon":-1.46645,"postcode":"S74 0DQ","la":"Barnsley","era":"trad","nn":0,"risk":20,"cat":"green"},{"name":"Heaven and Ale","lat":53.54734,"lon":-1.48426,"postcode":"S70 1NH","la":"Barnsley","era":"other","nn":276,"risk":22,"cat":"green"},{"name":"Higham Cricket Club","lat":53.56214,"lon":-1.53477,"postcode":"S75 1PH","la":"Barnsley","era":"other","nn":131,"risk":26,"cat":"green"},{"name":"Highgate Greyhound Stadium","lat":53.53634,"lon":-1.31428,"postcode":"S63 9AT","la":"Barnsley","era":"trad","nn":381,"risk":23,"cat":"green"},{"name":"Highgate Sports & Social Club","lat":53.53304,"lon":-1.31583,"postcode":"S63 9AP","la":"Barnsley","era":"mod","nn":381,"risk":23,"cat":"green"},{"name":"Highstone Road W M C","lat":53.54307,"lon":-1.47492,"postcode":"S70 4DX","la":"Barnsley","era":"other","nn":378,"risk":23,"cat":"green"},{"name":"Hillies Golf Course","lat":53.51644,"lon":-1.39981,"postcode":"S73 0LA","la":"Barnsley","era":"other","nn":502,"risk":24,"cat":"green"},{"name":"Honeywell Inn","lat":53.55912,"lon":-1.47857,"postcode":"S71 1PZ","la":"Barnsley","era":"trad","nn":200,"risk":21,"cat":"green"},{"name":"Horse And Jockey","lat":53.50744,"lon":-1.56721,"postcode":"S35 7AA","la":"Barnsley","era":"trad","nn":666,"risk":30,"cat":"green"},{"name":"Houghton Main Welfare & Sports Club Ltd","lat":53.54532,"lon":-1.3606,"postcode":"S72 0HW","la":"Barnsley","era":"other","nn":64,"risk":25,"cat":"green"},{"name":"Hoyland Catholic Social Club","lat":53.50066,"lon":-1.44431,"postcode":"S74 9DL","la":"Barnsley","era":"mod","nn":238,"risk":22,"cat":"green"},{"name":"Hoyland Common W.M.C.","lat":53.49642,"lon":-1.46184,"postcode":"S74 0NJ","la":"Barnsley","era":"other","nn":132,"risk":21,"cat":"green"},{"name":"Hoyland Tap","lat":53.49629,"lon":-1.44648,"postcode":"S74 0HR","la":"Barnsley","era":"mod","nn":506,"risk":24,"cat":"green"},{"name":"Hoylandswaine Sports & A Club","lat":53.53958,"lon":-1.6066,"postcode":"S36 7JJ","la":"Barnsley","era":"other","nn":258,"risk":39,"cat":"amber"},{"name":"Ings Lane Sports & Social Club","lat":53.51848,"lon":-1.3282,"postcode":"S63 8DT","la":"Barnsley","era":"mod","nn":834,"risk":43,"cat":"amber"},{"name":"Jocks Cavern","lat":53.55334,"lon":-1.48299,"postcode":"S70 2SW","la":"Barnsley","era":"other","nn":0,"risk":20,"cat":"green"},{"name":"Jump W M C","lat":53.50498,"lon":-1.4274,"postcode":"S74 0JX","la":"Barnsley","era":"other","nn":177,"risk":21,"cat":"green"},{"name":"Keel Inn","lat":53.55955,"lon":-1.47564,"postcode":"S71 1LJ","la":"Barnsley","era":"trad","nn":200,"risk":21,"cat":"green"},{"name":"Keel Inn","lat":53.54472,"lon":-1.43704,"postcode":"S70 3NT","la":"Barnsley","era":"trad","nn":503,"risk":26,"cat":"green"},{"name":"Kens Keg & Cask","lat":53.57739,"lon":-1.41772,"postcode":"S72 8SS","la":"Barnsley","era":"other","nn":127,"risk":21,"cat":"green"},{"name":"Kexborough Social Club","lat":53.58159,"lon":-1.54758,"postcode":"S75 5DU","la":"Barnsley","era":"mod","nn":1108,"risk":50,"cat":"amber"},{"name":"Kexbrough Cricket Club","lat":53.57861,"lon":-1.52956,"postcode":"S75 5NX","la":"Barnsley","era":"other","nn":544,"risk":24,"cat":"green"},{"name":"KG's Sports Bar & Social Club","lat":53.5208,"lon":-1.39782,"postcode":"S73 0DL","la":"Barnsley","era":"mod","nn":97,"risk":21,"cat":"green"},{"name":"Kings Head Inn","lat":53.58664,"lon":-1.50716,"postcode":"S75 6AP","la":"Barnsley","era":"trad","nn":128,"risk":21,"cat":"green"},{"name":"Lemon Tree","lat":53.55271,"lon":-1.48194,"postcode":"S70 2QT","la":"Barnsley","era":"other","nn":30,"risk":20,"cat":"green"},{"name":"Locke Park Club & Institute Ltd.","lat":53.54499,"lon":-1.48286,"postcode":"S70 1YN","la":"Barnsley","era":"other","nn":265,"risk":22,"cat":"green"},{"name":"Locky's Bar","lat":53.52163,"lon":-1.39687,"postcode":"S73 0AS","la":"Barnsley","era":"other","nn":21,"risk":20,"cat":"green"},{"name":"Lord Nelson","lat":53.53851,"lon":-1.60313,"postcode":"S36 7JA","la":"Barnsley","era":"trad","nn":0,"risk":38,"cat":"amber"},{"name":"Lundwood Working Mens Club","lat":53.55774,"lon":-1.43849,"postcode":"S71 5PN","la":"Barnsley","era":"trad","nn":552,"risk":44,"cat":"amber"},{"name":"Maison du Biere","lat":53.49487,"lon":-1.41992,"postcode":"S74 8HJ","la":"Barnsley","era":"other","nn":164,"risk":21,"cat":"green"},{"name":"Manx Arms","lat":53.54988,"lon":-1.47613,"postcode":"S70 1HP","la":"Barnsley","era":"trad","nn":227,"risk":22,"cat":"green"},{"name":"Market Hotel","lat":53.49419,"lon":-1.42212,"postcode":"S74 8EP","la":"Barnsley","era":"other","nn":164,"risk":21,"cat":"green"},{"name":"Market Tap","lat":53.53402,"lon":-1.30233,"postcode":"S63 9HA","la":"Barnsley","era":"mod","nn":26,"risk":20,"cat":"green"},{"name":"Middlecliffe W M C","lat":53.54586,"lon":-1.36091,"postcode":"S72 0HN","la":"Barnsley","era":"other","nn":64,"risk":25,"cat":"green"},{"name":"Miller's Inn","lat":53.5758,"lon":-1.52281,"postcode":"S75 1LX","la":"Barnsley","era":"trad","nn":361,"risk":28,"cat":"green"},{"name":"Milton Arms","lat":53.49482,"lon":-1.42485,"postcode":"S74 8ES","la":"Barnsley","era":"trad","nn":0,"risk":20,"cat":"green"},{"name":"Miners Rest","lat":53.55937,"lon":-1.49516,"postcode":"S75 2SU","la":"Barnsley","era":"other","nn":136,"risk":21,"cat":"green"},{"name":"Monk Bretton Cricket Club","lat":53.56394,"lon":-1.45355,"postcode":"S71 2EU","la":"Barnsley","era":"trad","nn":175,"risk":21,"cat":"green"},{"name":"Monk Bretton Working Mens Club","lat":53.56544,"lon":-1.45452,"postcode":"S71 2EP","la":"Barnsley","era":"trad","nn":0,"risk":20,"cat":"green"},{"name":"Moulders Arms","lat":53.55542,"lon":-1.48876,"postcode":"S70 2NU","la":"Barnsley","era":"trad","nn":161,"risk":21,"cat":"green"},{"name":"Nailmaker Tap 2","lat":53.55349,"lon":-1.48694,"postcode":"S70 2RD","la":"Barnsley","era":"mod","nn":34,"risk":20,"cat":"green"},{"name":"New Lodge Working Mens Club","lat":53.5758,"lon":-1.47658,"postcode":"S71 1PA","la":"Barnsley","era":"trad","nn":633,"risk":42,"cat":"amber"},{"name":"Oaks WMC","lat":53.54639,"lon":-1.42714,"postcode":"S71 5EF","la":"Barnsley","era":"trad","nn":679,"risk":45,"cat":"amber"},{"name":"Old Tailors","lat":53.5542,"lon":-1.48145,"postcode":"S70 2EG","la":"Barnsley","era":"other","nn":35,"risk":20,"cat":"green"},{"name":"Opium 10","lat":53.55261,"lon":-1.48432,"postcode":"S70 2RN","la":"Barnsley","era":"other","nn":56,"risk":20,"cat":"green"},{"name":"Peakys Bar","lat":53.55326,"lon":-1.48012,"postcode":"S70 2QP","la":"Barnsley","era":"other","nn":10,"risk":20,"cat":"green"},{"name":"Penistone Church Football Club","lat":53.52484,"lon":-1.62532,"postcode":"S36 6AT","la":"Barnsley","era":"other","nn":380,"risk":23,"cat":"green"},{"name":"Penistone Cricket Club","lat":53.52241,"lon":-1.59545,"postcode":"S36 8YL","la":"Barnsley","era":"other","nn":726,"risk":43,"cat":"amber"},{"name":"Penistone Royal British Legion","lat":53.52621,"lon":-1.63103,"postcode":"S36 6DT","la":"Barnsley","era":"trad","nn":32,"risk":20,"cat":"green"},{"name":"Penistone tap and brewhouse","lat":53.52573,"lon":-1.63103,"postcode":"S36 6BZ","la":"Barnsley","era":"mod","nn":7,"risk":20,"cat":"green"},{"name":"Pheasant Inn","lat":53.56544,"lon":-1.45452,"postcode":"S71 2EP","la":"Barnsley","era":"trad","nn":0,"risk":20,"cat":"green"},{"name":"Picture House Tap","lat":53.5341,"lon":-1.30555,"postcode":"S63 9NE","la":"Barnsley","era":"mod","nn":155,"risk":21,"cat":"green"},{"name":"Pocket Snooker Club","lat":53.60088,"lon":-1.44743,"postcode":"S71 4PX","la":"Barnsley","era":"other","nn":380,"risk":23,"cat":"green"},{"name":"Pourhouse 22","lat":53.55334,"lon":-1.48299,"postcode":"S70 2SW","la":"Barnsley","era":"mod","nn":0,"risk":20,"cat":"green"},{"name":"Prince Of Wales","lat":53.52186,"lon":-1.3978,"postcode":"S73 0DA","la":"Barnsley","era":"trad","nn":0,"risk":20,"cat":"green"},{"name":"Prospect Tavern","lat":53.5004,"lon":-1.44074,"postcode":"S74 9AG","la":"Barnsley","era":"other","nn":90,"risk":21,"cat":"green"},{"name":"Pure Pop","lat":53.55347,"lon":-1.48068,"postcode":"S70 2QN","la":"Barnsley","era":"other","nn":7,"risk":20,"cat":"green"},{"name":"Quasimodos","lat":53.55224,"lon":-1.48294,"postcode":"S70 2QX","la":"Barnsley","era":"other","nn":0,"risk":20,"cat":"green"},{"name":"Queen Victoria","lat":53.53265,"lon":-1.38078,"postcode":"S73 9LP","la":"Barnsley","era":"trad","nn":454,"risk":23,"cat":"green"},{"name":"Queen's Head","lat":53.50021,"lon":-1.43325,"postcode":"S74 9LG","la":"Barnsley","era":"trad","nn":364,"risk":23,"cat":"green"},{"name":"Red Lion","lat":53.54621,"lon":-1.56378,"postcode":"S75 4JR","la":"Barnsley","era":"trad","nn":1279,"risk":51,"cat":"amber"},{"name":"Red Lion Country Inn","lat":53.52639,"lon":-1.47084,"postcode":"S70 5LJ","la":"Barnsley","era":"trad","nn":0,"risk":20,"cat":"green"},{"name":"Red Rum","lat":53.57314,"lon":-1.37399,"postcode":"S72 7NR","la":"Barnsley","era":"other","nn":484,"risk":41,"cat":"amber"},{"name":"Ring O' Bells","lat":53.59539,"lon":-1.45007,"postcode":"S71 4NJ","la":"Barnsley","era":"other","nn":251,"risk":22,"cat":"green"},{"name":"Rose & Crown Hotel","lat":53.58446,"lon":-1.5315,"postcode":"S75 5NQ","la":"Barnsley","era":"trad","nn":0,"risk":20,"cat":"green"},{"name":"Rose and Crown","lat":53.53851,"lon":-1.60313,"postcode":"S36 7JA","la":"Barnsley","era":"trad","nn":0,"risk":38,"cat":"amber"},{"name":"Rotary Community Pavillion","lat":53.52638,"lon":-1.47083,"postcode":"S70 5LJ","la":"Barnsley","era":"trad","nn":1,"risk":20,"cat":"green"},{"name":"Roxy's","lat":53.55063,"lon":-1.48166,"postcode":"S70 1SW","la":"Barnsley","era":"other","nn":95,"risk":21,"cat":"green"},{"name":"Royston Midland Wmc","lat":53.60025,"lon":-1.44177,"postcode":"S71 4DP","la":"Barnsley","era":"other","nn":276,"risk":22,"cat":"green"},{"name":"Royston Railwaymen Sports Club","lat":53.60029,"lon":-1.43758,"postcode":"S71 4AZ","la":"Barnsley","era":"trad","nn":276,"risk":27,"cat":"green"},{"name":"Royston W M C","lat":53.59795,"lon":-1.45372,"postcode":"S71 4QU","la":"Barnsley","era":"other","nn":127,"risk":21,"cat":"green"},{"name":"Rusty Dudley","lat":53.53469,"lon":-1.30108,"postcode":"S63 9HJ","la":"Barnsley","era":"other","nn":33,"risk":20,"cat":"green"},{"name":"Sandhill Golf Clubhouse","lat":53.54946,"lon":-1.3478,"postcode":"S72 0DL","la":"Barnsley","era":"other","nn":0,"risk":25,"cat":"green"},{"name":"Sandhill Tavern","lat":53.54946,"lon":-1.3478,"postcode":"S72 0DL","la":"Barnsley","era":"other","nn":0,"risk":25,"cat":"green"},{"name":"Saville Square","lat":53.49765,"lon":-1.46645,"postcode":"S74 0DQ","la":"Barnsley","era":"other","nn":0,"risk":20,"cat":"green"},{"name":"Secret","lat":53.55173,"lon":-1.48206,"postcode":"S70 1SS","la":"Barnsley","era":"other","nn":0,"risk":20,"cat":"green"},{"name":"Shafton Village WMC","lat":53.59126,"lon":-1.40576,"postcode":"S72 8QA","la":"Barnsley","era":"other","nn":206,"risk":26,"cat":"green"},{"name":"Shakespeare Hotel","lat":53.55173,"lon":-1.48206,"postcode":"S70 1SS","la":"Barnsley","era":"other","nn":0,"risk":20,"cat":"green"},{"name":"Shaw Inn","lat":53.54925,"lon":-1.49013,"postcode":"S70 6AE","la":"Barnsley","era":"trad","nn":243,"risk":22,"cat":"green"},{"name":"Shaw Lane Sports Club","lat":53.55039,"lon":-1.49327,"postcode":"S70 6HZ","la":"Barnsley","era":"other","nn":243,"risk":22,"cat":"green"},{"name":"Silkstone Golf Club","lat":53.54912,"lon":-1.54287,"postcode":"S75 4LD","la":"Barnsley","era":"other","nn":1243,"risk":51,"cat":"amber"},{"name":"Silkstone Hotel","lat":53.5461,"lon":-1.47932,"postcode":"S70 1YG","la":"Barnsley","era":"other","nn":265,"risk":22,"cat":"green"},{"name":"Smithy Arms","lat":53.51367,"lon":-1.59125,"postcode":"S36 8YQ","la":"Barnsley","era":"trad","nn":173,"risk":39,"cat":"amber"},{"name":"Snydale Road Sports & Social Club","lat":53.57493,"lon":-1.41443,"postcode":"S72 8JU","la":"Barnsley","era":"mod","nn":103,"risk":21,"cat":"green"},{"name":"Soho Music Institute","lat":53.55334,"lon":-1.48299,"postcode":"S70 2SW","la":"Barnsley","era":"other","nn":0,"risk":20,"cat":"green"},{"name":"Soul Lounge","lat":53.55325,"lon":-1.48219,"postcode":"S70 2PU","la":"Barnsley","era":"mod","nn":0,"risk":20,"cat":"green"},{"name":"Spicer Manor","lat":53.54635,"lon":-1.69288,"postcode":"S36 7AG","la":"Barnsley","era":"other","nn":1587,"risk":54,"cat":"amber"},{"name":"Spiral City","lat":53.55343,"lon":-1.48021,"postcode":"S70 2QL","la":"Barnsley","era":"other","nn":15,"risk":20,"cat":"green"},{"name":"Spread Eagle Hotel","lat":53.52568,"lon":-1.63108,"postcode":"S36 6BZ","la":"Barnsley","era":"trad","nn":0,"risk":20,"cat":"green"},{"name":"Squires Bar","lat":53.52165,"lon":-1.39746,"postcode":"S73 0DA","la":"Barnsley","era":"other","nn":24,"risk":20,"cat":"green"},{"name":"Stainborough Cricket Club","lat":53.53019,"lon":-1.5103,"postcode":"S75 3EW","la":"Barnsley","era":"other","nn":0,"risk":38,"cat":"amber"},{"name":"Staincross W M C","lat":53.58932,"lon":-1.50731,"postcode":"S75 6EW","la":"Barnsley","era":"trad","nn":298,"risk":22,"cat":"green"},{"name":"Stairfoot & Ardsley Cons Club","lat":53.54612,"lon":-1.44427,"postcode":"S70 3PW","la":"Barnsley","era":"other","nn":503,"risk":29,"cat":"green"},{"name":"Station Inn","lat":53.53472,"lon":-1.56318,"postcode":"S75 4RB","la":"Barnsley","era":"trad","nn":1279,"risk":51,"cat":"amber"},{"name":"Strafford Arms","lat":53.53019,"lon":-1.5103,"postcode":"S75 3EW","la":"Barnsley","era":"trad","nn":0,"risk":38,"cat":"amber"},{"name":"Sun Inn","lat":53.56581,"lon":-1.44841,"postcode":"S71 2JS","la":"Barnsley","era":"trad","nn":84,"risk":21,"cat":"green"},{"name":"Swaithe W.M.C.","lat":53.53498,"lon":-1.45406,"postcode":"S70 4QY","la":"Barnsley","era":"other","nn":442,"risk":23,"cat":"green"},{"name":"Tabu","lat":53.55342,"lon":-1.48152,"postcode":"S70 2QE","la":"Barnsley","era":"other","nn":28,"risk":20,"cat":"green"},{"name":"Talbot Inn","lat":53.58601,"lon":-1.50554,"postcode":"S75 6AS","la":"Barnsley","era":"trad","nn":128,"risk":21,"cat":"green"},{"name":"Tankersley Park Golf Club","lat":53.48135,"lon":-1.48025,"postcode":"S35 4LG","la":"Barnsley","era":"other","nn":624,"risk":29,"cat":"green"},{"name":"Tap and Brew","lat":53.4975,"lon":-1.46265,"postcode":"S74 0LT","la":"Barnsley","era":"other","nn":49,"risk":20,"cat":"green"},{"name":"Tarn End Tap","lat":53.55139,"lon":-1.48808,"postcode":"S70 6AA","la":"Barnsley","era":"mod","nn":0,"risk":20,"cat":"green"},{"name":"The Albion Inn","lat":53.509,"lon":-1.4102,"postcode":"S73 0PT","la":"Barnsley","era":"trad","nn":376,"risk":43,"cat":"amber"},{"name":"The Anvil Arms","lat":53.58547,"lon":-1.53172,"postcode":"S75 5HG","la":"Barnsley","era":"trad","nn":113,"risk":21,"cat":"green"},{"name":"The Ash Inn","lat":53.53686,"lon":-1.422,"postcode":"S73 8EP","la":"Barnsley","era":"trad","nn":1112,"risk":50,"cat":"amber"},{"name":"The Barley Sheaf","lat":53.52334,"lon":-1.41641,"postcode":"S73 8QD","la":"Barnsley","era":"trad","nn":367,"risk":43,"cat":"amber"},{"name":"The Boatmans Rest","lat":53.52801,"lon":-1.45562,"postcode":"S70 4TD","la":"Barnsley","era":"other","nn":245,"risk":22,"cat":"green"},{"name":"The Bridge","lat":53.52876,"lon":-1.63414,"postcode":"S36 6EF","la":"Barnsley","era":"other","nn":25,"risk":20,"cat":"green"},{"name":"The Bridge Inn","lat":53.50211,"lon":-1.56261,"postcode":"S35 7AE","la":"Barnsley","era":"trad","nn":0,"risk":25,"cat":"green"},{"name":"The Butchers Bar","lat":53.52186,"lon":-1.3978,"postcode":"S73 0DA","la":"Barnsley","era":"other","nn":0,"risk":20,"cat":"green"},{"name":"The Chestnut Tree","lat":53.56781,"lon":-1.53074,"postcode":"S75 1JT","la":"Barnsley","era":"other","nn":167,"risk":21,"cat":"green"},{"name":"The Civic","lat":53.55384,"lon":-1.47927,"postcode":"S70 2JL","la":"Barnsley","era":"other","nn":62,"risk":20,"cat":"green"},{"name":"The Cock Inn","lat":53.50456,"lon":-1.48632,"postcode":"S70 5UD","la":"Barnsley","era":"trad","nn":632,"risk":29,"cat":"green"},{"name":"The Corner Tap","lat":53.53119,"lon":-1.3046,"postcode":"S63 9DG","la":"Barnsley","era":"mod","nn":50,"risk":20,"cat":"green"},{"name":"The Country Club","lat":53.55348,"lon":-1.48057,"postcode":"S70 2QN","la":"Barnsley","era":"other","nn":7,"risk":20,"cat":"green"},{"name":"The Court House","lat":53.55484,"lon":-1.48001,"postcode":"S70 2HG","la":"Barnsley","era":"other","nn":58,"risk":20,"cat":"green"},{"name":"The Cristello Lounge","lat":53.52626,"lon":-1.63055,"postcode":"S36 6DT","la":"Barnsley","era":"mod","nn":32,"risk":20,"cat":"green"},{"name":"The Crown & Anchor","lat":53.57157,"lon":-1.529,"postcode":"S75 1LL","la":"Barnsley","era":"trad","nn":271,"risk":22,"cat":"green"},{"name":"The Crown Inn","lat":53.49792,"lon":-1.42498,"postcode":"S74 8EL","la":"Barnsley","era":"trad","nn":184,"risk":21,"cat":"green"},{"name":"The Darfield","lat":53.53739,"lon":-1.37402,"postcode":"S73 9AW","la":"Barnsley","era":"other","nn":58,"risk":20,"cat":"green"},{"name":"The Darley Inn","lat":53.5318,"lon":-1.45813,"postcode":"S70 4SE","la":"Barnsley","era":"trad","nn":160,"risk":21,"cat":"green"},{"name":"The Dog and Partridge","lat":53.50999,"lon":-1.71173,"postcode":"S36 4HH","la":"Barnsley","era":"other","nn":2369,"risk":59,"cat":"amber"},{"name":"The Fountain","lat":53.55208,"lon":-1.67088,"postcode":"S36 7GJ","la":"Barnsley","era":"other","nn":1445,"risk":53,"cat":"amber"},{"name":"The Full House","lat":53.56309,"lon":-1.46018,"postcode":"S71 2NW","la":"Barnsley","era":"other","nn":447,"risk":23,"cat":"green"},{"name":"The Garrison","lat":53.5538,"lon":-1.48064,"postcode":"S70 2HZ","la":"Barnsley","era":"other","nn":36,"risk":20,"cat":"green"},{"name":"The Gate Inn","lat":53.49957,"lon":-1.43864,"postcode":"S74 9AU","la":"Barnsley","era":"trad","nn":81,"risk":21,"cat":"green"},{"name":"The George","lat":53.52191,"lon":-1.39891,"postcode":"S73 0DD","la":"Barnsley","era":"trad","nn":73,"risk":21,"cat":"green"},{"name":"The Green Dragon","lat":53.50211,"lon":-1.56261,"postcode":"S35 7AE","la":"Barnsley","era":"trad","nn":0,"risk":25,"cat":"green"},{"name":"The Greyhound","lat":53.53067,"lon":-1.45664,"postcode":"S70 4SQ","la":"Barnsley","era":"trad","nn":160,"risk":21,"cat":"green"},{"name":"The Horseshoe","lat":53.52231,"lon":-1.39801,"postcode":"S73 0AA","la":"Barnsley","era":"trad","nn":52,"risk":20,"cat":"green"},{"name":"The Jolly Tap","lat":53.5533,"lon":-1.48025,"postcode":"S70 2QP","la":"Barnsley","era":"mod","nn":10,"risk":20,"cat":"green"},{"name":"The Joseph Bramah","lat":53.55294,"lon":-1.48219,"postcode":"S70 2PX","la":"Barnsley","era":"trad","nn":0,"risk":20,"cat":"green"},{"name":"The Kestrel","lat":53.55118,"lon":-1.48054,"postcode":"S70 1SN","la":"Barnsley","era":"other","nn":96,"risk":21,"cat":"green"},{"name":"The Keys","lat":53.49909,"lon":-1.46952,"postcode":"S74 0PY","la":"Barnsley","era":"other","nn":259,"risk":22,"cat":"green"},{"name":"The Lamproom Theatre","lat":53.55348,"lon":-1.48567,"postcode":"S70 2DX","la":"Barnsley","era":"other","nn":56,"risk":20,"cat":"green"},{"name":"The Limes","lat":53.59102,"lon":-1.49545,"postcode":"S75 6JZ","la":"Barnsley","era":"other","nn":664,"risk":25,"cat":"green"},{"name":"The Masonic Hall","lat":53.56042,"lon":-1.48657,"postcode":"S75 1AT","la":"Barnsley","era":"trad","nn":444,"risk":23,"cat":"green"},{"name":"The Masonic Hall","lat":53.55477,"lon":-1.48089,"postcode":"S70 2EP","la":"Barnsley","era":"trad","nn":58,"risk":20,"cat":"green"},{"name":"The Mill of the Black Monks","lat":53.55292,"lon":-1.44049,"postcode":"S71 5QF","la":"Barnsley","era":"trad","nn":552,"risk":29,"cat":"green"},{"name":"The New Bank","lat":53.53404,"lon":-1.30272,"postcode":"S63 9HQ","la":"Barnsley","era":"other","nn":26,"risk":20,"cat":"green"},{"name":"The New Inn","lat":53.5616,"lon":-1.50905,"postcode":"S75 2RG","la":"Barnsley","era":"trad","nn":270,"risk":22,"cat":"green"},{"name":"The New Inn Penistone","lat":53.52864,"lon":-1.63383,"postcode":"S36 7AH","la":"Barnsley","era":"trad","nn":25,"risk":20,"cat":"green"},{"name":"The New Sportsman Inn","lat":53.53146,"lon":-1.38735,"postcode":"S73 8AR","la":"Barnsley","era":"trad","nn":454,"risk":28,"cat":"green"},{"name":"The New Travellers Inn","lat":53.55314,"lon":-1.48399,"postcode":"S70 2SH","la":"Barnsley","era":"trad","nn":63,"risk":20,"cat":"green"},{"name":"The Norman Inn","lat":53.56236,"lon":-1.45347,"postcode":"S71 2HG","la":"Barnsley","era":"trad","nn":175,"risk":21,"cat":"green"},{"name":"The Official Cobcar","lat":53.49959,"lon":-1.4278,"postcode":"S74 8DE","la":"Barnsley","era":"other","nn":204,"risk":21,"cat":"green"},{"name":"The Officials Club","lat":53.54392,"lon":-1.30203,"postcode":"S63 0DA","la":"Barnsley","era":"other","nn":262,"risk":24,"cat":"green"},{"name":"The Old Bakery","lat":53.58615,"lon":-1.50223,"postcode":"S75 6BW","la":"Barnsley","era":"other","nn":71,"risk":21,"cat":"green"},{"name":"The Old Crown","lat":53.52568,"lon":-1.63108,"postcode":"S36 6BZ","la":"Barnsley","era":"trad","nn":0,"risk":20,"cat":"green"},{"name":"The Old Moor Tavern","lat":53.51961,"lon":-1.36902,"postcode":"S73 0YG","la":"Barnsley","era":"other","nn":704,"risk":45,"cat":"amber"},{"name":"The Old Number 7","lat":53.55294,"lon":-1.48219,"postcode":"S70 2PX","la":"Barnsley","era":"other","nn":0,"risk":20,"cat":"green"},{"name":"The Old Post Office","lat":53.59795,"lon":-1.54539,"postcode":"S75 4DE","la":"Barnsley","era":"other","nn":1384,"risk":52,"cat":"amber"},{"name":"The Old School House","lat":53.55743,"lon":-1.496,"postcode":"S75 2BB","la":"Barnsley","era":"other","nn":223,"risk":22,"cat":"green"},{"name":"The Old Town Hall","lat":53.52174,"lon":-1.39713,"postcode":"S73 0AW","la":"Barnsley","era":"other","nn":21,"risk":20,"cat":"green"},{"name":"The Olde Bridge Inn","lat":53.57047,"lon":-1.4387,"postcode":"S71 5RP","la":"Barnsley","era":"trad","nn":762,"risk":43,"cat":"amber"},{"name":"The Outpost","lat":53.54917,"lon":-1.47291,"postcode":"S70 1TJ","la":"Barnsley","era":"other","nn":66,"risk":20,"cat":"green"},{"name":"The Pack Horse","lat":53.59695,"lon":-1.45281,"postcode":"S71 4QZ","la":"Barnsley","era":"trad","nn":127,"risk":21,"cat":"green"},{"name":"The Pinfold Hotel","lat":53.57093,"lon":-1.41049,"postcode":"S72 8HF","la":"Barnsley","era":"other","nn":516,"risk":24,"cat":"green"},{"name":"The Portcullis","lat":53.55046,"lon":-1.48594,"postcode":"S70 1BB","la":"Barnsley","era":"other","nn":175,"risk":21,"cat":"green"},{"name":"The Royal","lat":53.57368,"lon":-1.52694,"postcode":"S75 1LS","la":"Barnsley","era":"trad","nn":271,"risk":22,"cat":"green"},{"name":"The Royal Oak","lat":53.50922,"lon":-1.44226,"postcode":"S74 0QN","la":"Barnsley","era":"trad","nn":900,"risk":26,"cat":"green"},{"name":"The Ship Inn","lat":53.52908,"lon":-1.47028,"postcode":"S70 5BA","la":"Barnsley","era":"trad","nn":302,"risk":22,"cat":"green"},{"name":"The Singing Man","lat":53.598,"lon":-1.41545,"postcode":"S72 8PQ","la":"Barnsley","era":"other","nn":985,"risk":47,"cat":"amber"},{"name":"The Spencer Arms","lat":53.56818,"lon":-1.57054,"postcode":"S75 4HL","la":"Barnsley","era":"trad","nn":286,"risk":40,"cat":"amber"},{"name":"The Star Hotel","lat":53.5763,"lon":-1.4183,"postcode":"S72 8BX","la":"Barnsley","era":"other","nn":127,"risk":21,"cat":"green"},{"name":"The Star Hotel","lat":53.4979,"lon":-1.46236,"postcode":"S74 0PB","la":"Barnsley","era":"other","nn":49,"risk":20,"cat":"green"},{"name":"The Tavern","lat":53.51101,"lon":-1.39484,"postcode":"S73 0PG","la":"Barnsley","era":"other","nn":688,"risk":30,"cat":"green"},{"name":"The Victoria","lat":53.57881,"lon":-1.41394,"postcode":"S72 8SY","la":"Barnsley","era":"trad","nn":295,"risk":22,"cat":"green"},{"name":"The Wentworth Arms","lat":53.58676,"lon":-1.50251,"postcode":"S75 6AU","la":"Barnsley","era":"trad","nn":71,"risk":21,"cat":"green"},{"name":"The White Bear","lat":53.55389,"lon":-1.4814,"postcode":"S70 2AB","la":"Barnsley","era":"other","nn":35,"risk":20,"cat":"green"},{"name":"The Works","lat":53.55271,"lon":-1.47982,"postcode":"S70 1SZ","la":"Barnsley","era":"mod","nn":21,"risk":20,"cat":"green"},{"name":"Thornely Arms","lat":53.54237,"lon":-1.52483,"postcode":"S75 3RF","la":"Barnsley","era":"trad","nn":0,"risk":20,"cat":"green"},{"name":"Thurgoland Cricket Club","lat":53.50211,"lon":-1.56261,"postcode":"S35 7AE","la":"Barnsley","era":"other","nn":0,"risk":25,"cat":"green"},{"name":"Thurnscoe Coronation WMC Ltd","lat":53.54583,"lon":-1.30435,"postcode":"S63 0EF","la":"Barnsley","era":"other","nn":262,"risk":39,"cat":"amber"},{"name":"Thurnscoe Social & Ex-Ser Club","lat":53.54591,"lon":-1.31677,"postcode":"S63 0TQ","la":"Barnsley","era":"mod","nn":301,"risk":25,"cat":"green"},{"name":"Thurnscoe W M C","lat":53.54408,"lon":-1.32016,"postcode":"S63 0QJ","la":"Barnsley","era":"other","nn":74,"risk":26,"cat":"green"},{"name":"Tin Oyle","lat":53.55333,"lon":-1.48649,"postcode":"S70 2RD","la":"Barnsley","era":"other","nn":34,"risk":20,"cat":"green"},{"name":"Tommy Treddlehoyle","lat":53.55524,"lon":-1.506,"postcode":"S75 2DX","la":"Barnsley","era":"other","nn":601,"risk":24,"cat":"green"},{"name":"Travellers Inn","lat":53.52003,"lon":-1.58522,"postcode":"S36 8YJ","la":"Barnsley","era":"trad","nn":726,"risk":30,"cat":"green"},{"name":"Travellers Inn","lat":53.54096,"lon":-1.52818,"postcode":"S75 3RR","la":"Barnsley","era":"trad","nn":248,"risk":22,"cat":"green"},{"name":"Travellers Inn","lat":53.50971,"lon":-1.48022,"postcode":"S70 5XB","la":"Barnsley","era":"trad","nn":69,"risk":26,"cat":"green"},{"name":"True North Bar","lat":53.55216,"lon":-1.47859,"postcode":"S70 1GW","la":"Barnsley","era":"other","nn":53,"risk":20,"cat":"green"},{"name":"Union Jack Memorial Club","lat":53.53142,"lon":-1.30395,"postcode":"S63 9LQ","la":"Barnsley","era":"other","nn":50,"risk":20,"cat":"green"},{"name":"Unity Dearne Club Ltd","lat":53.53541,"lon":-1.30475,"postcode":"S63 9LY","la":"Barnsley","era":"other","nn":155,"risk":21,"cat":"green"},{"name":"Victoria Hotel","lat":53.54635,"lon":-1.47343,"postcode":"S70 4NW","la":"Barnsley","era":"trad","nn":299,"risk":22,"cat":"green"},{"name":"Volt","lat":53.55147,"lon":-1.48194,"postcode":"S70 1SS","la":"Barnsley","era":"other","nn":30,"risk":20,"cat":"green"},{"name":"Waggon & Horses","lat":53.50079,"lon":-1.67941,"postcode":"S36 4GY","la":"Barnsley","era":"trad","nn":2369,"risk":59,"cat":"amber"},{"name":"Waggon & Horses","lat":53.51411,"lon":-1.59375,"postcode":"S36 8YQ","la":"Barnsley","era":"trad","nn":173,"risk":26,"cat":"green"},{"name":"Ward Green W M C","lat":53.53672,"lon":-1.47456,"postcode":"S70 4HH","la":"Barnsley","era":"other","nn":706,"risk":30,"cat":"green"},{"name":"Wellington Inn","lat":53.50587,"lon":-1.42962,"postcode":"S74 0HY","la":"Barnsley","era":"trad","nn":177,"risk":21,"cat":"green"},{"name":"West Green WMC Ltd","lat":53.56656,"lon":-1.44817,"postcode":"S71 2PD","la":"Barnsley","era":"other","nn":84,"risk":21,"cat":"green"},{"name":"Wombwell Main Community and Sports Association","lat":53.52017,"lon":-1.4149,"postcode":"S73 8PW","la":"Barnsley","era":"other","nn":367,"risk":43,"cat":"amber"},{"name":"Wombwell Recreation Centre","lat":53.52492,"lon":-1.39281,"postcode":"S73 0BJ","la":"Barnsley","era":"other","nn":7,"risk":20,"cat":"green"},{"name":"Wombwell Working Mens Club","lat":53.52496,"lon":-1.39274,"postcode":"S73 0BJ","la":"Barnsley","era":"trad","nn":7,"risk":20,"cat":"green"},{"name":"Woodlands Top House","lat":53.50731,"lon":-1.42772,"postcode":"S74 0JN","la":"Barnsley","era":"other","nn":204,"risk":21,"cat":"green"},{"name":"Woolley Miners Welfare Scheme","lat":53.59031,"lon":-1.52884,"postcode":"S75 5JA","la":"Barnsley","era":"other","nn":475,"risk":26,"cat":"green"},{"name":"Worsbrough Sports & Development Association","lat":53.52639,"lon":-1.47084,"postcode":"S70 5LJ","la":"Barnsley","era":"other","nn":0,"risk":20,"cat":"green"},{"name":"Wortley Arms","lat":53.49073,"lon":-1.53781,"postcode":"S35 7DB","la":"Barnsley","era":"trad","nn":1410,"risk":52,"cat":"amber"},{"name":"Wortley Golf Club","lat":53.50099,"lon":-1.52528,"postcode":"S35 7DF","la":"Barnsley","era":"other","nn":1410,"risk":52,"cat":"amber"},{"name":"Wortley Mens Club","lat":53.47782,"lon":-1.48757,"postcode":"S35 4DB","la":"Sheffield","era":"other","nn":424,"risk":21,"cat":"green"},{"name":"3D Worksop","lat":53.30739,"lon":-1.12323,"postcode":"S80 1DX","la":"Bassetlaw","era":"mod","nn":70,"risk":26,"cat":"green"},{"name":"Angel Inn","lat":53.38209,"lon":-1.06236,"postcode":"S81 8HG","la":"Bassetlaw","era":"trad","nn":0,"risk":31,"cat":"amber"},{"name":"Ashley Hotel","lat":53.31732,"lon":-1.12207,"postcode":"S81 7JR","la":"Bassetlaw","era":"other","nn":524,"risk":29,"cat":"green"},{"name":"Cannon Hotel","lat":53.32494,"lon":-1.12069,"postcode":"S81 7LS","la":"Bassetlaw","era":"other","nn":660,"risk":33,"cat":"amber"},{"name":"Carlton In Lindrick W.M.C.","lat":53.3596,"lon":-1.12461,"postcode":"S81 9HH","la":"Bassetlaw","era":"other","nn":1003,"risk":55,"cat":"amber"},{"name":"Disabled access pool and snooker","lat":53.30093,"lon":-1.12254,"postcode":"S80 2HD","la":"Bassetlaw","era":"other","nn":123,"risk":27,"cat":"green"},{"name":"Dukeries Brewery Tap","lat":53.30423,"lon":-1.12613,"postcode":"S80 1EU","la":"Bassetlaw","era":"other","nn":31,"risk":26,"cat":"green"},{"name":"FourWay Blyth Ltd","lat":53.37718,"lon":-1.06233,"postcode":"S81 8EW","la":"Bassetlaw","era":"other","nn":141,"risk":32,"cat":"amber"},{"name":"Fuggle Bunny Brew Pubs Limited","lat":53.30062,"lon":-1.12431,"postcode":"S80 1HB","la":"Bassetlaw","era":"other","nn":123,"risk":27,"cat":"green"},{"name":"Greendale Oak","lat":53.30246,"lon":-1.12758,"postcode":"S80 1LE","la":"Bassetlaw","era":"trad","nn":54,"risk":26,"cat":"green"},{"name":"Hill Top Club","lat":53.37686,"lon":-1.11911,"postcode":"S81 9QL","la":"Bassetlaw","era":"other","nn":0,"risk":43,"cat":"amber"},{"name":"Kilton Forest Golf Club","lat":53.32064,"lon":-1.10691,"postcode":"S81 0TL","la":"Bassetlaw","era":"other","nn":239,"risk":47,"cat":"amber"},{"name":"Kilton Inn","lat":53.30912,"lon":-1.11416,"postcode":"S80 2EE","la":"Bassetlaw","era":"trad","nn":492,"risk":29,"cat":"green"},{"name":"King Edward Vii","lat":53.30494,"lon":-1.12336,"postcode":"S80 2AU","la":"Bassetlaw","era":"trad","nn":60,"risk":26,"cat":"green"},{"name":"King William IV","lat":53.3916,"lon":-1.11525,"postcode":"S81 8HU","la":"Bassetlaw","era":"trad","nn":1554,"risk":59,"cat":"amber"},{"name":"Liquorice Gardens","lat":53.30446,"lon":-1.12295,"postcode":"S80 2AS","la":"Bassetlaw","era":"other","nn":60,"risk":26,"cat":"green"},{"name":"Lock Keeper","lat":53.3118,"lon":-1.14362,"postcode":"S80 1TJ","la":"Bassetlaw","era":"other","nn":1090,"risk":56,"cat":"amber"},{"name":"Mac & Co","lat":53.30652,"lon":-1.12299,"postcode":"S80 1DT","la":"Bassetlaw","era":"other","nn":38,"risk":26,"cat":"green"},{"name":"Manton Sports and Social Club","lat":53.3032,"lon":-1.1087,"postcode":"S80 2PU","la":"Bassetlaw","era":"mod","nn":707,"risk":31,"cat":"amber"},{"name":"Miners Welfare","lat":53.30845,"lon":-1.12337,"postcode":"S80 1EB","la":"Bassetlaw","era":"other","nn":58,"risk":26,"cat":"green"},{"name":"Red Hart Hotel","lat":53.38209,"lon":-1.06236,"postcode":"S81 8HG","la":"Bassetlaw","era":"trad","nn":0,"risk":31,"cat":"amber"},{"name":"Roman's Rest","lat":53.32603,"lon":-1.13334,"postcode":"S81 7AZ","la":"Bassetlaw","era":"other","nn":191,"risk":45,"cat":"amber"},{"name":"Sherwood Ranger","lat":53.35313,"lon":-1.11311,"postcode":"S81 9EA","la":"Bassetlaw","era":"other","nn":181,"risk":47,"cat":"amber"},{"name":"Shireoaks Inn","lat":53.30263,"lon":-1.12834,"postcode":"S80 1LT","la":"Bassetlaw","era":"trad","nn":54,"risk":26,"cat":"green"},{"name":"Stanley Street Sports & Social Club","lat":53.31361,"lon":-1.12693,"postcode":"S81 7HX","la":"Bassetlaw","era":"mod","nn":361,"risk":28,"cat":"green"},{"name":"The Blue Bell","lat":53.35462,"lon":-1.11201,"postcode":"S81 9DT","la":"Bassetlaw","era":"other","nn":181,"risk":47,"cat":"amber"},{"name":"The Greyhound Public House","lat":53.29633,"lon":-1.11132,"postcode":"S80 2TP","la":"Bassetlaw","era":"trad","nn":784,"risk":34,"cat":"amber"},{"name":"The Hewitt Arms","lat":53.32056,"lon":-1.1736,"postcode":"S81 8LT","la":"Bassetlaw","era":"trad","nn":1292,"risk":57,"cat":"amber"},{"name":"The Innings","lat":53.32018,"lon":-1.11043,"postcode":"S81 0RS","la":"Bassetlaw","era":"trad","nn":239,"risk":32,"cat":"amber"},{"name":"The Mallard","lat":53.31138,"lon":-1.12253,"postcode":"S81 7AG","la":"Bassetlaw","era":"other","nn":137,"risk":27,"cat":"green"},{"name":"The Mill House","lat":53.3031,"lon":-1.13588,"postcode":"S80 1NN","la":"Bassetlaw","era":"trad","nn":320,"risk":28,"cat":"green"},{"name":"The Pocket","lat":53.37686,"lon":-1.11911,"postcode":"S81 9QL","la":"Bassetlaw","era":"other","nn":0,"risk":43,"cat":"amber"},{"name":"The Queen's Head","lat":53.30299,"lon":-1.12499,"postcode":"S80 1JA","la":"Bassetlaw","era":"trad","nn":91,"risk":26,"cat":"green"},{"name":"The Royal Legion","lat":53.37778,"lon":-1.11861,"postcode":"S81 9QH","la":"Bassetlaw","era":"trad","nn":107,"risk":44,"cat":"amber"},{"name":"The Salvation Army","lat":53.30418,"lon":-1.1266,"postcode":"S80 1ET","la":"Bassetlaw","era":"other","nn":31,"risk":26,"cat":"green"},{"name":"The Station Hotel","lat":53.31042,"lon":-1.12125,"postcode":"S80 1PS","la":"Bassetlaw","era":"other","nn":137,"risk":27,"cat":"green"},{"name":"The Unicorn","lat":53.30367,"lon":-1.12422,"postcode":"S80 1DA","la":"Bassetlaw","era":"other","nn":91,"risk":26,"cat":"green"},{"name":"The Vine","lat":53.30833,"lon":-1.12253,"postcode":"S80 1PD","la":"Bassetlaw","era":"other","nn":58,"risk":26,"cat":"green"},{"name":"The White Swan.","lat":53.37613,"lon":-1.06114,"postcode":"S81 8EQ","la":"Bassetlaw","era":"trad","nn":141,"risk":32,"cat":"amber"},{"name":"Three Legged Stool","lat":53.32594,"lon":-1.13048,"postcode":"S81 7DY","la":"Bassetlaw","era":"other","nn":191,"risk":45,"cat":"amber"},{"name":"Waterfront & BarMe","lat":53.30683,"lon":-1.12275,"postcode":"S80 1DT","la":"Bassetlaw","era":"other","nn":38,"risk":26,"cat":"green"},{"name":"WCC Lifeline - Food Hub","lat":53.30192,"lon":-1.11913,"postcode":"S80 2HJ","la":"Bassetlaw","era":"mod","nn":252,"risk":28,"cat":"green"},{"name":"Worksop Cricket & Sports Club","lat":53.30519,"lon":-1.12868,"postcode":"S80 1EN","la":"Bassetlaw","era":"mod","nn":178,"risk":27,"cat":"green"},{"name":"Worksop Rugby Club","lat":53.30485,"lon":-1.13206,"postcode":"S80 1NT","la":"Bassetlaw","era":"mod","nn":227,"risk":27,"cat":"green"},{"name":"Worksop Sea Cadets","lat":53.3106,"lon":-1.12491,"postcode":"S80 1TY","la":"Bassetlaw","era":"mod","nn":180,"risk":27,"cat":"green"},{"name":"(Beverley J Noon T/A) Fidlers Rest","lat":53.23232,"lon":-1.295,"postcode":"S44 6BQ","la":"Bolsover","era":"other","nn":135,"risk":28,"cat":"green"},{"name":"Angel Inn","lat":53.27257,"lon":-1.26872,"postcode":"S43 4JX","la":"Bolsover","era":"trad","nn":395,"risk":35,"cat":"amber"},{"name":"Barlborough Miners Welfare","lat":53.29049,"lon":-1.29087,"postcode":"S43 4EZ","la":"Bolsover","era":"other","nn":62,"risk":33,"cat":"amber"},{"name":"Black Bull","lat":53.23165,"lon":-1.29331,"postcode":"S44 6NG","la":"Bolsover","era":"trad","nn":135,"risk":28,"cat":"green"},{"name":"Blue Bell","lat":53.22821,"lon":-1.29306,"postcode":"S44 6HF","la":"Bolsover","era":"other","nn":139,"risk":28,"cat":"green"},{"name":"Carr Vale Ventures Ltd T/a New Bolsover Social Club","lat":53.22591,"lon":-1.30277,"postcode":"S44 6JD","la":"Bolsover","era":"mod","nn":695,"risk":32,"cat":"amber"},{"name":"Clowne And District Liberal Club","lat":53.27808,"lon":-1.26337,"postcode":"S43 4PF","la":"Bolsover","era":"other","nn":270,"risk":32,"cat":"amber"},{"name":"De Rodes Arms","lat":53.28961,"lon":-1.28537,"postcode":"S43 4ER","la":"Bolsover","era":"trad","nn":214,"risk":34,"cat":"amber"},{"name":"Doe Lea Miners Welfare Social Club","lat":53.19219,"lon":-1.31472,"postcode":"S44 5NR","la":"Bolsover","era":"mod","nn":1575,"risk":61,"cat":"red"},{"name":"Elm Tree Inn","lat":53.21286,"lon":-1.25682,"postcode":"S44 6TG","la":"Bolsover","era":"trad","nn":725,"risk":52,"cat":"amber"},{"name":"Elmton Road Social And Working Mens Club","lat":53.26356,"lon":-1.21458,"postcode":"S80 4EY","la":"Bolsover","era":"other","nn":53,"risk":28,"cat":"green"},{"name":"Half Moon","lat":53.29368,"lon":-1.20081,"postcode":"S80 3EE","la":"Bolsover","era":"other","nn":1094,"risk":58,"cat":"amber"},{"name":"Hardwick Inn","lat":53.16657,"lon":-1.30999,"postcode":"S44 5QJ","la":"Bolsover","era":"trad","nn":2340,"risk":66,"cat":"red"},{"name":"Harvester Treble Bob","lat":53.28046,"lon":-1.30019,"postcode":"S43 4TX","la":"Bolsover","era":"trad","nn":1266,"risk":59,"cat":"amber"},{"name":"Hilltop Working Mens Club And Institute","lat":53.23534,"lon":-1.29192,"postcode":"S44 6NT","la":"Bolsover","era":"trad","nn":361,"risk":30,"cat":"green"},{"name":"Hodthorpe Community Social Club","lat":53.28291,"lon":-1.18781,"postcode":"S80 4UP","la":"Bolsover","era":"mod","nn":867,"risk":53,"cat":"amber"},{"name":"Holmefield Arms","lat":53.28356,"lon":-1.2053,"postcode":"S80 4RT","la":"Bolsover","era":"trad","nn":130,"risk":33,"cat":"amber"},{"name":"Horse And Groom","lat":53.21172,"lon":-1.26753,"postcode":"S44 6SU","la":"Bolsover","era":"trad","nn":725,"risk":52,"cat":"amber"},{"name":"Nags Head Hotel","lat":53.27571,"lon":-1.26246,"postcode":"S43 4JH","la":"Bolsover","era":"trad","nn":164,"risk":31,"cat":"amber"},{"name":"New Middle Club","lat":53.28384,"lon":-1.20077,"postcode":"S80 4TQ","la":"Bolsover","era":"other","nn":303,"risk":35,"cat":"amber"},{"name":"Old Comrades Social Club","lat":53.26416,"lon":-1.21504,"postcode":"S80 4EZ","la":"Bolsover","era":"mod","nn":73,"risk":28,"cat":"green"},{"name":"Old School Tap House","lat":53.27442,"lon":-1.26365,"postcode":"S43 4JN","la":"Bolsover","era":"mod","nn":164,"risk":31,"cat":"amber"},{"name":"Ours Bar And Lounge","lat":53.26391,"lon":-1.21287,"postcode":"S80 4HE","la":"Bolsover","era":"mod","nn":33,"risk":28,"cat":"green"},{"name":"Oxcroft Centre","lat":53.25943,"lon":-1.29265,"postcode":"S44 6AG","la":"Bolsover","era":"other","nn":98,"risk":48,"cat":"amber"},{"name":"Oxcroft Centre - Luncheon Club","lat":53.25856,"lon":-1.29241,"postcode":"S44 6AG","la":"Bolsover","era":"other","nn":98,"risk":48,"cat":"amber"},{"name":"Pebley Inn","lat":53.30846,"lon":-1.28133,"postcode":"S43 4TH","la":"Bolsover","era":"trad","nn":1761,"risk":62,"cat":"red"},{"name":"Pillar Of Rock","lat":53.2294,"lon":-1.29367,"postcode":"S44 6PP","la":"Bolsover","era":"other","nn":107,"risk":28,"cat":"green"},{"name":"Regors Bingo And Social Club","lat":53.26309,"lon":-1.21445,"postcode":"S80 4HD","la":"Bolsover","era":"mod","nn":53,"risk":28,"cat":"green"},{"name":"Rose & Crown","lat":53.29061,"lon":-1.28811,"postcode":"S43 4ET","la":"Bolsover","era":"trad","nn":145,"risk":33,"cat":"amber"},{"name":"Royal Oak","lat":53.2806,"lon":-1.21543,"postcode":"S80 4QB","la":"Bolsover","era":"trad","nn":629,"risk":49,"cat":"amber"},{"name":"Royal Oak Inn","lat":53.29014,"lon":-1.29015,"postcode":"S43 4EU","la":"Bolsover","era":"trad","nn":62,"risk":33,"cat":"amber"},{"name":"Sanctuary Inn","lat":53.22958,"lon":-1.29209,"postcode":"S44 6PN","la":"Bolsover","era":"trad","nn":107,"risk":28,"cat":"green"},{"name":"The Black Diamond","lat":53.26015,"lon":-1.22374,"postcode":"S80 4DY","la":"Bolsover","era":"other","nn":699,"risk":32,"cat":"amber"},{"name":"The Elm Tree Inn And Norfolk Restaurant","lat":53.25426,"lon":-1.24592,"postcode":"S80 4LS","la":"Bolsover","era":"trad","nn":1614,"risk":61,"cat":"red"},{"name":"The Kings Inn","lat":53.26417,"lon":-1.2131,"postcode":"S80 4ER","la":"Bolsover","era":"trad","nn":33,"risk":28,"cat":"green"},{"name":"The Pickled Pear","lat":53.20848,"lon":-1.28971,"postcode":"S44 6UJ","la":"Bolsover","era":"other","nn":1520,"risk":61,"cat":"red"},{"name":"The Quiet Woman","lat":53.23462,"lon":-1.29721,"postcode":"S44 6RP","la":"Bolsover","era":"other","nn":295,"risk":29,"cat":"green"},{"name":"The Shoulder At Hardstoft","lat":53.16224,"lon":-1.34434,"postcode":"S45 8AE","la":"Bolsover","era":"other","nn":1700,"risk":62,"cat":"red"},{"name":"Travellers Rest","lat":53.27758,"lon":-1.25372,"postcode":"S43 4LT","la":"Bolsover","era":"other","nn":618,"risk":37,"cat":"amber"},{"name":"Whitwell Social Club","lat":53.28342,"lon":-1.20724,"postcode":"S80 4RP","la":"Bolsover","era":"mod","nn":130,"risk":33,"cat":"amber"},{"name":"Young Vanish Inn","lat":53.18985,"lon":-1.2857,"postcode":"S44 5NB","la":"Bolsover","era":"trad","nn":1951,"risk":64,"cat":"red"},{"name":"Albert Inn","lat":53.26586,"lon":-1.32542,"postcode":"S43 3BZ","la":"Chesterfield","era":"trad","nn":940,"risk":51,"cat":"amber"},{"name":"Albert's Jugerer Bruder","lat":53.23618,"lon":-1.4254,"postcode":"S40 1XL","la":"Chesterfield","era":"other","nn":12,"risk":24,"cat":"green"},{"name":"All Inn","lat":53.26952,"lon":-1.34174,"postcode":"S43 3TX","la":"Chesterfield","era":"trad","nn":185,"risk":25,"cat":"green"},{"name":"Anchor Inn","lat":53.23326,"lon":-1.4476,"postcode":"S40 2FW","la":"Chesterfield","era":"trad","nn":57,"risk":24,"cat":"green"},{"name":"Ark Tavern","lat":53.25634,"lon":-1.39887,"postcode":"S43 1AD","la":"Chesterfield","era":"other","nn":1,"risk":24,"cat":"green"},{"name":"Armisteads","lat":53.23684,"lon":-1.42254,"postcode":"S41 7TP","la":"Chesterfield","era":"other","nn":14,"risk":24,"cat":"green"},{"name":"Aruba","lat":53.23686,"lon":-1.42342,"postcode":"S41 7TP","la":"Chesterfield","era":"other","nn":15,"risk":24,"cat":"green"},{"name":"Association (The)","lat":53.23678,"lon":-1.42274,"postcode":"S41 7TP","la":"Chesterfield","era":"other","nn":12,"risk":24,"cat":"green"},{"name":"Bambu Tiki Bar","lat":53.23677,"lon":-1.42292,"postcode":"S41 7TP","la":"Chesterfield","era":"other","nn":12,"risk":24,"cat":"green"},{"name":"Barrel Inn","lat":53.23378,"lon":-1.44767,"postcode":"S40 2BL","la":"Chesterfield","era":"trad","nn":30,"risk":24,"cat":"green"},{"name":"Beechers Brook","lat":53.26816,"lon":-1.35287,"postcode":"S43 3UU","la":"Chesterfield","era":"other","nn":191,"risk":25,"cat":"green"},{"name":"Birdholme Working Men's Club","lat":53.2205,"lon":-1.42548,"postcode":"S40 2TP","la":"Chesterfield","era":"trad","nn":163,"risk":28,"cat":"green"},{"name":"Blue Bell Inn","lat":53.23717,"lon":-1.42564,"postcode":"S40 1UY","la":"Chesterfield","era":"trad","nn":48,"risk":24,"cat":"green"},{"name":"Blue Stoops","lat":53.22104,"lon":-1.45264,"postcode":"S40 3JQ","la":"Chesterfield","era":"other","nn":426,"risk":47,"cat":"amber"},{"name":"Boythorpe Inn","lat":53.23128,"lon":-1.43671,"postcode":"S40 2NE","la":"Chesterfield","era":"trad","nn":481,"risk":27,"cat":"green"},{"name":"Brampton Social Club","lat":53.23456,"lon":-1.44279,"postcode":"S40 2AR","la":"Chesterfield","era":"other","nn":29,"risk":24,"cat":"green"},{"name":"Bridge Inn","lat":53.23426,"lon":-1.42148,"postcode":"S41 7RE","la":"Chesterfield","era":"trad","nn":27,"risk":24,"cat":"green"},{"name":"Brimington Social Club","lat":53.25903,"lon":-1.39398,"postcode":"S43 1HH","la":"Chesterfield","era":"mod","nn":236,"risk":26,"cat":"green"},{"name":"Brimming with Beer Ltd","lat":53.25633,"lon":-1.39885,"postcode":"S43 1AD","la":"Chesterfield","era":"other","nn":1,"risk":24,"cat":"green"},{"name":"Britannia Inn","lat":53.23363,"lon":-1.45402,"postcode":"S40 1HD","la":"Chesterfield","era":"trad","nn":61,"risk":24,"cat":"green"},{"name":"Butchers Arms","lat":53.25723,"lon":-1.39601,"postcode":"S43 1JG","la":"Chesterfield","era":"trad","nn":21,"risk":24,"cat":"green"},{"name":"Chandlers","lat":53.23481,"lon":-1.42421,"postcode":"S41 7TH","la":"Chesterfield","era":"other","nn":0,"risk":24,"cat":"green"},{"name":"Chesterfield Ale House Ltd","lat":53.23575,"lon":-1.43471,"postcode":"S40 1AG","la":"Chesterfield","era":"mod","nn":205,"risk":25,"cat":"green"},{"name":"Chesterfield Arms","lat":53.24114,"lon":-1.432,"postcode":"S41 7PH","la":"Chesterfield","era":"trad","nn":22,"risk":24,"cat":"green"},{"name":"Chesterfield Bowl","lat":53.21957,"lon":-1.42359,"postcode":"S40 2TU","la":"Chesterfield","era":"other","nn":163,"risk":28,"cat":"green"},{"name":"Chesterfield Labour Club","lat":53.23818,"lon":-1.43448,"postcode":"S40 1NF","la":"Chesterfield","era":"other","nn":264,"risk":26,"cat":"green"},{"name":"Chesterfield Masonic Hall","lat":53.23748,"lon":-1.43069,"postcode":"S40 1JR","la":"Chesterfield","era":"trad","nn":42,"risk":24,"cat":"green"},{"name":"Chesterfield Miners Welfare","lat":53.23871,"lon":-1.44455,"postcode":"S40 1DL","la":"Chesterfield","era":"other","nn":441,"risk":27,"cat":"green"},{"name":"Chesterfield Panthers Rugby Union Football Club","lat":53.26379,"lon":-1.44114,"postcode":"S41 9BF","la":"Chesterfield","era":"other","nn":567,"risk":28,"cat":"green"},{"name":"Cock and Magpie","lat":53.27032,"lon":-1.42606,"postcode":"S41 9QW","la":"Chesterfield","era":"other","nn":249,"risk":46,"cat":"amber"},{"name":"Crown & Anchor","lat":53.24815,"lon":-1.42656,"postcode":"S41 7JH","la":"Chesterfield","era":"trad","nn":342,"risk":26,"cat":"green"},{"name":"Crown and Cushion","lat":53.2351,"lon":-1.42938,"postcode":"S40 1PB","la":"Chesterfield","era":"trad","nn":44,"risk":24,"cat":"green"},{"name":"Darwin and Bear","lat":53.23689,"lon":-1.42944,"postcode":"S40 1TX","la":"Chesterfield","era":"other","nn":37,"risk":24,"cat":"green"},{"name":"Derby Tup","lat":53.25754,"lon":-1.42769,"postcode":"S41 8LS","la":"Chesterfield","era":"other","nn":65,"risk":24,"cat":"green"},{"name":"Devonshire Arms","lat":53.22074,"lon":-1.40695,"postcode":"S41 0JB","la":"Chesterfield","era":"trad","nn":25,"risk":24,"cat":"green"},{"name":"Dirty Habit","lat":53.23699,"lon":-1.42386,"postcode":"S41 7SA","la":"Chesterfield","era":"other","nn":10,"risk":24,"cat":"green"},{"name":"Donkey Derby","lat":53.25114,"lon":-1.42778,"postcode":"S41 8LS","la":"Chesterfield","era":"other","nn":209,"risk":26,"cat":"green"},{"name":"Double Top Inn","lat":53.25669,"lon":-1.37116,"postcode":"S43 3HA","la":"Chesterfield","era":"trad","nn":937,"risk":48,"cat":"amber"},{"name":"Duckmanton Miners' Welfare Social Club Ltd","lat":53.24611,"lon":-1.33564,"postcode":"S44 5ER","la":"Chesterfield","era":"mod","nn":233,"risk":46,"cat":"amber"},{"name":"Dunston Inn","lat":53.26088,"lon":-1.44814,"postcode":"S41 8HA","la":"Chesterfield","era":"trad","nn":567,"risk":31,"cat":"amber"},{"name":"Einsteins","lat":53.23703,"lon":-1.42399,"postcode":"S41 7SA","la":"Chesterfield","era":"other","nn":10,"risk":24,"cat":"green"},{"name":"Empire Bar","lat":53.2351,"lon":-1.42417,"postcode":"S41 7TH","la":"Chesterfield","era":"other","nn":33,"risk":24,"cat":"green"},{"name":"Fist and Puppet Ltd","lat":53.23656,"lon":-1.42493,"postcode":"S40 1XL","la":"Chesterfield","era":"other","nn":25,"risk":24,"cat":"green"},{"name":"G A S Bar & Bites","lat":53.23525,"lon":-1.43957,"postcode":"S40 2AQ","la":"Chesterfield","era":"mod","nn":51,"risk":24,"cat":"green"},{"name":"Gasoline","lat":53.23766,"lon":-1.43015,"postcode":"S40 1JS","la":"Chesterfield","era":"other","nn":42,"risk":24,"cat":"green"},{"name":"Ginners","lat":53.23687,"lon":-1.42431,"postcode":"S40 1XL","la":"Chesterfield","era":"trad","nn":28,"risk":24,"cat":"green"},{"name":"Golden Fleece","lat":53.23591,"lon":-1.42795,"postcode":"S40 1PS","la":"Chesterfield","era":"trad","nn":59,"risk":24,"cat":"green"},{"name":"Groove and Waikki Beach","lat":53.23661,"lon":-1.42457,"postcode":"S40 1XR","la":"Chesterfield","era":"other","nn":25,"risk":24,"cat":"green"},{"name":"Harleys","lat":53.26648,"lon":-1.35369,"postcode":"S43 3UT","la":"Chesterfield","era":"other","nn":25,"risk":24,"cat":"green"},{"name":"Harvester","lat":53.22898,"lon":-1.42214,"postcode":"S40 2EZ","la":"Chesterfield","era":"trad","nn":584,"risk":28,"cat":"green"},{"name":"Hasland Hops Ltd","lat":53.22054,"lon":-1.40752,"postcode":"S41 0JA","la":"Chesterfield","era":"other","nn":44,"risk":24,"cat":"green"},{"name":"Hasland Hotel","lat":53.22077,"lon":-1.40659,"postcode":"S41 0AJ","la":"Chesterfield","era":"other","nn":25,"risk":24,"cat":"green"},{"name":"Hasland W.M.C. Ltd","lat":53.22132,"lon":-1.40914,"postcode":"S41 0LH","la":"Chesterfield","era":"other","nn":139,"risk":25,"cat":"green"},{"name":"Hollingwood Hotel","lat":53.26066,"lon":-1.38357,"postcode":"S43 2LG","la":"Chesterfield","era":"other","nn":349,"risk":26,"cat":"green"},{"name":"Holme Hall Inn","lat":53.24722,"lon":-1.47173,"postcode":"S40 4UX","la":"Chesterfield","era":"trad","nn":936,"risk":51,"cat":"amber"},{"name":"Industry Inn","lat":53.24095,"lon":-1.43211,"postcode":"S40 4SF","la":"Chesterfield","era":"trad","nn":22,"risk":24,"cat":"green"},{"name":"Junction Bar Chesterfield Ltd","lat":53.23567,"lon":-1.43928,"postcode":"S40 2AH","la":"Chesterfield","era":"mod","nn":51,"risk":24,"cat":"green"},{"name":"Junction Inn","lat":53.25724,"lon":-1.42051,"postcode":"S41 9BH","la":"Chesterfield","era":"trad","nn":327,"risk":26,"cat":"green"},{"name":"Lennons Pool & Snooker","lat":53.23677,"lon":-1.42523,"postcode":"S40 1XL","la":"Chesterfield","era":"other","nn":31,"risk":24,"cat":"green"},{"name":"Magnolia Barbering (and Bar & Training)","lat":53.23546,"lon":-1.42964,"postcode":"S40 1AR","la":"Chesterfield","era":"mod","nn":44,"risk":24,"cat":"green"},{"name":"Markham Arms","lat":53.26163,"lon":-1.38856,"postcode":"S43 1DN","la":"Chesterfield","era":"trad","nn":349,"risk":26,"cat":"green"},{"name":"Mason's Bar","lat":53.25939,"lon":-1.42823,"postcode":"S41 9AQ","la":"Chesterfield","era":"trad","nn":66,"risk":25,"cat":"green"},{"name":"Mastin Moor Miners Welfare Club","lat":53.27752,"lon":-1.32107,"postcode":"S43 3DW","la":"Chesterfield","era":"other","nn":1255,"risk":55,"cat":"amber"},{"name":"Miners Arms","lat":53.25242,"lon":-1.43009,"postcode":"S41 8RU","la":"Chesterfield","era":"trad","nn":170,"risk":25,"cat":"green"},{"name":"Nags Head","lat":53.25187,"lon":-1.44835,"postcode":"S41 8RJ","la":"Chesterfield","era":"trad","nn":311,"risk":44,"cat":"amber"},{"name":"New Whittington Social Club","lat":53.27508,"lon":-1.40283,"postcode":"S43 2BG","la":"Chesterfield","era":"mod","nn":287,"risk":31,"cat":"amber"},{"name":"Newbold Working Mens Club","lat":53.25542,"lon":-1.4549,"postcode":"S41 8EJ","la":"Chesterfield","era":"trad","nn":431,"risk":32,"cat":"amber"},{"name":"Peacock Inn","lat":53.23165,"lon":-1.45611,"postcode":"S40 3BQ","la":"Chesterfield","era":"trad","nn":33,"risk":24,"cat":"green"},{"name":"Petite Maison","lat":53.23363,"lon":-1.4492,"postcode":"S40 2RE","la":"Chesterfield","era":"other","nn":59,"risk":24,"cat":"green"},{"name":"Pig and Pump","lat":53.23562,"lon":-1.42436,"postcode":"S41 7TJ","la":"Chesterfield","era":"other","nn":59,"risk":24,"cat":"green"},{"name":"Pizza Pi at Top Cats","lat":53.23703,"lon":-1.42253,"postcode":"S41 7TP","la":"Chesterfield","era":"other","nn":21,"risk":24,"cat":"green"},{"name":"Poolsbrook Social Welfare Club","lat":53.25646,"lon":-1.33791,"postcode":"S43 3LP","la":"Chesterfield","era":"mod","nn":1161,"risk":55,"cat":"amber"},{"name":"Portland Hotel","lat":53.23518,"lon":-1.43121,"postcode":"S40 1AY","la":"Chesterfield","era":"other","nn":43,"risk":24,"cat":"green"},{"name":"Punch Bowl","lat":53.23749,"lon":-1.42516,"postcode":"S41 7SA","la":"Chesterfield","era":"other","nn":11,"risk":24,"cat":"green"},{"name":"Real Ale Corner (The)","lat":53.23215,"lon":-1.45459,"postcode":"S40 3AD","la":"Chesterfield","era":"other","nn":62,"risk":24,"cat":"green"},{"name":"Real Time Music","lat":53.23808,"lon":-1.43019,"postcode":"S40 1JY","la":"Chesterfield","era":"other","nn":46,"risk":24,"cat":"green"},{"name":"Red Lion","lat":53.25952,"lon":-1.42919,"postcode":"S41 8LX","la":"Chesterfield","era":"trad","nn":60,"risk":24,"cat":"green"},{"name":"Ritzys","lat":53.23757,"lon":-1.4254,"postcode":"S41 7SH","la":"Chesterfield","era":"other","nn":18,"risk":24,"cat":"green"},{"name":"Rose And Crown","lat":53.23317,"lon":-1.45351,"postcode":"S40 2QT","la":"Chesterfield","era":"trad","nn":61,"risk":24,"cat":"green"},{"name":"Rosie O'Learys","lat":53.23743,"lon":-1.42503,"postcode":"S41 7SA","la":"Chesterfield","era":"other","nn":6,"risk":24,"cat":"green"},{"name":"Royal British Legion","lat":53.23722,"lon":-1.42947,"postcode":"S40 1TX","la":"Chesterfield","era":"trad","nn":16,"risk":24,"cat":"green"},{"name":"Royal Oak","lat":53.2354,"lon":-1.42773,"postcode":"S40 1PX","la":"Chesterfield","era":"trad","nn":59,"risk":24,"cat":"green"},{"name":"Shoulder of Mutton","lat":53.22001,"lon":-1.40584,"postcode":"S41 0JE","la":"Chesterfield","era":"other","nn":98,"risk":25,"cat":"green"},{"name":"Sorbo Lounge","lat":53.23584,"lon":-1.42983,"postcode":"S40 1TW","la":"Chesterfield","era":"mod","nn":28,"risk":24,"cat":"green"},{"name":"Spa Lane Vaults","lat":53.23481,"lon":-1.42421,"postcode":"S41 7TH","la":"Chesterfield","era":"other","nn":0,"risk":24,"cat":"green"},{"name":"St Helens Inn","lat":53.24319,"lon":-1.42724,"postcode":"S41 7LS","la":"Chesterfield","era":"trad","nn":222,"risk":26,"cat":"green"},{"name":"Staveley Miners Sports Club","lat":53.27107,"lon":-1.33656,"postcode":"S43 3TU","la":"Chesterfield","era":"other","nn":385,"risk":32,"cat":"amber"},{"name":"Staveley Miners Welfare Club","lat":53.26646,"lon":-1.35331,"postcode":"S43 3UT","la":"Chesterfield","era":"other","nn":25,"risk":24,"cat":"green"},{"name":"Staveley Miners Welfare FC","lat":53.26206,"lon":-1.35366,"postcode":"S43 3JL","la":"Chesterfield","era":"other","nn":490,"risk":27,"cat":"green"},{"name":"Steelmelters Arms","lat":53.25952,"lon":-1.43552,"postcode":"S41 8TG","la":"Chesterfield","era":"trad","nn":235,"risk":26,"cat":"green"},{"name":"Style Loft","lat":53.23334,"lon":-1.44845,"postcode":"S40 2BH","la":"Chesterfield","era":"other","nn":44,"risk":24,"cat":"green"},{"name":"Sun Inn","lat":53.23544,"lon":-1.43168,"postcode":"S40 1AQ","la":"Chesterfield","era":"trad","nn":43,"risk":24,"cat":"green"},{"name":"The Apartment","lat":53.23607,"lon":-1.42536,"postcode":"S40 1XJ","la":"Chesterfield","era":"other","nn":12,"risk":24,"cat":"green"},{"name":"The Badger","lat":53.24267,"lon":-1.44488,"postcode":"S40 4ED","la":"Chesterfield","era":"other","nn":441,"risk":27,"cat":"green"},{"name":"The Barley Mow","lat":53.23736,"lon":-1.42953,"postcode":"S40 1JR","la":"Chesterfield","era":"other","nn":16,"risk":24,"cat":"green"},{"name":"The Beer Parlour","lat":53.25701,"lon":-1.4273,"postcode":"S41 9BA","la":"Chesterfield","era":"mod","nn":65,"risk":24,"cat":"green"},{"name":"The Bulls Head","lat":53.26817,"lon":-1.42709,"postcode":"S41 9DB","la":"Chesterfield","era":"trad","nn":249,"risk":28,"cat":"green"},{"name":"The Burlington, Chik Box, K-Town Chicken, Locked and Loaded","lat":53.23585,"lon":-1.42577,"postcode":"S40 1RS","la":"Chesterfield","era":"other","nn":36,"risk":24,"cat":"green"},{"name":"The Cricketers Inn","lat":53.25745,"lon":-1.43619,"postcode":"S41 8SJ","la":"Chesterfield","era":"trad","nn":235,"risk":26,"cat":"green"},{"name":"The Duke","lat":53.23368,"lon":-1.44809,"postcode":"S40 2BL","la":"Chesterfield","era":"trad","nn":30,"risk":24,"cat":"green"},{"name":"The Forge Inn","lat":53.27218,"lon":-1.40349,"postcode":"S43 2AF","la":"Chesterfield","era":"trad","nn":325,"risk":31,"cat":"amber"},{"name":"The Glassworks","lat":53.25305,"lon":-1.42775,"postcode":"S41 8LF","la":"Chesterfield","era":"mod","nn":53,"risk":24,"cat":"green"},{"name":"The Hidden Knight","lat":53.23615,"lon":-1.43021,"postcode":"S40 1JN","la":"Chesterfield","era":"other","nn":41,"risk":24,"cat":"green"},{"name":"The Hop Flower Ltd","lat":53.24802,"lon":-1.36974,"postcode":"S43 3EB","la":"Chesterfield","era":"other","nn":969,"risk":51,"cat":"amber"},{"name":"The Hop Lamp","lat":53.2535,"lon":-1.428,"postcode":"S41 8LF","la":"Chesterfield","era":"other","nn":53,"risk":24,"cat":"green"},{"name":"The Little Castle","lat":53.24451,"lon":-1.3334,"postcode":"S44 5FD","la":"Chesterfield","era":"other","nn":233,"risk":46,"cat":"amber"},{"name":"The Lockkeeper","lat":53.25103,"lon":-1.4199,"postcode":"S41 7NJ","la":"Chesterfield","era":"other","nn":525,"risk":28,"cat":"green"},{"name":"The Loop","lat":53.23682,"lon":-1.4232,"postcode":"S41 7TP","la":"Chesterfield","era":"other","nn":15,"risk":24,"cat":"green"},{"name":"The Market Pub","lat":53.23578,"lon":-1.43023,"postcode":"S40 1AH","la":"Chesterfield","era":"other","nn":28,"risk":24,"cat":"green"},{"name":"The Mile","lat":53.23451,"lon":-1.44321,"postcode":"S40 2AR","la":"Chesterfield","era":"other","nn":29,"risk":24,"cat":"green"},{"name":"The Mill","lat":53.25908,"lon":-1.41245,"postcode":"S43 1LT","la":"Chesterfield","era":"trad","nn":574,"risk":31,"cat":"amber"},{"name":"The Neptune Beer Emporium","lat":53.24206,"lon":-1.42999,"postcode":"S41 7QD","la":"Chesterfield","era":"other","nn":168,"risk":25,"cat":"green"},{"name":"The Olde House","lat":53.25171,"lon":-1.45301,"postcode":"S40 4RN","la":"Chesterfield","era":"other","nn":311,"risk":44,"cat":"amber"},{"name":"The Project","lat":53.21525,"lon":-1.42559,"postcode":"S40 2HA","la":"Chesterfield","era":"other","nn":498,"risk":45,"cat":"amber"},{"name":"The Red Lion","lat":53.25717,"lon":-1.39571,"postcode":"S43 1JG","la":"Chesterfield","era":"trad","nn":21,"risk":24,"cat":"green"},{"name":"The Rising Sun Public House","lat":53.27459,"lon":-1.40708,"postcode":"S43 2AJ","la":"Chesterfield","era":"other","nn":287,"risk":31,"cat":"amber"},{"name":"The Riverside Club","lat":53.2342,"lon":-1.42108,"postcode":"S41 7RE","la":"Chesterfield","era":"other","nn":27,"risk":24,"cat":"green"},{"name":"The Speedwell Inn","lat":53.26915,"lon":-1.34444,"postcode":"S43 3TT","la":"Chesterfield","era":"trad","nn":185,"risk":25,"cat":"green"},{"name":"The Star Inn","lat":53.2315,"lon":-1.45655,"postcode":"S40 3BD","la":"Chesterfield","era":"trad","nn":33,"risk":24,"cat":"green"},{"name":"The Tap House","lat":53.23289,"lon":-1.45048,"postcode":"S40 2BY","la":"Chesterfield","era":"mod","nn":118,"risk":25,"cat":"green"},{"name":"Tilly's Tavern","lat":53.26645,"lon":-1.35264,"postcode":"S43 3UX","la":"Chesterfield","era":"other","nn":45,"risk":24,"cat":"green"},{"name":"Tramway Tavern","lat":53.23394,"lon":-1.44536,"postcode":"S40 2AT","la":"Chesterfield","era":"trad","nn":155,"risk":25,"cat":"green"},{"name":"Twisted Iron","lat":53.25874,"lon":-1.42474,"postcode":"S41 9AR","la":"Chesterfield","era":"other","nn":237,"risk":26,"cat":"green"},{"name":"Vibe","lat":53.23739,"lon":-1.42496,"postcode":"S41 7SA","la":"Chesterfield","era":"other","nn":6,"risk":24,"cat":"green"},{"name":"Victoria","lat":53.23643,"lon":-1.4264,"postcode":"S40 1RL","la":"Chesterfield","era":"trad","nn":72,"risk":25,"cat":"green"},{"name":"Victoria Club And Institute","lat":53.25999,"lon":-1.42964,"postcode":"S41 8LX","la":"Chesterfield","era":"trad","nn":60,"risk":24,"cat":"green"},{"name":"Victoria Inn","lat":53.23268,"lon":-1.45487,"postcode":"S40 3QY","la":"Chesterfield","era":"trad","nn":62,"risk":24,"cat":"green"},{"name":"Whitecotes Hotel","lat":53.22535,"lon":-1.43461,"postcode":"S40 2LR","la":"Chesterfield","era":"other","nn":674,"risk":31,"cat":"amber"},{"name":"Whittington Wanderers Cricket Club","lat":53.27162,"lon":-1.41032,"postcode":"S41 9LN","la":"Chesterfield","era":"other","nn":395,"risk":32,"cat":"amber"},{"name":"Woodside","lat":53.23965,"lon":-1.46559,"postcode":"S40 4DB","la":"Chesterfield","era":"other","nn":936,"risk":51,"cat":"amber"},{"name":"Barrel Inn","lat":53.29806,"lon":-1.70083,"postcode":"S32 5QD","la":"Derbyshire Dales","era":"trad","nn":1461,"risk":59,"cat":"amber"},{"name":"Bridge Inn","lat":53.26691,"lon":-1.63259,"postcode":"S32 3XA","la":"Derbyshire Dales","era":"trad","nn":1950,"risk":62,"cat":"red"},{"name":"Bulls Head Inn","lat":53.28801,"lon":-1.715,"postcode":"S32 5QR","la":"Derbyshire Dales","era":"trad","nn":1461,"risk":59,"cat":"amber"},{"name":"Derwent Water Arms","lat":53.11853,"lon":-1.6003,"postcode":"S32 3XQ","la":"Derbyshire Dales","era":"trad","nn":0,"risk":26,"cat":"green"},{"name":"Eyam Village Club","lat":53.28375,"lon":-1.67456,"postcode":"S32 5QH","la":"Derbyshire Dales","era":"other","nn":324,"risk":48,"cat":"amber"},{"name":"Little John Hotel","lat":53.32886,"lon":-1.65503,"postcode":"S32 1DD","la":"Derbyshire Dales","era":"other","nn":463,"risk":34,"cat":"amber"},{"name":"Maynard Arms Hotel","lat":53.30071,"lon":-1.62783,"postcode":"S32 2HE","la":"Derbyshire Dales","era":"trad","nn":776,"risk":51,"cat":"amber"},{"name":"Millstone Inn","lat":53.32565,"lon":-1.64486,"postcode":"S32 1DA","la":"Derbyshire Dales","era":"trad","nn":721,"risk":36,"cat":"amber"},{"name":"Miners Arms Public House","lat":53.28515,"lon":-1.67029,"postcode":"S32 5RG","la":"Derbyshire Dales","era":"trad","nn":324,"risk":48,"cat":"amber"},{"name":"Plough Inn","lat":53.32034,"lon":-1.65107,"postcode":"S32 1BA","la":"Derbyshire Dales","era":"trad","nn":721,"risk":48,"cat":"amber"},{"name":"Scotsmans Pack Public House","lat":53.33182,"lon":-1.65011,"postcode":"S32 1BZ","la":"Derbyshire Dales","era":"other","nn":463,"risk":47,"cat":"amber"},{"name":"Sir William Hotel","lat":53.29764,"lon":-1.63831,"postcode":"S32 2HS","la":"Derbyshire Dales","era":"other","nn":776,"risk":51,"cat":"amber"},{"name":"The Eyre Arms","lat":53.11853,"lon":-1.6003,"postcode":"S32 3XH","la":"Derbyshire Dales","era":"trad","nn":0,"risk":26,"cat":"green"},{"name":"The Grouse Inn","lat":53.31528,"lon":-1.60476,"postcode":"S11 7TZ","la":"Derbyshire Dales","era":"trad","nn":2230,"risk":64,"cat":"red"},{"name":"The Moon Inn","lat":53.27528,"lon":-1.65835,"postcode":"S32 4TL","la":"Derbyshire Dales","era":"trad","nn":1354,"risk":58,"cat":"amber"},{"name":"The Shoulder Of Mutton","lat":53.32627,"lon":-1.73928,"postcode":"S33 9HJ","la":"Derbyshire Dales","era":"other","nn":604,"risk":50,"cat":"amber"},{"name":"White Hart Inn","lat":53.11853,"lon":-1.6003,"postcode":"S33 9JX","la":"Derbyshire Dales","era":"trad","nn":0,"risk":26,"cat":"green"},{"name":"Ye Olde Bowling Green Inn","lat":53.33013,"lon":-1.74566,"postcode":"S33 9JQ","la":"Derbyshire Dales","era":"trad","nn":604,"risk":48,"cat":"amber"},{"name":"Borders","lat":53.49312,"lon":-1.28657,"postcode":"S64 9LG","la":"Doncaster","era":"other","nn":13,"risk":21,"cat":"green"},{"name":"Butchers Arms","lat":53.44524,"lon":-1.20186,"postcode":"S66 7AW","la":"Doncaster","era":"trad","nn":160,"risk":42,"cat":"amber"},{"name":"Dog Daisy","lat":53.49974,"lon":-1.27578,"postcode":"S64 0QF","la":"Doncaster","era":"other","nn":325,"risk":26,"cat":"green"},{"name":"George And Dragon","lat":53.49273,"lon":-1.27497,"postcode":"S64 0HE","la":"Doncaster","era":"trad","nn":200,"risk":22,"cat":"green"},{"name":"Grazing Harts","lat":53.44684,"lon":-1.22687,"postcode":"S66 7RR","la":"Doncaster","era":"trad","nn":1666,"risk":55,"cat":"amber"},{"name":"Imperial Club and Brewery","lat":53.49253,"lon":-1.29089,"postcode":"S64 9HU","la":"Doncaster","era":"other","nn":146,"risk":22,"cat":"green"},{"name":"Manvers Arms","lat":53.51049,"lon":-1.29407,"postcode":"S64 0NL","la":"Doncaster","era":"trad","nn":1314,"risk":52,"cat":"amber"},{"name":"Montagu Arms","lat":53.49318,"lon":-1.28857,"postcode":"S64 9AF","la":"Doncaster","era":"trad","nn":88,"risk":21,"cat":"green"},{"name":"New Masons Arms","lat":53.4936,"lon":-1.27761,"postcode":"S64 0JW","la":"Doncaster","era":"trad","nn":200,"risk":22,"cat":"green"},{"name":"Pastures Lodge","lat":53.49685,"lon":-1.25829,"postcode":"S64 0JJ","la":"Doncaster","era":"other","nn":1013,"risk":50,"cat":"amber"},{"name":"Roman Hotel","lat":53.49702,"lon":-1.30744,"postcode":"S64 9HD","la":"Doncaster","era":"other","nn":486,"risk":24,"cat":"green"},{"name":"Ruddle Community Bar","lat":53.44659,"lon":-1.20104,"postcode":"S66 7BA","la":"Doncaster","era":"other","nn":160,"risk":42,"cat":"amber"},{"name":"Star Inn","lat":53.49758,"lon":-1.27909,"postcode":"S64 0DF","la":"Doncaster","era":"trad","nn":325,"risk":23,"cat":"green"},{"name":"The Boy & Barrel","lat":53.49382,"lon":-1.2913,"postcode":"S64 9AU","la":"Doncaster","era":"other","nn":0,"risk":21,"cat":"green"},{"name":"The Falcon","lat":53.4943,"lon":-1.29342,"postcode":"S64 9DW","la":"Doncaster","era":"other","nn":150,"risk":22,"cat":"green"},{"name":"The Gym Bar and Venue Ltd","lat":53.49313,"lon":-1.28637,"postcode":"S64 9LG","la":"Doncaster","era":"mod","nn":13,"risk":21,"cat":"green"},{"name":"The Pocket Sports Bar","lat":53.49258,"lon":-1.28462,"postcode":"S64 9QD","la":"Doncaster","era":"other","nn":131,"risk":22,"cat":"green"},{"name":"The Three Tuns","lat":53.43607,"lon":-1.17008,"postcode":"S66 7QT","la":"Doncaster","era":"other","nn":1940,"risk":57,"cat":"amber"},{"name":"Tommy's Bar","lat":53.49382,"lon":-1.2913,"postcode":"S64 9AU","la":"Doncaster","era":"other","nn":0,"risk":21,"cat":"green"},{"name":"Wetherspoon","lat":53.49281,"lon":-1.2874,"postcode":"S64 9QA","la":"Doncaster","era":"other","nn":65,"risk":21,"cat":"green"},{"name":"Bulls Head Hotel","lat":53.34325,"lon":-1.77594,"postcode":"S33 8WH","la":"High Peak","era":"trad","nn":0,"risk":25,"cat":"green"},{"name":"Cheshire Cheese","lat":53.35129,"lon":-1.74385,"postcode":"S33 6ZF","la":"High Peak","era":"other","nn":354,"risk":48,"cat":"amber"},{"name":"Hope Cement Social Club","lat":53.3382,"lon":-1.75214,"postcode":"S33 6RP","la":"High Peak","era":"mod","nn":994,"risk":52,"cat":"amber"},{"name":"Ladybower Inn","lat":53.37533,"lon":-1.70687,"postcode":"S33 0AX","la":"High Peak","era":"trad","nn":1591,"risk":59,"cat":"amber"},{"name":"Rambler Inn","lat":53.36689,"lon":-1.81699,"postcode":"S33 7ZA","la":"High Peak","era":"trad","nn":442,"risk":48,"cat":"amber"},{"name":"Sickleholme Golf Club - Bar and Day Catering","lat":53.34378,"lon":-1.6942,"postcode":"S33 0BN","la":"High Peak","era":"mod","nn":359,"risk":48,"cat":"amber"},{"name":"The Bike and Boots Inn","lat":53.34056,"lon":-1.69399,"postcode":"S33 0AL","la":"High Peak","era":"trad","nn":359,"risk":48,"cat":"amber"},{"name":"The Castle Hotel","lat":53.34205,"lon":-1.7766,"postcode":"S33 8WG","la":"High Peak","era":"other","nn":0,"risk":25,"cat":"green"},{"name":"The George","lat":53.34205,"lon":-1.7766,"postcode":"S33 8WG","la":"High Peak","era":"trad","nn":0,"risk":25,"cat":"green"},{"name":"The Old Nags Head","lat":53.37087,"lon":-1.8172,"postcode":"S33 7ZD","la":"High Peak","era":"trad","nn":442,"risk":48,"cat":"amber"},{"name":"The Peak Hotel","lat":53.34432,"lon":-1.77166,"postcode":"S33 8WJ","la":"High Peak","era":"other","nn":0,"risk":25,"cat":"green"},{"name":"Travellers Rest","lat":53.33883,"lon":-1.72795,"postcode":"S33 9HG","la":"High Peak","era":"other","nn":1459,"risk":58,"cat":"amber"},{"name":"Woodroffe Arms","lat":53.34812,"lon":-1.74347,"postcode":"S33 6SB","la":"High Peak","era":"trad","nn":354,"risk":48,"cat":"amber"},{"name":"Ye Olde Cheshire Cheese Inn","lat":53.34432,"lon":-1.77166,"postcode":"S33 8WJ","la":"High Peak","era":"trad","nn":0,"risk":25,"cat":"green"},{"name":"Ye Olde Nags Head Hotel","lat":53.34325,"lon":-1.77594,"postcode":"S33 8WH","la":"High Peak","era":"trad","nn":0,"risk":25,"cat":"green"},{"name":"Yorkshire Bridge Inn","lat":53.36222,"lon":-1.69727,"postcode":"S33 0AZ","la":"High Peak","era":"trad","nn":1591,"risk":59,"cat":"amber"},{"name":"Apperknowle Cricket Club","lat":53.29953,"lon":-1.42564,"postcode":"S18 4BD","la":"North East Derbyshire","era":"other","nn":166,"risk":45,"cat":"amber"},{"name":"Arkwright Arms","lat":53.23728,"lon":-1.34256,"postcode":"S44 5JG","la":"North East Derbyshire","era":"trad","nn":1009,"risk":56,"cat":"amber"},{"name":"Arkwright Town Miners Welfare","lat":53.23448,"lon":-1.36121,"postcode":"S44 5BS","la":"North East Derbyshire","era":"other","nn":1280,"risk":58,"cat":"amber"},{"name":"Ashover Cricket Club","lat":53.16651,"lon":-1.4711,"postcode":"S45 0BA","la":"North East Derbyshire","era":"other","nn":643,"risk":36,"cat":"amber"},{"name":"Barley Mow Inn","lat":53.20392,"lon":-1.44371,"postcode":"S42 6TX","la":"North East Derbyshire","era":"trad","nn":1174,"risk":57,"cat":"amber"},{"name":"Britannia Inn","lat":53.18992,"lon":-1.40585,"postcode":"S42 6XP","la":"North East Derbyshire","era":"trad","nn":295,"risk":46,"cat":"amber"},{"name":"Bulls Head","lat":53.21809,"lon":-1.49546,"postcode":"S42 7EW","la":"North East Derbyshire","era":"trad","nn":216,"risk":48,"cat":"amber"},{"name":"Chesterfield Golf Club Catering","lat":53.21823,"lon":-1.4483,"postcode":"S42 7LA","la":"North East Derbyshire","era":"other","nn":426,"risk":50,"cat":"amber"},{"name":"Clay Cross Coronation Club","lat":53.16936,"lon":-1.40495,"postcode":"S45 9LZ","la":"North East Derbyshire","era":"trad","nn":709,"risk":32,"cat":"amber"},{"name":"Coach And Horses Inn","lat":53.31057,"lon":-1.47671,"postcode":"S18 2GD","la":"North East Derbyshire","era":"trad","nn":565,"risk":31,"cat":"amber"},{"name":"Contact Club","lat":53.30333,"lon":-1.47124,"postcode":"S18 2GJ","la":"North East Derbyshire","era":"other","nn":203,"risk":28,"cat":"green"},{"name":"Cross Daggers","lat":53.31101,"lon":-1.45964,"postcode":"S18 3AJ","la":"North East Derbyshire","era":"trad","nn":56,"risk":30,"cat":"green"},{"name":"Cutthorpe Cricket Club","lat":53.25661,"lon":-1.48799,"postcode":"S42 7AJ","la":"North East Derbyshire","era":"other","nn":0,"risk":44,"cat":"amber"},{"name":"Dronfield Pioneer Club","lat":53.30478,"lon":-1.45735,"postcode":"S18 2EP","la":"North East Derbyshire","era":"other","nn":449,"risk":30,"cat":"green"},{"name":"Eckington Cricket Club","lat":53.30746,"lon":-1.34884,"postcode":"S21 3WB","la":"North East Derbyshire","era":"trad","nn":441,"risk":35,"cat":"amber"},{"name":"Eckington Miners Welfare Social Club Limited","lat":53.30591,"lon":-1.36504,"postcode":"S21 4FA","la":"North East Derbyshire","era":"other","nn":212,"risk":33,"cat":"amber"},{"name":"Elm Tree Inn","lat":53.19953,"lon":-1.33495,"postcode":"S44 5SE","la":"North East Derbyshire","era":"trad","nn":1575,"risk":60,"cat":"amber"},{"name":"Fox And Goose Inn","lat":53.24308,"lon":-1.52835,"postcode":"S42 7JJ","la":"North East Derbyshire","era":"trad","nn":733,"risk":52,"cat":"amber"},{"name":"Fox In The Box","lat":53.30084,"lon":-1.45582,"postcode":"S18 2XR","la":"North East Derbyshire","era":"trad","nn":449,"risk":30,"cat":"green"},{"name":"Gate Inn","lat":53.31108,"lon":-1.4137,"postcode":"S21 5RU","la":"North East Derbyshire","era":"trad","nn":1365,"risk":59,"cat":"amber"},{"name":"George And Dragon Inn","lat":53.29544,"lon":-1.51466,"postcode":"S18 7WT","la":"North East Derbyshire","era":"trad","nn":0,"risk":44,"cat":"amber"},{"name":"George Inn","lat":53.30847,"lon":-1.35526,"postcode":"S21 4FT","la":"North East Derbyshire","era":"trad","nn":84,"risk":27,"cat":"green"},{"name":"Gosforth Fields Bar","lat":53.30402,"lon":-1.48981,"postcode":"S18 8NP","la":"North East Derbyshire","era":"other","nn":420,"risk":32,"cat":"amber"},{"name":"Hilltop Sports And Social Club","lat":53.292,"lon":-1.47144,"postcode":"S18 1UQ","la":"North East Derbyshire","era":"mod","nn":246,"risk":31,"cat":"amber"},{"name":"Holmesfield Cricket Club","lat":53.28432,"lon":-1.52948,"postcode":"S18 7WH","la":"North East Derbyshire","era":"other","nn":225,"risk":48,"cat":"amber"},{"name":"Horse N Jockey","lat":53.28435,"lon":-1.44072,"postcode":"S18 4DA","la":"North East Derbyshire","era":"trad","nn":1489,"risk":60,"cat":"amber"},{"name":"Hyde Park Inn","lat":53.2938,"lon":-1.47358,"postcode":"S18 1UH","la":"North East Derbyshire","era":"trad","nn":246,"risk":28,"cat":"green"},{"name":"Inn At The Electra","lat":53.30918,"lon":-1.35565,"postcode":"S21 4FT","la":"North East Derbyshire","era":"trad","nn":84,"risk":27,"cat":"green"},{"name":"Jolly Farmer","lat":53.30167,"lon":-1.49476,"postcode":"S18 8ZQ","la":"North East Derbyshire","era":"other","nn":420,"risk":35,"cat":"amber"},{"name":"Kelstedge Inn","lat":53.17166,"lon":-1.49251,"postcode":"S45 0DX","la":"North East Derbyshire","era":"trad","nn":1238,"risk":58,"cat":"amber"},{"name":"Killa. Junrs. Athletic Club & Instit","lat":53.32529,"lon":-1.32123,"postcode":"S21 1ED","la":"North East Derbyshire","era":"other","nn":311,"risk":34,"cat":"amber"},{"name":"Lamb Inn","lat":53.22003,"lon":-1.49533,"postcode":"S42 7EU","la":"North East Derbyshire","era":"trad","nn":216,"risk":48,"cat":"amber"},{"name":"Lockdown Distillery","lat":53.3025,"lon":-1.48046,"postcode":"S18 1PS","la":"North East Derbyshire","era":"other","nn":139,"risk":28,"cat":"green"},{"name":"Miners Arms","lat":53.30257,"lon":-1.50223,"postcode":"S18 8XF","la":"North East Derbyshire","era":"trad","nn":506,"risk":48,"cat":"amber"},{"name":"Miners Arms","lat":53.29104,"lon":-1.42131,"postcode":"S18 4BS","la":"North East Derbyshire","era":"trad","nn":987,"risk":54,"cat":"amber"},{"name":"Miners Arms Inn","lat":53.14907,"lon":-1.46966,"postcode":"S45 0HA","la":"North East Derbyshire","era":"trad","nn":1167,"risk":57,"cat":"amber"},{"name":"Nags Head","lat":53.1666,"lon":-1.41454,"postcode":"S45 9JE","la":"North East Derbyshire","era":"trad","nn":0,"risk":27,"cat":"green"},{"name":"Nethergreen Working Men's Club","lat":53.32559,"lon":-1.31624,"postcode":"S21 1EB","la":"North East Derbyshire","era":"trad","nn":333,"risk":34,"cat":"amber"},{"name":"New Inn","lat":53.1666,"lon":-1.41454,"postcode":"S45 9JE","la":"North East Derbyshire","era":"trad","nn":0,"risk":27,"cat":"green"},{"name":"New Tupton Community Social Club Ltd","lat":53.19108,"lon":-1.40983,"postcode":"S42 6ED","la":"North East Derbyshire","era":"mod","nn":275,"risk":46,"cat":"amber"},{"name":"North Wingfield Miners Welfare Club","lat":53.18312,"lon":-1.38198,"postcode":"S42 5PD","la":"North East Derbyshire","era":"other","nn":490,"risk":50,"cat":"amber"},{"name":"Old Poets Corner","lat":53.16275,"lon":-1.48014,"postcode":"S45 0EW","la":"North East Derbyshire","era":"other","nn":113,"risk":33,"cat":"amber"},{"name":"Peak Edge Hotel And Red Lion Restaurant","lat":53.19988,"lon":-1.49958,"postcode":"S45 0LW","la":"North East Derbyshire","era":"trad","nn":0,"risk":47,"cat":"amber"},{"name":"Phoenix Inn","lat":53.33376,"lon":-1.39271,"postcode":"S12 3XF","la":"North East Derbyshire","era":"trad","nn":494,"risk":35,"cat":"amber"},{"name":"Queen's Head","lat":53.32999,"lon":-1.39665,"postcode":"S12 3XR","la":"North East Derbyshire","era":"trad","nn":0,"risk":44,"cat":"amber"},{"name":"Renishaw Miner's Welfare Social Club","lat":53.29531,"lon":-1.32676,"postcode":"S21 3UW","la":"North East Derbyshire","era":"mod","nn":950,"risk":53,"cat":"amber"},{"name":"Rose & Crown","lat":53.30781,"lon":-1.36474,"postcode":"S21 4DR","la":"North East Derbyshire","era":"trad","nn":212,"risk":33,"cat":"amber"},{"name":"Royal Oak Inn","lat":53.31182,"lon":-1.45648,"postcode":"S18 3AU","la":"North East Derbyshire","era":"trad","nn":229,"risk":31,"cat":"amber"},{"name":"Slaters Snug Ltd","lat":53.16693,"lon":-1.41532,"postcode":"S45 9JE","la":"North East Derbyshire","era":"other","nn":63,"risk":27,"cat":"green"},{"name":"Sportsman Inn","lat":53.19974,"lon":-1.39628,"postcode":"S42 5EJ","la":"North East Derbyshire","era":"trad","nn":1265,"risk":58,"cat":"amber"},{"name":"Stanedge Golf Club","lat":53.19988,"lon":-1.49958,"postcode":"S45 0LW","la":"North East Derbyshire","era":"other","nn":0,"risk":47,"cat":"amber"},{"name":"Swan Inn","lat":53.32999,"lon":-1.39665,"postcode":"S12 3XR","la":"North East Derbyshire","era":"trad","nn":0,"risk":44,"cat":"amber"},{"name":"The Angel","lat":53.29513,"lon":-1.52102,"postcode":"S18 7WT","la":"North East Derbyshire","era":"trad","nn":424,"risk":47,"cat":"amber"},{"name":"The Angel And Harlequin Bistro","lat":53.30207,"lon":-1.31801,"postcode":"S21 3YB","la":"North East Derbyshire","era":"trad","nn":950,"risk":53,"cat":"amber"},{"name":"The Anvil","lat":53.23876,"lon":-1.38511,"postcode":"S44 5TT","la":"North East Derbyshire","era":"other","nn":1450,"risk":59,"cat":"amber"},{"name":"The Bar At The Forge","lat":53.30149,"lon":-1.47119,"postcode":"S18 1QX","la":"North East Derbyshire","era":"other","nn":63,"risk":27,"cat":"green"},{"name":"The Beer Stop","lat":53.30087,"lon":-1.46538,"postcode":"S18 2XR","la":"North East Derbyshire","era":"other","nn":124,"risk":28,"cat":"green"},{"name":"The Black Swan","lat":53.16369,"lon":-1.47953,"postcode":"S45 0AB","la":"North East Derbyshire","era":"trad","nn":0,"risk":32,"cat":"amber"},{"name":"The Blue Stoops","lat":53.30227,"lon":-1.47435,"postcode":"S18 1PX","la":"North East Derbyshire","era":"other","nn":167,"risk":28,"cat":"green"},{"name":"The Bridge Inn","lat":53.31952,"lon":-1.39876,"postcode":"S12 3YD","la":"North East Derbyshire","era":"trad","nn":1174,"risk":57,"cat":"amber"},{"name":"The Chantry Hotel","lat":53.30158,"lon":-1.47212,"postcode":"S18 1QB","la":"North East Derbyshire","era":"other","nn":0,"risk":27,"cat":"green"},{"name":"The Chequers","lat":53.31148,"lon":-1.45996,"postcode":"S18 3AT","la":"North East Derbyshire","era":"other","nn":56,"risk":30,"cat":"green"},{"name":"The Crispin Inn","lat":53.16369,"lon":-1.47953,"postcode":"S45 0AB","la":"North East Derbyshire","era":"trad","nn":0,"risk":32,"cat":"amber"},{"name":"The Crown","lat":53.3213,"lon":-1.31117,"postcode":"S21 1AB","la":"North East Derbyshire","era":"trad","nn":584,"risk":31,"cat":"amber"},{"name":"The Devonshire Arms","lat":53.29717,"lon":-1.39393,"postcode":"S21 5RN","la":"North East Derbyshire","era":"trad","nn":1943,"risk":63,"cat":"red"},{"name":"The Dronfield Arms","lat":53.2996,"lon":-1.46569,"postcode":"S18 2XE","la":"North East Derbyshire","era":"trad","nn":0,"risk":27,"cat":"green"},{"name":"The Green Dragon","lat":53.30158,"lon":-1.47212,"postcode":"S18 1QB","la":"North East Derbyshire","era":"trad","nn":0,"risk":27,"cat":"green"},{"name":"The Highwayman","lat":53.23784,"lon":-1.54189,"postcode":"S42 7DA","la":"North East Derbyshire","era":"other","nn":1073,"risk":57,"cat":"amber"},{"name":"The Hunloke Arms","lat":53.20296,"lon":-1.41912,"postcode":"S42 6NB","la":"North East Derbyshire","era":"trad","nn":1315,"risk":58,"cat":"amber"},{"name":"The Moorlands Stonehouse Pizza And Carvery","lat":53.29827,"lon":-1.56126,"postcode":"S17 3BQ","la":"North East Derbyshire","era":"mod","nn":14,"risk":47,"cat":"amber"},{"name":"The Mossbrook","lat":53.31507,"lon":-1.35012,"postcode":"S21 4FP","la":"North East Derbyshire","era":"other","nn":751,"risk":37,"cat":"amber"},{"name":"The Nags Head","lat":53.31641,"lon":-1.31665,"postcode":"S21 1EU","la":"North East Derbyshire","era":"trad","nn":0,"risk":44,"cat":"amber"},{"name":"The New Inn","lat":53.19146,"lon":-1.41391,"postcode":"S42 6DU","la":"North East Derbyshire","era":"trad","nn":275,"risk":46,"cat":"amber"},{"name":"The Old English Inn","lat":53.1666,"lon":-1.41454,"postcode":"S45 9JE","la":"North East Derbyshire","era":"trad","nn":0,"risk":27,"cat":"green"},{"name":"The Peacock","lat":53.29834,"lon":-1.56108,"postcode":"S17 3BQ","la":"North East Derbyshire","era":"other","nn":14,"risk":47,"cat":"amber"},{"name":"The Peacock At Barlow","lat":53.26703,"lon":-1.48291,"postcode":"S18 7TD","la":"North East Derbyshire","era":"other","nn":1206,"risk":58,"cat":"amber"},{"name":"The Peacock Inn","lat":53.25571,"lon":-1.49375,"postcode":"S42 7AS","la":"North East Derbyshire","era":"trad","nn":396,"risk":47,"cat":"amber"},{"name":"The Royal Oak","lat":53.24219,"lon":-1.51743,"postcode":"S42 7JH","la":"North East Derbyshire","era":"trad","nn":733,"risk":52,"cat":"amber"},{"name":"The Royal Oak","lat":53.28417,"lon":-1.5261,"postcode":"S18 7WJ","la":"North East Derbyshire","era":"trad","nn":225,"risk":48,"cat":"amber"},{"name":"The Rutland Arms","lat":53.29544,"lon":-1.51466,"postcode":"S18 7WT","la":"North East Derbyshire","era":"trad","nn":0,"risk":44,"cat":"amber"},{"name":"The Shinnon","lat":53.17955,"lon":-1.39643,"postcode":"S42 5JJ","la":"North East Derbyshire","era":"trad","nn":593,"risk":51,"cat":"amber"},{"name":"The Six Halts","lat":53.17211,"lon":-1.41796,"postcode":"S45 9AG","la":"North East Derbyshire","era":"other","nn":602,"risk":31,"cat":"amber"},{"name":"The Smithy Pond","lat":53.19514,"lon":-1.43393,"postcode":"S42 6LN","la":"North East Derbyshire","era":"trad","nn":1174,"risk":57,"cat":"amber"},{"name":"The Star Inn","lat":53.16485,"lon":-1.37463,"postcode":"S45 8DB","la":"North East Derbyshire","era":"trad","nn":1155,"risk":57,"cat":"amber"},{"name":"The Steelmelters","lat":53.32406,"lon":-1.32544,"postcode":"S21 1DA","la":"North East Derbyshire","era":"trad","nn":311,"risk":34,"cat":"amber"},{"name":"The Three Cottages","lat":53.21485,"lon":-1.39595,"postcode":"S41 0JJ","la":"North East Derbyshire","era":"other","nn":873,"risk":35,"cat":"amber"},{"name":"The Three Horseshoes","lat":53.1666,"lon":-1.41454,"postcode":"S45 9JE","la":"North East Derbyshire","era":"trad","nn":0,"risk":27,"cat":"green"},{"name":"The Three Merry Lads","lat":53.25661,"lon":-1.48799,"postcode":"S42 7AJ","la":"North East Derbyshire","era":"other","nn":0,"risk":44,"cat":"amber"},{"name":"The Travellers Rest","lat":53.30056,"lon":-1.42746,"postcode":"S18 4BD","la":"North East Derbyshire","era":"other","nn":166,"risk":48,"cat":"amber"},{"name":"The Underdog","lat":53.2996,"lon":-1.46569,"postcode":"S18 2XE","la":"North East Derbyshire","era":"other","nn":0,"risk":27,"cat":"green"},{"name":"The Victoria Inn","lat":53.30334,"lon":-1.47891,"postcode":"S18 1PE","la":"North East Derbyshire","era":"trad","nn":139,"risk":28,"cat":"green"},{"name":"The White Swan","lat":53.29981,"lon":-1.46596,"postcode":"S18 2XF","la":"North East Derbyshire","era":"trad","nn":29,"risk":27,"cat":"green"},{"name":"The Woodthorpe Inn","lat":53.17675,"lon":-1.42675,"postcode":"S42 6HA","la":"North East Derbyshire","era":"trad","nn":780,"risk":50,"cat":"amber"},{"name":"Tickled Trout","lat":53.27459,"lon":-1.496,"postcode":"S18 7SL","la":"North East Derbyshire","era":"other","nn":1210,"risk":58,"cat":"amber"},{"name":"Toby Carvery","lat":53.31561,"lon":-1.47558,"postcode":"S18 2GA","la":"North East Derbyshire","era":"other","nn":565,"risk":48,"cat":"amber"},{"name":"Tupton Tap","lat":53.18211,"lon":-1.41921,"postcode":"S42 6LA","la":"North East Derbyshire","era":"mod","nn":780,"risk":52,"cat":"amber"},{"name":"Uppertown Social Centre","lat":53.18217,"lon":-1.51911,"postcode":"S45 0JF","la":"North East Derbyshire","era":"mod","nn":2123,"risk":64,"cat":"red"},{"name":"West End Hotel","lat":53.31641,"lon":-1.31665,"postcode":"S21 1EU","la":"North East Derbyshire","era":"other","nn":0,"risk":44,"cat":"amber"},{"name":"White Hart","lat":53.18029,"lon":-1.38762,"postcode":"S42 5LH","la":"North East Derbyshire","era":"trad","nn":490,"risk":48,"cat":"amber"},{"name":"Willow Tree Inn","lat":53.15547,"lon":-1.3672,"postcode":"S45 8EX","la":"North East Derbyshire","era":"trad","nn":1155,"risk":57,"cat":"amber"},{"name":"Yew Tree Inn","lat":53.31099,"lon":-1.46338,"postcode":"S18 3DB","la":"North East Derbyshire","era":"trad","nn":233,"risk":28,"cat":"green"},{"name":"Albion Road WMC","lat":53.42896,"lon":-1.35105,"postcode":"S60 2NF","la":"Rotherham","era":"other","nn":219,"risk":25,"cat":"green"},{"name":"Amber Lounge","lat":53.42928,"lon":-1.35687,"postcode":"S60 2HG","la":"Rotherham","era":"mod","nn":70,"risk":24,"cat":"green"},{"name":"Angel","lat":53.43192,"lon":-1.35737,"postcode":"S60 1PQ","la":"Rotherham","era":"trad","nn":35,"risk":24,"cat":"green"},{"name":"Anston Cricket Club","lat":53.35207,"lon":-1.21982,"postcode":"S25 4DL","la":"Rotherham","era":"other","nn":302,"risk":28,"cat":"green"},{"name":"Anston W M C Institute","lat":53.35465,"lon":-1.22124,"postcode":"S25 4BD","la":"Rotherham","era":"other","nn":302,"risk":26,"cat":"green"},{"name":"Blue Bell Inn","lat":53.49836,"lon":-1.31443,"postcode":"S63 5AB","la":"Rotherham","era":"trad","nn":486,"risk":44,"cat":"amber"},{"name":"Bradgate WMC","lat":53.43438,"lon":-1.38673,"postcode":"S61 1QJ","la":"Rotherham","era":"other","nn":170,"risk":25,"cat":"green"},{"name":"Bramley WMC","lat":53.42437,"lon":-1.26499,"postcode":"S66 2SA","la":"Rotherham","era":"trad","nn":156,"risk":30,"cat":"green"},{"name":"Brinsworth Social Club","lat":53.40621,"lon":-1.3689,"postcode":"S60 5BX","la":"Rotherham","era":"mod","nn":506,"risk":27,"cat":"green"},{"name":"Brooklands Club","lat":53.42137,"lon":-1.21959,"postcode":"S66 8NA","la":"Rotherham","era":"other","nn":972,"risk":48,"cat":"amber"},{"name":"Bulls Head","lat":53.50939,"lon":-1.3763,"postcode":"S73 0TU","la":"Rotherham","era":"trad","nn":758,"risk":46,"cat":"amber"},{"name":"Burlington (Wath) Club Ltd","lat":53.50262,"lon":-1.34195,"postcode":"S63 7QE","la":"Rotherham","era":"other","nn":74,"risk":24,"cat":"green"},{"name":"Butchers Arms","lat":53.48874,"lon":-1.31237,"postcode":"S64 8NA","la":"Rotherham","era":"trad","nn":210,"risk":25,"cat":"green"},{"name":"Central Snooker","lat":53.43058,"lon":-1.35593,"postcode":"S60 1PP","la":"Rotherham","era":"other","nn":44,"risk":24,"cat":"green"},{"name":"Chequers Inn","lat":53.40606,"lon":-1.33146,"postcode":"S60 4HB","la":"Rotherham","era":"trad","nn":295,"risk":31,"cat":"amber"},{"name":"Cottage Of Content","lat":53.50192,"lon":-1.36789,"postcode":"S63 6AJ","la":"Rotherham","era":"other","nn":421,"risk":31,"cat":"amber"},{"name":"Cresswell Arms","lat":53.49216,"lon":-1.31032,"postcode":"S64 8NR","la":"Rotherham","era":"trad","nn":404,"risk":26,"cat":"green"},{"name":"Cross Keys Hotel","lat":53.50259,"lon":-1.33539,"postcode":"S63 7DN","la":"Rotherham","era":"trad","nn":184,"risk":25,"cat":"green"},{"name":"Crown Inn","lat":53.4532,"lon":-1.36735,"postcode":"S61 4NU","la":"Rotherham","era":"trad","nn":24,"risk":24,"cat":"green"},{"name":"Cutlers Arms","lat":53.42816,"lon":-1.35803,"postcode":"S60 1BQ","la":"Rotherham","era":"trad","nn":118,"risk":24,"cat":"green"},{"name":"Dinnington Rugby Union Club","lat":53.36726,"lon":-1.1869,"postcode":"S25 2PB","la":"Rotherham","era":"trad","nn":1131,"risk":54,"cat":"amber"},{"name":"Dinnington Snooker Club","lat":53.36923,"lon":-1.21057,"postcode":"S25 2PS","la":"Rotherham","era":"trad","nn":277,"risk":30,"cat":"green"},{"name":"Don Jon","lat":53.42263,"lon":-1.20479,"postcode":"S66 8LH","la":"Rotherham","era":"other","nn":235,"risk":25,"cat":"green"},{"name":"Duke Of Leeds","lat":53.33888,"lon":-1.28501,"postcode":"S26 5LQ","la":"Rotherham","era":"trad","nn":237,"risk":45,"cat":"amber"},{"name":"Dunholm Social Club","lat":53.50122,"lon":-1.33695,"postcode":"S63 7AA","la":"Rotherham","era":"mod","nn":184,"risk":25,"cat":"green"},{"name":"Earl Grey","lat":53.45914,"lon":-1.34408,"postcode":"S62 6NE","la":"Rotherham","era":"other","nn":225,"risk":25,"cat":"green"},{"name":"East Dene Social Club","lat":53.43716,"lon":-1.33355,"postcode":"S65 2DA","la":"Rotherham","era":"mod","nn":864,"risk":47,"cat":"amber"},{"name":"East Herringthorpe Sports & Social Club","lat":53.43953,"lon":-1.31692,"postcode":"S65 3LG","la":"Rotherham","era":"mod","nn":467,"risk":47,"cat":"amber"},{"name":"Elliots","lat":53.42977,"lon":-1.35752,"postcode":"S60 1AN","la":"Rotherham","era":"other","nn":0,"risk":24,"cat":"green"},{"name":"Fighting Cocks","lat":53.46473,"lon":-1.32714,"postcode":"S62 5JT","la":"Rotherham","era":"other","nn":509,"risk":32,"cat":"amber"},{"name":"Fitzwilliam Arms Hotel","lat":53.45015,"lon":-1.34729,"postcode":"S62 6EE","la":"Rotherham","era":"trad","nn":293,"risk":26,"cat":"green"},{"name":"George & Dragon","lat":53.47967,"lon":-1.42104,"postcode":"S62 7TN","la":"Rotherham","era":"trad","nn":218,"risk":45,"cat":"amber"},{"name":"Golden Ball Inn","lat":53.40462,"lon":-1.32616,"postcode":"S60 4HY","la":"Rotherham","era":"trad","nn":175,"risk":30,"cat":"green"},{"name":"Grange Park Golf Club","lat":53.44278,"lon":-1.42571,"postcode":"S61 2SJ","la":"Rotherham","era":"other","nn":1205,"risk":54,"cat":"amber"},{"name":"Greasbrough WMC","lat":53.45697,"lon":-1.37259,"postcode":"S61 4DX","la":"Rotherham","era":"other","nn":0,"risk":24,"cat":"green"},{"name":"High House","lat":53.42964,"lon":-1.3559,"postcode":"S60 2DA","la":"Rotherham","era":"other","nn":66,"risk":24,"cat":"green"},{"name":"Hilltop Hotel","lat":53.42966,"lon":-1.40704,"postcode":"S61 2EU","la":"Rotherham","era":"other","nn":793,"risk":34,"cat":"amber"},{"name":"Horse & Jockey","lat":53.46132,"lon":-1.34207,"postcode":"S62 5AB","la":"Rotherham","era":"trad","nn":57,"risk":24,"cat":"green"},{"name":"Horse & Tiger","lat":53.46001,"lon":-1.43644,"postcode":"S61 2QA","la":"Rotherham","era":"trad","nn":185,"risk":25,"cat":"green"},{"name":"Jaxx & Snafu","lat":53.42977,"lon":-1.35752,"postcode":"S60 1AN","la":"Rotherham","era":"other","nn":0,"risk":24,"cat":"green"},{"name":"Joker","lat":53.42634,"lon":-1.27423,"postcode":"S66 2LU","la":"Rotherham","era":"other","nn":650,"risk":28,"cat":"green"},{"name":"Kilnhurst WMC","lat":53.47079,"lon":-1.30609,"postcode":"S64 5SQ","la":"Rotherham","era":"other","nn":691,"risk":48,"cat":"amber"},{"name":"King Henry","lat":53.42431,"lon":-1.26265,"postcode":"S66 2TW","la":"Rotherham","era":"trad","nn":156,"risk":30,"cat":"green"},{"name":"Leeds Arms","lat":53.34844,"lon":-1.22431,"postcode":"S25 5DT","la":"Rotherham","era":"trad","nn":96,"risk":29,"cat":"green"},{"name":"Lindrick Artisans Golf Club","lat":53.33648,"lon":-1.18027,"postcode":"S81 8BH","la":"Rotherham","era":"other","nn":0,"risk":44,"cat":"amber"},{"name":"Lindrick Golf Club","lat":53.33648,"lon":-1.18027,"postcode":"S81 8BH","la":"Rotherham","era":"other","nn":0,"risk":44,"cat":"amber"},{"name":"Little Mester","lat":53.36219,"lon":-1.2149,"postcode":"S25 4BZ","la":"Rotherham","era":"other","nn":638,"risk":30,"cat":"green"},{"name":"Liversidge Pub Company","lat":53.45036,"lon":-1.33732,"postcode":"S62 6BU","la":"Rotherham","era":"other","nn":464,"risk":27,"cat":"green"},{"name":"Lord Reresby","lat":53.44769,"lon":-1.29258,"postcode":"S65 4DN","la":"Rotherham","era":"other","nn":581,"risk":48,"cat":"amber"},{"name":"Loyal Trooper","lat":53.34817,"lon":-1.22294,"postcode":"S25 5DT","la":"Rotherham","era":"other","nn":96,"risk":29,"cat":"green"},{"name":"Lumley Arms","lat":53.4213,"lon":-1.18755,"postcode":"S66 7PW","la":"Rotherham","era":"trad","nn":532,"risk":30,"cat":"green"},{"name":"Mailcoach","lat":53.4295,"lon":-1.35423,"postcode":"S60 2LR","la":"Rotherham","era":"trad","nn":61,"risk":24,"cat":"green"},{"name":"Maltby Catholic Club","lat":53.42246,"lon":-1.20125,"postcode":"S66 7LE","la":"Rotherham","era":"other","nn":235,"risk":25,"cat":"green"},{"name":"Maltby Progressive Club","lat":53.42394,"lon":-1.19424,"postcode":"S66 7NX","la":"Rotherham","era":"other","nn":97,"risk":24,"cat":"green"},{"name":"Manor Barn","lat":53.43354,"lon":-1.39416,"postcode":"S61 1EP","la":"Rotherham","era":"other","nn":74,"risk":24,"cat":"green"},{"name":"Manor Hotel","lat":53.42981,"lon":-1.20704,"postcode":"S66 8JT","la":"Rotherham","era":"other","nn":431,"risk":29,"cat":"green"},{"name":"Marquis","lat":53.47507,"lon":-1.36729,"postcode":"S62 7RX","la":"Rotherham","era":"other","nn":451,"risk":47,"cat":"amber"},{"name":"Masbrough Sports & Social Club","lat":53.43016,"lon":-1.37329,"postcode":"S61 1AA","la":"Rotherham","era":"mod","nn":134,"risk":24,"cat":"green"},{"name":"Masons Arms","lat":53.42139,"lon":-1.28218,"postcode":"S66 1JY","la":"Rotherham","era":"trad","nn":149,"risk":25,"cat":"green"},{"name":"Masons Arms","lat":53.46103,"lon":-1.43423,"postcode":"S61 2RP","la":"Rotherham","era":"trad","nn":185,"risk":30,"cat":"green"},{"name":"Monks Bridge Farm","lat":53.37406,"lon":-1.22582,"postcode":"S25 3QB","la":"Rotherham","era":"trad","nn":725,"risk":49,"cat":"amber"},{"name":"Montgomerys","lat":53.5025,"lon":-1.34358,"postcode":"S63 7QG","la":"Rotherham","era":"other","nn":14,"risk":24,"cat":"green"},{"name":"New York Tavern","lat":53.4271,"lon":-1.35797,"postcode":"S60 1BD","la":"Rotherham","era":"other","nn":118,"risk":24,"cat":"green"},{"name":"Parkgate Inn","lat":53.45252,"lon":-1.34482,"postcode":"S62 6HN","la":"Rotherham","era":"trad","nn":99,"risk":24,"cat":"green"},{"name":"Phoenix Sports & Recreation","lat":53.41017,"lon":-1.37354,"postcode":"S60 5PA","la":"Rotherham","era":"other","nn":537,"risk":30,"cat":"green"},{"name":"Plough","lat":53.43297,"lon":-1.35478,"postcode":"S65 1AL","la":"Rotherham","era":"trad","nn":172,"risk":25,"cat":"green"},{"name":"POT8'S","lat":53.43106,"lon":-1.35389,"postcode":"S65 1DE","la":"Rotherham","era":"other","nn":145,"risk":25,"cat":"green"},{"name":"Pot8s Pool Club","lat":53.42959,"lon":-1.35798,"postcode":"S60 1AJ","la":"Rotherham","era":"other","nn":36,"risk":24,"cat":"green"},{"name":"Prince Of Wales","lat":53.45334,"lon":-1.36762,"postcode":"S61 4NU","la":"Rotherham","era":"trad","nn":24,"risk":24,"cat":"green"},{"name":"Prince Of Wales Hotel Ltd","lat":53.42994,"lon":-1.37131,"postcode":"S60 1HX","la":"Rotherham","era":"trad","nn":134,"risk":24,"cat":"green"},{"name":"Princess Royal","lat":53.36641,"lon":-1.34955,"postcode":"S13 9WG","la":"Rotherham","era":"trad","nn":1437,"risk":56,"cat":"amber"},{"name":"Queens Hotel","lat":53.42361,"lon":-1.19559,"postcode":"S66 7NQ","la":"Rotherham","era":"trad","nn":97,"risk":24,"cat":"green"},{"name":"Raven (Rotherham) Ltd","lat":53.43755,"lon":-1.27088,"postcode":"S65 4PS","la":"Rotherham","era":"other","nn":169,"risk":42,"cat":"amber"},{"name":"Reach (Ferham) Ltd","lat":53.43068,"lon":-1.3768,"postcode":"S61 1AJ","la":"Rotherham","era":"other","nn":240,"risk":25,"cat":"green"},{"name":"Red Lion","lat":53.50241,"lon":-1.34373,"postcode":"S63 7QG","la":"Rotherham","era":"trad","nn":14,"risk":24,"cat":"green"},{"name":"Red Lion Hotel","lat":53.36135,"lon":-1.26663,"postcode":"S26 1DJ","la":"Rotherham","era":"trad","nn":2094,"risk":61,"cat":"red"},{"name":"Red Lion Hotel","lat":53.43183,"lon":-1.35656,"postcode":"S60 1PN","la":"Rotherham","era":"trad","nn":21,"risk":24,"cat":"green"},{"name":"Renoirs Lounge Bar","lat":53.42927,"lon":-1.35506,"postcode":"S60 2DJ","la":"Rotherham","era":"mod","nn":0,"risk":24,"cat":"green"},{"name":"Rhinoceros","lat":53.43191,"lon":-1.35684,"postcode":"S60 1PL","la":"Rotherham","era":"other","nn":0,"risk":24,"cat":"green"},{"name":"Rig Dyke","lat":53.47316,"lon":-1.36128,"postcode":"S62 7NG","la":"Rotherham","era":"other","nn":451,"risk":32,"cat":"amber"},{"name":"Ring O Bells","lat":53.48832,"lon":-1.32401,"postcode":"S64 8EF","la":"Rotherham","era":"other","nn":79,"risk":24,"cat":"green"},{"name":"Rising Deer Inn","lat":53.38923,"lon":-1.27092,"postcode":"S66 9AT","la":"Rotherham","era":"trad","nn":1146,"risk":54,"cat":"amber"},{"name":"Robin Hood","lat":53.48749,"lon":-1.31546,"postcode":"S64 8QA","la":"Rotherham","era":"other","nn":170,"risk":25,"cat":"green"},{"name":"Robin Hood","lat":53.37349,"lon":-1.31771,"postcode":"S26 3XJ","la":"Rotherham","era":"other","nn":94,"risk":44,"cat":"amber"},{"name":"Rock Tavern","lat":53.47697,"lon":-1.3071,"postcode":"S64 5UP","la":"Rotherham","era":"other","nn":691,"risk":46,"cat":"amber"},{"name":"Rockingham Tap","lat":53.48826,"lon":-1.32763,"postcode":"S64 8ED","la":"Rotherham","era":"other","nn":240,"risk":25,"cat":"green"},{"name":"Roland Arms","lat":53.35828,"lon":-1.31378,"postcode":"S26 2BR","la":"Rotherham","era":"trad","nn":845,"risk":47,"cat":"amber"},{"name":"Rosegarth","lat":53.36518,"lon":-1.30847,"postcode":"S26 2DB","la":"Rotherham","era":"other","nn":730,"risk":46,"cat":"amber"},{"name":"Rother Valley Golf Centre","lat":53.3494,"lon":-1.29944,"postcode":"S26 5PQ","la":"Rotherham","era":"other","nn":1320,"risk":55,"cat":"amber"},{"name":"Roundwood Pavilion","lat":53.46049,"lon":-1.33374,"postcode":"S62 6LA","la":"Rotherham","era":"trad","nn":559,"risk":27,"cat":"green"},{"name":"Rowms Lane Social Club","lat":53.48997,"lon":-1.29957,"postcode":"S64 8AE","la":"Rotherham","era":"mod","nn":626,"risk":28,"cat":"green"},{"name":"Ryecroft Club Ltd","lat":53.46743,"lon":-1.33336,"postcode":"S62 5RF","la":"Rotherham","era":"other","nn":158,"risk":25,"cat":"green"},{"name":"Saxon  Hotel","lat":53.3416,"lon":-1.26263,"postcode":"S26 6QP","la":"Rotherham","era":"other","nn":1513,"risk":57,"cat":"amber"},{"name":"Ship Inn","lat":53.45522,"lon":-1.36857,"postcode":"S61 4PX","la":"Rotherham","era":"trad","nn":218,"risk":25,"cat":"green"},{"name":"Silverdale Social Club","lat":53.36925,"lon":-1.20362,"postcode":"S25 2QE","la":"Rotherham","era":"mod","nn":462,"risk":44,"cat":"amber"},{"name":"Silverwood Miners Welfare & Resource Centre","lat":53.44359,"lon":-1.31514,"postcode":"S65 3ET","la":"Rotherham","era":"other","nn":467,"risk":44,"cat":"amber"},{"name":"Sitwell Park Golf Club","lat":53.41598,"lon":-1.31207,"postcode":"S60 4BY","la":"Rotherham","era":"other","nn":553,"risk":45,"cat":"amber"},{"name":"Skyways Bar, Sheffield Aero Club","lat":53.31889,"lon":-1.19284,"postcode":"S80 3JQ","la":"Rotherham","era":"other","nn":1292,"risk":55,"cat":"amber"},{"name":"Something Brew Inn","lat":53.46103,"lon":-1.34279,"postcode":"S62 6NL","la":"Rotherham","era":"trad","nn":57,"risk":24,"cat":"green"},{"name":"Sports Box","lat":53.43026,"lon":-1.35715,"postcode":"S60 1PA","la":"Rotherham","era":"other","nn":59,"risk":24,"cat":"green"},{"name":"Stag Inn","lat":53.41866,"lon":-1.31909,"postcode":"S60 4JN","la":"Rotherham","era":"trad","nn":185,"risk":30,"cat":"green"},{"name":"Steptoe's Cafe and Bar","lat":53.43496,"lon":-1.39649,"postcode":"S61 2DT","la":"Rotherham","era":"other","nn":221,"risk":25,"cat":"green"},{"name":"Stop Inn Time","lat":53.40409,"lon":-1.37566,"postcode":"S60 5BS","la":"Rotherham","era":"trad","nn":160,"risk":25,"cat":"green"},{"name":"Storyteller","lat":53.44417,"lon":-1.34552,"postcode":"S60 1TG","la":"Rotherham","era":"other","nn":675,"risk":31,"cat":"amber"},{"name":"Swallownest Miners","lat":53.36346,"lon":-1.32429,"postcode":"S26 4UR","la":"Rotherham","era":"other","nn":905,"risk":50,"cat":"amber"},{"name":"Swinton (Bottom) Club","lat":53.48689,"lon":-1.3075,"postcode":"S64 8AU","la":"Rotherham","era":"other","nn":187,"risk":25,"cat":"green"},{"name":"Swinton House Club","lat":53.48558,"lon":-1.31851,"postcode":"S64 8RG","la":"Rotherham","era":"mod","nn":292,"risk":26,"cat":"green"},{"name":"Swinton Masonic Hall","lat":53.4869,"lon":-1.31309,"postcode":"S64 8PZ","la":"Rotherham","era":"trad","nn":170,"risk":25,"cat":"green"},{"name":"The Alex","lat":53.45368,"lon":-1.342,"postcode":"S62 6BH","la":"Rotherham","era":"other","nn":227,"risk":25,"cat":"green"},{"name":"The Ball Inn","lat":53.45887,"lon":-1.44094,"postcode":"S61 2PT","la":"Rotherham","era":"trad","nn":324,"risk":26,"cat":"green"},{"name":"The Bay Horse","lat":53.45565,"lon":-1.41532,"postcode":"S61 2RQ","la":"Rotherham","era":"trad","nn":1256,"risk":55,"cat":"amber"},{"name":"The Beehive","lat":53.32202,"lon":-1.26049,"postcode":"S26 7YH","la":"Rotherham","era":"other","nn":287,"risk":46,"cat":"amber"},{"name":"The Black Bull Aughton","lat":53.37429,"lon":-1.31816,"postcode":"S26 3XH","la":"Rotherham","era":"trad","nn":94,"risk":42,"cat":"amber"},{"name":"The Black Lion","lat":53.38924,"lon":-1.15731,"postcode":"S81 8JY","la":"Rotherham","era":"trad","nn":2802,"risk":66,"cat":"red"},{"name":"The Blue Bell","lat":53.32022,"lon":-1.26359,"postcode":"S26 7YQ","la":"Rotherham","era":"other","nn":287,"risk":46,"cat":"amber"},{"name":"The Bluecoat","lat":53.42927,"lon":-1.35506,"postcode":"S60 2DJ","la":"Rotherham","era":"other","nn":0,"risk":24,"cat":"green"},{"name":"The Bridge Inn","lat":53.43279,"lon":-1.3587,"postcode":"S60 1RB","la":"Rotherham","era":"trad","nn":131,"risk":24,"cat":"green"},{"name":"The Brush & Easel","lat":53.42732,"lon":-1.28642,"postcode":"S66 2HB","la":"Rotherham","era":"other","nn":571,"risk":30,"cat":"green"},{"name":"The Butchers Arms","lat":53.34917,"lon":-1.17097,"postcode":"S81 8QA","la":"Rotherham","era":"trad","nn":1540,"risk":57,"cat":"amber"},{"name":"The Cavalier","lat":53.43776,"lon":-1.26835,"postcode":"S65 4PU","la":"Rotherham","era":"other","nn":169,"risk":42,"cat":"amber"},{"name":"The Church House","lat":53.50258,"lon":-1.34484,"postcode":"S63 7RZ","la":"Rotherham","era":"other","nn":76,"risk":24,"cat":"green"},{"name":"The Colin","lat":53.43704,"lon":-1.39815,"postcode":"S61 1NQ","la":"Rotherham","era":"other","nn":256,"risk":25,"cat":"green"},{"name":"The County","lat":53.43191,"lon":-1.35684,"postcode":"S60 1PL","la":"Rotherham","era":"other","nn":0,"risk":24,"cat":"green"},{"name":"The Crown","lat":53.49594,"lon":-1.35533,"postcode":"S63 6JU","la":"Rotherham","era":"trad","nn":933,"risk":48,"cat":"amber"},{"name":"The Cutler","lat":53.35593,"lon":-1.21362,"postcode":"S25 4EQ","la":"Rotherham","era":"other","nn":526,"risk":32,"cat":"amber"},{"name":"The Dragon Tap","lat":53.4194,"lon":-1.3216,"postcode":"S65 3AD","la":"Rotherham","era":"other","nn":185,"risk":25,"cat":"green"},{"name":"The Drawbridge","lat":53.43862,"lon":-1.39415,"postcode":"S61 1JN","la":"Rotherham","era":"other","nn":292,"risk":26,"cat":"green"},{"name":"The Droppingwell","lat":53.44363,"lon":-1.40757,"postcode":"S61 2AB","la":"Rotherham","era":"other","nn":338,"risk":43,"cat":"amber"},{"name":"The Fairways","lat":53.40799,"lon":-1.3822,"postcode":"S60 5NU","la":"Rotherham","era":"other","nn":454,"risk":29,"cat":"green"},{"name":"The Gallows","lat":53.3796,"lon":-1.23159,"postcode":"S25 3PF","la":"Rotherham","era":"other","nn":725,"risk":49,"cat":"amber"},{"name":"The Gate Inn","lat":53.48873,"lon":-1.32304,"postcode":"S64 8DQ","la":"Rotherham","era":"trad","nn":79,"risk":24,"cat":"green"},{"name":"The Haynook","lat":53.42932,"lon":-1.2135,"postcode":"S66 8HZ","la":"Rotherham","era":"other","nn":431,"risk":32,"cat":"amber"},{"name":"The High House","lat":53.47656,"lon":-1.32203,"postcode":"S64 8JZ","la":"Rotherham","era":"other","nn":989,"risk":50,"cat":"amber"},{"name":"The Hind","lat":53.41083,"lon":-1.32599,"postcode":"S60 4EP","la":"Rotherham","era":"other","nn":643,"risk":28,"cat":"green"},{"name":"The Homestead","lat":53.42079,"lon":-1.33453,"postcode":"S60 3PJ","la":"Rotherham","era":"other","nn":467,"risk":29,"cat":"green"},{"name":"The Horseshoe","lat":53.48107,"lon":-1.44535,"postcode":"S62 7UD","la":"Rotherham","era":"trad","nn":1489,"risk":56,"cat":"amber"},{"name":"The Keppels (Bar)","lat":53.45023,"lon":-1.38177,"postcode":"S61 4AT","la":"Rotherham","era":"other","nn":497,"risk":27,"cat":"green"},{"name":"The Kimberworth Park","lat":53.44622,"lon":-1.4049,"postcode":"S61 3NA","la":"Rotherham","era":"other","nn":338,"risk":46,"cat":"amber"},{"name":"The Little Haven Ltd","lat":53.45182,"lon":-1.34388,"postcode":"S62 6DX","la":"Rotherham","era":"other","nn":99,"risk":24,"cat":"green"},{"name":"The Midland","lat":53.43206,"lon":-1.37371,"postcode":"S61 1TF","la":"Rotherham","era":"other","nn":1,"risk":24,"cat":"green"},{"name":"The Mill Dam","lat":53.45436,"lon":-1.3789,"postcode":"S61 4HH","la":"Rotherham","era":"trad","nn":395,"risk":26,"cat":"green"},{"name":"The Milton Arms","lat":53.45669,"lon":-1.37439,"postcode":"S61 4DY","la":"Rotherham","era":"trad","nn":0,"risk":24,"cat":"green"},{"name":"The Milton Arms (Catering)","lat":53.45669,"lon":-1.37439,"postcode":"S61 4DY","la":"Rotherham","era":"trad","nn":0,"risk":24,"cat":"green"},{"name":"The Monkwood","lat":53.4692,"lon":-1.3545,"postcode":"S62 7DX","la":"Rotherham","era":"trad","nn":494,"risk":44,"cat":"amber"},{"name":"The New Broom","lat":53.41957,"lon":-1.34127,"postcode":"S60 2QY","la":"Rotherham","era":"other","nn":467,"risk":47,"cat":"amber"},{"name":"The New Inn","lat":53.43207,"lon":-1.3737,"postcode":"S61 1TF","la":"Rotherham","era":"trad","nn":1,"risk":24,"cat":"green"},{"name":"The Parish Oven","lat":53.32369,"lon":-1.2158,"postcode":"S80 3JU","la":"Rotherham","era":"other","nn":1615,"risk":57,"cat":"amber"},{"name":"The Park","lat":53.42921,"lon":-1.33383,"postcode":"S65 2QE","la":"Rotherham","era":"other","nn":666,"risk":31,"cat":"amber"},{"name":"The Pewter Pot","lat":53.44069,"lon":-1.39144,"postcode":"S61 3PF","la":"Rotherham","era":"other","nn":292,"risk":26,"cat":"green"},{"name":"The Plough","lat":53.45152,"lon":-1.38979,"postcode":"S61 4LF","la":"Rotherham","era":"trad","nn":550,"risk":45,"cat":"amber"},{"name":"The Plough Inn","lat":53.50372,"lon":-1.36228,"postcode":"S63 6RG","la":"Rotherham","era":"trad","nn":421,"risk":31,"cat":"amber"},{"name":"The Queens Hotel","lat":53.46836,"lon":-1.33516,"postcode":"S62 5QN","la":"Rotherham","era":"trad","nn":158,"risk":25,"cat":"green"},{"name":"The Red Lion","lat":53.4586,"lon":-1.43497,"postcode":"S61 2PY","la":"Rotherham","era":"trad","nn":185,"risk":25,"cat":"green"},{"name":"The Riverside","lat":53.42219,"lon":-1.36969,"postcode":"S60 1FL","la":"Rotherham","era":"other","nn":869,"risk":35,"cat":"amber"},{"name":"The Rockingham Arms","lat":53.47855,"lon":-1.41834,"postcode":"S62 7TL","la":"Rotherham","era":"trad","nn":218,"risk":45,"cat":"amber"},{"name":"The Sheppey Pub","lat":53.4273,"lon":-1.1954,"postcode":"S66 7DN","la":"Rotherham","era":"other","nn":381,"risk":26,"cat":"green"},{"name":"The Star","lat":53.46116,"lon":-1.34397,"postcode":"S62 6NJ","la":"Rotherham","era":"other","nn":80,"risk":24,"cat":"green"},{"name":"The Station Pub","lat":53.33661,"lon":-1.2407,"postcode":"S26 6NP","la":"Rotherham","era":"other","nn":1558,"risk":57,"cat":"amber"},{"name":"The Stockyard","lat":53.42675,"lon":-1.23863,"postcode":"S66 8HN","la":"Rotherham","era":"mod","nn":1396,"risk":56,"cat":"amber"},{"name":"The Tabard","lat":53.42714,"lon":-1.32439,"postcode":"S65 3BA","la":"Rotherham","era":"other","nn":666,"risk":33,"cat":"amber"},{"name":"The Telstar","lat":53.49207,"lon":-1.34282,"postcode":"S63 7SZ","la":"Rotherham","era":"other","nn":846,"risk":47,"cat":"amber"},{"name":"The Three Cranes","lat":53.43021,"lon":-1.35615,"postcode":"S60 1PT","la":"Rotherham","era":"other","nn":44,"risk":24,"cat":"green"},{"name":"The Top Club","lat":53.39708,"lon":-1.25865,"postcode":"S66 9AQ","la":"Rotherham","era":"other","nn":243,"risk":45,"cat":"amber"},{"name":"The Travellers","lat":53.42406,"lon":-1.25964,"postcode":"S66 2TS","la":"Rotherham","era":"other","nn":201,"risk":30,"cat":"green"},{"name":"The Travellers Inn","lat":53.43388,"lon":-1.39319,"postcode":"S61 1EP","la":"Rotherham","era":"trad","nn":74,"risk":24,"cat":"green"},{"name":"The Travellers Rest","lat":53.39541,"lon":-1.22781,"postcode":"S25 1YA","la":"Rotherham","era":"other","nn":1776,"risk":58,"cat":"amber"},{"name":"The Vic, Swinton","lat":53.48653,"lon":-1.31026,"postcode":"S64 8PU","la":"Rotherham","era":"other","nn":187,"risk":25,"cat":"green"},{"name":"The Waverley","lat":53.39675,"lon":-1.37183,"postcode":"S60 5RW","la":"Rotherham","era":"other","nn":737,"risk":34,"cat":"amber"},{"name":"The Wilton","lat":53.43321,"lon":-1.38509,"postcode":"S61 1HF","la":"Rotherham","era":"other","nn":170,"risk":25,"cat":"green"},{"name":"The Woodman","lat":53.43538,"lon":-1.27487,"postcode":"S66 3ZL","la":"Rotherham","era":"other","nn":358,"risk":44,"cat":"amber"},{"name":"The Woodman","lat":53.48567,"lon":-1.33591,"postcode":"S64 8UR","la":"Rotherham","era":"other","nn":619,"risk":30,"cat":"green"},{"name":"Thirsty Flame","lat":53.39835,"lon":-1.36103,"postcode":"S60 5JR","la":"Rotherham","era":"other","nn":313,"risk":43,"cat":"amber"},{"name":"Three Horseshoes","lat":53.42182,"lon":-1.28437,"postcode":"S66 2BW","la":"Rotherham","era":"trad","nn":151,"risk":25,"cat":"green"},{"name":"Three Magpies Hotel","lat":53.40516,"lon":-1.37727,"postcode":"S60 5NF","la":"Rotherham","era":"other","nn":160,"risk":27,"cat":"green"},{"name":"Thrybergh W M C","lat":53.44609,"lon":-1.30093,"postcode":"S65 4JE","la":"Rotherham","era":"other","nn":581,"risk":45,"cat":"amber"},{"name":"Thurcroft Miners Institute","lat":53.39519,"lon":-1.25682,"postcode":"S66 9LB","la":"Rotherham","era":"other","nn":243,"risk":45,"cat":"amber"},{"name":"Timberyard Tapas","lat":53.50328,"lon":-1.3464,"postcode":"S63 7QP","la":"Rotherham","era":"mod","nn":129,"risk":24,"cat":"green"},{"name":"Trades & Labour Club","lat":53.47211,"lon":-1.34885,"postcode":"S62 7QJ","la":"Rotherham","era":"other","nn":494,"risk":32,"cat":"amber"},{"name":"Treeton Miners Welfare Social","lat":53.385,"lon":-1.35472,"postcode":"S60 5PW","la":"Rotherham","era":"mod","nn":1542,"risk":57,"cat":"amber"},{"name":"Ulley Sailing Club","lat":53.38271,"lon":-1.32108,"postcode":"S26 3XL","la":"Rotherham","era":"other","nn":956,"risk":50,"cat":"amber"},{"name":"Wales Jubilee Social Club","lat":53.34099,"lon":-1.2854,"postcode":"S26 5QG","la":"Rotherham","era":"mod","nn":237,"risk":45,"cat":"amber"},{"name":"Wath Cricket Club","lat":53.5033,"lon":-1.34317,"postcode":"S63 7RT","la":"Rotherham","era":"other","nn":46,"risk":24,"cat":"green"},{"name":"Wath Golf Club","lat":53.48403,"lon":-1.35309,"postcode":"S62 7SJ","la":"Rotherham","era":"other","nn":1123,"risk":54,"cat":"amber"},{"name":"Wath Sports & Social Club","lat":53.50164,"lon":-1.3424,"postcode":"S63 7LN","la":"Rotherham","era":"mod","nn":114,"risk":24,"cat":"green"},{"name":"Wath Tap","lat":53.50292,"lon":-1.34295,"postcode":"S63 7QB","la":"Rotherham","era":"mod","nn":46,"risk":24,"cat":"green"},{"name":"West Melton WMC & Institute","lat":53.50601,"lon":-1.35708,"postcode":"S63 6DG","la":"Rotherham","era":"other","nn":428,"risk":26,"cat":"green"},{"name":"Wickersley Old Village Cricket Club","lat":53.4227,"lon":-1.28263,"postcode":"S66 2HL","la":"Rotherham","era":"other","nn":149,"risk":25,"cat":"green"},{"name":"Wickersley Social Club","lat":53.41813,"lon":-1.27989,"postcode":"S66 1EN","la":"Rotherham","era":"mod","nn":393,"risk":29,"cat":"green"},{"name":"Woodlands Club","lat":53.43358,"lon":-1.34514,"postcode":"S65 1NN","la":"Rotherham","era":"other","nn":642,"risk":28,"cat":"green"},{"name":"Ye Olde Village Club","lat":53.36791,"lon":-1.21412,"postcode":"S25 2LT","la":"Rotherham","era":"other","nn":277,"risk":30,"cat":"green"},{"name":"Yellow Lion","lat":53.36307,"lon":-1.29806,"postcode":"S26 2EB","la":"Rotherham","era":"trad","nn":730,"risk":49,"cat":"amber"},{"name":"Yellow Lion","lat":53.45697,"lon":-1.37259,"postcode":"S61 4DX","la":"Rotherham","era":"trad","nn":0,"risk":24,"cat":"green"},{"name":"Yorkshire Terrier","lat":53.40109,"lon":-1.36209,"postcode":"S60 5JQ","la":"Rotherham","era":"other","nn":313,"risk":28,"cat":"green"},{"name":"Your Friendly Local Ltd at The Sitwell Arms","lat":53.40402,"lon":-1.32861,"postcode":"S60 4HQ","la":"Rotherham","era":"trad","nn":175,"risk":30,"cat":"green"},{"name":"99 Mary Street Limited","lat":53.37413,"lon":-1.46882,"postcode":"S1 4RT","la":"Sheffield","era":"other","nn":78,"risk":19,"cat":"green"},{"name":"Abbeydale Golf Club Ltd","lat":53.32451,"lon":-1.51146,"postcode":"S17 4QA","la":"Sheffield","era":"trad","nn":349,"risk":21,"cat":"green"},{"name":"Abbeydale Park Sports Club","lat":53.32507,"lon":-1.52063,"postcode":"S17 3LJ","la":"Sheffield","era":"trad","nn":612,"risk":25,"cat":"green"},{"name":"Abbeydale Picture House - Speakeasy Bar","lat":53.36001,"lon":-1.47935,"postcode":"S7 1FS","la":"Sheffield","era":"other","nn":0,"risk":18,"cat":"green"},{"name":"Alma Inn","lat":53.32086,"lon":-1.36251,"postcode":"S20 5DF","la":"Sheffield","era":"trad","nn":500,"risk":27,"cat":"green"},{"name":"Anglers Rest","lat":53.37319,"lon":-1.39757,"postcode":"S13 8HR","la":"Sheffield","era":"other","nn":282,"risk":20,"cat":"green"},{"name":"Anvil","lat":53.3979,"lon":-1.51437,"postcode":"S6 5FN","la":"Sheffield","era":"other","nn":742,"risk":23,"cat":"green"},{"name":"Arundel Ex-service Mens Club","lat":53.36346,"lon":-1.43352,"postcode":"S2 1GN","la":"Sheffield","era":"other","nn":50,"risk":36,"cat":"amber"},{"name":"Baaa @ The Herd","lat":53.34068,"lon":-1.47954,"postcode":"S8 0GU","la":"Sheffield","era":"other","nn":0,"risk":18,"cat":"green"},{"name":"Bagshawe Arms","lat":53.3379,"lon":-1.44674,"postcode":"S14 1BP","la":"Sheffield","era":"trad","nn":446,"risk":24,"cat":"green"},{"name":"Bamboo Door","lat":53.37458,"lon":-1.46718,"postcode":"S1 4RJ","la":"Sheffield","era":"other","nn":120,"risk":19,"cat":"green"},{"name":"Bar One/Bar One Food","lat":53.38061,"lon":-1.48767,"postcode":"S10 2TG","la":"Sheffield","era":"mod","nn":0,"risk":18,"cat":"green"},{"name":"Bar Pina Ltd","lat":53.39208,"lon":-1.47341,"postcode":"S3 8EF","la":"Sheffield","era":"mod","nn":63,"risk":19,"cat":"green"},{"name":"Bar Public Limited","lat":53.37993,"lon":-1.46743,"postcode":"S1 2LH","la":"Sheffield","era":"mod","nn":0,"risk":18,"cat":"green"},{"name":"Bath Hotel","lat":53.37919,"lon":-1.48229,"postcode":"S3 7QL","la":"Sheffield","era":"other","nn":196,"risk":20,"cat":"green"},{"name":"Bay Horse Inn","lat":53.40022,"lon":-1.46603,"postcode":"S3 9AT","la":"Sheffield","era":"trad","nn":40,"risk":23,"cat":"green"},{"name":"Beighton Top Club","lat":53.34913,"lon":-1.34126,"postcode":"S20 1AY","la":"Sheffield","era":"other","nn":358,"risk":21,"cat":"green"},{"name":"Beighton Welfare (Recreation Ground)","lat":53.35007,"lon":-1.33563,"postcode":"S20 1ED","la":"Sheffield","era":"other","nn":388,"risk":21,"cat":"green"},{"name":"Berlin Calling","lat":53.38603,"lon":-1.49483,"postcode":"S10 1ED","la":"Sheffield","era":"other","nn":200,"risk":20,"cat":"green"},{"name":"Billy Big Balls Bar","lat":53.38063,"lon":-1.47653,"postcode":"S1 4ER","la":"Sheffield","era":"other","nn":30,"risk":18,"cat":"green"},{"name":"Birley Wood Golf Course","lat":53.34032,"lon":-1.39698,"postcode":"S12 3BP","la":"Sheffield","era":"other","nn":782,"risk":41,"cat":"amber"},{"name":"Blackburn & Wincobank Con.Club","lat":53.4233,"lon":-1.41843,"postcode":"S9 1NJ","la":"Sheffield","era":"other","nn":598,"risk":42,"cat":"amber"},{"name":"Blackstock Pub","lat":53.35548,"lon":-1.44905,"postcode":"S2 2BT","la":"Sheffield","era":"other","nn":1106,"risk":48,"cat":"amber"},{"name":"Blue Ball","lat":53.45015,"lon":-1.55263,"postcode":"S35 0DQ","la":"Sheffield","era":"other","nn":533,"risk":42,"cat":"amber"},{"name":"Booze Hound","lat":53.39304,"lon":-1.47821,"postcode":"S3 8AT","la":"Sheffield","era":"trad","nn":0,"risk":18,"cat":"green"},{"name":"Boulevardier","lat":53.37704,"lon":-1.50189,"postcode":"S10 2QE","la":"Sheffield","era":"other","nn":20,"risk":18,"cat":"green"},{"name":"Bradfield Village Hall","lat":53.42319,"lon":-1.60459,"postcode":"S6 6LB","la":"Sheffield","era":"other","nn":3638,"risk":66,"cat":"red"},{"name":"Bradway Bowling Club","lat":53.31978,"lon":-1.50063,"postcode":"S17 4QW","la":"Sheffield","era":"other","nn":80,"risk":21,"cat":"green"},{"name":"Brass Monkey Brewery Ltd","lat":53.40742,"lon":-1.50445,"postcode":"S6 4HD","la":"Sheffield","era":"trad","nn":0,"risk":18,"cat":"green"},{"name":"Brewdog","lat":53.37951,"lon":-1.47801,"postcode":"S3 7SF","la":"Sheffield","era":"other","nn":62,"risk":19,"cat":"green"},{"name":"British Oak Inn","lat":53.33006,"lon":-1.37273,"postcode":"S20 5AY","la":"Sheffield","era":"trad","nn":755,"risk":28,"cat":"green"},{"name":"Brothers Arms","lat":53.36064,"lon":-1.47067,"postcode":"S8 9TZ","la":"Sheffield","era":"trad","nn":163,"risk":19,"cat":"green"},{"name":"Brown Bear","lat":53.38061,"lon":-1.46802,"postcode":"S1 2JE","la":"Sheffield","era":"other","nn":20,"risk":18,"cat":"green"},{"name":"Bungalows and Bears","lat":53.38004,"lon":-1.47449,"postcode":"S1 4GF","la":"Sheffield","era":"other","nn":0,"risk":18,"cat":"green"},{"name":"Carlton Social Club","lat":53.34708,"lon":-1.43198,"postcode":"S12 2QF","la":"Sheffield","era":"mod","nn":442,"risk":21,"cat":"green"},{"name":"Castle Inn","lat":53.40554,"lon":-1.50728,"postcode":"S6 4GR","la":"Sheffield","era":"trad","nn":262,"risk":20,"cat":"green"},{"name":"Castle Inn","lat":53.32142,"lon":-1.51049,"postcode":"S17 4PT","la":"Sheffield","era":"trad","nn":349,"risk":21,"cat":"green"},{"name":"Cavells Cafe Bar","lat":53.38295,"lon":-1.46772,"postcode":"S1 2GA","la":"Sheffield","era":"other","nn":72,"risk":19,"cat":"green"},{"name":"Cavendish/KTown/ChikBox/Locked&Loaded/PizzaAmore/DoughMasters","lat":53.3803,"lon":-1.47936,"postcode":"S1 4EU","la":"Sheffield","era":"other","nn":0,"risk":18,"cat":"green"},{"name":"Chantry Arms","lat":53.34309,"lon":-1.47784,"postcode":"S8 0SL","la":"Sheffield","era":"trad","nn":102,"risk":19,"cat":"green"},{"name":"Chapeltown Tap House & Gin Bar","lat":53.45752,"lon":-1.46417,"postcode":"S35 1TD","la":"Sheffield","era":"mod","nn":61,"risk":19,"cat":"green"},{"name":"Chapeltown W M C","lat":53.46195,"lon":-1.46592,"postcode":"S35 2UU","la":"Sheffield","era":"other","nn":0,"risk":18,"cat":"green"},{"name":"Chaucer Social Club","lat":53.42892,"lon":-1.48933,"postcode":"S5 9QE","la":"Sheffield","era":"mod","nn":524,"risk":22,"cat":"green"},{"name":"Club Baize","lat":53.34302,"lon":-1.33998,"postcode":"S20 1EP","la":"Sheffield","era":"other","nn":353,"risk":21,"cat":"green"},{"name":"Coach & Horses","lat":53.46276,"lon":-1.46494,"postcode":"S35 2XE","la":"Sheffield","era":"trad","nn":0,"risk":18,"cat":"green"},{"name":"Cobden View Hotel","lat":53.38437,"lon":-1.50261,"postcode":"S10 1HQ","la":"Sheffield","era":"other","nn":293,"risk":20,"cat":"green"},{"name":"Cocktail Bar","lat":53.34068,"lon":-1.47954,"postcode":"S8 0GU","la":"Sheffield","era":"other","nn":0,"risk":18,"cat":"green"},{"name":"Coco Lounge Bar","lat":53.37968,"lon":-1.4792,"postcode":"S3 7SG","la":"Sheffield","era":"mod","nn":46,"risk":18,"cat":"green"},{"name":"Code and Code Warehouse","lat":53.37673,"lon":-1.4711,"postcode":"S1 4QY","la":"Sheffield","era":"other","nn":58,"risk":19,"cat":"green"},{"name":"Colley WMC","lat":53.42968,"lon":-1.47791,"postcode":"S5 9LS","la":"Sheffield","era":"other","nn":298,"risk":25,"cat":"green"},{"name":"Copa","lat":53.37131,"lon":-1.48847,"postcode":"S11 8NX","la":"Sheffield","era":"other","nn":55,"risk":19,"cat":"green"},{"name":"Corporation Nightclub","lat":53.37696,"lon":-1.47692,"postcode":"S1 4JU","la":"Sheffield","era":"other","nn":122,"risk":19,"cat":"green"},{"name":"Craftworks Micropub","lat":53.32533,"lon":-1.36176,"postcode":"S20 5AE","la":"Sheffield","era":"mod","nn":122,"risk":22,"cat":"green"},{"name":"Cricketers","lat":53.37049,"lon":-1.47289,"postcode":"S2 4RD","la":"Sheffield","era":"other","nn":75,"risk":19,"cat":"green"},{"name":"Crookes Social Club","lat":53.38461,"lon":-1.50916,"postcode":"S10 1TA","la":"Sheffield","era":"mod","nn":56,"risk":19,"cat":"green"},{"name":"Cue Ball Snooker","lat":53.46276,"lon":-1.46494,"postcode":"S35 2XE","la":"Sheffield","era":"other","nn":0,"risk":18,"cat":"green"},{"name":"Cumberland","lat":53.34633,"lon":-1.33546,"postcode":"S20 1EE","la":"Sheffield","era":"other","nn":416,"risk":21,"cat":"green"},{"name":"Darnall Horticulture & Floral Services Institution","lat":53.38676,"lon":-1.41421,"postcode":"S9 4RD","la":"Sheffield","era":"other","nn":207,"risk":37,"cat":"amber"},{"name":"De La Salle Assoc Club Ltd","lat":53.3291,"lon":-1.50842,"postcode":"S8 7BA","la":"Sheffield","era":"other","nn":549,"risk":27,"cat":"green"},{"name":"Decks","lat":53.38953,"lon":-1.47273,"postcode":"S3 8RY","la":"Sheffield","era":"other","nn":72,"risk":19,"cat":"green"},{"name":"Department of Drinks Ltd","lat":53.38401,"lon":-1.46542,"postcode":"S3 8LN","la":"Sheffield","era":"other","nn":0,"risk":18,"cat":"green"},{"name":"Devonshire Arms","lat":53.32708,"lon":-1.53937,"postcode":"S17 3GU","la":"Sheffield","era":"trad","nn":87,"risk":36,"cat":"amber"},{"name":"Dog & Partridge","lat":53.38196,"lon":-1.47459,"postcode":"S1 4EL","la":"Sheffield","era":"other","nn":0,"risk":18,"cat":"green"},{"name":"Dore & Totley Golf Club","lat":53.31947,"lon":-1.49954,"postcode":"S17 4QR","la":"Sheffield","era":"other","nn":80,"risk":21,"cat":"green"},{"name":"Dove and Rainbow","lat":53.3834,"lon":-1.46694,"postcode":"S1 2FD","la":"Sheffield","era":"other","nn":72,"risk":19,"cat":"green"},{"name":"Drakehouse Mill","lat":53.34517,"lon":-1.35654,"postcode":"S20 7JJ","la":"Sheffield","era":"other","nn":777,"risk":26,"cat":"green"},{"name":"Duality","lat":53.3796,"lon":-1.47709,"postcode":"S3 7SF","la":"Sheffield","era":"other","nn":62,"risk":19,"cat":"green"},{"name":"Events Collective Ltd","lat":53.36179,"lon":-1.51015,"postcode":"S11 7GH","la":"Sheffield","era":"mod","nn":116,"risk":19,"cat":"green"},{"name":"Everest Inn","lat":53.37044,"lon":-1.37592,"postcode":"S13 9HS","la":"Sheffield","era":"trad","nn":742,"risk":41,"cat":"amber"},{"name":"Farm Road Sports & Social","lat":53.37352,"lon":-1.462,"postcode":"S2 2TP","la":"Sheffield","era":"mod","nn":175,"risk":19,"cat":"green"},{"name":"Firth Park W M C","lat":53.41055,"lon":-1.44965,"postcode":"S5 6UP","la":"Sheffield","era":"other","nn":1359,"risk":50,"cat":"amber"},{"name":"Florist Inn","lat":53.39585,"lon":-1.5003,"postcode":"S6 2XN","la":"Sheffield","era":"trad","nn":85,"risk":19,"cat":"green"},{"name":"Foundry Bar Student Union","lat":53.38061,"lon":-1.48767,"postcode":"S10 2TG","la":"Sheffield","era":"mod","nn":0,"risk":18,"cat":"green"},{"name":"Fox","lat":53.3466,"lon":-1.34462,"postcode":"S20 1BB","la":"Sheffield","era":"trad","nn":358,"risk":21,"cat":"green"},{"name":"Friendship Hotel","lat":53.48283,"lon":-1.59441,"postcode":"S36 2DW","la":"Sheffield","era":"trad","nn":174,"risk":24,"cat":"green"},{"name":"Frog and Parrot","lat":53.38004,"lon":-1.47449,"postcode":"S1 4GF","la":"Sheffield","era":"other","nn":0,"risk":18,"cat":"green"},{"name":"George Inn","lat":53.35913,"lon":-1.36743,"postcode":"S13 7PD","la":"Sheffield","era":"trad","nn":120,"risk":24,"cat":"green"},{"name":"Glass Frog","lat":53.36008,"lon":-1.4793,"postcode":"S7 1FS","la":"Sheffield","era":"other","nn":8,"risk":18,"cat":"green"},{"name":"Gleadless & Dist Conservatives","lat":53.35183,"lon":-1.42057,"postcode":"S12 2EJ","la":"Sheffield","era":"other","nn":416,"risk":21,"cat":"green"},{"name":"Globe Sheffield","lat":53.37849,"lon":-1.46631,"postcode":"S1 2LX","la":"Sheffield","era":"other","nn":117,"risk":19,"cat":"green"},{"name":"Golden Lion","lat":53.36787,"lon":-1.47302,"postcode":"S2 4UB","la":"Sheffield","era":"trad","nn":223,"risk":20,"cat":"green"},{"name":"Golden Plover","lat":53.34536,"lon":-1.38637,"postcode":"S12 4HE","la":"Sheffield","era":"other","nn":736,"risk":28,"cat":"green"},{"name":"Graduate","lat":53.37993,"lon":-1.46743,"postcode":"S1 2LH","la":"Sheffield","era":"other","nn":0,"risk":18,"cat":"green"},{"name":"Grennel Mower Hotel (Pub)","lat":53.32028,"lon":-1.49202,"postcode":"S8 7JD","la":"Sheffield","era":"other","nn":507,"risk":39,"cat":"amber"},{"name":"Grenoside Private Members Club","lat":53.44351,"lon":-1.50392,"postcode":"S35 8PP","la":"Sheffield","era":"other","nn":21,"risk":38,"cat":"amber"},{"name":"Gut Level","lat":53.38186,"lon":-1.46763,"postcode":"S1 2PD","la":"Sheffield","era":"other","nn":119,"risk":19,"cat":"green"},{"name":"Guzzle","lat":53.34071,"lon":-1.47874,"postcode":"S8 0SQ","la":"Sheffield","era":"other","nn":53,"risk":19,"cat":"green"},{"name":"Gypsy Queen","lat":53.34327,"lon":-1.34527,"postcode":"S20 1FW","la":"Sheffield","era":"trad","nn":353,"risk":21,"cat":"green"},{"name":"Hallamshire Hotel","lat":53.38072,"lon":-1.47782,"postcode":"S1 4ET","la":"Sheffield","era":"other","nn":86,"risk":19,"cat":"green"},{"name":"Handsworth Inn","lat":53.37206,"lon":-1.38821,"postcode":"S13 9BP","la":"Sheffield","era":"trad","nn":100,"risk":21,"cat":"green"},{"name":"Handsworth Social Club Ltd","lat":53.37218,"lon":-1.38672,"postcode":"S13 9AG","la":"Sheffield","era":"mod","nn":100,"risk":21,"cat":"green"},{"name":"Hare & Hounds","lat":53.3263,"lon":-1.53948,"postcode":"S17 3GR","la":"Sheffield","era":"trad","nn":87,"risk":24,"cat":"green"},{"name":"Hare and Hounds","lat":53.43597,"lon":-1.54017,"postcode":"S35 0FW","la":"Sheffield","era":"trad","nn":79,"risk":24,"cat":"green"},{"name":"Hartley House Social Club","lat":53.4223,"lon":-1.44384,"postcode":"S5 6HQ","la":"Sheffield","era":"other","nn":675,"risk":40,"cat":"amber"},{"name":"Hawk and Dove","lat":53.33794,"lon":-1.35587,"postcode":"S20 7HH","la":"Sheffield","era":"other","nn":806,"risk":41,"cat":"amber"},{"name":"Heist Craft Ltd","lat":53.39348,"lon":-1.47879,"postcode":"S3 8AT","la":"Sheffield","era":"mod","nn":63,"risk":19,"cat":"green"},{"name":"Hen and Chickens","lat":53.38448,"lon":-1.4651,"postcode":"S3 8LX","la":"Sheffield","era":"other","nn":56,"risk":19,"cat":"green"},{"name":"High Green Working Mens Club","lat":53.47579,"lon":-1.49323,"postcode":"S35 4LE","la":"Sheffield","era":"trad","nn":437,"risk":24,"cat":"green"},{"name":"Hillsborough Park Bowling Club","lat":53.40742,"lon":-1.50445,"postcode":"S6 4HD","la":"Sheffield","era":"other","nn":0,"risk":18,"cat":"green"},{"name":"Hillsborough Social Club","lat":53.40414,"lon":-1.51046,"postcode":"S6 4QQ","la":"Sheffield","era":"mod","nn":262,"risk":20,"cat":"green"},{"name":"Hoffenbrau","lat":53.37987,"lon":-1.47565,"postcode":"S1 4EB","la":"Sheffield","era":"other","nn":79,"risk":19,"cat":"green"},{"name":"Horse and Jockey","lat":53.41053,"lon":-1.51494,"postcode":"S6 4EF","la":"Sheffield","era":"trad","nn":399,"risk":21,"cat":"green"},{"name":"HP Endeavours Ltd","lat":53.39327,"lon":-1.43829,"postcode":"S9 3XG","la":"Sheffield","era":"other","nn":254,"risk":37,"cat":"amber"},{"name":"IBIS BUDGET","lat":53.40136,"lon":-1.42189,"postcode":"S9 2AG","la":"Sheffield","era":"other","nn":188,"risk":37,"cat":"amber"},{"name":"Industry Tap","lat":53.37458,"lon":-1.46974,"postcode":"S1 4RG","la":"Sheffield","era":"mod","nn":72,"risk":19,"cat":"green"},{"name":"Itchy Pig Banner Cross","lat":53.36126,"lon":-1.50865,"postcode":"S11 8TR","la":"Sheffield","era":"trad","nn":116,"risk":19,"cat":"green"},{"name":"J D Wetherspoons Ltd","lat":53.37922,"lon":-1.47222,"postcode":"S1 4HP","la":"Sheffield","era":"other","nn":156,"risk":19,"cat":"green"},{"name":"Jack in a Box","lat":53.35037,"lon":-1.39363,"postcode":"S12 4RP","la":"Sheffield","era":"other","nn":736,"risk":41,"cat":"amber"},{"name":"John O'Gaunt","lat":53.34504,"lon":-1.44573,"postcode":"S14 1FX","la":"Sheffield","era":"other","nn":768,"risk":26,"cat":"green"},{"name":"Jubilee Sports & Social Club","lat":53.41861,"lon":-1.50647,"postcode":"S6 1LZ","la":"Sheffield","era":"mod","nn":462,"risk":21,"cat":"green"},{"name":"Jurassica Ltd","lat":53.43848,"lon":-1.46936,"postcode":"S5 9DP","la":"Sheffield","era":"other","nn":390,"risk":23,"cat":"green"},{"name":"K Max Karaoke Bar","lat":53.38519,"lon":-1.47361,"postcode":"S3 7BS","la":"Sheffield","era":"other","nn":28,"risk":18,"cat":"green"},{"name":"Katie O'Briens","lat":53.38123,"lon":-1.4796,"postcode":"S1 4DT","la":"Sheffield","era":"other","nn":104,"risk":19,"cat":"green"},{"name":"Kelham Isla Ltd","lat":53.3893,"lon":-1.47132,"postcode":"S3 8RY","la":"Sheffield","era":"other","nn":78,"risk":19,"cat":"green"},{"name":"Kelu","lat":53.38835,"lon":-1.47562,"postcode":"S3 8UL","la":"Sheffield","era":"other","nn":46,"risk":18,"cat":"green"},{"name":"King And Miller Tavern","lat":53.47789,"lon":-1.5675,"postcode":"S36 2RD","la":"Sheffield","era":"trad","nn":758,"risk":43,"cat":"amber"},{"name":"Kommune Bar","lat":53.38401,"lon":-1.46542,"postcode":"S3 8LN","la":"Sheffield","era":"other","nn":0,"risk":18,"cat":"green"},{"name":"KWB","lat":53.39101,"lon":-1.4747,"postcode":"S3 8DB","la":"Sheffield","era":"other","nn":147,"risk":19,"cat":"green"},{"name":"La Plata Social Club","lat":53.40106,"lon":-1.50079,"postcode":"S6 2PB","la":"Sheffield","era":"mod","nn":0,"risk":18,"cat":"green"},{"name":"Lantern Theatre","lat":53.36479,"lon":-1.4848,"postcode":"S7 1NF","la":"Sheffield","era":"other","nn":505,"risk":22,"cat":"green"},{"name":"Lawn View Club House","lat":53.36655,"lon":-1.54309,"postcode":"S10 3RL","la":"Sheffield","era":"other","nn":864,"risk":44,"cat":"amber"},{"name":"Laycock Sports Club","lat":53.33955,"lon":-1.47087,"postcode":"S8 0JY","la":"Sheffield","era":"other","nn":262,"risk":20,"cat":"green"},{"name":"Legionnaires Club","lat":53.48134,"lon":-1.59361,"postcode":"S36 1BA","la":"Sheffield","era":"other","nn":174,"risk":24,"cat":"green"},{"name":"Liquor Lab","lat":53.38158,"lon":-1.47019,"postcode":"S1 2FB","la":"Sheffield","era":"other","nn":8,"risk":18,"cat":"green"},{"name":"Lord Nelson","lat":53.37503,"lon":-1.47051,"postcode":"S1 4RE","la":"Sheffield","era":"trad","nn":72,"risk":19,"cat":"green"},{"name":"Lost in West Bar","lat":53.38666,"lon":-1.47191,"postcode":"S3 8UA","la":"Sheffield","era":"other","nn":30,"risk":18,"cat":"green"},{"name":"Lounge418","lat":53.37016,"lon":-1.49274,"postcode":"S11 8PJ","la":"Sheffield","era":"mod","nn":30,"risk":18,"cat":"green"},{"name":"Maggie May's","lat":53.38205,"lon":-1.47319,"postcode":"S1 4FG","la":"Sheffield","era":"other","nn":64,"risk":19,"cat":"green"},{"name":"Maida Vale","lat":53.38135,"lon":-1.47461,"postcode":"S1 4EP","la":"Sheffield","era":"other","nn":19,"risk":18,"cat":"green"},{"name":"Manahatta","lat":53.38117,"lon":-1.47117,"postcode":"S1 2JA","la":"Sheffield","era":"other","nn":6,"risk":18,"cat":"green"},{"name":"Manor Castle Pub","lat":53.37389,"lon":-1.43475,"postcode":"S2 1UJ","la":"Sheffield","era":"other","nn":324,"risk":40,"cat":"amber"},{"name":"Masons Arms","lat":53.39881,"lon":-1.49146,"postcode":"S6 2UE","la":"Sheffield","era":"trad","nn":667,"risk":23,"cat":"green"},{"name":"Meltdown Bar","lat":53.3846,"lon":-1.46653,"postcode":"S3 8NA","la":"Sheffield","era":"other","nn":96,"risk":19,"cat":"green"},{"name":"Merrie Monk","lat":53.37495,"lon":-1.4302,"postcode":"S2 1WE","la":"Sheffield","era":"trad","nn":324,"risk":40,"cat":"amber"},{"name":"Mesters Tap","lat":53.34393,"lon":-1.47849,"postcode":"S8 0SD","la":"Sheffield","era":"mod","nn":59,"risk":19,"cat":"green"},{"name":"Middlewood Rovers JFC","lat":53.38099,"lon":-1.39074,"postcode":"S13 9AE","la":"Sheffield","era":"other","nn":709,"risk":41,"cat":"amber"},{"name":"Millhouses Park Cricket Pavilion","lat":53.3458,"lon":-1.49689,"postcode":"S7 2QL","la":"Sheffield","era":"trad","nn":208,"risk":40,"cat":"amber"},{"name":"Miners Arms","lat":53.4749,"lon":-1.46532,"postcode":"S35 2YD","la":"Sheffield","era":"trad","nn":1129,"risk":49,"cat":"amber"},{"name":"Mojo","lat":53.38163,"lon":-1.47253,"postcode":"S1 2GT","la":"Sheffield","era":"other","nn":64,"risk":19,"cat":"green"},{"name":"Molly Malones","lat":53.38108,"lon":-1.47642,"postcode":"S1 4ES","la":"Sheffield","era":"other","nn":20,"risk":18,"cat":"green"},{"name":"Mosborough Miners Welfare","lat":53.32637,"lon":-1.36119,"postcode":"S20 5AD","la":"Sheffield","era":"other","nn":122,"risk":22,"cat":"green"},{"name":"Nailmakers Arms","lat":53.33959,"lon":-1.45284,"postcode":"S8 8LB","la":"Sheffield","era":"trad","nn":228,"risk":22,"cat":"green"},{"name":"Nether Edge Bowling Club","lat":53.35874,"lon":-1.48803,"postcode":"S7 1RU","la":"Sheffield","era":"other","nn":201,"risk":20,"cat":"green"},{"name":"Network Venue","lat":53.3767,"lon":-1.47198,"postcode":"S1 4QD","la":"Sheffield","era":"other","nn":58,"risk":19,"cat":"green"},{"name":"New Bridge Inn","lat":53.41852,"lon":-1.49951,"postcode":"S6 1LQ","la":"Sheffield","era":"trad","nn":43,"risk":18,"cat":"green"},{"name":"New Inn","lat":53.35002,"lon":-1.4275,"postcode":"S12 2NR","la":"Sheffield","era":"trad","nn":442,"risk":21,"cat":"green"},{"name":"Noah's Ark Hotel","lat":53.38267,"lon":-1.50662,"postcode":"S10 1UG","la":"Sheffield","era":"other","nn":106,"risk":19,"cat":"green"},{"name":"Noose And Gibbet","lat":53.40116,"lon":-1.4172,"postcode":"S9 2DE","la":"Sheffield","era":"other","nn":312,"risk":38,"cat":"amber"},{"name":"Norfolk Arms","lat":53.38368,"lon":-1.46281,"postcode":"S1 2AL","la":"Sheffield","era":"trad","nn":44,"risk":18,"cat":"green"},{"name":"Normanton Inn","lat":53.39655,"lon":-1.456,"postcode":"S4 7EG","la":"Sheffield","era":"trad","nn":418,"risk":24,"cat":"green"},{"name":"Northern Monkey","lat":53.4029,"lon":-1.50157,"postcode":"S6 4GY","la":"Sheffield","era":"trad","nn":55,"risk":19,"cat":"green"},{"name":"Norton House Country Club","lat":53.33461,"lon":-1.46039,"postcode":"S8 8HD","la":"Sheffield","era":"mod","nn":603,"risk":25,"cat":"green"},{"name":"Oakbrook Rafters Limited","lat":53.36843,"lon":-1.52449,"postcode":"S11 7ED","la":"Sheffield","era":"trad","nn":316,"risk":23,"cat":"green"},{"name":"Olive Grove Sports Club","lat":53.3632,"lon":-1.4629,"postcode":"S2 3GL","la":"Sheffield","era":"other","nn":413,"risk":21,"cat":"green"},{"name":"Olivia Townhouse","lat":53.37999,"lon":-1.47965,"postcode":"S1 4EW","la":"Sheffield","era":"other","nn":39,"risk":18,"cat":"green"},{"name":"One Four One","lat":53.38009,"lon":-1.47909,"postcode":"S1 4EW","la":"Sheffield","era":"other","nn":29,"risk":18,"cat":"green"},{"name":"Onyx / Fez Room / Room One","lat":53.38133,"lon":-1.47693,"postcode":"S1 4NL","la":"Sheffield","era":"other","nn":44,"risk":18,"cat":"green"},{"name":"Orchard Tap","lat":53.38157,"lon":-1.4703,"postcode":"S1 2FB","la":"Sheffield","era":"mod","nn":8,"risk":18,"cat":"green"},{"name":"Over The Yardarm Limits","lat":53.36051,"lon":-1.47912,"postcode":"S7 1FS","la":"Sheffield","era":"mod","nn":49,"risk":19,"cat":"green"},{"name":"OYO Sheffield Metropolitan","lat":53.38546,"lon":-1.46109,"postcode":"S1 2AU","la":"Sheffield","era":"other","nn":171,"risk":19,"cat":"green"},{"name":"Pen Nook","lat":53.47298,"lon":-1.57543,"postcode":"S36 2QH","la":"Sheffield","era":"other","nn":758,"risk":41,"cat":"amber"},{"name":"Penny Black","lat":53.38092,"lon":-1.46304,"postcode":"S1 2BG","la":"Sheffield","era":"other","nn":0,"risk":18,"cat":"green"},{"name":"Pheasant Inn","lat":53.42023,"lon":-1.49845,"postcode":"S6 1JY","la":"Sheffield","era":"trad","nn":202,"risk":20,"cat":"green"},{"name":"Philadelphia Function Room and Bar","lat":53.38761,"lon":-1.48721,"postcode":"S6 3DW","la":"Sheffield","era":"other","nn":503,"risk":22,"cat":"green"},{"name":"Picture House Social","lat":53.36001,"lon":-1.47935,"postcode":"S7 1FS","la":"Sheffield","era":"mod","nn":0,"risk":18,"cat":"green"},{"name":"Pitsmoor Inn","lat":53.40008,"lon":-1.46548,"postcode":"S3 9AY","la":"Sheffield","era":"trad","nn":40,"risk":23,"cat":"green"},{"name":"Polish Catholic Centre","lat":53.36904,"lon":-1.49792,"postcode":"S11 8PY","la":"Sheffield","era":"other","nn":151,"risk":19,"cat":"green"},{"name":"Pop Bar","lat":53.39304,"lon":-1.47821,"postcode":"S3 8AT","la":"Sheffield","era":"other","nn":0,"risk":18,"cat":"green"},{"name":"Popworld","lat":53.38058,"lon":-1.47422,"postcode":"S1 4FS","la":"Sheffield","era":"other","nn":16,"risk":18,"cat":"green"},{"name":"Porter Cottage","lat":53.36769,"lon":-1.49809,"postcode":"S11 8ZL","la":"Sheffield","era":"other","nn":134,"risk":19,"cat":"green"},{"name":"Portland House","lat":53.37137,"lon":-1.4893,"postcode":"S11 8PE","la":"Sheffield","era":"other","nn":55,"risk":19,"cat":"green"},{"name":"Premier Inn","lat":53.40119,"lon":-1.4247,"postcode":"S9 2LU","la":"Sheffield","era":"trad","nn":188,"risk":37,"cat":"amber"},{"name":"Prince of Wales","lat":53.46223,"lon":-1.46998,"postcode":"S35 1SF","la":"Sheffield","era":"trad","nn":84,"risk":19,"cat":"green"},{"name":"Prince of Wales","lat":53.35626,"lon":-1.51093,"postcode":"S11 9PH","la":"Sheffield","era":"trad","nn":576,"risk":27,"cat":"green"},{"name":"Prince of Wales Sheffield","lat":53.34576,"lon":-1.47281,"postcode":"S8 8SE","la":"Sheffield","era":"trad","nn":364,"risk":21,"cat":"green"},{"name":"Princess Royal","lat":53.38856,"lon":-1.50143,"postcode":"S10 1NW","la":"Sheffield","era":"trad","nn":324,"risk":20,"cat":"green"},{"name":"Punch Bowl","lat":53.35698,"lon":-1.43257,"postcode":"S12 2SF","la":"Sheffield","era":"other","nn":694,"risk":23,"cat":"green"},{"name":"QJ - Box - Frat","lat":53.37464,"lon":-1.47468,"postcode":"S1 4PH","la":"Sheffield","era":"other","nn":280,"risk":20,"cat":"green"},{"name":"Queens Hotel","lat":53.32613,"lon":-1.36346,"postcode":"S20 5AF","la":"Sheffield","era":"trad","nn":144,"risk":22,"cat":"green"},{"name":"Raven Inn","lat":53.39511,"lon":-1.50062,"postcode":"S6 2XF","la":"Sheffield","era":"trad","nn":85,"risk":19,"cat":"green"},{"name":"Red Grouse - Samuel Smith","lat":53.47634,"lon":-1.59758,"postcode":"S36 1FL","la":"Sheffield","era":"other","nn":615,"risk":27,"cat":"green"},{"name":"Red Lion","lat":53.37802,"lon":-1.46788,"postcode":"S1 2ND","la":"Sheffield","era":"trad","nn":110,"risk":19,"cat":"green"},{"name":"Red Lion","lat":53.35942,"lon":-1.4746,"postcode":"S2 4HT","la":"Sheffield","era":"trad","nn":40,"risk":18,"cat":"green"},{"name":"Red Lion","lat":53.34501,"lon":-1.42609,"postcode":"S12 2LL","la":"Sheffield","era":"trad","nn":454,"risk":24,"cat":"green"},{"name":"Rising Sun Inn","lat":53.3673,"lon":-1.53013,"postcode":"S10 3QA","la":"Sheffield","era":"trad","nn":395,"risk":23,"cat":"green"},{"name":"Ritetrax","lat":53.38408,"lon":-1.46286,"postcode":"S2 5TS","la":"Sheffield","era":"other","nn":44,"risk":18,"cat":"green"},{"name":"Riverside","lat":53.40107,"lon":-1.50079,"postcode":"S6 2PB","la":"Sheffield","era":"other","nn":0,"risk":18,"cat":"green"},{"name":"Robin Hood Hotel","lat":53.34661,"lon":-1.49972,"postcode":"S7 2HB","la":"Sheffield","era":"other","nn":208,"risk":40,"cat":"amber"},{"name":"Rose House","lat":53.39345,"lon":-1.50088,"postcode":"S6 3TE","la":"Sheffield","era":"trad","nn":186,"risk":19,"cat":"green"},{"name":"Roxy Ball Room","lat":53.37802,"lon":-1.47396,"postcode":"S1 4HS","la":"Sheffield","era":"other","nn":115,"risk":19,"cat":"green"},{"name":"Royal British Legion Club","lat":53.4571,"lon":-1.46476,"postcode":"S35 1TE","la":"Sheffield","era":"trad","nn":61,"risk":19,"cat":"green"},{"name":"Royal Oak","lat":53.39279,"lon":-1.45615,"postcode":"S4 7LS","la":"Sheffield","era":"trad","nn":145,"risk":22,"cat":"green"},{"name":"Royal Oak","lat":53.42867,"lon":-1.4189,"postcode":"S61 2DW","la":"Sheffield","era":"trad","nn":598,"risk":40,"cat":"amber"},{"name":"Rum Ba","lat":53.35895,"lon":-1.48136,"postcode":"S7 1FQ","la":"Sheffield","era":"other","nn":0,"risk":18,"cat":"green"},{"name":"Rumkeg876","lat":53.36262,"lon":-1.4781,"postcode":"S7 1FL","la":"Sheffield","era":"other","nn":245,"risk":20,"cat":"green"},{"name":"Rutland Cutlery Works Ltd.","lat":53.39304,"lon":-1.47821,"postcode":"S3 8AT","la":"Sheffield","era":"mod","nn":0,"risk":18,"cat":"green"},{"name":"SADACCA Ltd","lat":53.38658,"lon":-1.46285,"postcode":"S3 8JB","la":"Sheffield","era":"other","nn":171,"risk":19,"cat":"green"},{"name":"Salt Kelham Island","lat":53.38829,"lon":-1.47346,"postcode":"S3 8SJ","la":"Sheffield","era":"other","nn":104,"risk":19,"cat":"green"},{"name":"Shakespeare's","lat":53.38681,"lon":-1.47154,"postcode":"S3 8UB","la":"Sheffield","era":"other","nn":30,"risk":18,"cat":"green"},{"name":"Sheffield Civil Service Club","lat":53.44098,"lon":-1.45504,"postcode":"S35 9WY","la":"Sheffield","era":"other","nn":642,"risk":40,"cat":"amber"},{"name":"Sheffield Lane Top W.M.C.","lat":53.42249,"lon":-1.45403,"postcode":"S5 6HU","la":"Sheffield","era":"other","nn":0,"risk":36,"cat":"amber"},{"name":"Sheffield Tigers Rugby Club","lat":53.33394,"lon":-1.55673,"postcode":"S17 3AB","la":"Sheffield","era":"other","nn":1299,"risk":50,"cat":"amber"},{"name":"Sheffield Water Works Company","lat":53.38004,"lon":-1.47449,"postcode":"S1 4GF","la":"Sheffield","era":"mod","nn":0,"risk":18,"cat":"green"},{"name":"Ship Inn","lat":53.38859,"lon":-1.47617,"postcode":"S3 8UL","la":"Sheffield","era":"trad","nn":46,"risk":18,"cat":"green"},{"name":"Shiregreen Cricket Club","lat":53.42249,"lon":-1.45403,"postcode":"S5 6HU","la":"Sheffield","era":"other","nn":0,"risk":36,"cat":"amber"},{"name":"Shoulder Of Mutton","lat":53.42432,"lon":-1.541,"postcode":"S35 0AQ","la":"Sheffield","era":"other","nn":1066,"risk":48,"cat":"amber"},{"name":"Showcase Karaoke Bar","lat":53.37051,"lon":-1.47402,"postcode":"S2 4QU","la":"Sheffield","era":"other","nn":12,"risk":18,"cat":"green"},{"name":"Southey Social Club","lat":53.41799,"lon":-1.48156,"postcode":"S5 7QQ","la":"Sheffield","era":"mod","nn":451,"risk":39,"cat":"amber"},{"name":"Sportsman Inn","lat":53.41263,"lon":-1.51982,"postcode":"S6 4BB","la":"Sheffield","era":"trad","nn":399,"risk":41,"cat":"amber"},{"name":"Sportsman Inn","lat":53.39196,"lon":-1.42063,"postcode":"S9 5AD","la":"Sheffield","era":"trad","nn":719,"risk":26,"cat":"green"},{"name":"Sportsman Inn","lat":53.34553,"lon":-1.37443,"postcode":"S12 4LA","la":"Sheffield","era":"trad","nn":401,"risk":38,"cat":"amber"},{"name":"Springvale Tavern","lat":53.38722,"lon":-1.49709,"postcode":"S10 1GA","la":"Sheffield","era":"other","nn":200,"risk":20,"cat":"green"},{"name":"St Anns Catholic Social Club","lat":53.48001,"lon":-1.58378,"postcode":"S36 2QQ","la":"Sheffield","era":"mod","nn":667,"risk":28,"cat":"green"},{"name":"St Marys Catholic Club","lat":53.47304,"lon":-1.4847,"postcode":"S35 3HR","la":"Sheffield","era":"other","nn":189,"risk":19,"cat":"green"},{"name":"Stack Lounge","lat":53.37038,"lon":-1.47744,"postcode":"S2 4LE","la":"Sheffield","era":"mod","nn":39,"risk":18,"cat":"green"},{"name":"Staffordshire Arms","lat":53.39162,"lon":-1.4571,"postcode":"S4 7LB","la":"Sheffield","era":"trad","nn":145,"risk":19,"cat":"green"},{"name":"Stag Inn","lat":53.35858,"lon":-1.36899,"postcode":"S13 7JX","la":"Sheffield","era":"trad","nn":99,"risk":24,"cat":"green"},{"name":"Stars & Mayfair Party Suite","lat":53.37262,"lon":-1.46418,"postcode":"S2 4DG","la":"Sheffield","era":"other","nn":2,"risk":18,"cat":"green"},{"name":"Steel Foundry","lat":53.41487,"lon":-1.41013,"postcode":"S9 1EP","la":"Sheffield","era":"mod","nn":923,"risk":42,"cat":"amber"},{"name":"Sword Dancer","lat":53.37508,"lon":-1.39474,"postcode":"S13 8HT","la":"Sheffield","era":"other","nn":282,"risk":23,"cat":"green"},{"name":"Tank Nightclub","lat":53.38234,"lon":-1.46565,"postcode":"S1 2PN","la":"Sheffield","era":"other","nn":142,"risk":19,"cat":"green"},{"name":"Tapton Masonic Hall","lat":53.37601,"lon":-1.51527,"postcode":"S10 3BU","la":"Sheffield","era":"trad","nn":513,"risk":22,"cat":"green"},{"name":"Temple","lat":53.37261,"lon":-1.46416,"postcode":"S2 4DG","la":"Sheffield","era":"other","nn":2,"risk":18,"cat":"green"},{"name":"Terminus Tavern","lat":53.38741,"lon":-1.41128,"postcode":"S9 5HQ","la":"Sheffield","era":"other","nn":207,"risk":37,"cat":"amber"},{"name":"The Abbey","lat":53.3392,"lon":-1.48169,"postcode":"S8 0SH","la":"Sheffield","era":"trad","nn":217,"risk":20,"cat":"green"},{"name":"The Albion","lat":53.37117,"lon":-1.47713,"postcode":"S2 4LE","la":"Sheffield","era":"other","nn":90,"risk":19,"cat":"green"},{"name":"The Angel Inn","lat":53.35792,"lon":-1.37548,"postcode":"S13 7EQ","la":"Sheffield","era":"trad","nn":340,"risk":23,"cat":"green"},{"name":"The Ball Inn","lat":53.38443,"lon":-1.50837,"postcode":"S10 1UD","la":"Sheffield","era":"trad","nn":56,"risk":19,"cat":"green"},{"name":"The Ball Inn","lat":53.35876,"lon":-1.42024,"postcode":"S12 2AG","la":"Sheffield","era":"trad","nn":660,"risk":23,"cat":"green"},{"name":"The Barley","lat":53.45779,"lon":-1.44947,"postcode":"S61 2SE","la":"Sheffield","era":"other","nn":0,"risk":18,"cat":"green"},{"name":"The Beagle","lat":53.43265,"lon":-1.4845,"postcode":"S5 9NW","la":"Sheffield","era":"trad","nn":524,"risk":27,"cat":"green"},{"name":"The Beehive","lat":53.3803,"lon":-1.47936,"postcode":"S1 4EU","la":"Sheffield","era":"other","nn":0,"risk":18,"cat":"green"},{"name":"The Beer House","lat":53.36791,"lon":-1.50058,"postcode":"S11 8PT","la":"Sheffield","era":"other","nn":52,"risk":19,"cat":"green"},{"name":"The Bessemer","lat":53.38118,"lon":-1.47108,"postcode":"S1 2GZ","la":"Sheffield","era":"other","nn":6,"risk":18,"cat":"green"},{"name":"The Blake","lat":53.39117,"lon":-1.49191,"postcode":"S6 3JQ","la":"Sheffield","era":"other","nn":503,"risk":22,"cat":"green"},{"name":"The Boston Arms","lat":53.34445,"lon":-1.47849,"postcode":"S8 0SD","la":"Sheffield","era":"trad","nn":59,"risk":19,"cat":"green"},{"name":"The Bridge","lat":53.46473,"lon":-1.49064,"postcode":"S35 1TZ","la":"Sheffield","era":"other","nn":565,"risk":42,"cat":"amber"},{"name":"The Broadfield Ale House","lat":53.3584,"lon":-1.48262,"postcode":"S7 1FR","la":"Sheffield","era":"other","nn":0,"risk":18,"cat":"green"},{"name":"The Carlton","lat":53.39252,"lon":-1.43467,"postcode":"S9 3RA","la":"Sheffield","era":"other","nn":33,"risk":23,"cat":"green"},{"name":"The Castle Inn","lat":53.46772,"lon":-1.59338,"postcode":"S36 3ZB","la":"Sheffield","era":"trad","nn":998,"risk":45,"cat":"amber"},{"name":"The Centre Spot","lat":53.34816,"lon":-1.41708,"postcode":"S12 3DN","la":"Sheffield","era":"other","nn":469,"risk":21,"cat":"green"},{"name":"The Church House","lat":53.38294,"lon":-1.47032,"postcode":"S1 2EW","la":"Sheffield","era":"other","nn":115,"risk":19,"cat":"green"},{"name":"The Closed Shop Pub","lat":53.38524,"lon":-1.49844,"postcode":"S10 1GG","la":"Sheffield","era":"other","nn":239,"risk":20,"cat":"green"},{"name":"The Club House","lat":53.46439,"lon":-1.47032,"postcode":"S35 2US","la":"Sheffield","era":"other","nn":242,"risk":20,"cat":"green"},{"name":"The Clubhouse","lat":53.37207,"lon":-1.47662,"postcode":"S2 4LA","la":"Sheffield","era":"other","nn":105,"risk":19,"cat":"green"},{"name":"The Cock Inn","lat":53.43605,"lon":-1.53899,"postcode":"S35 0FL","la":"Sheffield","era":"trad","nn":79,"risk":24,"cat":"green"},{"name":"The Cross Scythes","lat":53.34878,"lon":-1.4769,"postcode":"S8 9EQ","la":"Sheffield","era":"trad","nn":432,"risk":21,"cat":"green"},{"name":"The Crow Inn","lat":53.38512,"lon":-1.47321,"postcode":"S3 7BS","la":"Sheffield","era":"trad","nn":28,"risk":18,"cat":"green"},{"name":"The Crown","lat":53.41041,"lon":-1.42214,"postcode":"S9 1BS","la":"Sheffield","era":"trad","nn":127,"risk":37,"cat":"amber"},{"name":"The Crown and Glove","lat":53.39251,"lon":-1.55049,"postcode":"S6 6BY","la":"Sheffield","era":"trad","nn":1397,"risk":50,"cat":"amber"},{"name":"The Crown Inn","lat":53.31772,"lon":-1.54193,"postcode":"S17 3AX","la":"Sheffield","era":"trad","nn":967,"risk":42,"cat":"amber"},{"name":"The Crown Inn","lat":53.35911,"lon":-1.47491,"postcode":"S8 9QW","la":"Sheffield","era":"trad","nn":40,"risk":18,"cat":"green"},{"name":"The Discovery Rutland Hotel","lat":53.37693,"lon":-1.49622,"postcode":"S10 2PY","la":"Sheffield","era":"other","nn":306,"risk":20,"cat":"green"},{"name":"The Doctor's Orders","lat":53.37936,"lon":-1.48964,"postcode":"S10 2JD","la":"Sheffield","era":"other","nn":192,"risk":20,"cat":"green"},{"name":"The Dore Club","lat":53.3266,"lon":-1.54151,"postcode":"S17 3GA","la":"Sheffield","era":"other","nn":139,"risk":24,"cat":"green"},{"name":"The Ecclesall Ale Club","lat":53.36998,"lon":-1.49239,"postcode":"S11 8PG","la":"Sheffield","era":"other","nn":30,"risk":18,"cat":"green"},{"name":"The Edge Bar","lat":53.37283,"lon":-1.50966,"postcode":"S10 3ED","la":"Sheffield","era":"other","nn":513,"risk":22,"cat":"green"},{"name":"The Fat Cat Kitchen","lat":53.38848,"lon":-1.47116,"postcode":"S3 8SA","la":"Sheffield","era":"mod","nn":91,"risk":19,"cat":"green"},{"name":"The Forest","lat":53.39429,"lon":-1.47365,"postcode":"S3 9PA","la":"Sheffield","era":"other","nn":220,"risk":20,"cat":"green"},{"name":"The Forty Foot","lat":53.41624,"lon":-1.48769,"postcode":"S5 8ND","la":"Sheffield","era":"other","nn":451,"risk":21,"cat":"green"},{"name":"The Fox & Hounds","lat":53.42548,"lon":-1.50012,"postcode":"S6 1HJ","la":"Sheffield","era":"trad","nn":551,"risk":22,"cat":"green"},{"name":"The Gin Bar","lat":53.3584,"lon":-1.48262,"postcode":"S7 1FR","la":"Sheffield","era":"other","nn":0,"risk":18,"cat":"green"},{"name":"The Grapes","lat":53.38196,"lon":-1.47459,"postcode":"S1 4EL","la":"Sheffield","era":"other","nn":0,"risk":18,"cat":"green"},{"name":"The Greyhound Hotel","lat":53.43816,"lon":-1.46349,"postcode":"S35 9XE","la":"Sheffield","era":"trad","nn":390,"risk":26,"cat":"green"},{"name":"The Greystones","lat":53.3642,"lon":-1.51514,"postcode":"S11 7BS","la":"Sheffield","era":"other","nn":426,"risk":21,"cat":"green"},{"name":"The Harley","lat":53.38032,"lon":-1.48498,"postcode":"S10 2HW","la":"Sheffield","era":"other","nn":181,"risk":19,"cat":"green"},{"name":"The Harritt Wine Bar","lat":53.36818,"lon":-1.49994,"postcode":"S11 8PT","la":"Sheffield","era":"other","nn":52,"risk":19,"cat":"green"},{"name":"The Head of Steam","lat":53.38045,"lon":-1.46816,"postcode":"S1 2JE","la":"Sheffield","era":"trad","nn":20,"risk":18,"cat":"green"},{"name":"The Highcliffe Club","lat":53.36179,"lon":-1.52314,"postcode":"S11 7LU","la":"Sheffield","era":"other","nn":595,"risk":22,"cat":"green"},{"name":"The Hillsborough Club","lat":53.40402,"lon":-1.4968,"postcode":"S6 2BS","la":"Sheffield","era":"other","nn":239,"risk":20,"cat":"green"},{"name":"The Hogshead","lat":53.34615,"lon":-1.36847,"postcode":"S12 4AJ","la":"Sheffield","era":"trad","nn":401,"risk":38,"cat":"amber"},{"name":"The Hollin Bush","lat":53.35367,"lon":-1.41511,"postcode":"S12 2EG","la":"Sheffield","era":"other","nn":359,"risk":21,"cat":"green"},{"name":"The Itchy Pig Ale House","lat":53.37697,"lon":-1.50161,"postcode":"S10 2QE","la":"Sheffield","era":"other","nn":20,"risk":18,"cat":"green"},{"name":"The Leadmill","lat":53.37633,"lon":-1.46486,"postcode":"S1 4SE","la":"Sheffield","era":"trad","nn":248,"risk":20,"cat":"green"},{"name":"The Local","lat":53.36978,"lon":-1.49294,"postcode":"S11 8PG","la":"Sheffield","era":"other","nn":43,"risk":18,"cat":"green"},{"name":"The Manor Pocket Sports Bar","lat":53.36322,"lon":-1.43289,"postcode":"S2 1GN","la":"Sheffield","era":"other","nn":50,"risk":24,"cat":"green"},{"name":"The Masons","lat":53.38279,"lon":-1.5082,"postcode":"S10 1UR","la":"Sheffield","era":"trad","nn":106,"risk":19,"cat":"green"},{"name":"The Mount Pleasant","lat":53.3419,"lon":-1.47056,"postcode":"S8 8SG","la":"Sheffield","era":"other","nn":262,"risk":20,"cat":"green"},{"name":"The Nether Edge Club","lat":53.36031,"lon":-1.48656,"postcode":"S7 1HR","la":"Sheffield","era":"other","nn":201,"risk":20,"cat":"green"},{"name":"The Noah's Ark","lat":53.35537,"lon":-1.41051,"postcode":"S12 2AL","la":"Sheffield","era":"other","nn":359,"risk":23,"cat":"green"},{"name":"The Norfolk Arms","lat":53.34983,"lon":-1.56436,"postcode":"S11 7TS","la":"Sheffield","era":"trad","nn":1838,"risk":54,"cat":"amber"},{"name":"The Old Crown Inn","lat":53.37004,"lon":-1.47737,"postcode":"S2 4LE","la":"Sheffield","era":"trad","nn":39,"risk":18,"cat":"green"},{"name":"The Old Harrow","lat":53.44335,"lon":-1.50375,"postcode":"S35 8PP","la":"Sheffield","era":"other","nn":21,"risk":38,"cat":"amber"},{"name":"The Old Horns Inn","lat":53.40346,"lon":-1.5608,"postcode":"S6 6LG","la":"Sheffield","era":"trad","nn":1397,"risk":50,"cat":"amber"},{"name":"The Old Queens Head","lat":53.38092,"lon":-1.46304,"postcode":"S1 2BG","la":"Sheffield","era":"trad","nn":0,"risk":18,"cat":"green"},{"name":"The Old Shoe","lat":53.38192,"lon":-1.47067,"postcode":"S1 2FB","la":"Sheffield","era":"other","nn":46,"risk":18,"cat":"green"},{"name":"The Old Workshop","lat":53.39234,"lon":-1.47426,"postcode":"S3 8BL","la":"Sheffield","era":"mod","nn":63,"risk":19,"cat":"green"},{"name":"The Original Bierkeller","lat":53.38148,"lon":-1.47443,"postcode":"S1 4EP","la":"Sheffield","era":"other","nn":19,"risk":18,"cat":"green"},{"name":"The Owls Nest Bar","lat":53.40241,"lon":-1.50163,"postcode":"S6 4JQ","la":"Sheffield","era":"other","nn":55,"risk":19,"cat":"green"},{"name":"The Punchbowl","lat":53.38667,"lon":-1.50725,"postcode":"S10 1TH","la":"Sheffield","era":"other","nn":51,"risk":19,"cat":"green"},{"name":"The Queens Head","lat":53.47402,"lon":-1.48703,"postcode":"S35 4LU","la":"Sheffield","era":"trad","nn":189,"risk":19,"cat":"green"},{"name":"The Railway","lat":53.36985,"lon":-1.47251,"postcode":"S2 4RF","la":"Sheffield","era":"trad","nn":76,"risk":19,"cat":"green"},{"name":"The Railway","lat":53.41147,"lon":-1.42284,"postcode":"S9 1BE","la":"Sheffield","era":"trad","nn":127,"risk":37,"cat":"amber"},{"name":"The Railway Hotel","lat":53.41818,"lon":-1.49919,"postcode":"S6 1LP","la":"Sheffield","era":"trad","nn":43,"risk":18,"cat":"green"},{"name":"The Ranmoor Inn","lat":53.37113,"lon":-1.523,"postcode":"S10 3GD","la":"Sheffield","era":"trad","nn":316,"risk":20,"cat":"green"},{"name":"The Roebuck","lat":53.37839,"lon":-1.46942,"postcode":"S1 2NB","la":"Sheffield","era":"other","nn":110,"risk":19,"cat":"green"},{"name":"The Royal","lat":53.3586,"lon":-1.37048,"postcode":"S13 7JX","la":"Sheffield","era":"trad","nn":99,"risk":21,"cat":"green"},{"name":"The Shakey","lat":53.40311,"lon":-1.50006,"postcode":"S6 2BY","la":"Sheffield","era":"other","nn":103,"risk":19,"cat":"green"},{"name":"The Sheaf","lat":53.3621,"lon":-1.47095,"postcode":"S2 3AA","la":"Sheffield","era":"trad","nn":163,"risk":19,"cat":"green"},{"name":"The Sportsman","lat":53.37164,"lon":-1.58236,"postcode":"S10 4LJ","la":"Sheffield","era":"other","nn":96,"risk":39,"cat":"amber"},{"name":"The Sportsman Inn","lat":53.34401,"lon":-1.46818,"postcode":"S8 8PE","la":"Sheffield","era":"trad","nn":283,"risk":20,"cat":"green"},{"name":"The Stocks","lat":53.44225,"lon":-1.47028,"postcode":"S35 9YT","la":"Sheffield","era":"other","nn":423,"risk":39,"cat":"amber"},{"name":"The Strad","lat":53.36035,"lon":-1.39335,"postcode":"S13 8SE","la":"Sheffield","era":"other","nn":758,"risk":43,"cat":"amber"},{"name":"The Teller","lat":53.35871,"lon":-1.48207,"postcode":"S7 1FQ","la":"Sheffield","era":"other","nn":50,"risk":19,"cat":"green"},{"name":"The Three Feathers","lat":53.37535,"lon":-1.41094,"postcode":"S9 4EE","la":"Sheffield","era":"other","nn":918,"risk":45,"cat":"amber"},{"name":"The Three Merry Lads","lat":53.37179,"lon":-1.58093,"postcode":"S10 4LJ","la":"Sheffield","era":"other","nn":96,"risk":39,"cat":"amber"},{"name":"The Three Tuns","lat":53.38391,"lon":-1.47133,"postcode":"S1 2DD","la":"Sheffield","era":"other","nn":127,"risk":19,"cat":"green"},{"name":"The Victoria","lat":53.3596,"lon":-1.46438,"postcode":"S2 3AL","la":"Sheffield","era":"trad","nn":413,"risk":21,"cat":"green"},{"name":"The Washington","lat":53.37782,"lon":-1.47806,"postcode":"S1 4JP","la":"Sheffield","era":"other","nn":122,"risk":19,"cat":"green"},{"name":"The Water Tower","lat":53.33944,"lon":-1.45626,"postcode":"S8 8LN","la":"Sheffield","era":"other","nn":228,"risk":20,"cat":"green"},{"name":"The Wedge","lat":53.38893,"lon":-1.47232,"postcode":"S3 8DH","la":"Sheffield","era":"other","nn":72,"risk":19,"cat":"green"},{"name":"The White Hart","lat":53.43695,"lon":-1.53956,"postcode":"S35 0GX","la":"Sheffield","era":"trad","nn":107,"risk":24,"cat":"green"},{"name":"The York","lat":53.37744,"lon":-1.50075,"postcode":"S10 3BA","la":"Sheffield","era":"other","nn":77,"risk":19,"cat":"green"},{"name":"Thorncliffe Arms","lat":53.46211,"lon":-1.46872,"postcode":"S35 1SF","la":"Sheffield","era":"trad","nn":84,"risk":19,"cat":"green"},{"name":"Thorncliffe Community Sports Bar","lat":53.47198,"lon":-1.48166,"postcode":"S35 3HZ","la":"Sheffield","era":"other","nn":233,"risk":22,"cat":"green"},{"name":"Thorpe Hesley and High Green Cricket Club","lat":53.45779,"lon":-1.44947,"postcode":"S61 2SE","la":"Sheffield","era":"other","nn":0,"risk":18,"cat":"green"},{"name":"Tiger Works","lat":53.3809,"lon":-1.47648,"postcode":"S1 4ES","la":"Sheffield","era":"mod","nn":0,"risk":18,"cat":"green"},{"name":"Trades & Labour Club","lat":53.37778,"lon":-1.45424,"postcode":"S2 5QQ","la":"Sheffield","era":"other","nn":680,"risk":23,"cat":"green"},{"name":"Trafalgar Warehouse & Exhibition Space","lat":53.37778,"lon":-1.47566,"postcode":"S1 4JT","la":"Sheffield","era":"mod","nn":115,"risk":19,"cat":"green"},{"name":"Travellers Rest","lat":53.4335,"lon":-1.53637,"postcode":"S35 0GY","la":"Sheffield","era":"other","nn":333,"risk":26,"cat":"green"},{"name":"Tropicana","lat":53.38044,"lon":-1.47428,"postcode":"S1 4FS","la":"Sheffield","era":"other","nn":16,"risk":18,"cat":"green"},{"name":"Tunnel Tap","lat":53.31777,"lon":-1.52463,"postcode":"S17 4DL","la":"Sheffield","era":"mod","nn":855,"risk":44,"cat":"amber"},{"name":"Two Sheds","lat":53.3864,"lon":-1.50787,"postcode":"S10 1TF","la":"Sheffield","era":"other","nn":51,"risk":19,"cat":"green"},{"name":"Two Thirds Beer Co.","lat":53.35895,"lon":-1.48136,"postcode":"S7 1FQ","la":"Sheffield","era":"mod","nn":0,"risk":18,"cat":"green"},{"name":"Viper Rooms & Lounge","lat":53.38031,"lon":-1.47369,"postcode":"S1 4FS","la":"Sheffield","era":"mod","nn":41,"risk":18,"cat":"green"},{"name":"Wadsley Bridge WMC & Institute","lat":53.42193,"lon":-1.49432,"postcode":"S6 1LB","la":"Sheffield","era":"other","nn":332,"risk":20,"cat":"green"},{"name":"Waggon & Horses","lat":53.46195,"lon":-1.46592,"postcode":"S35 2UU","la":"Sheffield","era":"trad","nn":0,"risk":18,"cat":"green"},{"name":"West Street Live","lat":53.3809,"lon":-1.47648,"postcode":"S1 4ES","la":"Sheffield","era":"other","nn":0,"risk":18,"cat":"green"},{"name":"Wharncliffe Arms","lat":53.46141,"lon":-1.48418,"postcode":"S35 1SB","la":"Sheffield","era":"trad","nn":565,"risk":27,"cat":"green"},{"name":"Wharncliffe Arms","lat":53.44545,"lon":-1.55104,"postcode":"S35 0DN","la":"Sheffield","era":"trad","nn":533,"risk":42,"cat":"amber"},{"name":"White Lion","lat":53.36012,"lon":-1.4736,"postcode":"S2 4HT","la":"Sheffield","era":"trad","nn":103,"risk":19,"cat":"green"},{"name":"Whitley Hall Hotel","lat":53.44963,"lon":-1.48191,"postcode":"S35 8NR","la":"Sheffield","era":"other","nn":1126,"risk":49,"cat":"amber"},{"name":"William Percival","lat":53.38177,"lon":-1.46942,"postcode":"S1 2HE","la":"Sheffield","era":"other","nn":55,"risk":19,"cat":"green"},{"name":"Wisewood Inn","lat":53.40412,"lon":-1.53324,"postcode":"S6 6RR","la":"Sheffield","era":"trad","nn":1298,"risk":50,"cat":"amber"},{"name":"Woodhouse Westend WMC Ltd","lat":53.35621,"lon":-1.38427,"postcode":"S13 7ES","la":"Sheffield","era":"mod","nn":614,"risk":25,"cat":"green"},{"name":"Woodseats W.M.C.","lat":53.34439,"lon":-1.47978,"postcode":"S8 0PS","la":"Sheffield","era":"other","nn":86,"risk":19,"cat":"green"},{"name":"Wordsworth Tavern","lat":53.43177,"lon":-1.4751,"postcode":"S5 9JE","la":"Sheffield","era":"other","nn":298,"risk":23,"cat":"green"},{"name":"Ye Olde Mustard Pot","lat":53.49314,"lon":-1.64511,"postcode":"S36 4GW","la":"Sheffield","era":"other","nn":2424,"risk":58,"cat":"amber"},{"name":"Zambezi Lounge Ltd","lat":53.39223,"lon":-1.4346,"postcode":"S9 3QP","la":"Sheffield","era":"mod","nn":33,"risk":23,"cat":"green"},{"name":"Zephys Venue","lat":53.37055,"lon":-1.4742,"postcode":"S2 4QU","la":"Sheffield","era":"other","nn":12,"risk":18,"cat":"green"},{"name":"Recreation Club","lat":53.61071,"lon":-1.40247,"postcode":"S72 9BX","la":"Wakefield","era":"other","nn":207,"risk":40,"cat":"amber"},{"name":"Sun Inn","lat":53.60891,"lon":-1.40166,"postcode":"S72 9BP","la":"Wakefield","era":"trad","nn":207,"risk":40,"cat":"amber"}]