[{"name":"Alloa Coop Bowling Club","lat":56.11996,"lon":-3.79013,"postcode":"FK10 2DA","la":"Clackmannanshire","era":"other","nn":336,"risk":30,"cat":"green"},{"name":"Alloa East End Bowling Club","lat":56.11853,"lon":-3.78197,"postcode":"FK10 3RD","la":"Clackmannanshire","era":"other","nn":530,"risk":31,"cat":"amber"},{"name":"Alloa Golf Club","lat":56.13067,"lon":-3.77326,"postcode":"FK10 3AX","la":"Clackmannanshire","era":"other","nn":127,"risk":29,"cat":"green"},{"name":"Alloa Rugby Football Club","lat":56.10956,"lon":-3.78586,"postcode":"FK10 1QW","la":"Clackmannanshire","era":"other","nn":622,"risk":32,"cat":"amber"},{"name":"Alva South Bowling Club","lat":56.15104,"lon":-3.79349,"postcode":"FK12 5HG","la":"Clackmannanshire","era":"other","nn":423,"risk":31,"cat":"amber"},{"name":"Braehead Golf Club","lat":56.12522,"lon":-3.83026,"postcode":"FK10 2NT","la":"Clackmannanshire","era":"trad","nn":773,"risk":53,"cat":"amber"},{"name":"Bridge Street Bar","lat":56.16308,"lon":-3.67196,"postcode":"FK14 7DE","la":"Clackmannanshire","era":"other","nn":588,"risk":52,"cat":"amber"},{"name":"Cambus & District Bowling Club","lat":56.12563,"lon":-3.84271,"postcode":"FK10 2NY","la":"Clackmannanshire","era":"other","nn":773,"risk":53,"cat":"amber"},{"name":"Clackmannan Bowling Club","lat":56.10515,"lon":-3.74699,"postcode":"FK10 4EW","la":"Clackmannanshire","era":"other","nn":397,"risk":48,"cat":"amber"},{"name":"Coalsnaughton Burns Club 630","lat":56.142,"lon":-3.73981,"postcode":"FK13 6JP","la":"Clackmannanshire","era":"other","nn":1083,"risk":58,"cat":"amber"},{"name":"Cram's Bar","lat":56.11432,"lon":-3.79118,"postcode":"FK10 1EA","la":"Clackmannanshire","era":"trad","nn":79,"risk":28,"cat":"green"},{"name":"Dollar Bowling Club","lat":56.16215,"lon":-3.68131,"postcode":"FK14 7HW","la":"Clackmannanshire","era":"other","nn":588,"risk":52,"cat":"amber"},{"name":"Hillfoots Rugby Club","lat":56.15163,"lon":-3.75082,"postcode":"FK13 6BP","la":"Clackmannanshire","era":"other","nn":272,"risk":30,"cat":"green"},{"name":"Horseshoe Bar","lat":56.10755,"lon":-3.75173,"postcode":"FK10 4JA","la":"Clackmannanshire","era":"trad","nn":238,"risk":47,"cat":"amber"},{"name":"J D Wetherspoon Plc","lat":56.11605,"lon":-3.79121,"postcode":"FK10 1JL","la":"Clackmannanshire","era":"other","nn":29,"risk":28,"cat":"green"},{"name":"JJ Pool Ltd","lat":56.11659,"lon":-3.7947,"postcode":"FK10 2AB","la":"Clackmannanshire","era":"other","nn":63,"risk":28,"cat":"green"},{"name":"Johnstone Arms Hotel","lat":56.15326,"lon":-3.79961,"postcode":"FK12 5EA","la":"Clackmannanshire","era":"trad","nn":39,"risk":28,"cat":"green"},{"name":"Klub 21","lat":56.11444,"lon":-3.79243,"postcode":"FK10 1DT","la":"Clackmannanshire","era":"other","nn":79,"risk":28,"cat":"green"},{"name":"Legends Pool Hall","lat":56.13668,"lon":-3.77262,"postcode":"FK10 3HT","la":"Clackmannanshire","era":"other","nn":670,"risk":50,"cat":"amber"},{"name":"Lodge Ben Cleuch No. 782","lat":56.15618,"lon":-3.7487,"postcode":"FK13 6AP","la":"Clackmannanshire","era":"other","nn":239,"risk":29,"cat":"green"},{"name":"Lodge Clackmannan 1303","lat":56.10945,"lon":-3.75352,"postcode":"FK10 4JF","la":"Clackmannanshire","era":"other","nn":238,"risk":47,"cat":"amber"},{"name":"Lodge Ladywell 1474","lat":56.13639,"lon":-3.83198,"postcode":"FK10 2SL","la":"Clackmannanshire","era":"other","nn":1246,"risk":59,"cat":"amber"},{"name":"Mansfield Arms","lat":56.12759,"lon":-3.78247,"postcode":"FK10 3JR","la":"Clackmannanshire","era":"trad","nn":425,"risk":31,"cat":"amber"},{"name":"McGregors","lat":56.11718,"lon":-3.79222,"postcode":"FK10 1JJ","la":"Clackmannanshire","era":"other","nn":63,"risk":28,"cat":"green"},{"name":"Menstrie Bowling Club","lat":56.14955,"lon":-3.85012,"postcode":"FK11 7AP","la":"Clackmannanshire","era":"other","nn":1845,"risk":63,"cat":"red"},{"name":"Muckhart Golf Club","lat":56.18223,"lon":-3.60927,"postcode":"FK14 7JH","la":"Clackmannanshire","era":"trad","nn":4426,"risk":81,"cat":"red"},{"name":"No. 5 Inn","lat":56.155,"lon":-3.79912,"postcode":"FK12 5JL","la":"Clackmannanshire","era":"trad","nn":109,"risk":29,"cat":"green"},{"name":"Oakwood Lounge","lat":56.1292,"lon":-3.78869,"postcode":"FK10 3DE","la":"Clackmannanshire","era":"other","nn":425,"risk":36,"cat":"amber"},{"name":"Peppes Bar & Mar Lounge","lat":56.11716,"lon":-3.7947,"postcode":"FK10 2AB","la":"Clackmannanshire","era":"mod","nn":63,"risk":28,"cat":"green"},{"name":"Sauchie Juniors FC","lat":56.13023,"lon":-3.77516,"postcode":"FK10 3JZ","la":"Clackmannanshire","era":"other","nn":127,"risk":29,"cat":"green"},{"name":"St. Servanus No. 771","lat":56.15598,"lon":-3.79901,"postcode":"FK12 5JL","la":"Clackmannanshire","era":"other","nn":109,"risk":29,"cat":"green"},{"name":"Star Inn","lat":56.11619,"lon":-3.7916,"postcode":"FK10 1JL","la":"Clackmannanshire","era":"trad","nn":29,"risk":28,"cat":"green"},{"name":"Station Hotel","lat":56.11663,"lon":-3.79255,"postcode":"FK10 1JG","la":"Clackmannanshire","era":"other","nn":63,"risk":28,"cat":"green"},{"name":"The Cairn","lat":56.15278,"lon":-3.80576,"postcode":"FK12 5BH","la":"Clackmannanshire","era":"other","nn":311,"risk":30,"cat":"green"},{"name":"The Crown Inn","lat":56.15293,"lon":-3.79942,"postcode":"FK12 5ED","la":"Clackmannanshire","era":"trad","nn":39,"risk":28,"cat":"green"},{"name":"The Eagle Inn","lat":56.15343,"lon":-3.74221,"postcode":"FK13 6DX","la":"Clackmannanshire","era":"trad","nn":87,"risk":28,"cat":"green"},{"name":"The Gartmorn Lounge","lat":56.12718,"lon":-3.77112,"postcode":"FK10 3NS","la":"Clackmannanshire","era":"mod","nn":410,"risk":36,"cat":"amber"},{"name":"The Old Brewery","lat":56.11467,"lon":-3.78998,"postcode":"FK10 1ED","la":"Clackmannanshire","era":"other","nn":65,"risk":28,"cat":"green"},{"name":"The Royal Arms","lat":56.1541,"lon":-3.74768,"postcode":"FK13 6AE","la":"Clackmannanshire","era":"trad","nn":179,"risk":29,"cat":"green"},{"name":"The Turnpike Tavern","lat":56.15363,"lon":-3.80097,"postcode":"FK12 5AA","la":"Clackmannanshire","era":"other","nn":93,"risk":28,"cat":"green"},{"name":"The Volunteer Arms","lat":56.15332,"lon":-3.74082,"postcode":"FK13 6DU","la":"Clackmannanshire","era":"trad","nn":87,"risk":28,"cat":"green"},{"name":"Thistle Bar","lat":56.11525,"lon":-3.78996,"postcode":"FK10 1JW","la":"Clackmannanshire","era":"other","nn":65,"risk":28,"cat":"green"},{"name":"Tillicoultry Bowling Club","lat":56.15172,"lon":-3.73888,"postcode":"FK13 6NS","la":"Clackmannanshire","era":"other","nn":214,"risk":29,"cat":"green"},{"name":"Tillicoultry Golf Club","lat":56.15408,"lon":-3.75058,"postcode":"FK13 6BL","la":"Clackmannanshire","era":"other","nn":179,"risk":29,"cat":"green"},{"name":"Weir Pumps Social Club","lat":56.11384,"lon":-3.79498,"postcode":"FK10 1DH","la":"Clackmannanshire","era":"mod","nn":171,"risk":29,"cat":"green"},{"name":"Adrian Bowling Club","lat":55.99774,"lon":-3.78641,"postcode":"FK1 1BQ","la":"Falkirk","era":"other","nn":171,"risk":27,"cat":"green"},{"name":"Aitkens Bar","lat":55.99988,"lon":-3.78306,"postcode":"FK1 1NU","la":"Falkirk","era":"other","nn":32,"risk":26,"cat":"green"},{"name":"Allandale Bowling Club","lat":55.98627,"lon":-3.92558,"postcode":"FK4 2HG","la":"Falkirk","era":"other","nn":1558,"risk":59,"cat":"amber"},{"name":"Bains Bar & Lounge","lat":56.0239,"lon":-3.90803,"postcode":"FK6 6DJ","la":"Falkirk","era":"mod","nn":218,"risk":27,"cat":"green"},{"name":"Bainsford Bowling Club","lat":56.01338,"lon":-3.78782,"postcode":"FK2 7NX","la":"Falkirk","era":"other","nn":37,"risk":26,"cat":"green"},{"name":"Behind The Wall","lat":56.00115,"lon":-3.78545,"postcode":"FK1 1HZ","la":"Falkirk","era":"other","nn":63,"risk":26,"cat":"green"},{"name":"Birrells Bar","lat":55.98741,"lon":-3.74005,"postcode":"FK2 9XL","la":"Falkirk","era":"other","nn":374,"risk":33,"cat":"amber"},{"name":"Black Bull Inn","lat":55.99051,"lon":-3.70806,"postcode":"FK2 0PX","la":"Falkirk","era":"trad","nn":402,"risk":46,"cat":"amber"},{"name":"Blackmill Bar & Kitchen","lat":56.02761,"lon":-3.78441,"postcode":"FK2 8ES","la":"Falkirk","era":"other","nn":234,"risk":30,"cat":"green"},{"name":"Blue Bell Inn","lat":56.01327,"lon":-3.78838,"postcode":"FK2 7NT","la":"Falkirk","era":"trad","nn":37,"risk":26,"cat":"green"},{"name":"Bonnybridge Golf Club","lat":56.00969,"lon":-3.87961,"postcode":"FK4 1NY","la":"Falkirk","era":"other","nn":829,"risk":52,"cat":"amber"},{"name":"Braes Golf Centre","lat":55.96954,"lon":-3.6994,"postcode":"FK2 0LS","la":"Falkirk","era":"other","nn":1774,"risk":61,"cat":"red"},{"name":"Brian Clark Memorial Hall","lat":56.00253,"lon":-3.81189,"postcode":"FK1 4DZ","la":"Falkirk","era":"other","nn":235,"risk":27,"cat":"green"},{"name":"Brightons Inn","lat":55.98081,"lon":-3.71959,"postcode":"FK2 0JP","la":"Falkirk","era":"trad","nn":0,"risk":43,"cat":"amber"},{"name":"Broomhill Inn","lat":55.99567,"lon":-3.88057,"postcode":"FK4 2AN","la":"Falkirk","era":"trad","nn":839,"risk":37,"cat":"amber"},{"name":"Burnhead Bowling Club","lat":56.02631,"lon":-3.82417,"postcode":"FK5 4BG","la":"Falkirk","era":"trad","nn":236,"risk":27,"cat":"green"},{"name":"Camelon Bowling Club","lat":56.00147,"lon":-3.80708,"postcode":"FK1 4DN","la":"Falkirk","era":"other","nn":322,"risk":28,"cat":"green"},{"name":"Camelon Juniors Social Club","lat":56.0008,"lon":-3.81993,"postcode":"FK1 4NP","la":"Falkirk","era":"mod","nn":198,"risk":27,"cat":"green"},{"name":"Camelon Social Club","lat":56.00459,"lon":-3.81107,"postcode":"FK1 4DA","la":"Falkirk","era":"mod","nn":235,"risk":27,"cat":"green"},{"name":"Carron & Carronshore Bowling Club","lat":56.02272,"lon":-3.78952,"postcode":"FK2 8SN","la":"Falkirk","era":"other","nn":370,"risk":33,"cat":"amber"},{"name":"Carronbridge Inn","lat":56.02034,"lon":-3.79368,"postcode":"FK2 7SR","la":"Falkirk","era":"trad","nn":370,"risk":28,"cat":"green"},{"name":"Carronshore Bar","lat":56.02705,"lon":-3.78804,"postcode":"FK2 8EW","la":"Falkirk","era":"other","nn":234,"risk":30,"cat":"green"},{"name":"Cheerz Bar","lat":56.00024,"lon":-3.78742,"postcode":"FK1 1EY","la":"Falkirk","era":"other","nn":31,"risk":26,"cat":"green"},{"name":"Claremont Inn","lat":55.99042,"lon":-3.7016,"postcode":"FK2 0QP","la":"Falkirk","era":"trad","nn":402,"risk":49,"cat":"amber"},{"name":"Colonial Bar","lat":56.00924,"lon":-3.78529,"postcode":"FK2 7BH","la":"Falkirk","era":"other","nn":70,"risk":26,"cat":"green"},{"name":"Cornhill Inn","lat":56.00179,"lon":-3.88847,"postcode":"FK4 1DA","la":"Falkirk","era":"trad","nn":0,"risk":28,"cat":"green"},{"name":"Crown Inn","lat":56.02497,"lon":-3.82122,"postcode":"FK5 3JP","la":"Falkirk","era":"trad","nn":0,"risk":26,"cat":"green"},{"name":"Denny Bowling Club","lat":56.02451,"lon":-3.91137,"postcode":"FK6 6JB","la":"Falkirk","era":"other","nn":157,"risk":27,"cat":"green"},{"name":"Denny True Blues LOL 257","lat":56.02491,"lon":-3.91499,"postcode":"FK6 6NY","la":"Falkirk","era":"other","nn":103,"risk":26,"cat":"green"},{"name":"Dunmore Bowling Club","lat":56.08498,"lon":-3.78008,"postcode":"FK2 8LY","la":"Falkirk","era":"other","nn":2757,"risk":68,"cat":"red"},{"name":"Falkirk Bowling Club","lat":55.99567,"lon":-3.78396,"postcode":"FK1 1QB","la":"Falkirk","era":"other","nn":276,"risk":28,"cat":"green"},{"name":"Falkirk Indoor Bowling Club","lat":56.00444,"lon":-3.81885,"postcode":"FK1 4HJ","la":"Falkirk","era":"other","nn":0,"risk":26,"cat":"green"},{"name":"Falkirk Rugby Football Club","lat":56.0064,"lon":-3.80635,"postcode":"FK2 7YW","la":"Falkirk","era":"other","nn":356,"risk":28,"cat":"green"},{"name":"First Down","lat":56.02528,"lon":-3.91348,"postcode":"FK6 6JQ","la":"Falkirk","era":"other","nn":103,"risk":26,"cat":"green"},{"name":"Forth & Co","lat":56.00017,"lon":-3.78689,"postcode":"FK1 1DG","la":"Falkirk","era":"other","nn":0,"risk":26,"cat":"green"},{"name":"Forth Social & Leisure Club","lat":56.00342,"lon":-3.76849,"postcode":"FK2 9DD","la":"Falkirk","era":"mod","nn":252,"risk":27,"cat":"green"},{"name":"Grahamston Bowling Club","lat":56.00877,"lon":-3.78455,"postcode":"FK2 7BQ","la":"Falkirk","era":"other","nn":48,"risk":26,"cat":"green"},{"name":"Grangemouth Bowling Club","lat":56.01794,"lon":-3.72094,"postcode":"FK3 8HU","la":"Falkirk","era":"other","nn":161,"risk":29,"cat":"green"},{"name":"Grangemouth Golf Club","lat":55.99613,"lon":-3.68703,"postcode":"FK2 0YA","la":"Falkirk","era":"other","nn":1106,"risk":56,"cat":"amber"},{"name":"Grangemouth Railway Club","lat":56.00422,"lon":-3.72407,"postcode":"FK3 8QY","la":"Falkirk","era":"trad","nn":791,"risk":51,"cat":"amber"},{"name":"Grangemouth Rugby Club","lat":56.01927,"lon":-3.74914,"postcode":"FK3 8XL","la":"Falkirk","era":"other","nn":1493,"risk":59,"cat":"amber"},{"name":"High Spirits","lat":56.00148,"lon":-3.78461,"postcode":"FK1 1JB","la":"Falkirk","era":"other","nn":63,"risk":26,"cat":"green"},{"name":"Icons Sports Bar & Grill","lat":55.9995,"lon":-3.78385,"postcode":"FK1 1NJ","la":"Falkirk","era":"mod","nn":18,"risk":26,"cat":"green"},{"name":"Larbert Bowling Club","lat":56.02103,"lon":-3.83541,"postcode":"FK5 4NB","la":"Falkirk","era":"other","nn":912,"risk":37,"cat":"amber"},{"name":"Laurieston Bowling Club","lat":55.99531,"lon":-3.73969,"postcode":"FK2 9QT","la":"Falkirk","era":"other","nn":510,"risk":34,"cat":"amber"},{"name":"Lodge Callendar No 588","lat":56.00026,"lon":-3.78693,"postcode":"FK1 1DG","la":"Falkirk","era":"other","nn":10,"risk":26,"cat":"green"},{"name":"Lodge Carron No 139","lat":56.02497,"lon":-3.82122,"postcode":"FK5 3JP","la":"Falkirk","era":"other","nn":0,"risk":26,"cat":"green"},{"name":"Lodge Dolphin No. 911","lat":56.00387,"lon":-3.88796,"postcode":"FK4 1LR","la":"Falkirk","era":"other","nn":234,"risk":30,"cat":"green"},{"name":"Lodge Polmont No 793","lat":55.98081,"lon":-3.71959,"postcode":"FK2 0JP","la":"Falkirk","era":"other","nn":0,"risk":43,"cat":"amber"},{"name":"Lodge St Andrew No 176","lat":56.02285,"lon":-3.90374,"postcode":"FK6 6EP","la":"Falkirk","era":"other","nn":59,"risk":26,"cat":"green"},{"name":"Lodge St. John No 16","lat":56.0085,"lon":-3.78514,"postcode":"FK2 7BX","la":"Falkirk","era":"other","nn":48,"risk":26,"cat":"green"},{"name":"Lodge Zetland 391","lat":56.01947,"lon":-3.72037,"postcode":"FK3 8AN","la":"Falkirk","era":"other","nn":159,"risk":29,"cat":"green"},{"name":"Maniqui Nightclub","lat":55.99981,"lon":-3.77846,"postcode":"FK1 1RP","la":"Falkirk","era":"other","nn":173,"risk":27,"cat":"green"},{"name":"Mariner Bar","lat":56.00444,"lon":-3.81885,"postcode":"FK1 4HJ","la":"Falkirk","era":"other","nn":0,"risk":26,"cat":"green"},{"name":"MBK Canalside","lat":55.98269,"lon":-3.7393,"postcode":"FK2 0DP","la":"Falkirk","era":"other","nn":526,"risk":47,"cat":"amber"},{"name":"Mill Inn","lat":56.00303,"lon":-3.77248,"postcode":"FK2 7AB","la":"Falkirk","era":"trad","nn":252,"risk":27,"cat":"green"},{"name":"New Market Bar","lat":56.00017,"lon":-3.78689,"postcode":"FK1 1DG","la":"Falkirk","era":"other","nn":0,"risk":26,"cat":"green"},{"name":"North Broomage Social & Welfare Club","lat":56.03011,"lon":-3.8365,"postcode":"FK5 4PF","la":"Falkirk","era":"mod","nn":761,"risk":49,"cat":"amber"},{"name":"Ochiltree Community Club CIC","lat":56.00187,"lon":-3.83674,"postcode":"FK1 4LT","la":"Falkirk","era":"other","nn":1052,"risk":56,"cat":"amber"},{"name":"Ochilview Bar","lat":56.0288,"lon":-3.81771,"postcode":"FK5 4QJ","la":"Falkirk","era":"other","nn":479,"risk":32,"cat":"amber"},{"name":"Old Station Bar","lat":56.00179,"lon":-3.88847,"postcode":"FK4 1DA","la":"Falkirk","era":"other","nn":0,"risk":28,"cat":"green"},{"name":"Polmont Bowling Club","lat":55.98469,"lon":-3.71498,"postcode":"FK2 0UD","la":"Falkirk","era":"other","nn":518,"risk":34,"cat":"amber"},{"name":"Railway Hotel","lat":56.02258,"lon":-3.90542,"postcode":"FK6 6DY","la":"Falkirk","era":"trad","nn":49,"risk":26,"cat":"green"},{"name":"Railway Inn","lat":55.99818,"lon":-3.91238,"postcode":"FK4 1QS","la":"Falkirk","era":"trad","nn":1540,"risk":59,"cat":"amber"},{"name":"Railway Tavern","lat":56.00256,"lon":-3.78383,"postcode":"FK1 1LD","la":"Falkirk","era":"trad","nn":39,"risk":26,"cat":"green"},{"name":"Slamannan Bowling Club","lat":55.93691,"lon":-3.83262,"postcode":"FK1 3JA","la":"Falkirk","era":"other","nn":122,"risk":47,"cat":"amber"},{"name":"St Laurence Bar","lat":55.93796,"lon":-3.83312,"postcode":"FK1 3EJ","la":"Falkirk","era":"other","nn":122,"risk":47,"cat":"amber"},{"name":"Stenhousemuir Bowling Club","lat":56.02642,"lon":-3.81091,"postcode":"FK5 4QR","la":"Falkirk","era":"other","nn":499,"risk":32,"cat":"amber"},{"name":"Tam Bain Tavern","lat":55.99603,"lon":-3.74778,"postcode":"FK2 9PS","la":"Falkirk","era":"other","nn":510,"risk":49,"cat":"amber"},{"name":"The Anchor Inn","lat":56.02833,"lon":-3.91477,"postcode":"FK6 6JR","la":"Falkirk","era":"trad","nn":116,"risk":27,"cat":"green"},{"name":"The Auld Vic","lat":56.00565,"lon":-3.78411,"postcode":"FK2 7DJ","la":"Falkirk","era":"other","nn":322,"risk":28,"cat":"green"},{"name":"The Bridge Inn","lat":56.00179,"lon":-3.88847,"postcode":"FK4 1DA","la":"Falkirk","era":"trad","nn":0,"risk":28,"cat":"green"},{"name":"The Bruce","lat":56.03634,"lon":-3.8416,"postcode":"FK5 4EG","la":"Falkirk","era":"other","nn":761,"risk":51,"cat":"amber"},{"name":"The Callendar Arms","lat":55.99832,"lon":-3.77924,"postcode":"FK1 1XS","la":"Falkirk","era":"trad","nn":173,"risk":27,"cat":"green"},{"name":"The Canal Inn","lat":56.0005,"lon":-3.81465,"postcode":"FK1 4QU","la":"Falkirk","era":"trad","nn":220,"risk":27,"cat":"green"},{"name":"The Courtyard","lat":55.9986,"lon":-3.78413,"postcode":"FK1 1PF","la":"Falkirk","era":"mod","nn":0,"risk":26,"cat":"green"},{"name":"The Dundas","lat":56.01897,"lon":-3.72277,"postcode":"FK3 8AZ","la":"Falkirk","era":"other","nn":159,"risk":29,"cat":"green"},{"name":"The Players Lounge","lat":56.00273,"lon":-3.78438,"postcode":"FK1 1HS","la":"Falkirk","era":"mod","nn":39,"risk":26,"cat":"green"},{"name":"The Quoit Bar","lat":55.98803,"lon":-3.73415,"postcode":"FK2 9YD","la":"Falkirk","era":"other","nn":374,"risk":33,"cat":"amber"},{"name":"The Red Hoose","lat":56.02728,"lon":-3.9146,"postcode":"FK6 6JW","la":"Falkirk","era":"other","nn":116,"risk":27,"cat":"green"},{"name":"The Roman Bar","lat":56.00397,"lon":-3.81616,"postcode":"FK1 4QJ","la":"Falkirk","era":"other","nn":175,"risk":27,"cat":"green"},{"name":"The Royal British Legion","lat":56.01649,"lon":-3.72564,"postcode":"FK3 8BX","la":"Falkirk","era":"trad","nn":329,"risk":31,"cat":"amber"},{"name":"The Scotia","lat":55.99986,"lon":-3.78423,"postcode":"FK1 1NH","la":"Falkirk","era":"other","nn":0,"risk":26,"cat":"green"},{"name":"The Ship Inn","lat":56.01133,"lon":-3.72384,"postcode":"FK3 8NJ","la":"Falkirk","era":"trad","nn":585,"risk":30,"cat":"green"},{"name":"The Wheatsheaf","lat":55.9986,"lon":-3.78413,"postcode":"FK1 1PF","la":"Falkirk","era":"trad","nn":0,"risk":26,"cat":"green"},{"name":"The Wine Library","lat":56.0005,"lon":-3.78361,"postcode":"FK1 1LS","la":"Falkirk","era":"other","nn":28,"risk":26,"cat":"green"},{"name":"Tolbooth Tavern","lat":55.99937,"lon":-3.78402,"postcode":"FK1 1NL","la":"Falkirk","era":"other","nn":18,"risk":26,"cat":"green"},{"name":"Union Inn","lat":55.99952,"lon":-3.81772,"postcode":"FK1 4QZ","la":"Falkirk","era":"trad","nn":198,"risk":27,"cat":"green"},{"name":"Victoria Inn","lat":56.02767,"lon":-3.77566,"postcode":"FK2 8HL","la":"Falkirk","era":"trad","nn":543,"risk":47,"cat":"amber"},{"name":"Wellington Bar","lat":55.99986,"lon":-3.78423,"postcode":"FK1 1NH","la":"Falkirk","era":"trad","nn":0,"risk":26,"cat":"green"},{"name":"Wetherspoons","lat":56.00006,"lon":-3.78346,"postcode":"FK1 1NB","la":"Falkirk","era":"other","nn":32,"risk":26,"cat":"green"},{"name":"Wheatsheaf Inn","lat":56.0227,"lon":-3.90465,"postcode":"FK6 6DX","la":"Falkirk","era":"trad","nn":49,"risk":26,"cat":"green"},{"name":"Woodside Inn","lat":55.99417,"lon":-3.78798,"postcode":"FK1 5QX","la":"Falkirk","era":"trad","nn":301,"risk":28,"cat":"green"},{"name":"XOXO Falkirk","lat":56.00075,"lon":-3.78352,"postcode":"FK1 1LU","la":"Falkirk","era":"other","nn":28,"risk":26,"cat":"green"},{"name":"Bridge Bar","lat":56.06751,"lon":-3.71939,"postcode":"FK10 4ND","la":"Fife","era":"other","nn":103,"risk":18,"cat":"green"},{"name":"Garvies","lat":56.06842,"lon":-3.71962,"postcode":"FK10 4RH","la":"Fife","era":"other","nn":0,"risk":17,"cat":"green"},{"name":"Lodge St John Tulliallan 598 Social Club","lat":56.0709,"lon":-3.72079,"postcode":"FK10 4QX","la":"Fife","era":"mod","nn":285,"risk":19,"cat":"green"},{"name":"Pirries","lat":56.06842,"lon":-3.71962,"postcode":"FK10 4RH","la":"Fife","era":"other","nn":0,"risk":17,"cat":"green"},{"name":"Railway Tavern","lat":56.0677,"lon":-3.72202,"postcode":"FK10 4LX","la":"Fife","era":"trad","nn":0,"risk":17,"cat":"green"},{"name":"The Auld Hoose","lat":56.0677,"lon":-3.72202,"postcode":"FK10 4LX","la":"Fife","era":"other","nn":0,"risk":17,"cat":"green"},{"name":"Tulliallan Golf Course And Bar","lat":56.07727,"lon":-3.7199,"postcode":"FK10 4BB","la":"Fife","era":"other","nn":648,"risk":24,"cat":"green"},{"name":"Tulliallan Police College - Copper Lounge","lat":56.07433,"lon":-3.71089,"postcode":"FK10 4BE","la":"Fife","era":"mod","nn":648,"risk":21,"cat":"green"},{"name":"Airthrey Spa Bowling","lat":56.15559,"lon":-3.94196,"postcode":"FK9 4DZ","la":"Stirling","era":"other","nn":499,"risk":31,"cat":"amber"},{"name":"Allanbridge Social Club","lat":56.15311,"lon":-3.95627,"postcode":"FK9 4JR","la":"Stirling","era":"mod","nn":403,"risk":33,"cat":"amber"},{"name":"Bannockburn Bowling Club","lat":56.09163,"lon":-3.91104,"postcode":"FK7 8UF","la":"Stirling","era":"other","nn":142,"risk":31,"cat":"amber"},{"name":"Bannockburn Miners Welfare Club","lat":56.09363,"lon":-3.92266,"postcode":"FK7 0HZ","la":"Stirling","era":"other","nn":318,"risk":32,"cat":"amber"},{"name":"Brewdog","lat":56.11884,"lon":-3.93896,"postcode":"FK8 1BJ","la":"Stirling","era":"other","nn":20,"risk":27,"cat":"green"},{"name":"Bridge Of Allan Bowling Club","lat":56.1514,"lon":-3.94702,"postcode":"FK9 4AU","la":"Stirling","era":"other","nn":322,"risk":32,"cat":"amber"},{"name":"Bridge Of Allan Golf Club (Clubhouse)","lat":56.16342,"lon":-3.94314,"postcode":"FK9 4LY","la":"Stirling","era":"other","nn":874,"risk":51,"cat":"amber"},{"name":"Callander Bowling Club","lat":56.24522,"lon":-4.21653,"postcode":"FK17 8EL","la":"Stirling","era":"other","nn":80,"risk":33,"cat":"amber"},{"name":"Callander Golf Club","lat":56.24329,"lon":-4.20553,"postcode":"FK17 8EN","la":"Stirling","era":"other","nn":677,"risk":37,"cat":"amber"},{"name":"Cowie Tavern","lat":56.08169,"lon":-3.86959,"postcode":"FK7 7BL","la":"Stirling","era":"other","nn":2094,"risk":64,"cat":"red"},{"name":"Crossed Peels","lat":56.1186,"lon":-3.93878,"postcode":"FK8 1DU","la":"Stirling","era":"trad","nn":11,"risk":27,"cat":"green"},{"name":"Doune Castle Bowling Club","lat":56.19138,"lon":-4.05265,"postcode":"FK16 6DH","la":"Stirling","era":"other","nn":5005,"risk":85,"cat":"red"},{"name":"Dunblane Golf Club Bar","lat":56.18763,"lon":-3.95963,"postcode":"FK15 0LJ","la":"Stirling","era":"other","nn":270,"risk":47,"cat":"amber"},{"name":"Faerie Tree Inn","lat":56.17884,"lon":-4.38147,"postcode":"FK8 3UG","la":"Stirling","era":"trad","nn":6795,"risk":85,"cat":"red"},{"name":"Fallin Miners Welfare","lat":56.10057,"lon":-3.86097,"postcode":"FK7 7HT","la":"Stirling","era":"other","nn":415,"risk":50,"cat":"amber"},{"name":"Kippen Bowling Club","lat":56.12682,"lon":-4.17099,"postcode":"FK8 3DT","la":"Stirling","era":"other","nn":8803,"risk":85,"cat":"red"},{"name":"Lady Of The Lake","lat":56.23389,"lon":-4.42918,"postcode":"FK17 8HZ","la":"Stirling","era":"other","nn":0,"risk":47,"cat":"amber"},{"name":"Linden Inn","lat":56.11037,"lon":-3.92829,"postcode":"FK7 7PX","la":"Stirling","era":"trad","nn":860,"risk":53,"cat":"amber"},{"name":"Masonic Lodge Ancient 30","lat":56.12299,"lon":-3.93453,"postcode":"FK8 1UE","la":"Stirling","era":"trad","nn":303,"risk":29,"cat":"green"},{"name":"Meadowpark","lat":56.14896,"lon":-3.9302,"postcode":"FK9 4RY","la":"Stirling","era":"other","nn":1036,"risk":57,"cat":"amber"},{"name":"Meraki","lat":56.1187,"lon":-3.93875,"postcode":"FK8 1BN","la":"Stirling","era":"other","nn":11,"risk":27,"cat":"green"},{"name":"Molly Malone's","lat":56.1203,"lon":-3.93778,"postcode":"FK8 1JU","la":"Stirling","era":"other","nn":57,"risk":28,"cat":"green"},{"name":"Morrison's Cold Beer Co.","lat":56.11984,"lon":-3.93735,"postcode":"FK8 2BX","la":"Stirling","era":"mod","nn":57,"risk":28,"cat":"green"},{"name":"Nicky Tams","lat":56.11912,"lon":-3.93945,"postcode":"FK8 1BJ","la":"Stirling","era":"other","nn":43,"risk":28,"cat":"green"},{"name":"No 2 Baker Street","lat":56.11891,"lon":-3.93852,"postcode":"FK8 1BJ","la":"Stirling","era":"other","nn":27,"risk":27,"cat":"green"},{"name":"Plean Tavern","lat":56.06296,"lon":-3.8731,"postcode":"FK7 8BS","la":"Stirling","era":"other","nn":0,"risk":47,"cat":"amber"},{"name":"Port Customs Bar","lat":56.11651,"lon":-3.93672,"postcode":"FK8 2EW","la":"Stirling","era":"other","nn":170,"risk":28,"cat":"green"},{"name":"Rising Sun","lat":56.15535,"lon":-3.95,"postcode":"FK9 4NZ","la":"Stirling","era":"other","nn":170,"risk":28,"cat":"green"},{"name":"Riverside Bowling Club","lat":56.12687,"lon":-3.92766,"postcode":"FK8 1XL","la":"Stirling","era":"other","nn":606,"risk":31,"cat":"amber"},{"name":"Settle Inn","lat":56.1226,"lon":-3.94217,"postcode":"FK8 1BU","la":"Stirling","era":"trad","nn":193,"risk":29,"cat":"green"},{"name":"Spittalmyre Bowling Club","lat":56.12621,"lon":-3.94022,"postcode":"FK8 1PD","la":"Stirling","era":"other","nn":419,"risk":30,"cat":"green"},{"name":"St Modan's Sports And Social Club","lat":56.09458,"lon":-3.91783,"postcode":"FK7 0EH","la":"Stirling","era":"mod","nn":318,"risk":32,"cat":"amber"},{"name":"Stirling Bowling Club","lat":56.11765,"lon":-3.94083,"postcode":"FK8 2QL","la":"Stirling","era":"other","nn":132,"risk":28,"cat":"green"},{"name":"Stirling Civil Defence Club","lat":56.10011,"lon":-3.94258,"postcode":"FK7 9BP","la":"Stirling","era":"other","nn":383,"risk":47,"cat":"amber"},{"name":"Tartan Arms & McQues Nightspot","lat":56.09081,"lon":-3.91506,"postcode":"FK7 8LX","la":"Stirling","era":"trad","nn":197,"risk":31,"cat":"amber"},{"name":"The Anchor","lat":56.09852,"lon":-3.9371,"postcode":"FK7 0PA","la":"Stirling","era":"trad","nn":181,"risk":46,"cat":"amber"},{"name":"The Birds & Bees","lat":56.13938,"lon":-3.93975,"postcode":"FK9 5PB","la":"Stirling","era":"other","nn":1014,"risk":57,"cat":"amber"},{"name":"The Borestone Bar","lat":56.10007,"lon":-3.93617,"postcode":"FK7 0BP","la":"Stirling","era":"other","nn":181,"risk":46,"cat":"amber"},{"name":"The City Walls","lat":56.11761,"lon":-3.93861,"postcode":"FK8 2QA","la":"Stirling","era":"other","nn":53,"risk":28,"cat":"green"},{"name":"The Clansman","lat":56.06296,"lon":-3.8731,"postcode":"FK7 8BU","la":"Stirling","era":"other","nn":0,"risk":47,"cat":"amber"},{"name":"The Corn Exchange","lat":56.11808,"lon":-3.93884,"postcode":"FK8 2HX","la":"Stirling","era":"other","nn":53,"risk":28,"cat":"green"},{"name":"The Crook Bar","lat":56.15382,"lon":-3.94988,"postcode":"FK9 4NU","la":"Stirling","era":"other","nn":170,"risk":31,"cat":"amber"},{"name":"The Cross Keys Bar","lat":56.12214,"lon":-3.93917,"postcode":"FK8 1HL","la":"Stirling","era":"trad","nn":160,"risk":28,"cat":"green"},{"name":"The Crown Hotel","lat":56.24454,"lon":-4.21695,"postcode":"FK17 8DU","la":"Stirling","era":"trad","nn":80,"risk":33,"cat":"amber"},{"name":"The Curly Coo","lat":56.12073,"lon":-3.93865,"postcode":"FK8 1HH","la":"Stirling","era":"other","nn":73,"risk":28,"cat":"green"},{"name":"The Empire Bar","lat":56.09046,"lon":-3.91196,"postcode":"FK7 8HY","la":"Stirling","era":"other","nn":142,"risk":31,"cat":"amber"},{"name":"The Engine Room","lat":56.24377,"lon":-4.21645,"postcode":"FK17 8AA","la":"Stirling","era":"other","nn":91,"risk":33,"cat":"amber"},{"name":"The Gothenburg","lat":56.10203,"lon":-3.86714,"postcode":"FK7 7ET","la":"Stirling","era":"other","nn":415,"risk":50,"cat":"amber"},{"name":"The Lodge Of Dunblane Number IX","lat":56.18675,"lon":-3.9637,"postcode":"FK15 0AD","la":"Stirling","era":"other","nn":270,"risk":47,"cat":"amber"},{"name":"The Springkerse View","lat":56.11738,"lon":-3.90853,"postcode":"FK7 7XH","la":"Stirling","era":"other","nn":1452,"risk":60,"cat":"amber"},{"name":"The Steamship Sir Walter Scott Ltd","lat":56.23389,"lon":-4.42918,"postcode":"FK17 8HZ","la":"Stirling","era":"trad","nn":0,"risk":47,"cat":"amber"},{"name":"The Tappit Hen","lat":56.18723,"lon":-3.9721,"postcode":"FK15 0AL","la":"Stirling","era":"mod","nn":523,"risk":48,"cat":"amber"},{"name":"The William Wallace","lat":56.13865,"lon":-3.92343,"postcode":"FK9 5JR","la":"Stirling","era":"other","nn":1014,"risk":57,"cat":"amber"},{"name":"Vinney's Bar","lat":56.13093,"lon":-3.95612,"postcode":"FK8 1RW","la":"Stirling","era":"trad","nn":1117,"risk":58,"cat":"amber"}]