[{"name":"1DS","lat":57.14569,"lon":-2.10369,"postcode":"AB10 1QU","la":"Aberdeen City","era":"other","nn":96,"risk":23,"cat":"green"},{"name":"22 CLUB","lat":57.14456,"lon":-2.11191,"postcode":"AB10 1UB","la":"Aberdeen City","era":"other","nn":77,"risk":23,"cat":"green"},{"name":"524 BAR & LOUNGE","lat":57.15512,"lon":-2.10692,"postcode":"AB25 3XJ","la":"Aberdeen City","era":"mod","nn":148,"risk":23,"cat":"green"},{"name":"612 CLUB","lat":57.17188,"lon":-2.13262,"postcode":"AB24 2DB","la":"Aberdeen City","era":"other","nn":0,"risk":27,"cat":"green"},{"name":"ABERDEEN GRAMMAR SCHOOL FORMER PUPILS CLUB","lat":57.1405,"lon":-2.14115,"postcode":"AB15 4YQ","la":"Aberdeen City","era":"trad","nn":534,"risk":31,"cat":"amber"},{"name":"ABERDEEN INDOOR BOWLING CLUB","lat":57.14993,"lon":-2.15227,"postcode":"AB15 6EE","la":"Aberdeen City","era":"other","nn":139,"risk":23,"cat":"green"},{"name":"ABERDEEN MASONIC TEMPLE CLUB","lat":57.14377,"lon":-2.10219,"postcode":"AB11 6EX","la":"Aberdeen City","era":"trad","nn":81,"risk":23,"cat":"green"},{"name":"ABERDEEN TRANSPORT CLUB","lat":57.15607,"lon":-2.1032,"postcode":"AB25 3TL","la":"Aberdeen City","era":"other","nn":235,"risk":24,"cat":"green"},{"name":"ABERDEENSHIRE CRICKET CLUB","lat":57.12973,"lon":-2.13884,"postcode":"AB10 7FB","la":"Aberdeen City","era":"other","nn":691,"risk":32,"cat":"amber"},{"name":"ABERGELDIE BAR","lat":57.13014,"lon":-2.11745,"postcode":"AB10 7LY","la":"Aberdeen City","era":"other","nn":314,"risk":25,"cat":"green"},{"name":"ABERGELDIE BOWLING CLUB","lat":57.13293,"lon":-2.11825,"postcode":"AB10 6EE","la":"Aberdeen City","era":"other","nn":314,"risk":25,"cat":"green"},{"name":"AITCHIES ALE HOUSE","lat":57.14516,"lon":-2.09828,"postcode":"AB11 5LY","la":"Aberdeen City","era":"other","nn":15,"risk":22,"cat":"green"},{"name":"ALL BAR ONE","lat":57.14841,"lon":-2.09723,"postcode":"AB10 1BL","la":"Aberdeen City","era":"mod","nn":89,"risk":23,"cat":"green"},{"name":"ARCHIBALD SIMPSON","lat":57.14854,"lon":-2.0927,"postcode":"AB11 5BQ","la":"Aberdeen City","era":"other","nn":0,"risk":22,"cat":"green"},{"name":"AUCHMILL GOLF CLUB","lat":57.16945,"lon":-2.1718,"postcode":"AB16 7FQ","la":"Aberdeen City","era":"trad","nn":700,"risk":47,"cat":"amber"},{"name":"BABYLON","lat":57.14304,"lon":-2.11293,"postcode":"AB10 1YD","la":"Aberdeen City","era":"other","nn":33,"risk":23,"cat":"green"},{"name":"BALGOWNIE BOWLING CLUB","lat":57.17831,"lon":-2.09683,"postcode":"AB23 8HX","la":"Aberdeen City","era":"other","nn":278,"risk":24,"cat":"green"},{"name":"BALMORAL BAR","lat":57.14304,"lon":-2.11067,"postcode":"AB11 6DB","la":"Aberdeen City","era":"other","nn":39,"risk":23,"cat":"green"},{"name":"BANKHEAD INN","lat":57.18338,"lon":-2.18037,"postcode":"AB21 9HQ","la":"Aberdeen City","era":"trad","nn":389,"risk":25,"cat":"green"},{"name":"BLACKDOG BAR","lat":57.18156,"lon":-2.09654,"postcode":"AB23 8PA","la":"Aberdeen City","era":"other","nn":361,"risk":27,"cat":"green"},{"name":"BON ACCORD GOLF CLUB","lat":57.15996,"lon":-2.08642,"postcode":"AB24 5QB","la":"Aberdeen City","era":"other","nn":0,"risk":22,"cat":"green"},{"name":"BREWDOG","lat":57.14949,"lon":-2.09794,"postcode":"AB25 1EB","la":"Aberdeen City","era":"other","nn":38,"risk":23,"cat":"green"},{"name":"BREWDOG / UNDERDOG","lat":57.14754,"lon":-2.09467,"postcode":"AB11 5BU","la":"Aberdeen City","era":"other","nn":36,"risk":23,"cat":"green"},{"name":"Brewdog Union Square","lat":57.14357,"lon":-2.09692,"postcode":"AB11 5RG","la":"Aberdeen City","era":"other","nn":195,"risk":24,"cat":"green"},{"name":"BRIDGE BAR","lat":57.1449,"lon":-2.1018,"postcode":"AB11 6JJ","la":"Aberdeen City","era":"other","nn":0,"risk":22,"cat":"green"},{"name":"BRIDGE STREET SOCIAL CLUB","lat":57.1449,"lon":-2.1018,"postcode":"AB11 6JJ","la":"Aberdeen City","era":"mod","nn":0,"risk":22,"cat":"green"},{"name":"BRIG INN / SHISH TANDOORI","lat":57.17697,"lon":-2.09062,"postcode":"AB23 8EB","la":"Aberdeen City","era":"trad","nn":129,"risk":23,"cat":"green"},{"name":"BRIG O'DON","lat":57.17348,"lon":-2.09361,"postcode":"AB24 1XZ","la":"Aberdeen City","era":"other","nn":415,"risk":25,"cat":"green"},{"name":"BRIG-O-DEE BAR","lat":57.12537,"lon":-2.12011,"postcode":"AB10 7JN","la":"Aberdeen City","era":"other","nn":287,"risk":27,"cat":"green"},{"name":"BROOMHILL ACTIVITY CENTRE","lat":57.12791,"lon":-2.12788,"postcode":"AB10 7LN","la":"Aberdeen City","era":"other","nn":548,"risk":26,"cat":"green"},{"name":"BUGSY BROWNS","lat":57.14473,"lon":-2.10314,"postcode":"AB11 6HU","la":"Aberdeen City","era":"other","nn":0,"risk":22,"cat":"green"},{"name":"CAFE DRUMMOND","lat":57.14646,"lon":-2.10118,"postcode":"AB10 1JR","la":"Aberdeen City","era":"other","nn":0,"risk":22,"cat":"green"},{"name":"CARLTON BAR","lat":57.14793,"lon":-2.09264,"postcode":"AB11 5BB","la":"Aberdeen City","era":"other","nn":0,"risk":22,"cat":"green"},{"name":"CASC","lat":57.14592,"lon":-2.09757,"postcode":"AB11 6ND","la":"Aberdeen City","era":"other","nn":0,"risk":22,"cat":"green"},{"name":"CASTLE BAR","lat":57.14854,"lon":-2.0927,"postcode":"AB11 5BQ","la":"Aberdeen City","era":"other","nn":0,"risk":22,"cat":"green"},{"name":"CHARACTER'S CAFE BAR","lat":57.14655,"lon":-2.09081,"postcode":"AB11 5BE","la":"Aberdeen City","era":"other","nn":93,"risk":23,"cat":"green"},{"name":"CHEERZ BAR AND TEAZERS NIGHTCLUB","lat":57.14579,"lon":-2.09744,"postcode":"AB11 6PH","la":"Aberdeen City","era":"mod","nn":0,"risk":22,"cat":"green"},{"name":"COOPERS BAR","lat":57.15084,"lon":-2.10314,"postcode":"AB25 1LN","la":"Aberdeen City","era":"trad","nn":107,"risk":23,"cat":"green"},{"name":"COVE RANGERS SOCIAL CLUB","lat":57.10204,"lon":-2.08007,"postcode":"AB12 3NR","la":"Aberdeen City","era":"mod","nn":3259,"risk":68,"cat":"red"},{"name":"CROFT AND CAIRNS","lat":57.15701,"lon":-2.14594,"postcode":"AB16 5TT","la":"Aberdeen City","era":"other","nn":381,"risk":25,"cat":"green"},{"name":"CROWN BAR","lat":57.17188,"lon":-2.13262,"postcode":"AB24 2DB","la":"Aberdeen City","era":"trad","nn":0,"risk":27,"cat":"green"},{"name":"CULTER MILLS SPORTS & SOCIAL CLUB","lat":57.09732,"lon":-2.26054,"postcode":"AB14 0QD","la":"Aberdeen City","era":"other","nn":435,"risk":30,"cat":"green"},{"name":"CULTS BOWLING CLUB","lat":57.11972,"lon":-2.16442,"postcode":"AB15 9PA","la":"Aberdeen City","era":"other","nn":1903,"risk":58,"cat":"amber"},{"name":"CUTTER'S WHARF","lat":57.14679,"lon":-2.08797,"postcode":"AB11 5AR","la":"Aberdeen City","era":"other","nn":173,"risk":24,"cat":"green"},{"name":"DEE SWIMMING CLUB","lat":57.15344,"lon":-2.10134,"postcode":"AB25 1HA","la":"Aberdeen City","era":"other","nn":212,"risk":24,"cat":"green"},{"name":"DEESIDE GOLF CLUB","lat":57.11079,"lon":-2.19499,"postcode":"AB15 9DL","la":"Aberdeen City","era":"other","nn":2096,"risk":60,"cat":"amber"},{"name":"DENMORE SPORTS AND SOCIAL CLUB","lat":57.19219,"lon":-2.09819,"postcode":"AB23 8NL","la":"Aberdeen City","era":"mod","nn":1187,"risk":53,"cat":"amber"},{"name":"DUSK","lat":57.14301,"lon":-2.10741,"postcode":"AB11 6EN","la":"Aberdeen City","era":"other","nn":39,"risk":23,"cat":"green"},{"name":"DYCE BOWLING CLUB","lat":57.20515,"lon":-2.19059,"postcode":"AB21 7AY","la":"Aberdeen City","era":"other","nn":494,"risk":31,"cat":"amber"},{"name":"EAST END SOCIAL CLUB","lat":57.1647,"lon":-2.08792,"postcode":"AB24 1RG","la":"Aberdeen City","era":"mod","nn":535,"risk":26,"cat":"green"},{"name":"ESPIONAGE","lat":57.14636,"lon":-2.10037,"postcode":"AB10 1JJ","la":"Aberdeen City","era":"other","nn":25,"risk":23,"cat":"green"},{"name":"EVENTS AT P&J LIVE","lat":57.18549,"lon":-2.19299,"postcode":"AB21 9FX","la":"Aberdeen City","era":"other","nn":659,"risk":29,"cat":"green"},{"name":"FIERCE BAR ABERDEEN (FIERCE BEER)","lat":57.14735,"lon":-2.09417,"postcode":"AB11 5BW","la":"Aberdeen City","era":"mod","nn":0,"risk":22,"cat":"green"},{"name":"FITTIE BAR","lat":57.14568,"lon":-2.08032,"postcode":"AB11 5BT","la":"Aberdeen City","era":"other","nn":478,"risk":26,"cat":"green"},{"name":"FOUNTAIN BAR / THE EMBASSY ROOMS","lat":57.17034,"lon":-2.1233,"postcode":"AB24 2AX","la":"Aberdeen City","era":"mod","nn":587,"risk":29,"cat":"green"},{"name":"FOUR MILE HOUSE","lat":57.14693,"lon":-2.21476,"postcode":"AB15 8QA","la":"Aberdeen City","era":"other","nn":2229,"risk":60,"cat":"amber"},{"name":"FOUR MILE INN","lat":57.17978,"lon":-2.18536,"postcode":"AB21 9BB","la":"Aberdeen City","era":"trad","nn":501,"risk":28,"cat":"green"},{"name":"G CASINO","lat":57.14735,"lon":-2.09417,"postcode":"AB11 5BW","la":"Aberdeen City","era":"other","nn":0,"risk":22,"cat":"green"},{"name":"GHILLIES LAIR HARVESTER","lat":57.12356,"lon":-2.11674,"postcode":"AB12 5XA","la":"Aberdeen City","era":"trad","nn":287,"risk":29,"cat":"green"},{"name":"GILCOMSTON BAR","lat":57.15016,"lon":-2.10712,"postcode":"AB25 1UW","la":"Aberdeen City","era":"other","nn":252,"risk":24,"cat":"green"},{"name":"GLENTANAR BAR","lat":57.14241,"lon":-2.1118,"postcode":"AB10 6BS","la":"Aberdeen City","era":"other","nn":0,"risk":22,"cat":"green"},{"name":"GLOBE INN","lat":57.14691,"lon":-2.10625,"postcode":"AB10 1RJ","la":"Aberdeen City","era":"trad","nn":3,"risk":22,"cat":"green"},{"name":"GOLDEN TEE","lat":57.13757,"lon":-2.06925,"postcode":"AB11 8LH","la":"Aberdeen City","era":"other","nn":121,"risk":43,"cat":"amber"},{"name":"GORDONIANS F.P. CLUB","lat":57.13572,"lon":-2.14192,"postcode":"AB15 7YT","la":"Aberdeen City","era":"other","nn":381,"risk":30,"cat":"green"},{"name":"GRAMPIAN BAR","lat":57.13865,"lon":-2.08858,"postcode":"AB11 9LS","la":"Aberdeen City","era":"trad","nn":86,"risk":23,"cat":"green"},{"name":"GRANITE CITY  [Landside]","lat":57.2005,"lon":-2.20345,"postcode":"AB21 7DU","la":"Aberdeen City","era":"other","nn":0,"risk":40,"cat":"amber"},{"name":"GRAPE AND GRAIN","lat":57.14389,"lon":-2.11221,"postcode":"AB10 1UY","la":"Aberdeen City","era":"other","nn":77,"risk":23,"cat":"green"},{"name":"GRAY'S INN","lat":57.15601,"lon":-2.1617,"postcode":"AB16 5PY","la":"Aberdeen City","era":"trad","nn":258,"risk":24,"cat":"green"},{"name":"HAZLEHEAD GOLF CLUB [Bar only]","lat":57.14105,"lon":-2.17943,"postcode":"AB15 8BD","la":"Aberdeen City","era":"other","nn":1155,"risk":53,"cat":"amber"},{"name":"HOLBURN BAR","lat":57.13811,"lon":-2.11399,"postcode":"AB10 6BL","la":"Aberdeen City","era":"other","nn":161,"risk":23,"cat":"green"},{"name":"JAM JAR","lat":57.14402,"lon":-2.10518,"postcode":"AB11 6FB","la":"Aberdeen City","era":"other","nn":50,"risk":23,"cat":"green"},{"name":"JIMMY WILSONS BAR","lat":57.14641,"lon":-2.0965,"postcode":"AB11 5PY","la":"Aberdeen City","era":"other","nn":0,"risk":22,"cat":"green"},{"name":"JUSTICE MILL / LLOYDS NO 1 BAR","lat":57.14332,"lon":-2.10959,"postcode":"AB11 6DA","la":"Aberdeen City","era":"trad","nn":72,"risk":23,"cat":"green"},{"name":"KARMA","lat":57.14232,"lon":-2.11123,"postcode":"AB11 6EP","la":"Aberdeen City","era":"other","nn":24,"risk":23,"cat":"green"},{"name":"KINGS BAR","lat":57.15033,"lon":-2.09424,"postcode":"AB24 5AB","la":"Aberdeen City","era":"trad","nn":142,"risk":23,"cat":"green"},{"name":"KIRKGATE BAR","lat":57.14894,"lon":-2.09839,"postcode":"AB10 1BA","la":"Aberdeen City","era":"other","nn":67,"risk":23,"cat":"green"},{"name":"KITTYBREWSTER & WOODSIDE BOWLING CLUB","lat":57.16326,"lon":-2.11698,"postcode":"AB24 4PX","la":"Aberdeen City","era":"other","nn":382,"risk":30,"cat":"green"},{"name":"KITTYBREWSTER BAR/ASHGROVE LOUNGE","lat":57.16005,"lon":-2.11472,"postcode":"AB25 3PY","la":"Aberdeen City","era":"mod","nn":382,"risk":25,"cat":"green"},{"name":"KRAKATOA","lat":57.1459,"lon":-2.09524,"postcode":"AB11 5AA","la":"Aberdeen City","era":"other","nn":55,"risk":23,"cat":"green"},{"name":"LANE 7","lat":57.14702,"lon":-2.09506,"postcode":"AB11 5BY","la":"Aberdeen City","era":"other","nn":0,"risk":22,"cat":"green"},{"name":"LEGENDS SPORTS BAR LIMITED","lat":57.14372,"lon":-2.10085,"postcode":"AB11 6HD","la":"Aberdeen City","era":"mod","nn":64,"risk":23,"cat":"green"},{"name":"MA CAMERONS","lat":57.14681,"lon":-2.10061,"postcode":"AB10 1JG","la":"Aberdeen City","era":"other","nn":0,"risk":22,"cat":"green"},{"name":"MALONE'S","lat":57.14621,"lon":-2.09597,"postcode":"AB11 5BZ","la":"Aberdeen City","era":"other","nn":39,"risk":23,"cat":"green"},{"name":"MALONES IRISH BAR","lat":57.14702,"lon":-2.09506,"postcode":"AB11 5BY","la":"Aberdeen City","era":"other","nn":0,"risk":22,"cat":"green"},{"name":"MARKET ARMS","lat":57.14592,"lon":-2.09757,"postcode":"AB11 6ND","la":"Aberdeen City","era":"trad","nn":0,"risk":22,"cat":"green"},{"name":"MCGINTYS","lat":57.14309,"lon":-2.11239,"postcode":"AB10 1TT","la":"Aberdeen City","era":"other","nn":33,"risk":23,"cat":"green"},{"name":"MCNASTYS","lat":57.145,"lon":-2.10952,"postcode":"AB10 1SB","la":"Aberdeen City","era":"other","nn":36,"risk":23,"cat":"green"},{"name":"MOLLY MALONES","lat":57.14462,"lon":-2.10644,"postcode":"AB10 1TL","la":"Aberdeen City","era":"other","nn":10,"risk":22,"cat":"green"},{"name":"MOTIF","lat":57.14338,"lon":-2.10771,"postcode":"AB11 6EN","la":"Aberdeen City","era":"other","nn":40,"risk":23,"cat":"green"},{"name":"MOUNTHOOLY SPORTS BAR","lat":57.15422,"lon":-2.1051,"postcode":"AB25 3TB","la":"Aberdeen City","era":"other","nn":148,"risk":23,"cat":"green"},{"name":"MURCAR LINKS GOLF CLUB","lat":57.15555,"lon":-2.15752,"postcode":"AB23 8BD","la":"Aberdeen City","era":"other","nn":0,"risk":22,"cat":"green"},{"name":"MURDO'S BAR","lat":57.16009,"lon":-2.14319,"postcode":"AB16 5UR","la":"Aberdeen City","era":"other","nn":381,"risk":45,"cat":"amber"},{"name":"NEW ALBYN","lat":57.14257,"lon":-2.11452,"postcode":"AB10 1YE","la":"Aberdeen City","era":"other","nn":0,"risk":22,"cat":"green"},{"name":"NEW GREENTREES","lat":57.20946,"lon":-2.1886,"postcode":"AB21 7AA","la":"Aberdeen City","era":"other","nn":494,"risk":46,"cat":"amber"},{"name":"NEWHILLS BOWLING CLUB","lat":57.18672,"lon":-2.1823,"postcode":"AB21 9HS","la":"Aberdeen City","era":"other","nn":389,"risk":28,"cat":"green"},{"name":"NIGG BAY GOLF CLUB (BAR)","lat":57.13806,"lon":-2.06746,"postcode":"AB11 9QT","la":"Aberdeen City","era":"other","nn":121,"risk":43,"cat":"amber"},{"name":"NINETY NINE BAR & KITCHEN","lat":57.1472,"lon":-2.10027,"postcode":"AB10 1JN","la":"Aberdeen City","era":"mod","nn":0,"risk":22,"cat":"green"},{"name":"NO 10 WINEBAR","lat":57.14357,"lon":-2.12039,"postcode":"AB10 1XL","la":"Aberdeen City","era":"other","nn":371,"risk":25,"cat":"green"},{"name":"NOOSE AND MONKEY","lat":57.14784,"lon":-2.10797,"postcode":"AB25 1NQ","la":"Aberdeen City","era":"trad","nn":78,"risk":23,"cat":"green"},{"name":"NORTHERN BAR","lat":57.15249,"lon":-2.10453,"postcode":"AB25 1EE","la":"Aberdeen City","era":"other","nn":187,"risk":24,"cat":"green"},{"name":"NORTHERN BOWLING CLUB","lat":57.16176,"lon":-2.09768,"postcode":"AB24 3DP","la":"Aberdeen City","era":"other","nn":112,"risk":23,"cat":"green"},{"name":"NORTHERN GOLF CLUB","lat":57.15996,"lon":-2.08642,"postcode":"AB24 5QB","la":"Aberdeen City","era":"other","nn":0,"risk":22,"cat":"green"},{"name":"NORTHERN LIGHTS [Airside]","lat":57.2005,"lon":-2.20345,"postcode":"AB21 7DU","la":"Aberdeen City","era":"other","nn":0,"risk":40,"cat":"amber"},{"name":"O NEILL`S","lat":57.1472,"lon":-2.10027,"postcode":"AB10 1JN","la":"Aberdeen City","era":"other","nn":0,"risk":22,"cat":"green"},{"name":"O'DONOGHUES","lat":57.14231,"lon":-2.11162,"postcode":"AB11 6EP","la":"Aberdeen City","era":"other","nn":15,"risk":22,"cat":"green"},{"name":"OLD BANK BAR","lat":57.09666,"lon":-2.27032,"postcode":"AB14 0UQ","la":"Aberdeen City","era":"other","nn":73,"risk":28,"cat":"green"},{"name":"OLD BLACKFRIARS","lat":57.14793,"lon":-2.09264,"postcode":"AB11 5BB","la":"Aberdeen City","era":"other","nn":0,"risk":22,"cat":"green"},{"name":"OLD FRIGATE BAR","lat":57.14778,"lon":-2.09632,"postcode":"AB10 1AU","la":"Aberdeen City","era":"other","nn":89,"risk":23,"cat":"green"},{"name":"OLD KINGS HIGHWAY","lat":57.1458,"lon":-2.09936,"postcode":"AB11 6NY","la":"Aberdeen City","era":"trad","nn":87,"risk":23,"cat":"green"},{"name":"OLD SCHOOL HOUSE","lat":57.14681,"lon":-2.10061,"postcode":"AB10 1JG","la":"Aberdeen City","era":"other","nn":0,"risk":22,"cat":"green"},{"name":"ORIGIN","lat":57.14473,"lon":-2.10314,"postcode":"AB11 6HU","la":"Aberdeen City","era":"other","nn":0,"risk":22,"cat":"green"},{"name":"PARAMOUNT","lat":57.14366,"lon":-2.10568,"postcode":"AB11 6EA","la":"Aberdeen City","era":"trad","nn":0,"risk":22,"cat":"green"},{"name":"PARAMOUNT","lat":57.14366,"lon":-2.10568,"postcode":"AB11 6EA","la":"Aberdeen City","era":"trad","nn":0,"risk":22,"cat":"green"},{"name":"PARKVALE FC SOCIAL CLUB","lat":57.14879,"lon":-2.09322,"postcode":"AB24 5AX","la":"Aberdeen City","era":"mod","nn":42,"risk":23,"cat":"green"},{"name":"PEARL LOUNGE","lat":57.14436,"lon":-2.10461,"postcode":"AB11 6DR","la":"Aberdeen City","era":"mod","nn":39,"risk":23,"cat":"green"},{"name":"PITTODRIE BAR","lat":57.15481,"lon":-2.09522,"postcode":"AB24 5AP","la":"Aberdeen City","era":"other","nn":370,"risk":25,"cat":"green"},{"name":"POLMUIR BOWLING CLUB","lat":57.13513,"lon":-2.10332,"postcode":"AB11 7RS","la":"Aberdeen City","era":"other","nn":502,"risk":26,"cat":"green"},{"name":"PORTALS BAR","lat":57.14854,"lon":-2.0927,"postcode":"AB11 5BQ","la":"Aberdeen City","era":"other","nn":0,"risk":22,"cat":"green"},{"name":"PORTLAND CLUB","lat":57.14977,"lon":-2.09829,"postcode":"AB25 1GA","la":"Aberdeen City","era":"other","nn":38,"risk":23,"cat":"green"},{"name":"PRINCE OF WALES","lat":57.1469,"lon":-2.09885,"postcode":"AB10 1HF","la":"Aberdeen City","era":"trad","nn":68,"risk":23,"cat":"green"},{"name":"PRIVATE DANCER LTD","lat":57.14448,"lon":-2.10176,"postcode":"AB11 6HZ","la":"Aberdeen City","era":"other","nn":47,"risk":23,"cat":"green"},{"name":"PRIVATE EYES / CLUB TROPICANA","lat":57.1452,"lon":-2.11,"postcode":"AB10 1SN","la":"Aberdeen City","era":"other","nn":0,"risk":22,"cat":"green"},{"name":"PROHIBITION","lat":57.14463,"lon":-2.10419,"postcode":"AB11 6DX","la":"Aberdeen City","era":"other","nn":19,"risk":23,"cat":"green"},{"name":"QUEEN VIC","lat":57.14985,"lon":-2.11689,"postcode":"AB25 2YU","la":"Aberdeen City","era":"trad","nn":583,"risk":26,"cat":"green"},{"name":"R U A SOCIAL CLUB","lat":57.14272,"lon":-2.10779,"postcode":"AB11 6DL","la":"Aberdeen City","era":"mod","nn":39,"risk":23,"cat":"green"},{"name":"RAINBOW CASINO","lat":57.1458,"lon":-2.1095,"postcode":"AB10 1SJ","la":"Aberdeen City","era":"other","nn":73,"risk":23,"cat":"green"},{"name":"RED LION","lat":57.15963,"lon":-2.09982,"postcode":"AB24 3JU","la":"Aberdeen City","era":"trad","nn":270,"risk":24,"cat":"green"},{"name":"REDEMPTION","lat":57.14732,"lon":-2.102,"postcode":"AB10 1JS","la":"Aberdeen City","era":"other","nn":0,"risk":22,"cat":"green"},{"name":"REGENT BRIDGE BAR","lat":57.14644,"lon":-2.09233,"postcode":"AB11 5AH","la":"Aberdeen City","era":"other","nn":93,"risk":23,"cat":"green"},{"name":"REVOLUTION","lat":57.14732,"lon":-2.102,"postcode":"AB10 1JS","la":"Aberdeen City","era":"other","nn":0,"risk":22,"cat":"green"},{"name":"RICHMOND ARMS","lat":57.09605,"lon":-2.26985,"postcode":"AB14 0UL","la":"Aberdeen City","era":"trad","nn":73,"risk":28,"cat":"green"},{"name":"ROYAL BRITISH LEGION","lat":57.17718,"lon":-2.09273,"postcode":"AB23 8JN","la":"Aberdeen City","era":"trad","nn":129,"risk":23,"cat":"green"},{"name":"ROYAL NORTHERN AND UNIVERSITY CLUB","lat":57.14257,"lon":-2.11452,"postcode":"AB10 1YE","la":"Aberdeen City","era":"trad","nn":0,"risk":22,"cat":"green"},{"name":"SALTOUN ARMS","lat":57.15012,"lon":-2.09193,"postcode":"AB24 5HY","la":"Aberdeen City","era":"trad","nn":142,"risk":23,"cat":"green"},{"name":"SCOTIA BAR","lat":57.15179,"lon":-2.09261,"postcode":"AB24 5JB","la":"Aberdeen City","era":"other","nn":190,"risk":24,"cat":"green"},{"name":"SCOTTISH EMBASSY","lat":57.14524,"lon":-2.09807,"postcode":"AB11 5LY","la":"Aberdeen City","era":"other","nn":15,"risk":22,"cat":"green"},{"name":"SCOTT'S BAR","lat":57.15118,"lon":-2.15231,"postcode":"AB15 6TW","la":"Aberdeen City","era":"other","nn":139,"risk":23,"cat":"green"},{"name":"SEAFIELD BOWLING CLUB","lat":57.13662,"lon":-2.13582,"postcode":"AB15 4UF","la":"Aberdeen City","era":"other","nn":381,"risk":28,"cat":"green"},{"name":"SHOTZ","lat":57.13839,"lon":-2.09757,"postcode":"AB11 6JX","la":"Aberdeen City","era":"other","nn":289,"risk":24,"cat":"green"},{"name":"SIBERIA BAR","lat":57.14646,"lon":-2.10118,"postcode":"AB10 1JR","la":"Aberdeen City","era":"other","nn":0,"risk":22,"cat":"green"},{"name":"SILHOUETTES","lat":57.14428,"lon":-2.10107,"postcode":"AB11 6JN","la":"Aberdeen City","era":"other","nn":0,"risk":22,"cat":"green"},{"name":"SING CITY","lat":57.1452,"lon":-2.11,"postcode":"AB10 1SN","la":"Aberdeen City","era":"other","nn":0,"risk":22,"cat":"green"},{"name":"SLAINS CASTLE","lat":57.14697,"lon":-2.10128,"postcode":"AB10 1JH","la":"Aberdeen City","era":"other","nn":44,"risk":23,"cat":"green"},{"name":"SNUGGERY","lat":57.14641,"lon":-2.0965,"postcode":"AB11 5PY","la":"Aberdeen City","era":"other","nn":0,"risk":22,"cat":"green"},{"name":"SOUL","lat":57.14241,"lon":-2.11181,"postcode":"AB10 6BS","la":"Aberdeen City","era":"other","nn":0,"risk":22,"cat":"green"},{"name":"SOUL CASINO","lat":57.14241,"lon":-2.11181,"postcode":"AB10 6BS","la":"Aberdeen City","era":"other","nn":0,"risk":22,"cat":"green"},{"name":"SPIRIT LEVEL","lat":57.14579,"lon":-2.09744,"postcode":"AB11 6PH","la":"Aberdeen City","era":"other","nn":0,"risk":22,"cat":"green"},{"name":"SPORTSMANS CLUB","lat":57.14215,"lon":-2.1297,"postcode":"AB15 4YL","la":"Aberdeen City","era":"other","nn":584,"risk":26,"cat":"green"},{"name":"ST MACHAR BAR","lat":57.16652,"lon":-2.10247,"postcode":"AB24 3EN","la":"Aberdeen City","era":"other","nn":576,"risk":26,"cat":"green"},{"name":"STEINHAUS","lat":57.14473,"lon":-2.10314,"postcode":"AB11 6HU","la":"Aberdeen City","era":"other","nn":0,"risk":22,"cat":"green"},{"name":"SUNNYBANK FOOTBALL CLUB","lat":57.17157,"lon":-2.15507,"postcode":"AB16 7DS","la":"Aberdeen City","era":"other","nn":756,"risk":48,"cat":"amber"},{"name":"THE 1224 CLUB [MASONIC LODGE]","lat":57.09637,"lon":-2.26753,"postcode":"AB14 0UD","la":"Aberdeen City","era":"trad","nn":145,"risk":28,"cat":"green"},{"name":"THE ABERCROMBIE BAR","lat":57.14468,"lon":-2.10633,"postcode":"AB10 1TL","la":"Aberdeen City","era":"other","nn":10,"risk":22,"cat":"green"},{"name":"THE ADAMS","lat":57.13953,"lon":-2.1135,"postcode":"AB10 6BN","la":"Aberdeen City","era":"other","nn":56,"risk":23,"cat":"green"},{"name":"THE ASSEMBLY","lat":57.14724,"lon":-2.10729,"postcode":"AB10 1RN","la":"Aberdeen City","era":"mod","nn":70,"risk":23,"cat":"green"},{"name":"The Blue Lamp","lat":57.1512,"lon":-2.09909,"postcode":"AB25 1BU","la":"Aberdeen City","era":"other","nn":165,"risk":24,"cat":"green"},{"name":"THE BOBBIN","lat":57.16251,"lon":-2.09644,"postcode":"AB24 5ST","la":"Aberdeen City","era":"other","nn":112,"risk":23,"cat":"green"},{"name":"THE COTTON CLUB / CAFE BARDOTS","lat":57.14286,"lon":-2.11122,"postcode":"AB11 6DB","la":"Aberdeen City","era":"other","nn":39,"risk":23,"cat":"green"},{"name":"THE FOUNDRY","lat":57.14144,"lon":-2.11268,"postcode":"AB10 6BR","la":"Aberdeen City","era":"mod","nn":116,"risk":23,"cat":"green"},{"name":"THE GAS LAMP/TIPSY PIG","lat":57.14609,"lon":-2.09689,"postcode":"AB11 5PL","la":"Aberdeen City","era":"other","nn":42,"risk":23,"cat":"green"},{"name":"THE GRILL","lat":57.14488,"lon":-2.10425,"postcode":"AB11 6BA","la":"Aberdeen City","era":"other","nn":28,"risk":23,"cat":"green"},{"name":"THE HAYLOFT","lat":57.14085,"lon":-2.09906,"postcode":"AB11 6LN","la":"Aberdeen City","era":"other","nn":289,"risk":24,"cat":"green"},{"name":"THE HOWFF","lat":57.14374,"lon":-2.10761,"postcode":"AB11 6BT","la":"Aberdeen City","era":"other","nn":40,"risk":23,"cat":"green"},{"name":"THE LODGE OF OLD ABERDEEN","lat":57.18509,"lon":-2.12858,"postcode":"AB22 8YG","la":"Aberdeen City","era":"other","nn":1347,"risk":54,"cat":"amber"},{"name":"THE LORD BYRON","lat":57.16595,"lon":-2.16214,"postcode":"AB16 7LL","la":"Aberdeen City","era":"other","nn":700,"risk":45,"cat":"amber"},{"name":"THE MASK AND MAGMA","lat":57.14428,"lon":-2.10107,"postcode":"AB11 6JN","la":"Aberdeen City","era":"other","nn":0,"risk":22,"cat":"green"},{"name":"THE MITHER TAP","lat":57.15156,"lon":-2.10195,"postcode":"AB25 1BT","la":"Aberdeen City","era":"mod","nn":107,"risk":23,"cat":"green"},{"name":"THE OFFICE","lat":57.14472,"lon":-2.10342,"postcode":"AB11 6HA","la":"Aberdeen City","era":"other","nn":17,"risk":22,"cat":"green"},{"name":"THE ROWAN TREE","lat":57.16953,"lon":-2.09418,"postcode":"AB24 1SL","la":"Aberdeen City","era":"other","nn":440,"risk":25,"cat":"green"},{"name":"THE STAG","lat":57.14466,"lon":-2.10388,"postcode":"AB11 6HB","la":"Aberdeen City","era":"trad","nn":19,"risk":23,"cat":"green"},{"name":"THE STAGING POST","lat":57.17872,"lon":-2.17062,"postcode":"AB21 9DU","la":"Aberdeen City","era":"trad","nn":784,"risk":45,"cat":"amber"},{"name":"THE TIPPLING HOUSE","lat":57.14646,"lon":-2.10075,"postcode":"AB10 1JE","la":"Aberdeen City","era":"other","nn":25,"risk":23,"cat":"green"},{"name":"THE TUNNELS","lat":57.15555,"lon":-2.15752,"postcode":"AB10 1BF","la":"Aberdeen City","era":"other","nn":0,"risk":22,"cat":"green"},{"name":"THE WIG","lat":57.14757,"lon":-2.09379,"postcode":"AB11 5BA","la":"Aberdeen City","era":"other","nn":33,"risk":23,"cat":"green"},{"name":"THREE LUMS","lat":57.15392,"lon":-2.17609,"postcode":"AB16 6TG","la":"Aberdeen City","era":"other","nn":898,"risk":49,"cat":"amber"},{"name":"TRINITY HALL","lat":57.13972,"lon":-2.11436,"postcode":"AB10 6DA","la":"Aberdeen City","era":"other","nn":56,"risk":23,"cat":"green"},{"name":"TRIPLE KIRKS/EXODUS","lat":57.14732,"lon":-2.102,"postcode":"AB10 1JS","la":"Aberdeen City","era":"other","nn":0,"risk":22,"cat":"green"},{"name":"UNDER THE HAMMER","lat":57.14694,"lon":-2.10627,"postcode":"AB10 1RJ","la":"Aberdeen City","era":"other","nn":3,"risk":22,"cat":"green"},{"name":"UNDERGROUND KLUB","lat":57.14492,"lon":-2.10203,"postcode":"AB11 6JJ","la":"Aberdeen City","era":"other","nn":14,"risk":22,"cat":"green"},{"name":"UNION KIRK","lat":57.14397,"lon":-2.10676,"postcode":"AB11 6BS","la":"Aberdeen City","era":"other","nn":58,"risk":23,"cat":"green"},{"name":"UNIT 51","lat":57.14688,"lon":-2.09772,"postcode":"AB10 1BF","la":"Aberdeen City","era":"other","nn":68,"risk":23,"cat":"green"},{"name":"VICTORIA BAR","lat":57.13788,"lon":-2.08858,"postcode":"AB11 9DS","la":"Aberdeen City","era":"trad","nn":86,"risk":23,"cat":"green"},{"name":"WAGLEYS BAR","lat":57.14579,"lon":-2.09744,"postcode":"AB11 6PH","la":"Aberdeen City","era":"other","nn":0,"risk":22,"cat":"green"},{"name":"WHITE COCKADE","lat":57.13525,"lon":-2.0872,"postcode":"AB11 8ER","la":"Aberdeen City","era":"other","nn":304,"risk":24,"cat":"green"},{"name":"WHITEHALL BOWLING CLUB","lat":57.14749,"lon":-2.12622,"postcode":"AB15 5BW","la":"Aberdeen City","era":"other","nn":559,"risk":26,"cat":"green"},{"name":"WILD BOAR","lat":57.14646,"lon":-2.10118,"postcode":"AB10 1JR","la":"Aberdeen City","era":"other","nn":0,"risk":22,"cat":"green"},{"name":"WOODEND BAR","lat":57.19033,"lon":-2.1796,"postcode":"AB21 9JD","la":"Aberdeen City","era":"other","nn":434,"risk":30,"cat":"green"},{"name":"WOODEND BOWLING CLUB","lat":57.14287,"lon":-2.16059,"postcode":"AB15 6AJ","la":"Aberdeen City","era":"other","nn":931,"risk":49,"cat":"amber"},{"name":"WOODSIDE SPORTS COMPLEX","lat":57.17319,"lon":-2.1327,"postcode":"AB24 2UL","la":"Aberdeen City","era":"other","nn":146,"risk":28,"cat":"green"},{"name":"443 Club","lat":57.05212,"lon":-2.50359,"postcode":"AB31 5UB","la":"Aberdeenshire","era":"other","nn":119,"risk":48,"cat":"amber"},{"name":"65 Club","lat":56.96522,"lon":-2.20995,"postcode":"AB39 2AT","la":"Aberdeenshire","era":"other","nn":108,"risk":28,"cat":"green"},{"name":"Aberchirder Bowling Club","lat":57.56124,"lon":-2.62524,"postcode":"AB54 7TD","la":"Aberdeenshire","era":"other","nn":8901,"risk":84,"cat":"red"},{"name":"Aberdeen & Stonehaven Yacht Club","lat":57.24519,"lon":-2.76213,"postcode":"AB39 2JY","la":"Aberdeenshire","era":"other","nn":0,"risk":44,"cat":"amber"},{"name":"Aberdeen Arms Hotel","lat":57.12758,"lon":-2.85883,"postcode":"AB34 4TX","la":"Aberdeenshire","era":"trad","nn":1519,"risk":60,"cat":"amber"},{"name":"Aboyne Golf Club","lat":57.07974,"lon":-2.7729,"postcode":"AB34 5HP","la":"Aberdeenshire","era":"other","nn":1198,"risk":58,"cat":"amber"},{"name":"Alford Golf Club","lat":57.23518,"lon":-2.70304,"postcode":"AB33 8AE","la":"Aberdeenshire","era":"other","nn":406,"risk":50,"cat":"amber"},{"name":"Auchenblae Public Hall","lat":56.8982,"lon":-2.44933,"postcode":"AB30 1XQ","la":"Aberdeenshire","era":"other","nn":7595,"risk":84,"cat":"red"},{"name":"Ban Car Hotel","lat":57.61844,"lon":-1.96735,"postcode":"AB43 8RL","la":"Aberdeenshire","era":"other","nn":6402,"risk":84,"cat":"red"},{"name":"Banff Town & County Club","lat":57.66497,"lon":-2.52441,"postcode":"AB45 1DY","la":"Aberdeenshire","era":"other","nn":193,"risk":31,"cat":"amber"},{"name":"Beekie's Neuk","lat":57.26659,"lon":-2.1914,"postcode":"AB21 0PJ","la":"Aberdeenshire","era":"other","nn":317,"risk":47,"cat":"amber"},{"name":"Bellslea Bar","lat":57.69025,"lon":-2.00494,"postcode":"AB43 9BB","la":"Aberdeenshire","era":"other","nn":153,"risk":28,"cat":"green"},{"name":"Bettridge Centre","lat":57.03093,"lon":-2.14851,"postcode":"AB39 3UL","la":"Aberdeenshire","era":"other","nn":223,"risk":49,"cat":"amber"},{"name":"BrewDog Inverurie","lat":57.28357,"lon":-2.37349,"postcode":"AB51 3XN","la":"Aberdeenshire","era":"other","nn":166,"risk":28,"cat":"green"},{"name":"Bridge Bar","lat":57.36454,"lon":-2.07423,"postcode":"AB41 9AA","la":"Aberdeenshire","era":"other","nn":115,"risk":33,"cat":"amber"},{"name":"Brucklay Arms","lat":57.51459,"lon":-2.19524,"postcode":"AB53 6SY","la":"Aberdeenshire","era":"trad","nn":10932,"risk":84,"cat":"red"},{"name":"Caley Bar and Cube Disco","lat":57.50554,"lon":-1.77834,"postcode":"AB42 1TL","la":"Aberdeenshire","era":"mod","nn":179,"risk":31,"cat":"amber"},{"name":"Carlton Club","lat":57.69268,"lon":-2.00625,"postcode":"AB43 9AJ","la":"Aberdeenshire","era":"other","nn":56,"risk":27,"cat":"green"},{"name":"Cheers Cafe Bar & Tavern","lat":57.69275,"lon":-2.00531,"postcode":"AB43 9AH","la":"Aberdeenshire","era":"mod","nn":56,"risk":27,"cat":"green"},{"name":"Cock & Bull","lat":57.24519,"lon":-2.76213,"postcode":"AB23 8XY","la":"Aberdeenshire","era":"trad","nn":0,"risk":44,"cat":"amber"},{"name":"Coilacreich Inn","lat":57.05835,"lon":-3.11805,"postcode":"AB35 5UH","la":"Aberdeenshire","era":"trad","nn":4652,"risk":82,"cat":"red"},{"name":"Crown Hotel","lat":56.83079,"lon":-2.46945,"postcode":"AB30 1BL","la":"Aberdeenshire","era":"trad","nn":7595,"risk":84,"cat":"red"},{"name":"Crown Inn","lat":57.53834,"lon":-2.45565,"postcode":"AB53 4DN","la":"Aberdeenshire","era":"trad","nn":307,"risk":49,"cat":"amber"},{"name":"David Bennett Catering","lat":57.53413,"lon":-2.48489,"postcode":"AB53 4HD","la":"Aberdeenshire","era":"other","nn":1501,"risk":60,"cat":"amber"},{"name":"Dee Jays Nightclub","lat":57.69499,"lon":-2.01046,"postcode":"AB43 9EY","la":"Aberdeenshire","era":"other","nn":212,"risk":28,"cat":"green"},{"name":"Deeside Gliding Club","lat":57.0722,"lon":-2.83997,"postcode":"AB34 5LB","la":"Aberdeenshire","era":"other","nn":3261,"risk":72,"cat":"red"},{"name":"Deveron Community Social Club","lat":57.66596,"lon":-2.53152,"postcode":"AB45 1EQ","la":"Aberdeenshire","era":"mod","nn":437,"risk":33,"cat":"amber"},{"name":"Deveronvale Football Club Ltd","lat":57.66306,"lon":-2.51986,"postcode":"AB45 1AZ","la":"Aberdeenshire","era":"other","nn":258,"risk":31,"cat":"amber"},{"name":"Drumoak, Durris And Crathes Bowling Club","lat":57.08138,"lon":-2.34586,"postcode":"AB31 5EF","la":"Aberdeenshire","era":"trad","nn":4870,"risk":84,"cat":"red"},{"name":"Ellon Bowling Club","lat":57.36585,"lon":-2.07689,"postcode":"AB41 9BA","la":"Aberdeenshire","era":"other","nn":216,"risk":33,"cat":"amber"},{"name":"Ellon United Football Club","lat":57.36457,"lon":-2.05699,"postcode":"AB41 9QJ","la":"Aberdeenshire","era":"other","nn":944,"risk":54,"cat":"amber"},{"name":"Fishie Pub","lat":57.54748,"lon":-2.02266,"postcode":"AB42 4EN","la":"Aberdeenshire","era":"other","nn":1651,"risk":61,"cat":"red"},{"name":"Fraserburgh Golf Club","lat":57.67857,"lon":-1.99573,"postcode":"AB43 8TL","la":"Aberdeenshire","era":"other","nn":1410,"risk":59,"cat":"amber"},{"name":"Fyvie Community Kitchen","lat":57.43336,"lon":-2.38862,"postcode":"AB53 8RD","la":"Aberdeenshire","era":"mod","nn":329,"risk":49,"cat":"amber"},{"name":"Garlogie Inn","lat":57.13931,"lon":-2.349,"postcode":"AB32 6RX","la":"Aberdeenshire","era":"trad","nn":4599,"risk":82,"cat":"red"},{"name":"Grange Inn","lat":57.50753,"lon":-1.80219,"postcode":"AB42 2AQ","la":"Aberdeenshire","era":"trad","nn":1093,"risk":57,"cat":"amber"},{"name":"Harbour Lights (PHD) Ltd","lat":57.5071,"lon":-1.77725,"postcode":"AB42 1JU","la":"Aberdeenshire","era":"other","nn":104,"risk":30,"cat":"green"},{"name":"Inverallochy Golf Club","lat":57.67147,"lon":-1.92544,"postcode":"AB43 8TA","la":"Aberdeenshire","era":"other","nn":4253,"risk":79,"cat":"red"},{"name":"Inverurie Golf Club","lat":57.28234,"lon":-2.39547,"postcode":"AB51 5JB","la":"Aberdeenshire","era":"other","nn":872,"risk":38,"cat":"amber"},{"name":"Keithhall Public Hall","lat":57.27783,"lon":-2.32857,"postcode":"AB51 0LX","la":"Aberdeenshire","era":"other","nn":2694,"risk":68,"cat":"red"},{"name":"Kemnay Bowling & Social Club","lat":57.23393,"lon":-2.43843,"postcode":"AB51 5RL","la":"Aberdeenshire","era":"mod","nn":5594,"risk":84,"cat":"red"},{"name":"Kenyan Bar","lat":57.69221,"lon":-2.01557,"postcode":"AB43 9JS","la":"Aberdeenshire","era":"other","nn":345,"risk":29,"cat":"green"},{"name":"Kildrummy Inn","lat":57.24129,"lon":-2.8932,"postcode":"AB33 8QS","la":"Aberdeenshire","era":"trad","nn":5059,"risk":84,"cat":"red"},{"name":"Kintore Public Hall","lat":57.23535,"lon":-2.34552,"postcode":"AB51 0UX","la":"Aberdeenshire","era":"other","nn":4832,"risk":83,"cat":"red"},{"name":"Lumphanan Golf Club","lat":57.12742,"lon":-2.68484,"postcode":"AB31 4PW","la":"Aberdeenshire","era":"other","nn":7509,"risk":84,"cat":"red"},{"name":"Lumsden Community Association","lat":57.28542,"lon":-2.87271,"postcode":"AB54 4GQ","la":"Aberdeenshire","era":"other","nn":5059,"risk":84,"cat":"red"},{"name":"Masonic Hall","lat":57.69705,"lon":-2.11373,"postcode":"AB43 7JB","la":"Aberdeenshire","era":"trad","nn":5858,"risk":84,"cat":"red"},{"name":"Masonic Lodge St Anthony","lat":57.28213,"lon":-2.37268,"postcode":"AB51 3XQ","la":"Aberdeenshire","era":"trad","nn":158,"risk":28,"cat":"green"},{"name":"McDonald Golf Club","lat":57.3702,"lon":-2.08384,"postcode":"AB41 9AW","la":"Aberdeenshire","era":"other","nn":638,"risk":36,"cat":"amber"},{"name":"Mintlaw Boys Club","lat":57.53545,"lon":-2.00644,"postcode":"AB42 4EX","la":"Aberdeenshire","era":"other","nn":1651,"risk":61,"cat":"red"},{"name":"Newburgh on Ythan Golf Club","lat":57.31332,"lon":-2.0007,"postcode":"AB41 6BY","la":"Aberdeenshire","era":"other","nn":6625,"risk":84,"cat":"red"},{"name":"Newmachar Bowling Club","lat":57.26497,"lon":-2.18707,"postcode":"AB21 0WB","la":"Aberdeenshire","era":"other","nn":317,"risk":47,"cat":"amber"},{"name":"Newmachar Golf Club","lat":57.24519,"lon":-2.76213,"postcode":"AB21 7UU","la":"Aberdeenshire","era":"other","nn":0,"risk":44,"cat":"amber"},{"name":"Newmachar Scouts & Guides","lat":57.26223,"lon":-2.18218,"postcode":"AB21 0UR","la":"Aberdeenshire","era":"other","nn":424,"risk":47,"cat":"amber"},{"name":"Newton Arms","lat":57.03294,"lon":-2.14881,"postcode":"AB39 3TZ","la":"Aberdeenshire","era":"trad","nn":223,"risk":49,"cat":"amber"},{"name":"Oldmeldrum Golf Club","lat":57.33623,"lon":-2.31349,"postcode":"AB51 0DJ","la":"Aberdeenshire","era":"other","nn":6240,"risk":84,"cat":"red"},{"name":"Peterhead O.A.P. Social Club","lat":57.50711,"lon":-1.77898,"postcode":"AB42 1LH","la":"Aberdeenshire","era":"other","nn":104,"risk":30,"cat":"green"},{"name":"Pitmedden Bowling Club","lat":57.33662,"lon":-2.17859,"postcode":"AB41 7NX","la":"Aberdeenshire","era":"other","nn":6801,"risk":84,"cat":"red"},{"name":"Portlethen Bowling Club","lat":57.05658,"lon":-2.14051,"postcode":"AB12 4UN","la":"Aberdeenshire","era":"other","nn":241,"risk":46,"cat":"amber"},{"name":"R.A.F.A. Penguin Club","lat":57.69157,"lon":-2.00564,"postcode":"AB43 9AT","la":"Aberdeenshire","era":"other","nn":128,"risk":28,"cat":"green"},{"name":"Rocksley Inn","lat":57.47011,"lon":-1.78906,"postcode":"AB42 3AP","la":"Aberdeenshire","era":"trad","nn":3992,"risk":77,"cat":"red"},{"name":"Royal British Legion","lat":57.6931,"lon":-2.01001,"postcode":"AB43 9HT","la":"Aberdeenshire","era":"trad","nn":212,"risk":28,"cat":"green"},{"name":"Royal British Legion Scotland","lat":56.96451,"lon":-2.20874,"postcode":"AB39 2BA","la":"Aberdeenshire","era":"trad","nn":51,"risk":27,"cat":"green"},{"name":"Royal Oak Bar","lat":57.44717,"lon":-2.7854,"postcode":"AB54 8DL","la":"Aberdeenshire","era":"trad","nn":102,"risk":45,"cat":"amber"},{"name":"Royal Tarlair Golf Club","lat":57.67031,"lon":-2.48308,"postcode":"AB44 1TA","la":"Aberdeenshire","era":"trad","nn":595,"risk":49,"cat":"amber"},{"name":"Seafield Nightclub","lat":57.6618,"lon":-2.52439,"postcode":"AB45 1GB","la":"Aberdeenshire","era":"other","nn":303,"risk":32,"cat":"amber"},{"name":"Stonehaven Indoor Bowling Club Bar","lat":56.96853,"lon":-2.20566,"postcode":"AB39 2RD","la":"Aberdeenshire","era":"other","nn":451,"risk":30,"cat":"green"},{"name":"Strathdeveron Bar","lat":57.44801,"lon":-2.78751,"postcode":"AB54 8BY","la":"Aberdeenshire","era":"other","nn":108,"risk":45,"cat":"amber"},{"name":"Super Cuisine","lat":56.9631,"lon":-2.20943,"postcode":"AB39 2BJ","la":"Aberdeenshire","era":"other","nn":44,"risk":27,"cat":"green"},{"name":"Tarland Golf Club","lat":57.13842,"lon":-2.84352,"postcode":"AB34 4TB","la":"Aberdeenshire","era":"other","nn":1519,"risk":60,"cat":"amber"},{"name":"Teenie & Stams Bar Ltd","lat":57.53784,"lon":-2.4607,"postcode":"AB53 4AD","la":"Aberdeenshire","era":"mod","nn":307,"risk":49,"cat":"amber"},{"name":"The Black Bull Inn","lat":57.28699,"lon":-2.38233,"postcode":"AB51 4RS","la":"Aberdeenshire","era":"trad","nn":0,"risk":27,"cat":"green"},{"name":"The Boat Inn","lat":57.07166,"lon":-2.78602,"postcode":"AB34 5EL","la":"Aberdeenshire","era":"trad","nn":1198,"risk":58,"cat":"amber"},{"name":"The Butchers Arms","lat":57.28419,"lon":-2.37601,"postcode":"AB51 3SA","la":"Aberdeenshire","era":"trad","nn":167,"risk":28,"cat":"green"},{"name":"The Clansman","lat":57.69109,"lon":-2.00893,"postcode":"AB43 9LP","la":"Aberdeenshire","era":"other","nn":203,"risk":28,"cat":"green"},{"name":"The Commercial Inn","lat":57.28699,"lon":-2.38233,"postcode":"AB51 4RS","la":"Aberdeenshire","era":"trad","nn":0,"risk":27,"cat":"green"},{"name":"The Coyles Restaurant","lat":57.04535,"lon":-3.04494,"postcode":"AB35 5LX","la":"Aberdeenshire","era":"other","nn":4652,"risk":82,"cat":"red"},{"name":"The Crown Bar","lat":57.44707,"lon":-2.7871,"postcode":"AB54 8AJ","la":"Aberdeenshire","era":"trad","nn":102,"risk":45,"cat":"amber"},{"name":"The Drouthy Laird","lat":57.28457,"lon":-2.38156,"postcode":"AB51 3QT","la":"Aberdeenshire","era":"other","nn":273,"risk":29,"cat":"green"},{"name":"The Fairway","lat":57.41625,"lon":-1.85574,"postcode":"AB42 0NJ","la":"Aberdeenshire","era":"other","nn":7196,"risk":84,"cat":"red"},{"name":"The Leathan","lat":57.06163,"lon":-2.12927,"postcode":"AB12 4PT","la":"Aberdeenshire","era":"other","nn":863,"risk":51,"cat":"amber"},{"name":"The Market Arms","lat":57.66527,"lon":-2.52122,"postcode":"AB45 1DB","la":"Aberdeenshire","era":"trad","nn":193,"risk":31,"cat":"amber"},{"name":"The Mayfair Bar & Lounge","lat":57.50784,"lon":-1.7839,"postcode":"AB42 1QH","la":"Aberdeenshire","era":"mod","nn":234,"risk":31,"cat":"amber"},{"name":"The Old Moray","lat":57.6707,"lon":-2.49737,"postcode":"AB44 1TS","la":"Aberdeenshire","era":"other","nn":257,"risk":46,"cat":"amber"},{"name":"The Paddock","lat":57.05524,"lon":-2.13738,"postcode":"AB12 4UF","la":"Aberdeenshire","era":"other","nn":241,"risk":46,"cat":"amber"},{"name":"The Plough Inn","lat":57.67082,"lon":-2.49305,"postcode":"AB44 1RL","la":"Aberdeenshire","era":"trad","nn":257,"risk":46,"cat":"amber"},{"name":"The Royal British Legion","lat":57.432,"lon":-2.3935,"postcode":"AB53 8QB","la":"Aberdeenshire","era":"trad","nn":329,"risk":49,"cat":"amber"},{"name":"The Smiddy Bar","lat":57.34306,"lon":-2.41671,"postcode":"AB51 0HZ","la":"Aberdeenshire","era":"other","nn":6240,"risk":84,"cat":"red"},{"name":"The Stag Hotel","lat":57.05114,"lon":-2.50441,"postcode":"AB31 5SR","la":"Aberdeenshire","era":"trad","nn":119,"risk":48,"cat":"amber"},{"name":"Tolbooth Lounge Bar","lat":57.36516,"lon":-2.0727,"postcode":"AB41 9AE","la":"Aberdeenshire","era":"mod","nn":115,"risk":30,"cat":"green"},{"name":"Top Break Snooker Club","lat":57.50959,"lon":-1.78174,"postcode":"AB42 1UQ","la":"Aberdeenshire","era":"other","nn":234,"risk":31,"cat":"amber"},{"name":"Trinity Church","lat":57.15484,"lon":-2.27833,"postcode":"AB32 6FY","la":"Aberdeenshire","era":"other","nn":3934,"risk":77,"cat":"red"},{"name":"Troupers","lat":56.96345,"lon":-2.20908,"postcode":"AB39 2BJ","la":"Aberdeenshire","era":"other","nn":44,"risk":27,"cat":"green"},{"name":"Unionist Club","lat":56.96408,"lon":-2.20841,"postcode":"AB39 2BY","la":"Aberdeenshire","era":"other","nn":51,"risk":27,"cat":"green"},{"name":"Vale Of Alford Bowling Club","lat":57.23239,"lon":-2.70739,"postcode":"AB33 8TY","la":"Aberdeenshire","era":"other","nn":406,"risk":50,"cat":"amber"},{"name":"Woodend Arts Association","lat":57.06054,"lon":-2.46778,"postcode":"AB31 5QA","la":"Aberdeenshire","era":"other","nn":2360,"risk":66,"cat":"red"},{"name":"Wyness Hall","lat":57.28229,"lon":-2.37528,"postcode":"AB51 3QB","la":"Aberdeenshire","era":"other","nn":158,"risk":28,"cat":"green"},{"name":"Buckie Bowling Club","lat":57.67719,"lon":-2.96498,"postcode":"AB56 1UX","la":"Moray","era":"other","nn":131,"risk":29,"cat":"green"},{"name":"Buckie Thistle FC Function Suite","lat":57.67234,"lon":-2.96717,"postcode":"AB56 1BJ","la":"Moray","era":"other","nn":348,"risk":31,"cat":"amber"},{"name":"Carlton Bingo","lat":57.67546,"lon":-2.9674,"postcode":"AB56 1BP","la":"Moray","era":"other","nn":53,"risk":28,"cat":"green"},{"name":"Commercial Hotel","lat":57.54023,"lon":-2.95035,"postcode":"AB55 5AE","la":"Moray","era":"other","nn":51,"risk":33,"cat":"amber"},{"name":"Craigenroan Bar","lat":57.68441,"lon":-2.94203,"postcode":"AB56 1SL","la":"Moray","era":"other","nn":1420,"risk":61,"cat":"red"},{"name":"Crown Inn","lat":57.53869,"lon":-2.95019,"postcode":"AB55 5AB","la":"Moray","era":"trad","nn":124,"risk":34,"cat":"amber"},{"name":"Cullen Bowling And Tennis Club","lat":57.68988,"lon":-2.8156,"postcode":"AB56 4RN","la":"Moray","era":"other","nn":5530,"risk":86,"cat":"red"},{"name":"Dufftown Golf Club Kitchen","lat":57.43703,"lon":-3.14995,"postcode":"AB55 4BS","la":"Moray","era":"mod","nn":1670,"risk":62,"cat":"red"},{"name":"Harbour Bar","lat":57.67554,"lon":-2.97973,"postcode":"AB56 1XQ","la":"Moray","era":"other","nn":332,"risk":30,"cat":"green"},{"name":"JICs","lat":57.67652,"lon":-2.96205,"postcode":"AB56 1PB","la":"Moray","era":"other","nn":144,"risk":29,"cat":"green"},{"name":"Lennox Inn","lat":57.66348,"lon":-3.01942,"postcode":"AB56 5RY","la":"Moray","era":"trad","nn":2715,"risk":70,"cat":"red"},{"name":"Newmill Pub","lat":57.55917,"lon":-2.94501,"postcode":"AB55 6TT","la":"Moray","era":"trad","nn":1846,"risk":64,"cat":"red"},{"name":"Purple Nightclub Ltd","lat":57.67589,"lon":-2.965,"postcode":"AB56 1AH","la":"Moray","era":"other","nn":45,"risk":28,"cat":"green"},{"name":"Railway Staff Association Keith Club","lat":57.54273,"lon":-2.94928,"postcode":"AB55 5BP","la":"Moray","era":"trad","nn":286,"risk":35,"cat":"amber"},{"name":"Royal British Legion Club","lat":57.44721,"lon":-3.12946,"postcode":"AB55 4AS","la":"Moray","era":"trad","nn":334,"risk":50,"cat":"amber"},{"name":"Royal British Legion Club","lat":57.67369,"lon":-2.96172,"postcode":"AB56 1AX","la":"Moray","era":"trad","nn":306,"risk":30,"cat":"green"},{"name":"Scottys","lat":57.67397,"lon":-2.95578,"postcode":"AB56 1NX","la":"Moray","era":"other","nn":354,"risk":31,"cat":"amber"},{"name":"Seven Stills","lat":57.44492,"lon":-3.12585,"postcode":"AB55 4AL","la":"Moray","era":"other","nn":334,"risk":50,"cat":"amber"},{"name":"Star Inn","lat":57.6764,"lon":-2.97439,"postcode":"AB56 1XN","la":"Moray","era":"trad","nn":332,"risk":30,"cat":"green"},{"name":"The Admiral's Inn","lat":57.69798,"lon":-2.90742,"postcode":"AB56 4QA","la":"Moray","era":"trad","nn":2551,"risk":68,"cat":"red"},{"name":"The Fiddichside Inn","lat":57.49082,"lon":-3.18012,"postcode":"AB38 9RR","la":"Moray","era":"trad","nn":3610,"risk":76,"cat":"red"},{"name":"The Mash Tun","lat":57.47064,"lon":-3.22742,"postcode":"AB38 9QP","la":"Moray","era":"other","nn":3610,"risk":76,"cat":"red"},{"name":"The Plough Inn","lat":57.53981,"lon":-2.95002,"postcode":"AB55 5AE","la":"Moray","era":"trad","nn":51,"risk":33,"cat":"amber"},{"name":"The Pub In The Square","lat":57.67607,"lon":-2.96432,"postcode":"AB56 1AH","la":"Moray","era":"other","nn":45,"risk":28,"cat":"green"},{"name":"Thistle Bar","lat":57.67588,"lon":-2.96697,"postcode":"AB56 1HD","la":"Moray","era":"other","nn":53,"risk":28,"cat":"green"},{"name":"Victoria Bar","lat":57.52735,"lon":-3.20734,"postcode":"AB38 7AZ","la":"Moray","era":"trad","nn":4375,"risk":81,"cat":"red"}]