[{"name":"Paradise By Way of Kensal Green","lat":51.52907,"lon":-0.21628,"postcode":"W10 4AE","la":"Brent","era":"other","nn":49,"risk":27,"cat":"green"},{"name":"Bermondsey Pub Company Limited","lat":51.5235,"lon":-0.13739,"postcode":"W1T 5AW","la":"Camden","era":"other","nn":65,"risk":21,"cat":"green"},{"name":"Bourne & Hollingsworth","lat":51.51792,"lon":-0.13423,"postcode":"W1T 1JF","la":"Camden","era":"other","nn":26,"risk":21,"cat":"green"},{"name":"Bricklayers Arms","lat":51.51776,"lon":-0.1334,"postcode":"W1T 1QS","la":"Camden","era":"trad","nn":37,"risk":21,"cat":"green"},{"name":"Dominion Theatre","lat":51.51696,"lon":-0.12964,"postcode":"W1T 7AQ","la":"Camden","era":"other","nn":84,"risk":21,"cat":"green"},{"name":"Fitzrovia Belle","lat":51.52257,"lon":-0.13571,"postcode":"W1T 7NT","la":"Camden","era":"other","nn":64,"risk":21,"cat":"green"},{"name":"Fitzroy Tavern","lat":51.5187,"lon":-0.1346,"postcode":"W1T 2LY","la":"Camden","era":"other","nn":91,"risk":21,"cat":"green"},{"name":"Jack Horner","lat":51.51877,"lon":-0.13218,"postcode":"W1T 7QN","la":"Camden","era":"other","nn":92,"risk":21,"cat":"green"},{"name":"Lore Of The Land","lat":51.52208,"lon":-0.13961,"postcode":"W1T 6BB","la":"Camden","era":"other","nn":52,"risk":21,"cat":"green"},{"name":"One Tun","lat":51.51916,"lon":-0.13682,"postcode":"W1T 4ND","la":"Camden","era":"other","nn":127,"risk":22,"cat":"green"},{"name":"Prince Of Wales Feathers","lat":51.52415,"lon":-0.13844,"postcode":"W1T 5LD","la":"Camden","era":"trad","nn":66,"risk":21,"cat":"green"},{"name":"Reverend J W Simpson","lat":51.51973,"lon":-0.13522,"postcode":"W1T 2QJ","la":"Camden","era":"other","nn":33,"risk":21,"cat":"green"},{"name":"Rising Sun","lat":51.5192,"lon":-0.13331,"postcode":"W1T 2ED","la":"Camden","era":"other","nn":92,"risk":21,"cat":"green"},{"name":"Sevilla Mia","lat":51.51691,"lon":-0.13207,"postcode":"W1T 1UQ","la":"Camden","era":"other","nn":132,"risk":22,"cat":"green"},{"name":"Simmons Bar","lat":51.52224,"lon":-0.1389,"postcode":"W1T 6HP","la":"Camden","era":"other","nn":52,"risk":21,"cat":"green"},{"name":"Spearmint Rhino","lat":51.52327,"lon":-0.13652,"postcode":"W1T 7NN","la":"Camden","era":"other","nn":47,"risk":21,"cat":"green"},{"name":"TCR Lounge Bar","lat":51.52203,"lon":-0.1354,"postcode":"W1T 7PE","la":"Camden","era":"mod","nn":64,"risk":21,"cat":"green"},{"name":"The Carpenters Arms","lat":51.52179,"lon":-0.13651,"postcode":"W1T 4EY","la":"Camden","era":"trad","nn":81,"risk":21,"cat":"green"},{"name":"The Court","lat":51.52297,"lon":-0.13699,"postcode":"W1T 5AA","la":"Camden","era":"other","nn":47,"risk":21,"cat":"green"},{"name":"The Fitzrovia","lat":51.51991,"lon":-0.13484,"postcode":"W1T 2QD","la":"Camden","era":"other","nn":33,"risk":21,"cat":"green"},{"name":"The Grafton Arms","lat":51.5233,"lon":-0.13874,"postcode":"W1T 5DU","la":"Camden","era":"trad","nn":38,"risk":21,"cat":"green"},{"name":"The Wheatsheaf","lat":51.51777,"lon":-0.13393,"postcode":"W1T 1JB","la":"Camden","era":"trad","nn":26,"risk":21,"cat":"green"},{"name":"Vault 139","lat":51.52363,"lon":-0.1389,"postcode":"W1T 5EP","la":"Camden","era":"other","nn":38,"risk":21,"cat":"green"},{"name":"A Pint Of Hops","lat":51.50842,"lon":-0.26703,"postcode":"W3 6AX","la":"Ealing","era":"other","nn":55,"risk":25,"cat":"green"},{"name":"Acton Village Social Club","lat":51.51764,"lon":-0.27447,"postcode":"W3 0JH","la":"Ealing","era":"mod","nn":569,"risk":34,"cat":"amber"},{"name":"Actonians Sports Club","lat":51.50156,"lon":-0.2875,"postcode":"W5 4LL","la":"Ealing","era":"other","nn":159,"risk":26,"cat":"green"},{"name":"Aeronaut","lat":51.5085,"lon":-0.27592,"postcode":"W3 9BH","la":"Ealing","era":"other","nn":182,"risk":26,"cat":"green"},{"name":"Appose UK At Shepherds Bush Cricket Club","lat":51.50832,"lon":-0.25137,"postcode":"W3 7BP","la":"Ealing","era":"other","nn":58,"risk":25,"cat":"green"},{"name":"Bar 8","lat":51.5268,"lon":-0.28491,"postcode":"W5 3EL","la":"Ealing","era":"mod","nn":533,"risk":46,"cat":"amber"},{"name":"Beerkat","lat":51.51425,"lon":-0.3022,"postcode":"W5 2NP","la":"Ealing","era":"other","nn":28,"risk":25,"cat":"green"},{"name":"Benet Club","lat":51.51982,"lon":-0.30743,"postcode":"W5 2DZ","la":"Ealing","era":"other","nn":243,"risk":27,"cat":"green"},{"name":"Black George","lat":51.51099,"lon":-0.318,"postcode":"W13 9AA","la":"Ealing","era":"trad","nn":135,"risk":26,"cat":"green"},{"name":"Brent Valley Golf Club","lat":51.51604,"lon":-0.34015,"postcode":"W7 3BE","la":"Ealing","era":"other","nn":280,"risk":27,"cat":"green"},{"name":"Brentham Club & Perry Cafe","lat":51.52884,"lon":-0.30933,"postcode":"W5 1NP","la":"Ealing","era":"other","nn":353,"risk":30,"cat":"green"},{"name":"Crispins Wine Bar","lat":51.51102,"lon":-0.30519,"postcode":"W5 5DA","la":"Ealing","era":"other","nn":76,"risk":26,"cat":"green"},{"name":"Duke Of Kent","lat":51.52472,"lon":-0.32025,"postcode":"W13 8DL","la":"Ealing","era":"trad","nn":554,"risk":29,"cat":"green"},{"name":"Duke Of Sussex","lat":51.49645,"lon":-0.26414,"postcode":"W4 5LF","la":"Ealing","era":"trad","nn":192,"risk":26,"cat":"green"},{"name":"Ealing Cricket & Social Club","lat":51.51975,"lon":-0.2976,"postcode":"W5 2HS","la":"Ealing","era":"mod","nn":347,"risk":27,"cat":"green"},{"name":"Ealing Ex-Servicemen's Club","lat":51.51268,"lon":-0.3132,"postcode":"W5 2UA","la":"Ealing","era":"other","nn":37,"risk":25,"cat":"green"},{"name":"Ealing Lawn Tennis Club","lat":51.51306,"lon":-0.28741,"postcode":"W5 3RY","la":"Ealing","era":"other","nn":149,"risk":26,"cat":"green"},{"name":"Ealing Wine Co","lat":51.50156,"lon":-0.31599,"postcode":"W13 9SB","la":"Ealing","era":"other","nn":74,"risk":26,"cat":"green"},{"name":"Eden Fitness","lat":51.51255,"lon":-0.3127,"postcode":"W5 2SP","la":"Ealing","era":"other","nn":37,"risk":25,"cat":"green"},{"name":"Everyone Active","lat":51.51381,"lon":-0.33826,"postcode":"W7 3BE","la":"Ealing","era":"other","nn":280,"risk":27,"cat":"green"},{"name":"George & Dragon (Bar Only)","lat":51.50723,"lon":-0.27179,"postcode":"W3 9DJ","la":"Ealing","era":"other","nn":5,"risk":25,"cat":"green"},{"name":"Grosvenor Public House","lat":51.50623,"lon":-0.32917,"postcode":"W7 2DT","la":"Ealing","era":"other","nn":394,"risk":28,"cat":"green"},{"name":"Grove","lat":51.51034,"lon":-0.30514,"postcode":"W5 5QX","la":"Ealing","era":"other","nn":76,"risk":26,"cat":"green"},{"name":"Hanwell Conservative Club","lat":51.50874,"lon":-0.3332,"postcode":"W7 3PP","la":"Ealing","era":"other","nn":110,"risk":26,"cat":"green"},{"name":"Jono's Freehouse","lat":51.51024,"lon":-0.28708,"postcode":"W5 3LD","la":"Ealing","era":"other","nn":314,"risk":27,"cat":"green"},{"name":"Kings Arms","lat":51.50863,"lon":-0.33677,"postcode":"W7 3SU","la":"Ealing","era":"trad","nn":44,"risk":25,"cat":"green"},{"name":"Kings Arms","lat":51.51102,"lon":-0.30253,"postcode":"W5 5DX","la":"Ealing","era":"trad","nn":184,"risk":26,"cat":"green"},{"name":"Lavins Irish Bar","lat":51.50895,"lon":-0.33641,"postcode":"W7 3ST","la":"Ealing","era":"other","nn":44,"risk":25,"cat":"green"},{"name":"Mendes Sheepwalk","lat":51.50772,"lon":-0.27132,"postcode":"W3 6QS","la":"Ealing","era":"other","nn":60,"risk":25,"cat":"green"},{"name":"Mode Club","lat":51.50782,"lon":-0.25162,"postcode":"W3 7AU","la":"Ealing","era":"other","nn":58,"risk":25,"cat":"green"},{"name":"New Ashbourne","lat":51.52918,"lon":-0.29159,"postcode":"W5 3QS","la":"Ealing","era":"other","nn":531,"risk":34,"cat":"amber"},{"name":"New Inn","lat":51.5051,"lon":-0.30578,"postcode":"W5 5EX","la":"Ealing","era":"trad","nn":51,"risk":25,"cat":"green"},{"name":"No. 17","lat":51.51333,"lon":-0.30815,"postcode":"W5 2TD","la":"Ealing","era":"other","nn":89,"risk":26,"cat":"green"},{"name":"O'Briens","lat":51.51125,"lon":-0.31609,"postcode":"W13 9AU","la":"Ealing","era":"other","nn":41,"risk":25,"cat":"green"},{"name":"Players Wine Bar","lat":51.50097,"lon":-0.31549,"postcode":"W13 9SB","la":"Ealing","era":"other","nn":74,"risk":26,"cat":"green"},{"name":"Prince Arthur","lat":51.51139,"lon":-0.3151,"postcode":"W13 9AU","la":"Ealing","era":"trad","nn":59,"risk":25,"cat":"green"},{"name":"Prince Of Wales","lat":51.50709,"lon":-0.33769,"postcode":"W7 3TR","la":"Ealing","era":"trad","nn":0,"risk":25,"cat":"green"},{"name":"Red Room","lat":51.51441,"lon":-0.30251,"postcode":"W5 2NP","la":"Ealing","era":"other","nn":28,"risk":25,"cat":"green"},{"name":"Roddy's Bar","lat":51.49843,"lon":-0.30622,"postcode":"W5 4EE","la":"Ealing","era":"other","nn":460,"risk":28,"cat":"green"},{"name":"Rose & Crown","lat":51.50391,"lon":-0.30557,"postcode":"W5 4HN","la":"Ealing","era":"trad","nn":116,"risk":26,"cat":"green"},{"name":"Ryan's Bar (Pub Only)","lat":51.4983,"lon":-0.31411,"postcode":"W5 4UB","la":"Ealing","era":"mod","nn":165,"risk":26,"cat":"green"},{"name":"Sabai @ George & Dragon","lat":51.50724,"lon":-0.27173,"postcode":"W3 9DJ","la":"Ealing","era":"trad","nn":5,"risk":25,"cat":"green"},{"name":"Shamrock Sports & Social Club","lat":51.51833,"lon":-0.26632,"postcode":"W3 0BP","la":"Ealing","era":"mod","nn":569,"risk":49,"cat":"amber"},{"name":"Shanakee","lat":51.51485,"lon":-0.30269,"postcode":"W5 2NT","la":"Ealing","era":"other","nn":50,"risk":25,"cat":"green"},{"name":"Sir Michael Balcon","lat":51.51349,"lon":-0.29893,"postcode":"W5 3TJ","la":"Ealing","era":"other","nn":136,"risk":26,"cat":"green"},{"name":"South Ealing Conservative Club","lat":51.50483,"lon":-0.30637,"postcode":"W5 5EX","la":"Ealing","era":"other","nn":51,"risk":25,"cat":"green"},{"name":"Springfield Acton Bowls","lat":51.51357,"lon":-0.28542,"postcode":"W5 3RS","la":"Ealing","era":"other","nn":149,"risk":26,"cat":"green"},{"name":"St Benedicts Mens Club","lat":51.52196,"lon":-0.30817,"postcode":"W5 2EY","la":"Ealing","era":"other","nn":243,"risk":27,"cat":"green"},{"name":"St Josephs Social Club","lat":51.50827,"lon":-0.3346,"postcode":"W7 3SU","la":"Ealing","era":"mod","nn":110,"risk":26,"cat":"green"},{"name":"Stack","lat":51.51433,"lon":-0.30036,"postcode":"W5 2PJ","la":"Ealing","era":"other","nn":121,"risk":26,"cat":"green"},{"name":"Star & Scorpion","lat":51.51161,"lon":-0.31593,"postcode":"W13 8RA","la":"Ealing","era":"other","nn":41,"risk":25,"cat":"green"},{"name":"Teatro Hall","lat":51.51258,"lon":-0.30768,"postcode":"W5 5AH","la":"Ealing","era":"other","nn":89,"risk":26,"cat":"green"},{"name":"The Belvedere / K-Town / Chik Box / Locked And Loaded","lat":51.50702,"lon":-0.26908,"postcode":"W3 6QX","la":"Ealing","era":"other","nn":174,"risk":26,"cat":"green"},{"name":"The Boston","lat":51.49691,"lon":-0.32571,"postcode":"W7 2DG","la":"Ealing","era":"other","nn":419,"risk":28,"cat":"green"},{"name":"The Castle","lat":51.50613,"lon":-0.30547,"postcode":"W5 5EU","la":"Ealing","era":"other","nn":116,"risk":26,"cat":"green"},{"name":"The Castlebar","lat":51.5119,"lon":-0.31536,"postcode":"W13 8RA","la":"Ealing","era":"other","nn":51,"risk":25,"cat":"green"},{"name":"The Dodo Micropub","lat":51.50709,"lon":-0.33769,"postcode":"W7 3TR","la":"Ealing","era":"other","nn":0,"risk":25,"cat":"green"},{"name":"The Drapers Arms","lat":51.51211,"lon":-0.30509,"postcode":"W5 5DB","la":"Ealing","era":"trad","nn":121,"risk":26,"cat":"green"},{"name":"The Duke Of York","lat":51.50905,"lon":-0.33855,"postcode":"W7 3SP","la":"Ealing","era":"trad","nn":132,"risk":26,"cat":"green"},{"name":"The Forester Ealing (Bar Only)","lat":51.50598,"lon":-0.32111,"postcode":"W13 9EP","la":"Ealing","era":"mod","nn":440,"risk":28,"cat":"green"},{"name":"The Fox And Goose","lat":51.53321,"lon":-0.29571,"postcode":"W5 1DP","la":"Ealing","era":"trad","nn":531,"risk":46,"cat":"amber"},{"name":"The Fox Inn","lat":51.50423,"lon":-0.34335,"postcode":"W7 2PJ","la":"Ealing","era":"trad","nn":464,"risk":28,"cat":"green"},{"name":"The Grange Pub & Dining Room","lat":51.50831,"lon":-0.29619,"postcode":"W5 3XH","la":"Ealing","era":"other","nn":532,"risk":29,"cat":"green"},{"name":"The Greystoke","lat":51.51687,"lon":-0.29072,"postcode":"W5 3HU","la":"Ealing","era":"other","nn":481,"risk":28,"cat":"green"},{"name":"The Haven Arms (Bar Only)","lat":51.51701,"lon":-0.3,"postcode":"W5 2HZ","la":"Ealing","era":"other","nn":0,"risk":25,"cat":"green"},{"name":"The Kings Head Restaurant & Pub","lat":51.50802,"lon":-0.2734,"postcode":"W3 9NX","la":"Ealing","era":"trad","nn":141,"risk":26,"cat":"green"},{"name":"The Morton Arms","lat":51.51444,"lon":-0.24957,"postcode":"W3 7DD","la":"Ealing","era":"trad","nn":692,"risk":32,"cat":"amber"},{"name":"The North Star","lat":51.51375,"lon":-0.30183,"postcode":"W5 5JN","la":"Ealing","era":"other","nn":62,"risk":25,"cat":"green"},{"name":"The Owl & The Pussycat","lat":51.50293,"lon":-0.31707,"postcode":"W13 9RT","la":"Ealing","era":"other","nn":170,"risk":26,"cat":"green"},{"name":"The Plough","lat":51.49717,"lon":-0.31256,"postcode":"W5 4XB","la":"Ealing","era":"trad","nn":165,"risk":26,"cat":"green"},{"name":"The Rocket","lat":51.50862,"lon":-0.26406,"postcode":"W3 6BD","la":"Ealing","era":"other","nn":50,"risk":25,"cat":"green"},{"name":"The Stag Public House","lat":51.49988,"lon":-0.26453,"postcode":"W4 5DA","la":"Ealing","era":"trad","nn":233,"risk":27,"cat":"green"},{"name":"The Station House","lat":51.50877,"lon":-0.26337,"postcode":"W3 6BH","la":"Ealing","era":"other","nn":50,"risk":25,"cat":"green"},{"name":"The Swan","lat":51.4979,"lon":-0.26564,"postcode":"W4 5HH","la":"Ealing","era":"trad","nn":192,"risk":26,"cat":"green"},{"name":"The Viaduct Pub","lat":51.5086,"lon":-0.34211,"postcode":"W7 3TD","la":"Ealing","era":"other","nn":252,"risk":27,"cat":"green"},{"name":"The Village Inn","lat":51.50583,"lon":-0.33717,"postcode":"W7 2ET","la":"Ealing","era":"trad","nn":144,"risk":26,"cat":"green"},{"name":"The Wheatsheaf","lat":51.51701,"lon":-0.3,"postcode":"W5 2HZ","la":"Ealing","era":"trad","nn":0,"risk":25,"cat":"green"},{"name":"The Windmill","lat":51.50679,"lon":-0.26608,"postcode":"W3 6LG","la":"Ealing","era":"trad","nn":192,"risk":26,"cat":"green"},{"name":"Village Inn","lat":51.5265,"lon":-0.31278,"postcode":"W5 1QP","la":"Ealing","era":"trad","nn":353,"risk":28,"cat":"green"},{"name":"Vindinista","lat":51.50858,"lon":-0.26778,"postcode":"W3 6DH","la":"Ealing","era":"other","nn":55,"risk":25,"cat":"green"},{"name":"Wasps FC (Bar Only)","lat":51.51001,"lon":-0.28098,"postcode":"W3 9QA","la":"Ealing","era":"mod","nn":388,"risk":28,"cat":"green"},{"name":"West 5 Bar","lat":51.5013,"lon":-0.28976,"postcode":"W5 4NB","la":"Ealing","era":"other","nn":159,"risk":29,"cat":"green"},{"name":"West Ealing Bowls And Social Club","lat":51.50029,"lon":-0.32302,"postcode":"W13 9UN","la":"Ealing","era":"mod","nn":419,"risk":28,"cat":"green"},{"name":"West London Masonic Centre","lat":51.50921,"lon":-0.31504,"postcode":"W13 9NF","la":"Ealing","era":"trad","nn":238,"risk":27,"cat":"green"},{"name":"West Middlesex Lawn Tennis Club","lat":51.51481,"lon":-0.32801,"postcode":"W13 0JS","la":"Ealing","era":"other","nn":718,"risk":30,"cat":"green"},{"name":"Acton Vale Working Mens Club","lat":51.50657,"lon":-0.24399,"postcode":"W12 9DS","la":"Hammersmith and Fulham","era":"trad","nn":0,"risk":25,"cat":"green"},{"name":"Andover Arms","lat":51.49684,"lon":-0.23282,"postcode":"W6 0DL","la":"Hammersmith and Fulham","era":"trad","nn":180,"risk":26,"cat":"green"},{"name":"Anglesea Arms","lat":51.4992,"lon":-0.23594,"postcode":"W6 0UR","la":"Hammersmith and Fulham","era":"trad","nn":170,"risk":26,"cat":"green"},{"name":"Be At One","lat":51.49334,"lon":-0.22375,"postcode":"W6 7AL","la":"Hammersmith and Fulham","era":"other","nn":57,"risk":25,"cat":"green"},{"name":"Beaconsfield","lat":51.49708,"lon":-0.21361,"postcode":"W14 0HA","la":"Hammersmith and Fulham","era":"other","nn":180,"risk":26,"cat":"green"},{"name":"Belushi's","lat":51.50388,"lon":-0.21941,"postcode":"W12 8PH","la":"Hammersmith and Fulham","era":"other","nn":43,"risk":25,"cat":"green"},{"name":"Belushi's And St Christopher's","lat":51.4933,"lon":-0.22457,"postcode":"W6 7AB","la":"Hammersmith and Fulham","era":"other","nn":41,"risk":25,"cat":"green"},{"name":"Bird In Hand","lat":51.49994,"lon":-0.21568,"postcode":"W14 0LR","la":"Hammersmith and Fulham","era":"other","nn":47,"risk":25,"cat":"green"},{"name":"Blue Anchor","lat":51.48985,"lon":-0.23143,"postcode":"W6 9DJ","la":"Hammersmith and Fulham","era":"trad","nn":0,"risk":25,"cat":"green"},{"name":"Blue Boat","lat":51.48733,"lon":-0.22661,"postcode":"W6 9GD","la":"Hammersmith and Fulham","era":"other","nn":156,"risk":26,"cat":"green"},{"name":"Brook Green Hotel","lat":51.49783,"lon":-0.22285,"postcode":"W6 7PB","la":"Hammersmith and Fulham","era":"other","nn":263,"risk":27,"cat":"green"},{"name":"Carpenter's Arms","lat":51.49233,"lon":-0.24272,"postcode":"W6 9BG","la":"Hammersmith and Fulham","era":"trad","nn":0,"risk":25,"cat":"green"},{"name":"Central Bar","lat":51.50377,"lon":-0.21881,"postcode":"W12 8PP","la":"Hammersmith and Fulham","era":"other","nn":43,"risk":25,"cat":"green"},{"name":"Coningham Arms","lat":51.50622,"lon":-0.23824,"postcode":"W12 9RA","la":"Hammersmith and Fulham","era":"trad","nn":51,"risk":25,"cat":"green"},{"name":"Cross Keys","lat":51.49233,"lon":-0.24272,"postcode":"W6 9BG","la":"Hammersmith and Fulham","era":"trad","nn":0,"risk":25,"cat":"green"},{"name":"Crown & Sceptre","lat":51.50315,"lon":-0.23619,"postcode":"W12 9HY","la":"Hammersmith and Fulham","era":"trad","nn":307,"risk":27,"cat":"green"},{"name":"Cumberland Arms P H","lat":51.49433,"lon":-0.21003,"postcode":"W14 8SZ","la":"Hammersmith and Fulham","era":"trad","nn":202,"risk":26,"cat":"green"},{"name":"Defectors Weld","lat":51.50508,"lon":-0.22306,"postcode":"W12 8AA","la":"Hammersmith and Fulham","era":"other","nn":176,"risk":26,"cat":"green"},{"name":"Deluxe Coffeeworks 219","lat":51.49488,"lon":-0.22367,"postcode":"W6 7JS","la":"Hammersmith and Fulham","era":"mod","nn":93,"risk":26,"cat":"green"},{"name":"Distillers","lat":51.49042,"lon":-0.22376,"postcode":"W6 9PH","la":"Hammersmith and Fulham","era":"other","nn":0,"risk":25,"cat":"green"},{"name":"Duke Of Cornwall","lat":51.49042,"lon":-0.22376,"postcode":"W6 9PH","la":"Hammersmith and Fulham","era":"trad","nn":0,"risk":25,"cat":"green"},{"name":"Eventim Apollo","lat":51.4907,"lon":-0.22446,"postcode":"W6 9QH","la":"Hammersmith and Fulham","era":"other","nn":57,"risk":25,"cat":"green"},{"name":"Famous Three Kings","lat":51.49004,"lon":-0.20622,"postcode":"W14 9NL","la":"Hammersmith and Fulham","era":"trad","nn":172,"risk":26,"cat":"green"},{"name":"Hammersmith Club","lat":51.49031,"lon":-0.22986,"postcode":"W6 9DH","la":"Hammersmith and Fulham","era":"other","nn":120,"risk":26,"cat":"green"},{"name":"Hand And Flower","lat":51.49585,"lon":-0.20841,"postcode":"W14 8XJ","la":"Hammersmith and Fulham","era":"other","nn":202,"risk":26,"cat":"green"},{"name":"Latymers","lat":51.49304,"lon":-0.21747,"postcode":"W6 8BS","la":"Hammersmith and Fulham","era":"other","nn":257,"risk":27,"cat":"green"},{"name":"Little Moons","lat":51.5101,"lon":-0.22172,"postcode":"W12 7HT","la":"Hammersmith and Fulham","era":"other","nn":211,"risk":26,"cat":"green"},{"name":"London Corinthian Club","lat":51.49062,"lon":-0.23658,"postcode":"W6 9TA","la":"Hammersmith and Fulham","era":"other","nn":0,"risk":25,"cat":"green"},{"name":"Plough And Harrow","lat":51.49283,"lon":-0.23283,"postcode":"W6 0QU","la":"Hammersmith and Fulham","era":"trad","nn":0,"risk":25,"cat":"green"},{"name":"Prince Of Wales","lat":51.49406,"lon":-0.23485,"postcode":"W6 0JD","la":"Hammersmith and Fulham","era":"trad","nn":195,"risk":26,"cat":"green"},{"name":"Princess Victoria","lat":51.50633,"lon":-0.24026,"postcode":"W12 9DH","la":"Hammersmith and Fulham","era":"trad","nn":86,"risk":26,"cat":"green"},{"name":"Queen Adelaide","lat":51.50661,"lon":-0.23785,"postcode":"W12 0NR","la":"Hammersmith and Fulham","era":"trad","nn":51,"risk":25,"cat":"green"},{"name":"Queens Tavern","lat":51.5121,"lon":-0.22672,"postcode":"W12 7PA","la":"Hammersmith and Fulham","era":"trad","nn":274,"risk":27,"cat":"green"},{"name":"Shepherds Bush Club","lat":51.50037,"lon":-0.23437,"postcode":"W12 8EP","la":"Hammersmith and Fulham","era":"other","nn":161,"risk":26,"cat":"green"},{"name":"Shepherds Bush Empire","lat":51.50353,"lon":-0.22443,"postcode":"W12 8TT","la":"Hammersmith and Fulham","era":"other","nn":34,"risk":25,"cat":"green"},{"name":"Sulgrave Club","lat":51.49908,"lon":-0.241,"postcode":"W12 8EU","la":"Hammersmith and Fulham","era":"other","nn":0,"risk":25,"cat":"green"},{"name":"Teds Place","lat":51.48581,"lon":-0.2025,"postcode":"W14 9NS","la":"Hammersmith and Fulham","era":"other","nn":69,"risk":25,"cat":"green"},{"name":"The Albion","lat":51.494,"lon":-0.2138,"postcode":"W14 0QL","la":"Hammersmith and Fulham","era":"other","nn":264,"risk":27,"cat":"green"},{"name":"The Askew","lat":51.50657,"lon":-0.24399,"postcode":"W12 9DS","la":"Hammersmith and Fulham","era":"other","nn":0,"risk":25,"cat":"green"},{"name":"The Black Lion PH","lat":51.4904,"lon":-0.24235,"postcode":"W6 9TJ","la":"Hammersmith and Fulham","era":"trad","nn":160,"risk":26,"cat":"green"},{"name":"The Broadcaster","lat":51.50996,"lon":-0.22475,"postcode":"W12 7FX","la":"Hammersmith and Fulham","era":"other","nn":211,"risk":26,"cat":"green"},{"name":"The Bull","lat":51.50721,"lon":-0.22325,"postcode":"W12 7GA","la":"Hammersmith and Fulham","era":"trad","nn":238,"risk":27,"cat":"green"},{"name":"The Chancellors","lat":51.48869,"lon":-0.22712,"postcode":"W6 9RL","la":"Hammersmith and Fulham","era":"other","nn":147,"risk":26,"cat":"green"},{"name":"The Clarence","lat":51.48861,"lon":-0.20525,"postcode":"W14 9PP","la":"Hammersmith and Fulham","era":"other","nn":172,"risk":26,"cat":"green"},{"name":"The Colonels Arms","lat":51.48828,"lon":-0.22294,"postcode":"W6 9PL","la":"Hammersmith and Fulham","era":"trad","nn":245,"risk":27,"cat":"green"},{"name":"The Crabtree","lat":51.48328,"lon":-0.22395,"postcode":"W6 9HJ","la":"Hammersmith and Fulham","era":"other","nn":422,"risk":28,"cat":"green"},{"name":"The Craft Beer Co","lat":51.49224,"lon":-0.22457,"postcode":"W6 9YD","la":"Hammersmith and Fulham","era":"mod","nn":94,"risk":26,"cat":"green"},{"name":"The Curtains Up","lat":51.48914,"lon":-0.21078,"postcode":"W14 9HR","la":"Hammersmith and Fulham","era":"other","nn":331,"risk":27,"cat":"green"},{"name":"The Dartmouth Castle","lat":51.49462,"lon":-0.22863,"postcode":"W6 0LS","la":"Hammersmith and Fulham","era":"other","nn":157,"risk":26,"cat":"green"},{"name":"The Dove","lat":51.49062,"lon":-0.23658,"postcode":"W6 9TA","la":"Hammersmith and Fulham","era":"other","nn":0,"risk":25,"cat":"green"},{"name":"The Duchess W6","lat":51.49854,"lon":-0.24404,"postcode":"W6 0XF","la":"Hammersmith and Fulham","era":"other","nn":219,"risk":26,"cat":"green"},{"name":"The Duke Of Hammersmith","lat":51.49563,"lon":-0.22427,"postcode":"W6 7NL","la":"Hammersmith and Fulham","era":"trad","nn":93,"risk":26,"cat":"green"},{"name":"The Eagle","lat":51.50087,"lon":-0.2396,"postcode":"W12 9AZ","la":"Hammersmith and Fulham","era":"trad","nn":220,"risk":26,"cat":"green"},{"name":"The Escape","lat":51.50141,"lon":-0.23274,"postcode":"W12 8HJ","la":"Hammersmith and Fulham","era":"other","nn":161,"risk":26,"cat":"green"},{"name":"The Green Public House","lat":51.50547,"lon":-0.22553,"postcode":"W12 7JP","la":"Hammersmith and Fulham","era":"other","nn":145,"risk":26,"cat":"green"},{"name":"The Grove Bar And Restaurant","lat":51.49734,"lon":-0.22751,"postcode":"W6 0NQ","la":"Hammersmith and Fulham","era":"mod","nn":294,"risk":27,"cat":"green"},{"name":"The Hammersmith Ram","lat":51.49248,"lon":-0.22772,"postcode":"W6 9HW","la":"Hammersmith and Fulham","era":"trad","nn":147,"risk":26,"cat":"green"},{"name":"The Havelock Tavern","lat":51.49955,"lon":-0.21596,"postcode":"W14 0LS","la":"Hammersmith and Fulham","era":"other","nn":47,"risk":25,"cat":"green"},{"name":"The Hawks Nest-Sugo","lat":51.50331,"lon":-0.22682,"postcode":"W12 8DF","la":"Hammersmith and Fulham","era":"other","nn":131,"risk":26,"cat":"green"},{"name":"The Hop Poles","lat":51.49275,"lon":-0.22565,"postcode":"W6 9HR","la":"Hammersmith and Fulham","era":"other","nn":37,"risk":25,"cat":"green"},{"name":"The Keep Of Brook Green","lat":51.49712,"lon":-0.21621,"postcode":"W14 0HR","la":"Hammersmith and Fulham","era":"other","nn":180,"risk":26,"cat":"green"},{"name":"The Oak W12","lat":51.49908,"lon":-0.241,"postcode":"W12 8EU","la":"Hammersmith and Fulham","era":"trad","nn":0,"risk":25,"cat":"green"},{"name":"The Old City Arms","lat":51.48935,"lon":-0.22896,"postcode":"W6 9DA","la":"Hammersmith and Fulham","era":"trad","nn":123,"risk":26,"cat":"green"},{"name":"The Old Oak","lat":51.48681,"lon":-0.20357,"postcode":"W14 9NX","la":"Hammersmith and Fulham","era":"trad","nn":134,"risk":26,"cat":"green"},{"name":"The Old Ship","lat":51.49038,"lon":-0.24003,"postcode":"W6 9TD","la":"Hammersmith and Fulham","era":"trad","nn":160,"risk":26,"cat":"green"},{"name":"The Orchard Tavern","lat":51.50186,"lon":-0.24234,"postcode":"W12 9BP","la":"Hammersmith and Fulham","era":"other","nn":220,"risk":26,"cat":"green"},{"name":"The Pavilion","lat":51.51858,"lon":-0.22771,"postcode":"W12 0HQ","la":"Hammersmith and Fulham","era":"trad","nn":215,"risk":26,"cat":"green"},{"name":"The Pocket Watch","lat":51.50665,"lon":-0.23913,"postcode":"W12 0NS","la":"Hammersmith and Fulham","era":"other","nn":78,"risk":25,"cat":"green"},{"name":"The Queens Head","lat":51.49531,"lon":-0.21816,"postcode":"W6 7BL","la":"Hammersmith and Fulham","era":"trad","nn":242,"risk":27,"cat":"green"},{"name":"The Raven","lat":51.49414,"lon":-0.24475,"postcode":"W6 0SA","la":"Hammersmith and Fulham","era":"other","nn":246,"risk":27,"cat":"green"},{"name":"The Richmond Arms","lat":51.50083,"lon":-0.22172,"postcode":"W6 7LU","la":"Hammersmith and Fulham","era":"trad","nn":322,"risk":27,"cat":"green"},{"name":"The Rutland","lat":51.48985,"lon":-0.23143,"postcode":"W6 9DJ","la":"Hammersmith and Fulham","era":"other","nn":0,"risk":25,"cat":"green"},{"name":"The Salutation","lat":51.49283,"lon":-0.23283,"postcode":"W6 0QU","la":"Hammersmith and Fulham","era":"other","nn":0,"risk":25,"cat":"green"},{"name":"The Shepherd & Flock","lat":51.50235,"lon":-0.22791,"postcode":"W12 8HA","la":"Hammersmith and Fulham","era":"other","nn":131,"risk":26,"cat":"green"},{"name":"The Sindercombe Social","lat":51.50333,"lon":-0.22405,"postcode":"W12 8QD","la":"Hammersmith and Fulham","era":"mod","nn":34,"risk":25,"cat":"green"},{"name":"The Stonemasons Arms","lat":51.49355,"lon":-0.23009,"postcode":"W6 0LA","la":"Hammersmith and Fulham","era":"trad","nn":157,"risk":26,"cat":"green"},{"name":"The Swan","lat":51.49313,"lon":-0.2251,"postcode":"W6 0DZ","la":"Hammersmith and Fulham","era":"trad","nn":40,"risk":25,"cat":"green"},{"name":"The Thatched House","lat":51.4978,"lon":-0.23492,"postcode":"W6 0ET","la":"Hammersmith and Fulham","era":"other","nn":171,"risk":26,"cat":"green"},{"name":"The White Horse","lat":51.50558,"lon":-0.22761,"postcode":"W12 8LH","la":"Hammersmith and Fulham","era":"trad","nn":145,"risk":26,"cat":"green"},{"name":"The William Morris","lat":51.49309,"lon":-0.22568,"postcode":"W6 0QA","la":"Hammersmith and Fulham","era":"other","nn":37,"risk":25,"cat":"green"},{"name":"The Wine Rack","lat":51.48498,"lon":-0.21852,"postcode":"W6 8NX","la":"Hammersmith and Fulham","era":"other","nn":422,"risk":28,"cat":"green"},{"name":"Chiswick Boathouse","lat":51.47336,"lon":-0.26323,"postcode":"W4 2SH","la":"Hounslow","era":"other","nn":403,"risk":29,"cat":"green"},{"name":"Chiswick Catholic Centre","lat":51.49186,"lon":-0.2605,"postcode":"W4 2AE","la":"Hounslow","era":"other","nn":36,"risk":26,"cat":"green"},{"name":"Chiswick Cricket Club","lat":51.47856,"lon":-0.25566,"postcode":"W4 2SP","la":"Hounslow","era":"other","nn":283,"risk":28,"cat":"green"},{"name":"Chiswick Memorial Club Association","lat":51.49202,"lon":-0.26004,"postcode":"W4 2EL","la":"Hounslow","era":"other","nn":36,"risk":26,"cat":"green"},{"name":"Chiswick Old Fire Station","lat":51.49224,"lon":-0.25711,"postcode":"W4 2DR","la":"Hounslow","era":"other","nn":3,"risk":26,"cat":"green"},{"name":"Chiswick Rugby Football Club","lat":51.47357,"lon":-0.25635,"postcode":"W4 2SH","la":"Hounslow","era":"other","nn":0,"risk":26,"cat":"green"},{"name":"Chiswick Tennis Club Ltd","lat":51.4811,"lon":-0.26438,"postcode":"W4 3EU","la":"Hounslow","era":"other","nn":496,"risk":30,"cat":"green"},{"name":"City Barge","lat":51.48503,"lon":-0.27905,"postcode":"W4 3PH","la":"Hounslow","era":"other","nn":130,"risk":27,"cat":"green"},{"name":"Connolly's","lat":51.49301,"lon":-0.26829,"postcode":"W4 5TT","la":"Hounslow","era":"other","nn":62,"risk":27,"cat":"green"},{"name":"Crown and Anchor","lat":51.49261,"lon":-0.26768,"postcode":"W4 4HH","la":"Hounslow","era":"trad","nn":62,"risk":27,"cat":"green"},{"name":"Dukes Meadow Golf and Tennis Club","lat":51.481,"lon":-0.25683,"postcode":"W4 2RX","la":"Hounslow","era":"trad","nn":283,"risk":28,"cat":"green"},{"name":"George and Devonshire","lat":51.48636,"lon":-0.25211,"postcode":"W4 2QE","la":"Hounslow","era":"trad","nn":383,"risk":29,"cat":"green"},{"name":"Gunnersbury Sports and Social Club","lat":51.49688,"lon":-0.28105,"postcode":"W3 8JY","la":"Hounslow","era":"mod","nn":424,"risk":29,"cat":"green"},{"name":"Gunnersbury Triangle Sports & Social Club","lat":51.501,"lon":-0.28223,"postcode":"W3 8LN","la":"Hounslow","era":"mod","nn":370,"risk":29,"cat":"green"},{"name":"Masonian Bowling club","lat":51.47357,"lon":-0.25635,"postcode":"W4 2SH","la":"Hounslow","era":"trad","nn":0,"risk":26,"cat":"green"},{"name":"Queens Head Chiswick","lat":51.48903,"lon":-0.27015,"postcode":"W4 4LD","la":"Hounslow","era":"trad","nn":274,"risk":28,"cat":"green"},{"name":"The Bell and Crown","lat":51.48704,"lon":-0.28316,"postcode":"W4 3PL","la":"Hounslow","era":"trad","nn":286,"risk":28,"cat":"green"},{"name":"The Bulls Head","lat":51.48418,"lon":-0.27776,"postcode":"W4 3PQ","la":"Hounslow","era":"trad","nn":130,"risk":27,"cat":"green"},{"name":"The Copper Cow","lat":51.48676,"lon":-0.27169,"postcode":"W4 3JY","la":"Hounslow","era":"other","nn":274,"risk":28,"cat":"green"},{"name":"The Duke of York","lat":51.4894,"lon":-0.2547,"postcode":"W4 2HU","la":"Hounslow","era":"trad","nn":345,"risk":29,"cat":"green"},{"name":"The George IV","lat":51.49222,"lon":-0.25708,"postcode":"W4 2DR","la":"Hounslow","era":"trad","nn":3,"risk":26,"cat":"green"},{"name":"The Gunnersbury","lat":51.49259,"lon":-0.27585,"postcode":"W4 5RP","la":"Hounslow","era":"other","nn":232,"risk":28,"cat":"green"},{"name":"The Hound Public House","lat":51.49282,"lon":-0.25683,"postcode":"W4 1PD","la":"Hounslow","era":"trad","nn":67,"risk":27,"cat":"green"},{"name":"The Lamb","lat":51.49198,"lon":-0.26237,"postcode":"W4 4PH","la":"Hounslow","era":"other","nn":131,"risk":27,"cat":"green"},{"name":"The Old Pack Horse","lat":51.49292,"lon":-0.26669,"postcode":"W4 5TF","la":"Hounslow","era":"trad","nn":77,"risk":27,"cat":"green"},{"name":"The Packhorse and Talbot","lat":51.49249,"lon":-0.25514,"postcode":"W4 2DT","la":"Hounslow","era":"trad","nn":122,"risk":27,"cat":"green"},{"name":"The Pilot","lat":51.49026,"lon":-0.27774,"postcode":"W4 4BZ","la":"Hounslow","era":"other","nn":291,"risk":28,"cat":"green"},{"name":"The Roebuck","lat":51.49302,"lon":-0.25267,"postcode":"W4 1PU","la":"Hounslow","era":"other","nn":181,"risk":27,"cat":"green"},{"name":"The Tabard","lat":51.49569,"lon":-0.25464,"postcode":"W4 1LW","la":"Hounslow","era":"other","nn":327,"risk":28,"cat":"green"},{"name":"The Union","lat":51.49468,"lon":-0.27605,"postcode":"W4 5YA","la":"Hounslow","era":"other","nn":232,"risk":28,"cat":"green"},{"name":"Will to Win Tennis Centre","lat":51.48377,"lon":-0.25863,"postcode":"W4 2RP","la":"Hounslow","era":"other","nn":332,"risk":28,"cat":"green"},{"name":"Bertie Blossoms","lat":51.52081,"lon":-0.20952,"postcode":"W10 5SY","la":"Kensington and Chelsea","era":"other","nn":315,"risk":28,"cat":"green"},{"name":"Castle PH","lat":51.50683,"lon":-0.20763,"postcode":"W11 4UA","la":"Kensington and Chelsea","era":"other","nn":269,"risk":28,"cat":"green"},{"name":"Chatpata","lat":51.49518,"lon":-0.20302,"postcode":"W14 8PS","la":"Kensington and Chelsea","era":"other","nn":0,"risk":26,"cat":"green"},{"name":"Chilled Eskimo","lat":51.52488,"lon":-0.21138,"postcode":"W10 5AN","la":"Kensington and Chelsea","era":"other","nn":260,"risk":27,"cat":"green"},{"name":"Churchill Arms","lat":51.50656,"lon":-0.19476,"postcode":"W8 7LN","la":"Kensington and Chelsea","era":"trad","nn":186,"risk":27,"cat":"green"},{"name":"Coronet Cinema and Print Room at the Coronet","lat":51.5085,"lon":-0.19892,"postcode":"W11 3LB","la":"Kensington and Chelsea","era":"other","nn":21,"risk":26,"cat":"green"},{"name":"Crown and Sceptre","lat":51.49763,"lon":-0.207,"postcode":"W14 8BA","la":"Kensington and Chelsea","era":"trad","nn":221,"risk":27,"cat":"green"},{"name":"Devonshire Arms","lat":51.49708,"lon":-0.1927,"postcode":"W8 6LA","la":"Kensington and Chelsea","era":"trad","nn":141,"risk":27,"cat":"green"},{"name":"Drop Kensington","lat":51.49769,"lon":-0.19748,"postcode":"W8 6ED","la":"Kensington and Chelsea","era":"other","nn":76,"risk":26,"cat":"green"},{"name":"Duke of Wellington PH","lat":51.51554,"lon":-0.2051,"postcode":"W11 2ED","la":"Kensington and Chelsea","era":"trad","nn":93,"risk":26,"cat":"green"},{"name":"Earl of Lonsdale","lat":51.51347,"lon":-0.20264,"postcode":"W11 2QA","la":"Kensington and Chelsea","era":"other","nn":127,"risk":27,"cat":"green"},{"name":"Elephant & Castle","lat":51.50322,"lon":-0.19281,"postcode":"W8 4LT","la":"Kensington and Chelsea","era":"other","nn":145,"risk":27,"cat":"green"},{"name":"Garden Bar and Grill","lat":51.51246,"lon":-0.21802,"postcode":"W10 6SZ","la":"Kensington and Chelsea","era":"mod","nn":172,"risk":27,"cat":"green"},{"name":"Greyhound Public House","lat":51.50078,"lon":-0.18924,"postcode":"W8 5EP","la":"Kensington and Chelsea","era":"trad","nn":156,"risk":27,"cat":"green"},{"name":"Ladbroke Arms Public House","lat":51.50912,"lon":-0.20272,"postcode":"W11 3NW","la":"Kensington and Chelsea","era":"trad","nn":170,"risk":27,"cat":"green"},{"name":"Larry King Limted","lat":51.51403,"lon":-0.20027,"postcode":"W11 2SH","la":"Kensington and Chelsea","era":"trad","nn":175,"risk":27,"cat":"green"},{"name":"Love","lat":51.51782,"lon":-0.20676,"postcode":"W11 1LR","la":"Kensington and Chelsea","era":"other","nn":178,"risk":27,"cat":"green"},{"name":"Notting Hill Arts Club","lat":51.50914,"lon":-0.19479,"postcode":"W11 3JQ","la":"Kensington and Chelsea","era":"other","nn":41,"risk":26,"cat":"green"},{"name":"Old Swan","lat":51.50879,"lon":-0.19496,"postcode":"W8 4DP","la":"Kensington and Chelsea","era":"trad","nn":41,"risk":26,"cat":"green"},{"name":"Pig & Whistle PH","lat":51.51397,"lon":-0.21747,"postcode":"W10 6UG","la":"Kensington and Chelsea","era":"other","nn":0,"risk":26,"cat":"green"},{"name":"Pig and Whistle Kitchen","lat":51.51397,"lon":-0.21747,"postcode":"W10 6UG","la":"Kensington and Chelsea","era":"mod","nn":0,"risk":26,"cat":"green"},{"name":"Portobello Star Public House","lat":51.51419,"lon":-0.20407,"postcode":"W11 2DY","la":"Kensington and Chelsea","era":"other","nn":127,"risk":27,"cat":"green"},{"name":"Prince Albert","lat":51.50955,"lon":-0.1977,"postcode":"W11 3HQ","la":"Kensington and Chelsea","era":"trad","nn":143,"risk":27,"cat":"green"},{"name":"Prince Of Wales","lat":51.50263,"lon":-0.19094,"postcode":"W8 4EP","la":"Kensington and Chelsea","era":"trad","nn":145,"risk":27,"cat":"green"},{"name":"Sporting Club De Londres","lat":51.52224,"lon":-0.20301,"postcode":"W10 5NT","la":"Kensington and Chelsea","era":"other","nn":238,"risk":27,"cat":"green"},{"name":"Stewart Arms PH","lat":51.50573,"lon":-0.21611,"postcode":"W11 4TR","la":"Kensington and Chelsea","era":"trad","nn":287,"risk":28,"cat":"green"},{"name":"Sun in Splendour","lat":51.51091,"lon":-0.19809,"postcode":"W11 3DA","la":"Kensington and Chelsea","era":"other","nn":154,"risk":27,"cat":"green"},{"name":"The Britannia","lat":51.49711,"lon":-0.19473,"postcode":"W8 6UX","la":"Kensington and Chelsea","era":"trad","nn":141,"risk":27,"cat":"green"},{"name":"The Castle","lat":51.51633,"lon":-0.20555,"postcode":"W11 1LU","la":"Kensington and Chelsea","era":"other","nn":93,"risk":26,"cat":"green"},{"name":"The Champion","lat":51.50998,"lon":-0.19255,"postcode":"W2 4LW","la":"Kensington and Chelsea","era":"other","nn":181,"risk":27,"cat":"green"},{"name":"The Eagle","lat":51.52273,"lon":-0.21286,"postcode":"W10 5LP","la":"Kensington and Chelsea","era":"trad","nn":260,"risk":27,"cat":"green"},{"name":"The Elgin","lat":51.51648,"lon":-0.20904,"postcode":"W11 1PY","la":"Kensington and Chelsea","era":"other","nn":81,"risk":26,"cat":"green"},{"name":"The Globe","lat":51.51662,"lon":-0.2005,"postcode":"W11 2AT","la":"Kensington and Chelsea","era":"other","nn":247,"risk":27,"cat":"green"},{"name":"The Goat Tavern","lat":51.50205,"lon":-0.1883,"postcode":"W8 5NP","la":"Kensington and Chelsea","era":"other","nn":156,"risk":27,"cat":"green"},{"name":"The Hansom Cab","lat":51.49614,"lon":-0.19718,"postcode":"W8 6EG","la":"Kensington and Chelsea","era":"other","nn":174,"risk":27,"cat":"green"},{"name":"The Hillgate","lat":51.50812,"lon":-0.19774,"postcode":"W8 7SR","la":"Kensington and Chelsea","era":"other","nn":71,"risk":26,"cat":"green"},{"name":"The Holland","lat":51.49829,"lon":-0.19801,"postcode":"W8 6EB","la":"Kensington and Chelsea","era":"other","nn":76,"risk":26,"cat":"green"},{"name":"The Knight of Notting Hill Pub","lat":51.51692,"lon":-0.20998,"postcode":"W10 6HJ","la":"Kensington and Chelsea","era":"other","nn":81,"risk":26,"cat":"green"},{"name":"The Mall Tavern","lat":51.50812,"lon":-0.19378,"postcode":"W8 4RU","la":"Kensington and Chelsea","era":"other","nn":111,"risk":26,"cat":"green"},{"name":"The Mitre","lat":51.50787,"lon":-0.20414,"postcode":"W11 3QY","la":"Kensington and Chelsea","era":"other","nn":170,"risk":27,"cat":"green"},{"name":"The Pelican","lat":51.5184,"lon":-0.20436,"postcode":"W11 1HE","la":"Kensington and Chelsea","era":"other","nn":178,"risk":27,"cat":"green"},{"name":"The Scarsdale","lat":51.49773,"lon":-0.19939,"postcode":"W8 6HE","la":"Kensington and Chelsea","era":"other","nn":114,"risk":26,"cat":"green"},{"name":"The Uxbridge Arms","lat":51.5084,"lon":-0.19865,"postcode":"W8 7TQ","la":"Kensington and Chelsea","era":"trad","nn":21,"risk":26,"cat":"green"},{"name":"The Volunteer","lat":51.51865,"lon":-0.22461,"postcode":"W10 6QW","la":"Kensington and Chelsea","era":"other","nn":215,"risk":27,"cat":"green"},{"name":"Warwick Arms","lat":51.49518,"lon":-0.20302,"postcode":"W14 8PS","la":"Kensington and Chelsea","era":"trad","nn":0,"risk":26,"cat":"green"},{"name":"Windsor Castle","lat":51.50655,"lon":-0.19862,"postcode":"W8 7AR","la":"Kensington and Chelsea","era":"other","nn":185,"risk":27,"cat":"green"},{"name":"5 Hertford Street","lat":51.50623,"lon":-0.14759,"postcode":"W1J 7RW","la":"Westminster","era":"other","nn":52,"risk":26,"cat":"green"},{"name":"Be At One","lat":51.51155,"lon":-0.13437,"postcode":"W1D 7LA","la":"Westminster","era":"other","nn":86,"risk":26,"cat":"green"},{"name":"Be At One","lat":51.51595,"lon":-0.14747,"postcode":"W1G 0EH","la":"Westminster","era":"other","nn":108,"risk":27,"cat":"green"},{"name":"Below Stone Nest","lat":51.51295,"lon":-0.1293,"postcode":"W1D 5EZ","la":"Westminster","era":"other","nn":65,"risk":26,"cat":"green"},{"name":"Blue Posts Public House","lat":51.51288,"lon":-0.13939,"postcode":"W1B 5PX","la":"Westminster","era":"other","nn":24,"risk":26,"cat":"green"},{"name":"Boom Battle Bar","lat":51.51631,"lon":-0.13447,"postcode":"W1D 1BS","la":"Westminster","era":"other","nn":118,"risk":27,"cat":"green"},{"name":"Brewdog Paddington","lat":51.51839,"lon":-0.17102,"postcode":"W2 1JX","la":"Westminster","era":"other","nn":97,"risk":27,"cat":"green"},{"name":"Burlock And Fam Bar","lat":51.51516,"lon":-0.15161,"postcode":"W1U 1LG","la":"Westminster","era":"other","nn":20,"risk":26,"cat":"green"},{"name":"Cirque Du Soir","lat":51.51288,"lon":-0.13897,"postcode":"W1F 9BN","la":"Westminster","era":"other","nn":20,"risk":26,"cat":"green"},{"name":"Clarette","lat":51.51854,"lon":-0.15369,"postcode":"W1U 7HS","la":"Westminster","era":"other","nn":402,"risk":29,"cat":"green"},{"name":"Coach And Horses Public House","lat":51.50913,"lon":-0.14728,"postcode":"W1J 5LD","la":"Westminster","era":"trad","nn":202,"risk":27,"cat":"green"},{"name":"Concept Club","lat":51.515,"lon":-0.1515,"postcode":"W1U 1LN","la":"Westminster","era":"other","nn":20,"risk":26,"cat":"green"},{"name":"Concoctions","lat":51.51537,"lon":-0.1356,"postcode":"W1F 8ZB","la":"Westminster","era":"other","nn":39,"risk":26,"cat":"green"},{"name":"Coravin Wine & Bubbles Bar","lat":51.51277,"lon":-0.14571,"postcode":"W1S 1EY","la":"Westminster","era":"other","nn":96,"risk":27,"cat":"green"},{"name":"Coyote Ugly Saloon","lat":51.5112,"lon":-0.13326,"postcode":"W1D 7EP","la":"Westminster","era":"other","nn":86,"risk":26,"cat":"green"},{"name":"Curzon Cinema","lat":51.50656,"lon":-0.14811,"postcode":"W1J 7TU","la":"Westminster","era":"other","nn":52,"risk":26,"cat":"green"},{"name":"Disrepute","lat":51.51231,"lon":-0.13832,"postcode":"W1B 5PW","la":"Westminster","era":"other","nn":45,"risk":26,"cat":"green"},{"name":"Harry'S Bar","lat":51.51528,"lon":-0.15059,"postcode":"W1U 1EP","la":"Westminster","era":"other","nn":71,"risk":26,"cat":"green"},{"name":"Justerini & Brooks","lat":51.50954,"lon":-0.14068,"postcode":"W1J 0QE","la":"Westminster","era":"other","nn":163,"risk":27,"cat":"green"},{"name":"Karaoke Box Mayfair","lat":51.51349,"lon":-0.14185,"postcode":"W1S 1PH","la":"Westminster","era":"other","nn":95,"risk":27,"cat":"green"},{"name":"Lio London","lat":51.51056,"lon":-0.13201,"postcode":"W1D 6BL","la":"Westminster","era":"other","nn":89,"risk":27,"cat":"green"},{"name":"Lockhouse Pub","lat":51.51912,"lon":-0.17178,"postcode":"W2 1AZ","la":"Westminster","era":"mod","nn":97,"risk":27,"cat":"green"},{"name":"Lucky Saint","lat":51.52221,"lon":-0.14422,"postcode":"W1W 5EA","la":"Westminster","era":"trad","nn":319,"risk":28,"cat":"green"},{"name":"Maddox Club And Restaurant","lat":51.51268,"lon":-0.14225,"postcode":"W1S 2AU","la":"Westminster","era":"other","nn":95,"risk":27,"cat":"green"},{"name":"Maroto","lat":51.51503,"lon":-0.147,"postcode":"W1G 0DH","la":"Westminster","era":"other","nn":108,"risk":27,"cat":"green"},{"name":"Moyagi","lat":51.51719,"lon":-0.14333,"postcode":"W1G 0QA","la":"Westminster","era":"other","nn":237,"risk":28,"cat":"green"},{"name":"Mr Fogg's Apothecary","lat":51.51311,"lon":-0.14698,"postcode":"W1K 5DN","la":"Westminster","era":"other","nn":96,"risk":27,"cat":"green"},{"name":"Nq64","lat":51.51557,"lon":-0.1364,"postcode":"W1F 8SJ","la":"Westminster","era":"other","nn":40,"risk":26,"cat":"green"},{"name":"Park Lane Club (Casino)","lat":51.5056,"lon":-0.15015,"postcode":"W1K 1BE","la":"Westminster","era":"other","nn":178,"risk":27,"cat":"green"},{"name":"Silver Hill","lat":51.51877,"lon":-0.19717,"postcode":"W2 5QL","la":"Westminster","era":"other","nn":322,"risk":28,"cat":"green"},{"name":"Simmons Bar","lat":51.51569,"lon":-0.13585,"postcode":"W1F 8ZH","la":"Westminster","era":"other","nn":39,"risk":26,"cat":"green"},{"name":"The Bear","lat":51.51482,"lon":-0.17539,"postcode":"W2 1JA","la":"Westminster","era":"other","nn":208,"risk":30,"cat":"green"},{"name":"The Beer House","lat":51.51648,"lon":-0.17746,"postcode":"W2 1RH","la":"Westminster","era":"other","nn":233,"risk":28,"cat":"green"},{"name":"The Cock & Bottle","lat":51.51537,"lon":-0.19755,"postcode":"W11 2RP","la":"Westminster","era":"other","nn":212,"risk":27,"cat":"green"},{"name":"The Devonshire","lat":51.51067,"lon":-0.1353,"postcode":"W1D 7HW","la":"Westminster","era":"other","nn":118,"risk":27,"cat":"green"},{"name":"The Friendly Society","lat":51.51237,"lon":-0.13329,"postcode":"W1D 6QB","la":"Westminster","era":"mod","nn":75,"risk":26,"cat":"green"},{"name":"The Ganton Arms","lat":51.51303,"lon":-0.13914,"postcode":"W1F 7BU","la":"Westminster","era":"trad","nn":20,"risk":26,"cat":"green"},{"name":"The Hayden Pub & Rooms","lat":51.51528,"lon":-0.19143,"postcode":"W2 4UJ","la":"Westminster","era":"mod","nn":215,"risk":27,"cat":"green"},{"name":"The Hero","lat":51.52436,"lon":-0.18863,"postcode":"W9 2JD","la":"Westminster","era":"other","nn":858,"risk":37,"cat":"amber"},{"name":"The Little Violet Door","lat":51.5125,"lon":-0.13889,"postcode":"W1B 5PH","la":"Westminster","era":"other","nn":44,"risk":26,"cat":"green"},{"name":"The London Cocktail Club","lat":51.51593,"lon":-0.14057,"postcode":"W1W 8QJ","la":"Westminster","era":"other","nn":178,"risk":27,"cat":"green"},{"name":"The Princess Royal","lat":51.51555,"lon":-0.1945,"postcode":"W2 5AH","la":"Westminster","era":"trad","nn":212,"risk":27,"cat":"green"},{"name":"The Quiet Night Inn","lat":51.52064,"lon":-0.20073,"postcode":"W11 1AB","la":"Kensington and Chelsea","era":"trad","nn":238,"risk":27,"cat":"green"},{"name":"The Stablehand","lat":51.51299,"lon":-0.17481,"postcode":"W2 2SD","la":"Westminster","era":"other","nn":208,"risk":30,"cat":"green"},{"name":"The Starman Arms","lat":51.51084,"lon":-0.13962,"postcode":"W1B 4BF","la":"Westminster","era":"trad","nn":163,"risk":27,"cat":"green"},{"name":"The White Horse","lat":51.50601,"lon":-0.14614,"postcode":"W1J 7LQ","la":"Westminster","era":"trad","nn":103,"risk":27,"cat":"green"},{"name":"Tosi, Gorgonzola Bar","lat":51.51071,"lon":-0.14584,"postcode":"W1J 6PD","la":"Westminster","era":"other","nn":202,"risk":27,"cat":"green"},{"name":"Underbelly Boulevard","lat":51.51267,"lon":-0.13427,"postcode":"W1F 0BT","la":"Westminster","era":"other","nn":75,"risk":26,"cat":"green"},{"name":"Whistle Punks","lat":51.51656,"lon":-0.1382,"postcode":"W1W 8ED","la":"Westminster","era":"other","nn":167,"risk":27,"cat":"green"}]