[{"name":"Cava-Ri","lat":51.40308,"lon":-0.11873,"postcode":"SW16 4DS","la":"Croydon","era":"other","nn":487,"risk":50,"cat":"amber"},{"name":"The Moon Under Water","lat":51.40709,"lon":-0.12157,"postcode":"SW16 4AU","la":"Croydon","era":"other","nn":487,"risk":50,"cat":"amber"},{"name":"Andrew Robson Bridge Club","lat":51.47623,"lon":-0.2006,"postcode":"SW6 4HH","la":"Hammersmith and Fulham","era":"other","nn":289,"risk":27,"cat":"green"},{"name":"Aragon House","lat":51.47247,"lon":-0.20056,"postcode":"SW6 4XG","la":"Hammersmith and Fulham","era":"other","nn":45,"risk":25,"cat":"green"},{"name":"Brook House","lat":51.47588,"lon":-0.19323,"postcode":"SW6 4SG","la":"Hammersmith and Fulham","era":"other","nn":251,"risk":27,"cat":"green"},{"name":"Butchers Hook","lat":51.48034,"lon":-0.18874,"postcode":"SW6 1HL","la":"Hammersmith and Fulham","era":"other","nn":147,"risk":26,"cat":"green"},{"name":"Caddi Club Chelsea","lat":51.47528,"lon":-0.18671,"postcode":"SW6 2FR","la":"Hammersmith and Fulham","era":"other","nn":162,"risk":26,"cat":"green"},{"name":"Cock Tavern","lat":51.48127,"lon":-0.19945,"postcode":"SW6 1LY","la":"Hammersmith and Fulham","era":"other","nn":0,"risk":25,"cat":"green"},{"name":"Duke On The Green","lat":51.47258,"lon":-0.19994,"postcode":"SW6 4XG","la":"Hammersmith and Fulham","era":"trad","nn":45,"risk":25,"cat":"green"},{"name":"Eight Bells","lat":51.46807,"lon":-0.2101,"postcode":"SW6 3JS","la":"Hammersmith and Fulham","era":"other","nn":131,"risk":26,"cat":"green"},{"name":"Elephant And Barrel","lat":51.4837,"lon":-0.20778,"postcode":"SW6 7LW","la":"Hammersmith and Fulham","era":"other","nn":292,"risk":27,"cat":"green"},{"name":"Eleusis Club","lat":51.4781,"lon":-0.18994,"postcode":"SW6 2DU","la":"Hammersmith and Fulham","era":"other","nn":154,"risk":26,"cat":"green"},{"name":"Fulham Arms","lat":51.47114,"lon":-0.18726,"postcode":"SW6 2PR","la":"Hammersmith and Fulham","era":"trad","nn":393,"risk":28,"cat":"green"},{"name":"Goose","lat":51.4852,"lon":-0.20269,"postcode":"SW6 1NL","la":"Hammersmith and Fulham","era":"other","nn":69,"risk":25,"cat":"green"},{"name":"Harwood Arms","lat":51.48245,"lon":-0.19785,"postcode":"SW6 1QP","la":"Hammersmith and Fulham","era":"trad","nn":108,"risk":26,"cat":"green"},{"name":"Kings Arms","lat":51.46924,"lon":-0.20994,"postcode":"SW6 4RN","la":"Hammersmith and Fulham","era":"trad","nn":40,"risk":25,"cat":"green"},{"name":"Kona Kai","lat":51.48014,"lon":-0.19284,"postcode":"SW6 1HD","la":"Hammersmith and Fulham","era":"other","nn":221,"risk":27,"cat":"green"},{"name":"Little Blue Door","lat":51.47401,"lon":-0.20693,"postcode":"SW6 5HP","la":"Hammersmith and Fulham","era":"other","nn":74,"risk":25,"cat":"green"},{"name":"Queen Elizabeth Hostel","lat":51.47456,"lon":-0.18874,"postcode":"SW6 2BH","la":"Hammersmith and Fulham","era":"trad","nn":162,"risk":26,"cat":"green"},{"name":"Simmons Bar","lat":51.48127,"lon":-0.19945,"postcode":"SW6 1LY","la":"Hammersmith and Fulham","era":"other","nn":0,"risk":25,"cat":"green"},{"name":"Sixes Cricket Club","lat":51.48186,"lon":-0.19661,"postcode":"SW6 1PP","la":"Hammersmith and Fulham","era":"other","nn":108,"risk":26,"cat":"green"},{"name":"The Atlas","lat":51.4859,"lon":-0.196,"postcode":"SW6 1RX","la":"Hammersmith and Fulham","era":"other","nn":110,"risk":26,"cat":"green"},{"name":"The Bedford Arms","lat":51.48127,"lon":-0.20937,"postcode":"SW6 7RQ","la":"Hammersmith and Fulham","era":"trad","nn":24,"risk":25,"cat":"green"},{"name":"The Captain Cook","lat":51.48109,"lon":-0.20958,"postcode":"SW6 7QY","la":"Hammersmith and Fulham","era":"other","nn":24,"risk":25,"cat":"green"},{"name":"The Durell","lat":51.47383,"lon":-0.20796,"postcode":"SW6 5SB","la":"Hammersmith and Fulham","era":"other","nn":74,"risk":25,"cat":"green"},{"name":"The Fulham Mitre","lat":51.48022,"lon":-0.20368,"postcode":"SW6 7DU","la":"Hammersmith and Fulham","era":"other","nn":315,"risk":27,"cat":"green"},{"name":"The Golden Lion","lat":51.46993,"lon":-0.20997,"postcode":"SW6 3JJ","la":"Hammersmith and Fulham","era":"trad","nn":58,"risk":25,"cat":"green"},{"name":"The Hurlingham Club","lat":51.46626,"lon":-0.20057,"postcode":"SW6 3PR","la":"Hammersmith and Fulham","era":"other","nn":232,"risk":27,"cat":"green"},{"name":"The Lillie Langtry","lat":51.48629,"lon":-0.19745,"postcode":"SW6 1UE","la":"Hammersmith and Fulham","era":"other","nn":99,"risk":26,"cat":"green"},{"name":"The Parsons Green Sports & Social Club","lat":51.46709,"lon":-0.1975,"postcode":"SW6 3DP","la":"Hammersmith and Fulham","era":"mod","nn":232,"risk":27,"cat":"green"},{"name":"The Prince","lat":51.48714,"lon":-0.19698,"postcode":"SW6 1TU","la":"Hammersmith and Fulham","era":"trad","nn":9,"risk":25,"cat":"green"},{"name":"The Redback","lat":51.48025,"lon":-0.19874,"postcode":"SW6 5NH","la":"Hammersmith and Fulham","era":"other","nn":123,"risk":26,"cat":"green"},{"name":"The Rose","lat":51.47671,"lon":-0.18986,"postcode":"SW6 2AF","la":"Hammersmith and Fulham","era":"other","nn":154,"risk":26,"cat":"green"},{"name":"The Temperance","lat":51.46947,"lon":-0.21039,"postcode":"SW6 3LF","la":"Hammersmith and Fulham","era":"other","nn":40,"risk":25,"cat":"green"},{"name":"Tommy Tucker","lat":51.47818,"lon":-0.19227,"postcode":"SW6 2DR","la":"Hammersmith and Fulham","era":"other","nn":162,"risk":26,"cat":"green"},{"name":"Utter Waffle LTD","lat":51.48716,"lon":-0.19711,"postcode":"SW6 1TU","la":"Hammersmith and Fulham","era":"other","nn":9,"risk":25,"cat":"green"},{"name":"Waterside","lat":51.47325,"lon":-0.18107,"postcode":"SW6 2SU","la":"Hammersmith and Fulham","era":"other","nn":451,"risk":28,"cat":"green"},{"name":"White Horse","lat":51.47379,"lon":-0.19915,"postcode":"SW6 4UL","la":"Hammersmith and Fulham","era":"trad","nn":145,"risk":26,"cat":"green"},{"name":"Wolfpack Fulham","lat":51.48156,"lon":-0.19876,"postcode":"SW6 1AY","la":"Hammersmith and Fulham","era":"other","nn":58,"risk":25,"cat":"green"},{"name":"Admiral Codrington","lat":51.49382,"lon":-0.16601,"postcode":"SW3 2LY","la":"Kensington and Chelsea","era":"other","nn":114,"risk":26,"cat":"green"},{"name":"Anglesea Arms","lat":51.49026,"lon":-0.17716,"postcode":"SW7 3QG","la":"Kensington and Chelsea","era":"trad","nn":154,"risk":27,"cat":"green"},{"name":"Antelope","lat":51.49419,"lon":-0.15587,"postcode":"SW1W 8EZ","la":"Kensington and Chelsea","era":"other","nn":689,"risk":30,"cat":"green"},{"name":"Azteca","lat":51.48373,"lon":-0.17654,"postcode":"SW3 5ES","la":"Kensington and Chelsea","era":"other","nn":55,"risk":26,"cat":"green"},{"name":"B London & Cubanista","lat":51.49281,"lon":-0.17727,"postcode":"SW7 3LQ","la":"Kensington and Chelsea","era":"other","nn":128,"risk":27,"cat":"green"},{"name":"Barts","lat":51.49237,"lon":-0.16745,"postcode":"SW3 3EL","la":"Kensington and Chelsea","era":"other","nn":190,"risk":27,"cat":"green"},{"name":"Beaufort House","lat":51.48421,"lon":-0.17674,"postcode":"SW3 5UZ","la":"Kensington and Chelsea","era":"other","nn":55,"risk":26,"cat":"green"},{"name":"Blackbird","lat":51.49198,"lon":-0.19224,"postcode":"SW5 9AN","la":"Kensington and Chelsea","era":"other","nn":0,"risk":26,"cat":"green"},{"name":"Builders Arms PH","lat":51.48907,"lon":-0.16778,"postcode":"SW3 3TY","la":"Kensington and Chelsea","era":"trad","nn":120,"risk":27,"cat":"green"},{"name":"Bunch of Grapes","lat":51.4975,"lon":-0.16683,"postcode":"SW3 1LA","la":"Kensington and Chelsea","era":"other","nn":136,"risk":27,"cat":"green"},{"name":"Chelsea Pensioner","lat":51.48153,"lon":-0.1878,"postcode":"SW10 9UU","la":"Kensington and Chelsea","era":"other","nn":65,"risk":26,"cat":"green"},{"name":"Chelsea Pensioners Club","lat":51.48689,"lon":-0.15913,"postcode":"SW3 4SR","la":"Kensington and Chelsea","era":"other","nn":257,"risk":27,"cat":"green"},{"name":"Chelsea Potter","lat":51.48833,"lon":-0.16613,"postcode":"SW3 4PL","la":"Kensington and Chelsea","era":"other","nn":141,"risk":27,"cat":"green"},{"name":"Chelsea Ram PH","lat":51.47912,"lon":-0.18288,"postcode":"SW10 0PL","la":"Kensington and Chelsea","era":"trad","nn":96,"risk":26,"cat":"green"},{"name":"Coco Momo","lat":51.49812,"lon":-0.1836,"postcode":"SW7 4PL","la":"Kensington and Chelsea","era":"other","nn":119,"risk":27,"cat":"green"},{"name":"Courtfield Public House","lat":51.49198,"lon":-0.19224,"postcode":"SW5 9AN","la":"Kensington and Chelsea","era":"other","nn":0,"risk":26,"cat":"green"},{"name":"Cross Keys","lat":51.48376,"lon":-0.17096,"postcode":"SW3 5NB","la":"Kensington and Chelsea","era":"trad","nn":252,"risk":27,"cat":"green"},{"name":"Drayton Arms","lat":51.49065,"lon":-0.18359,"postcode":"SW5 0LJ","la":"Kensington and Chelsea","era":"trad","nn":73,"risk":26,"cat":"green"},{"name":"Duke of Clarence","lat":51.49098,"lon":-0.18269,"postcode":"SW5 0BE","la":"Kensington and Chelsea","era":"trad","nn":73,"risk":26,"cat":"green"},{"name":"Fox & Pheasant PH","lat":51.48209,"lon":-0.18804,"postcode":"SW10 9UJ","la":"Kensington and Chelsea","era":"trad","nn":65,"risk":26,"cat":"green"},{"name":"Gloucester Arms","lat":51.49916,"lon":-0.184,"postcode":"SW7 4RB","la":"Kensington and Chelsea","era":"trad","nn":119,"risk":27,"cat":"green"},{"name":"Hennessy Concession/Hennessy Boutique","lat":51.4996,"lon":-0.16305,"postcode":"SW1X 7XL","la":"Kensington and Chelsea","era":"other","nn":252,"risk":27,"cat":"green"},{"name":"Hereford Arms (The)","lat":51.4931,"lon":-0.18139,"postcode":"SW7 4TE","la":"Kensington and Chelsea","era":"trad","nn":137,"risk":27,"cat":"green"},{"name":"Hoop & Toy","lat":51.49477,"lon":-0.17404,"postcode":"SW7 2HQ","la":"Kensington and Chelsea","era":"other","nn":187,"risk":27,"cat":"green"},{"name":"Jaks","lat":51.48023,"lon":-0.18527,"postcode":"SW10 0TZ","la":"Kensington and Chelsea","era":"other","nn":0,"risk":26,"cat":"green"},{"name":"Jaks Bar Limited","lat":51.49409,"lon":-0.1676,"postcode":"SW3 2HP","la":"Kensington and Chelsea","era":"mod","nn":114,"risk":26,"cat":"green"},{"name":"Jeroboams","lat":51.48538,"lon":-0.17449,"postcode":"SW3 5UR","la":"Kensington and Chelsea","era":"other","nn":64,"risk":26,"cat":"green"},{"name":"Kings Head","lat":51.49291,"lon":-0.19298,"postcode":"SW5 0QT","la":"Kensington and Chelsea","era":"trad","nn":59,"risk":26,"cat":"green"},{"name":"Lots Road Pub & Dining room","lat":51.47841,"lon":-0.18368,"postcode":"SW10 0RJ","la":"Kensington and Chelsea","era":"other","nn":96,"risk":26,"cat":"green"},{"name":"Raffles Club","lat":51.48534,"lon":-0.17356,"postcode":"SW3 5EW","la":"Kensington and Chelsea","era":"other","nn":64,"risk":26,"cat":"green"},{"name":"Sporting Page","lat":51.48468,"lon":-0.17941,"postcode":"SW10 0BH","la":"Kensington and Chelsea","era":"other","nn":192,"risk":27,"cat":"green"},{"name":"Stanhope Arms (The)","lat":51.49424,"lon":-0.18213,"postcode":"SW7 4SS","la":"Kensington and Chelsea","era":"trad","nn":137,"risk":27,"cat":"green"},{"name":"The Beauchamp","lat":51.49743,"lon":-0.16487,"postcode":"SW3 1NX","la":"Kensington and Chelsea","era":"other","nn":136,"risk":27,"cat":"green"},{"name":"The Coopers Arms","lat":51.48609,"lon":-0.16498,"postcode":"SW3 5TB","la":"Kensington and Chelsea","era":"trad","nn":159,"risk":27,"cat":"green"},{"name":"The Crown","lat":51.4901,"lon":-0.17327,"postcode":"SW3 6LB","la":"Kensington and Chelsea","era":"trad","nn":116,"risk":26,"cat":"green"},{"name":"The Earls Court Tavern","lat":51.49376,"lon":-0.19453,"postcode":"SW5 9RL","la":"Kensington and Chelsea","era":"other","nn":99,"risk":26,"cat":"green"},{"name":"The Gloucester","lat":51.49997,"lon":-0.15946,"postcode":"SW1X 9QR","la":"Kensington and Chelsea","era":"other","nn":252,"risk":27,"cat":"green"},{"name":"The Hunter's Moon","lat":51.49011,"lon":-0.17495,"postcode":"SW3 6HR","la":"Kensington and Chelsea","era":"other","nn":116,"risk":26,"cat":"green"},{"name":"The Kings Arms","lat":51.4862,"lon":-0.18106,"postcode":"SW10 9PN","la":"Kensington and Chelsea","era":"trad","nn":204,"risk":27,"cat":"green"},{"name":"The Pembroke","lat":51.4887,"lon":-0.19198,"postcode":"SW5 9JA","la":"Kensington and Chelsea","era":"other","nn":365,"risk":28,"cat":"green"},{"name":"The Phene","lat":51.48521,"lon":-0.16756,"postcode":"SW3 5NY","la":"Kensington and Chelsea","era":"other","nn":204,"risk":27,"cat":"green"},{"name":"The Phoenix Pub and Dining Room","lat":51.48899,"lon":-0.16319,"postcode":"SW3 4EE","la":"Kensington and Chelsea","era":"other","nn":216,"risk":27,"cat":"green"},{"name":"The Prince of Teck","lat":51.49299,"lon":-0.19383,"postcode":"SW5 9RQ","la":"Kensington and Chelsea","era":"trad","nn":59,"risk":26,"cat":"green"},{"name":"The Queen's Arms","lat":51.49983,"lon":-0.18095,"postcode":"SW7 5QL","la":"Kensington and Chelsea","era":"trad","nn":224,"risk":27,"cat":"green"},{"name":"The Surprise","lat":51.4863,"lon":-0.16271,"postcode":"SW3 4AJ","la":"Kensington and Chelsea","era":"other","nn":159,"risk":27,"cat":"green"},{"name":"The Sydney Arms","lat":51.48838,"lon":-0.16911,"postcode":"SW3 6NJ","la":"Kensington and Chelsea","era":"trad","nn":120,"risk":27,"cat":"green"},{"name":"Zefi Bar","lat":51.48023,"lon":-0.18527,"postcode":"SW10 0TZ","la":"Kensington and Chelsea","era":"other","nn":0,"risk":26,"cat":"green"},{"name":"Zetland Arms PH","lat":51.49374,"lon":-0.17618,"postcode":"SW7 3EX","la":"Kensington and Chelsea","era":"trad","nn":128,"risk":27,"cat":"green"},{"name":"Colliers Wood United Football Club","lat":51.42202,"lon":-0.25375,"postcode":"SW20 0AA","la":"Kingston upon Thames","era":"other","nn":733,"risk":49,"cat":"amber"},{"name":"64th \\\\& Social","lat":51.4636,"lon":-0.13366,"postcode":"SW4 7UL","la":"Lambeth","era":"mod","nn":0,"risk":23,"cat":"green"},{"name":"Apollo Arms","lat":51.46536,"lon":-0.14103,"postcode":"SW4 0JT","la":"Lambeth","era":"trad","nn":115,"risk":24,"cat":"green"},{"name":"Barrio South","lat":51.46098,"lon":-0.11733,"postcode":"SW2 5SG","la":"Lambeth","era":"other","nn":146,"risk":24,"cat":"green"},{"name":"Be At One Bar \\\\& Lounge","lat":51.46156,"lon":-0.13783,"postcode":"SW4 7AA","la":"Lambeth","era":"mod","nn":0,"risk":23,"cat":"green"},{"name":"Bread & Roses","lat":51.4664,"lon":-0.13692,"postcode":"SW4 6DZ","la":"Lambeth","era":"other","nn":65,"risk":24,"cat":"green"},{"name":"BrewDog","lat":51.46154,"lon":-0.11332,"postcode":"SW9 8LH","la":"Lambeth","era":"other","nn":33,"risk":24,"cat":"green"},{"name":"Bridge Wine Bar","lat":51.46575,"lon":-0.13333,"postcode":"SW4 6DH","la":"Lambeth","era":"other","nn":171,"risk":25,"cat":"green"},{"name":"British Legion","lat":51.46539,"lon":-0.14837,"postcode":"SW4 0NW","la":"Lambeth","era":"other","nn":348,"risk":26,"cat":"green"},{"name":"Brixton Brew Bar","lat":51.46377,"lon":-0.1086,"postcode":"SW9 8PQ","la":"Lambeth","era":"other","nn":0,"risk":23,"cat":"green"},{"name":"Brixton Immortals Domino Club","lat":51.46358,"lon":-0.10565,"postcode":"SW9 8RP","la":"Lambeth","era":"other","nn":197,"risk":25,"cat":"green"},{"name":"Brixton Jamm","lat":51.47096,"lon":-0.11196,"postcode":"SW9 6LH","la":"Lambeth","era":"other","nn":586,"risk":28,"cat":"green"},{"name":"Cavendish Arms","lat":51.47655,"lon":-0.12767,"postcode":"SW8 2HJ","la":"Lambeth","era":"trad","nn":210,"risk":25,"cat":"green"},{"name":"D Vine Cellars","lat":51.46466,"lon":-0.1316,"postcode":"SW4 6DQ","la":"Lambeth","era":"other","nn":40,"risk":24,"cat":"green"},{"name":"Dogstar","lat":51.46169,"lon":-0.11231,"postcode":"SW9 8LQ","la":"Lambeth","era":"other","nn":58,"risk":24,"cat":"green"},{"name":"Earl Ferrers","lat":51.42359,"lon":-0.13269,"postcode":"SW16 6JF","la":"Lambeth","era":"other","nn":286,"risk":25,"cat":"green"},{"name":"Effra Hall Tavern","lat":51.4597,"lon":-0.1138,"postcode":"SW2 1EB","la":"Lambeth","era":"other","nn":196,"risk":25,"cat":"green"},{"name":"Effra Social","lat":51.45568,"lon":-0.11347,"postcode":"SW2 1DF","la":"Lambeth","era":"mod","nn":0,"risk":23,"cat":"green"},{"name":"Estrela Bar","lat":51.47928,"lon":-0.12331,"postcode":"SW8 1UZ","la":"Lambeth","era":"other","nn":247,"risk":25,"cat":"green"},{"name":"Feeleys Free House","lat":51.4715,"lon":-0.13507,"postcode":"SW8 2RF","la":"Lambeth","era":"other","nn":411,"risk":26,"cat":"green"},{"name":"Fentiman Arms","lat":51.48122,"lon":-0.11893,"postcode":"SW8 1LA","la":"Lambeth","era":"trad","nn":373,"risk":26,"cat":"green"},{"name":"Ferndales","lat":51.46306,"lon":-0.12499,"postcode":"SW4 7SE","la":"Lambeth","era":"other","nn":301,"risk":26,"cat":"green"},{"name":"Fire","lat":51.4845,"lon":-0.12391,"postcode":"SW8 1RT","la":"Lambeth","era":"other","nn":180,"risk":25,"cat":"green"},{"name":"Freight Line","lat":51.46351,"lon":-0.11226,"postcode":"SW9 8PQ","la":"Lambeth","era":"other","nn":102,"risk":24,"cat":"green"},{"name":"Holland Tringham","lat":51.42967,"lon":-0.13017,"postcode":"SW16 1HJ","la":"Lambeth","era":"other","nn":124,"risk":24,"cat":"green"},{"name":"Hootananny","lat":51.45568,"lon":-0.11347,"postcode":"SW2 1DF","la":"Lambeth","era":"other","nn":0,"risk":23,"cat":"green"},{"name":"Hope \\\\& Anchor","lat":51.45949,"lon":-0.1282,"postcode":"SW2 5UA","la":"Lambeth","era":"trad","nn":215,"risk":25,"cat":"green"},{"name":"Lisa's Kitchen","lat":51.43075,"lon":-0.12974,"postcode":"SW16 1BB","la":"Lambeth","era":"mod","nn":44,"risk":24,"cat":"green"},{"name":"Market House","lat":51.46148,"lon":-0.11379,"postcode":"SW9 8LN","la":"Lambeth","era":"other","nn":33,"risk":24,"cat":"green"},{"name":"Metro","lat":51.46156,"lon":-0.13783,"postcode":"SW4 7AA","la":"Lambeth","era":"other","nn":0,"risk":23,"cat":"green"},{"name":"Mosquito Bar","lat":51.46493,"lon":-0.12992,"postcode":"SW4 7TS","la":"Lambeth","era":"other","nn":86,"risk":24,"cat":"green"},{"name":"No32 The Old Town","lat":51.46304,"lon":-0.14062,"postcode":"SW4 0JE","la":"Lambeth","era":"other","nn":76,"risk":24,"cat":"green"},{"name":"Nolan's Freehouse","lat":51.4798,"lon":-0.12678,"postcode":"SW8 2XA","la":"Lambeth","era":"other","nn":173,"risk":25,"cat":"green"},{"name":"Old Town Tavern","lat":51.46611,"lon":-0.14217,"postcode":"SW4 0HJ","la":"Lambeth","era":"other","nn":91,"risk":24,"cat":"green"},{"name":"Perky Nel","lat":51.45365,"lon":-0.14636,"postcode":"SW4 9DW","la":"Lambeth","era":"other","nn":448,"risk":29,"cat":"green"},{"name":"Phonox","lat":51.46431,"lon":-0.11477,"postcode":"SW9 7AY","la":"Lambeth","era":"other","nn":69,"risk":24,"cat":"green"},{"name":"Porky's Wine Bar","lat":51.43845,"lon":-0.12761,"postcode":"SW2 4PA","la":"Lambeth","era":"other","nn":216,"risk":25,"cat":"green"},{"name":"Prince Albert","lat":51.46187,"lon":-0.11309,"postcode":"SW9 8LF","la":"Lambeth","era":"trad","nn":40,"risk":24,"cat":"green"},{"name":"Prince Of Wales","lat":51.45351,"lon":-0.12665,"postcode":"SW2 5PY","la":"Lambeth","era":"trad","nn":309,"risk":26,"cat":"green"},{"name":"Prince Of Wales","lat":51.46416,"lon":-0.14177,"postcode":"SW4 0LB","la":"Lambeth","era":"trad","nn":59,"risk":24,"cat":"green"},{"name":"Priory Arms","lat":51.47501,"lon":-0.12942,"postcode":"SW8 2PB","la":"Lambeth","era":"trad","nn":154,"risk":25,"cat":"green"},{"name":"Queens Head","lat":51.46735,"lon":-0.11812,"postcode":"SW9 9TQ","la":"Lambeth","era":"trad","nn":409,"risk":26,"cat":"green"},{"name":"Rose & Crown","lat":51.4635,"lon":-0.14142,"postcode":"SW4 0JG","la":"Lambeth","era":"trad","nn":76,"risk":24,"cat":"green"},{"name":"Satay Bar","lat":51.46143,"lon":-0.11435,"postcode":"SW9 8LP","la":"Lambeth","era":"other","nn":39,"risk":24,"cat":"green"},{"name":"Shalamar Trading As Bird And Tie","lat":51.46206,"lon":-0.1393,"postcode":"SW4 0HY","la":"Lambeth","era":"other","nn":85,"risk":24,"cat":"green"},{"name":"Simmons Bar","lat":51.46217,"lon":-0.13634,"postcode":"SW4 7SS","la":"Lambeth","era":"other","nn":97,"risk":24,"cat":"green"},{"name":"South West Saloon","lat":51.46377,"lon":-0.1086,"postcode":"SW9 8PQ","la":"Lambeth","era":"other","nn":0,"risk":23,"cat":"green"},{"name":"Specialist Cellar","lat":51.46377,"lon":-0.1086,"postcode":"SW9 8PQ","la":"Lambeth","era":"other","nn":0,"risk":23,"cat":"green"},{"name":"Stane Street Syndicate","lat":51.4622,"lon":-0.13808,"postcode":"SW4 7UD","la":"Lambeth","era":"other","nn":65,"risk":24,"cat":"green"},{"name":"Streatham Wine House","lat":51.44059,"lon":-0.12518,"postcode":"SW2 4TS","la":"Lambeth","era":"other","nn":291,"risk":26,"cat":"green"},{"name":"Taproom","lat":51.46263,"lon":-0.11182,"postcode":"SW9 8PR","la":"Lambeth","era":"mod","nn":102,"risk":24,"cat":"green"},{"name":"Taylors","lat":51.43512,"lon":-0.12862,"postcode":"SW16 1BS","la":"Lambeth","era":"other","nn":161,"risk":25,"cat":"green"},{"name":"The Alexandra","lat":51.46156,"lon":-0.13785,"postcode":"SW4 7AA","la":"Lambeth","era":"other","nn":1,"risk":23,"cat":"green"},{"name":"The Beehive","lat":51.46377,"lon":-0.11429,"postcode":"SW9 7DG","la":"Lambeth","era":"other","nn":26,"risk":24,"cat":"green"},{"name":"The Belle Vue","lat":51.46172,"lon":-0.13754,"postcode":"SW4 7AA","la":"Lambeth","era":"other","nn":27,"risk":24,"cat":"green"},{"name":"The Bobbin","lat":51.46609,"lon":-0.14348,"postcode":"SW4 0LN","la":"Lambeth","era":"other","nn":91,"risk":24,"cat":"green"},{"name":"The Bull","lat":51.41884,"lon":-0.12829,"postcode":"SW16 3QB","la":"Lambeth","era":"trad","nn":343,"risk":28,"cat":"green"},{"name":"The Canton Arms","lat":51.47677,"lon":-0.1229,"postcode":"SW8 1XP","la":"Lambeth","era":"trad","nn":281,"risk":25,"cat":"green"},{"name":"The Clapham North","lat":51.46674,"lon":-0.12829,"postcode":"SW9 9BT","la":"Lambeth","era":"other","nn":125,"risk":24,"cat":"green"},{"name":"The Clapham Tap","lat":51.46452,"lon":-0.13565,"postcode":"SW4 6ED","la":"Lambeth","era":"mod","nn":91,"risk":24,"cat":"green"},{"name":"The Coach & Horses","lat":51.45986,"lon":-0.13125,"postcode":"SW4 7EX","la":"Lambeth","era":"trad","nn":206,"risk":25,"cat":"green"},{"name":"The Craft Beer Co","lat":51.46356,"lon":-0.11413,"postcode":"SW9 8PA","la":"Lambeth","era":"mod","nn":26,"risk":24,"cat":"green"},{"name":"The Duke Of Edinburgh","lat":51.46337,"lon":-0.11952,"postcode":"SW9 8AG","la":"Lambeth","era":"trad","nn":168,"risk":25,"cat":"green"},{"name":"The Falcon","lat":51.46434,"lon":-0.12911,"postcode":"SW4 7SQ","la":"Lambeth","era":"other","nn":86,"risk":24,"cat":"green"},{"name":"The Five Bells","lat":51.43655,"lon":-0.12823,"postcode":"SW16 1DA","la":"Lambeth","era":"other","nn":161,"risk":25,"cat":"green"},{"name":"The Hand In Hand","lat":51.4475,"lon":-0.12681,"postcode":"SW2 4EN","la":"Lambeth","era":"other","nn":237,"risk":25,"cat":"green"},{"name":"The King & Co.","lat":51.45919,"lon":-0.13403,"postcode":"SW4 7BZ","la":"Lambeth","era":"other","nn":206,"risk":25,"cat":"green"},{"name":"The Landor","lat":51.46572,"lon":-0.1258,"postcode":"SW9 9PH","la":"Lambeth","era":"other","nn":207,"risk":25,"cat":"green"},{"name":"The Leigham Well","lat":51.42935,"lon":-0.12575,"postcode":"SW16 2BT","la":"Lambeth","era":"other","nn":308,"risk":26,"cat":"green"},{"name":"The Lotus Bar","lat":51.4636,"lon":-0.13366,"postcode":"SW4 7UL","la":"Lambeth","era":"other","nn":0,"risk":23,"cat":"green"},{"name":"The Manor Arms","lat":51.42797,"lon":-0.13283,"postcode":"SW16 6LQ","la":"Lambeth","era":"trad","nn":264,"risk":25,"cat":"green"},{"name":"The Nottingham Castle","lat":51.47876,"lon":-0.12865,"postcode":"SW8 2NB","la":"Lambeth","era":"other","nn":173,"risk":25,"cat":"green"},{"name":"The Phoenix","lat":51.46786,"lon":-0.12845,"postcode":"SW9 9AR","la":"Lambeth","era":"other","nn":125,"risk":24,"cat":"green"},{"name":"The Prince","lat":51.46179,"lon":-0.11463,"postcode":"SW9 8HH","la":"Lambeth","era":"trad","nn":45,"risk":24,"cat":"green"},{"name":"The Rabbit Hole","lat":51.42179,"lon":-0.12976,"postcode":"SW16 5NJ","la":"Lambeth","era":"other","nn":286,"risk":25,"cat":"green"},{"name":"The Railway","lat":51.41853,"lon":-0.13435,"postcode":"SW16 5SD","la":"Lambeth","era":"trad","nn":421,"risk":26,"cat":"green"},{"name":"The Railway Tavern","lat":51.46441,"lon":-0.13202,"postcode":"SW4 7UR","la":"Lambeth","era":"trad","nn":0,"risk":23,"cat":"green"},{"name":"The Riverside  (Unit 14)","lat":51.48555,"lon":-0.12588,"postcode":"SW8 2LE","la":"Lambeth","era":"other","nn":180,"risk":25,"cat":"green"},{"name":"The Saxon","lat":51.4636,"lon":-0.13366,"postcode":"SW4 7UL","la":"Lambeth","era":"other","nn":0,"risk":23,"cat":"green"},{"name":"The Shrub & Shutter","lat":51.46302,"lon":-0.10835,"postcode":"SW9 8QH","la":"Lambeth","era":"other","nn":84,"risk":24,"cat":"green"},{"name":"The Stonhouse","lat":51.46443,"lon":-0.13695,"postcode":"SW4 6BJ","la":"Lambeth","era":"other","nn":91,"risk":24,"cat":"green"},{"name":"The Sultan","lat":51.44896,"lon":-0.12431,"postcode":"SW2 4DU","la":"Lambeth","era":"other","nn":237,"risk":25,"cat":"green"},{"name":"The Sun","lat":51.46414,"lon":-0.14092,"postcode":"SW4 0JL","la":"Lambeth","era":"other","nn":59,"risk":24,"cat":"green"},{"name":"The Surprise","lat":51.47443,"lon":-0.13145,"postcode":"SW8 2PP","la":"Lambeth","era":"other","nn":154,"risk":25,"cat":"green"},{"name":"The Swan","lat":51.47204,"lon":-0.12245,"postcode":"SW9 9BF","la":"Lambeth","era":"trad","nn":527,"risk":27,"cat":"green"},{"name":"The White Horse","lat":51.45492,"lon":-0.11998,"postcode":"SW2 1QN","la":"Lambeth","era":"trad","nn":180,"risk":25,"cat":"green"},{"name":"The Windmill","lat":51.45453,"lon":-0.1225,"postcode":"SW2 5BZ","la":"Lambeth","era":"trad","nn":180,"risk":25,"cat":"green"},{"name":"The Windmill Public House","lat":51.45759,"lon":-0.14508,"postcode":"SW4 9DE","la":"Lambeth","era":"trad","nn":448,"risk":27,"cat":"green"},{"name":"Tonight Josephine","lat":51.46441,"lon":-0.13202,"postcode":"SW4 7UR","la":"Lambeth","era":"other","nn":0,"risk":23,"cat":"green"},{"name":"Trinity Arms","lat":51.46193,"lon":-0.11879,"postcode":"SW9 8DR","la":"Lambeth","era":"trad","nn":146,"risk":24,"cat":"green"},{"name":"Two Brewers","lat":51.46319,"lon":-0.13486,"postcode":"SW4 7UJ","la":"Lambeth","era":"other","nn":95,"risk":24,"cat":"green"},{"name":"Two Dogs Down","lat":51.46587,"lon":-0.13654,"postcode":"SW4 6DZ","la":"Lambeth","era":"other","nn":65,"risk":24,"cat":"green"},{"name":"Venn Street Records","lat":51.46362,"lon":-0.13827,"postcode":"SW4 0AT","la":"Lambeth","era":"other","nn":128,"risk":24,"cat":"green"},{"name":"White Lion","lat":51.43115,"lon":-0.12982,"postcode":"SW16 1BB","la":"Lambeth","era":"trad","nn":44,"risk":24,"cat":"green"},{"name":"All Bar One","lat":51.42244,"lon":-0.20849,"postcode":"SW19 7NA","la":"Merton","era":"mod","nn":59,"risk":29,"cat":"green"},{"name":"Bill's Restaurant","lat":51.4196,"lon":-0.20522,"postcode":"SW19 3TA","la":"Merton","era":"other","nn":21,"risk":28,"cat":"green"},{"name":"Club House","lat":51.42585,"lon":-0.23502,"postcode":"SW19 4UW","la":"Merton","era":"other","nn":0,"risk":33,"cat":"amber"},{"name":"Dog and Fox","lat":51.4251,"lon":-0.21764,"postcode":"SW19 5EA","la":"Merton","era":"trad","nn":120,"risk":29,"cat":"green"},{"name":"Formerly known as The Vale","lat":51.41293,"lon":-0.14202,"postcode":"SW16 5HN","la":"Merton","era":"other","nn":819,"risk":51,"cat":"amber"},{"name":"Hand & Racquet","lat":51.42191,"lon":-0.20774,"postcode":"SW19 7NE","la":"Merton","era":"other","nn":22,"risk":28,"cat":"green"},{"name":"Hemingways","lat":51.4256,"lon":-0.21916,"postcode":"SW19 5EE","la":"Merton","era":"other","nn":74,"risk":29,"cat":"green"},{"name":"Horse and Groom","lat":51.4155,"lon":-0.19172,"postcode":"SW19 1DE","la":"Merton","era":"trad","nn":349,"risk":31,"cat":"amber"},{"name":"Kiss Me Hardy","lat":51.41622,"lon":-0.1789,"postcode":"SW19 2PP","la":"Merton","era":"other","nn":191,"risk":30,"cat":"green"},{"name":"LSGC (Catering)","lat":51.43713,"lon":-0.22572,"postcode":"SW19 5NQ","la":"Merton","era":"other","nn":1247,"risk":59,"cat":"amber"},{"name":"New Wimbledon Theatre","lat":51.41915,"lon":-0.20136,"postcode":"SW19 1QG","la":"Merton","era":"other","nn":21,"risk":28,"cat":"green"},{"name":"Old Rutlishians Association","lat":51.40657,"lon":-0.19952,"postcode":"SW19 3JS","la":"Merton","era":"other","nn":581,"risk":35,"cat":"amber"},{"name":"Prince Of Wales","lat":51.4205,"lon":-0.20618,"postcode":"SW19 3TA","la":"Merton","era":"trad","nn":98,"risk":29,"cat":"green"},{"name":"Raynes Park Tavern","lat":51.40969,"lon":-0.23024,"postcode":"SW20 0LA","la":"Merton","era":"other","nn":253,"risk":47,"cat":"amber"},{"name":"Rose & Crown","lat":51.42578,"lon":-0.2202,"postcode":"SW19 5BA","la":"Merton","era":"trad","nn":74,"risk":29,"cat":"green"},{"name":"Royal Standard","lat":51.41843,"lon":-0.17837,"postcode":"SW19 2BN","la":"Merton","era":"trad","nn":60,"risk":29,"cat":"green"},{"name":"Royal Wimbledon Golf Club","lat":51.42585,"lon":-0.23502,"postcode":"SW19 4UW","la":"Merton","era":"trad","nn":0,"risk":33,"cat":"amber"},{"name":"South Wimbledon Club","lat":51.41922,"lon":-0.20165,"postcode":"SW19 1QL","la":"Merton","era":"other","nn":21,"risk":28,"cat":"green"},{"name":"The Alexandra","lat":51.422,"lon":-0.20802,"postcode":"SW19 7NE","la":"Merton","era":"other","nn":22,"risk":28,"cat":"green"},{"name":"The Cavern Public House","lat":51.4098,"lon":-0.23388,"postcode":"SW20 0AY","la":"Merton","era":"other","nn":253,"risk":47,"cat":"amber"},{"name":"The Charles Holden","lat":51.41793,"lon":-0.1787,"postcode":"SW19 2BH","la":"Merton","era":"other","nn":60,"risk":29,"cat":"green"},{"name":"The Fox and Grapes","lat":51.42631,"lon":-0.23043,"postcode":"SW19 4UN","la":"Merton","era":"trad","nn":322,"risk":30,"cat":"green"},{"name":"The Garratt And Gauge Wimbledon","lat":51.41975,"lon":-0.20542,"postcode":"SW19 3TA","la":"Merton","era":"other","nn":21,"risk":28,"cat":"green"},{"name":"The Gorringe Park","lat":51.41933,"lon":-0.16164,"postcode":"SW17 9JR","la":"Merton","era":"other","nn":375,"risk":31,"cat":"amber"},{"name":"The Leather Bottle","lat":51.41123,"lon":-0.20902,"postcode":"SW19 3NW","la":"Merton","era":"other","nn":316,"risk":30,"cat":"green"},{"name":"The Nelson Arms","lat":51.41584,"lon":-0.18672,"postcode":"SW19 1DF","la":"Merton","era":"trad","nn":320,"risk":30,"cat":"green"},{"name":"The Rushmere","lat":51.42074,"lon":-0.22061,"postcode":"SW19 4SU","la":"Merton","era":"other","nn":401,"risk":31,"cat":"amber"},{"name":"The Sultan Public House","lat":51.41856,"lon":-0.18521,"postcode":"SW19 1BT","la":"Merton","era":"other","nn":320,"risk":30,"cat":"green"},{"name":"The William Morris","lat":51.41327,"lon":-0.18318,"postcode":"SW19 2RD","la":"Merton","era":"other","nn":377,"risk":31,"cat":"amber"},{"name":"The Woodman Hotel","lat":51.43365,"lon":-0.19595,"postcode":"SW19 8DR","la":"Merton","era":"other","nn":696,"risk":38,"cat":"amber"},{"name":"West Wimbledon Bowling Club","lat":51.41213,"lon":-0.23453,"postcode":"SW20 0DE","la":"Merton","era":"other","nn":263,"risk":33,"cat":"amber"},{"name":"Westside Lawn Tennis Club","lat":51.41896,"lon":-0.23025,"postcode":"SW19 4RG","la":"Merton","era":"other","nn":697,"risk":33,"cat":"amber"},{"name":"Wibbas Down Inn","lat":51.419,"lon":-0.20231,"postcode":"SW19 1QT","la":"Merton","era":"trad","nn":52,"risk":29,"cat":"green"},{"name":"Wilton Lawn Tennis Club","lat":51.41349,"lon":-0.20626,"postcode":"SW19 3QX","la":"Merton","era":"other","nn":316,"risk":30,"cat":"green"},{"name":"Wimbledon Bridge Club","lat":51.41863,"lon":-0.21311,"postcode":"SW19 4EY","la":"Merton","era":"other","nn":514,"risk":32,"cat":"amber"},{"name":"Wimbledon Rugby Club","lat":51.41723,"lon":-0.2456,"postcode":"SW20 0ET","la":"Merton","era":"other","nn":777,"risk":51,"cat":"amber"},{"name":"Wimbledon Village Club","lat":51.42336,"lon":-0.21664,"postcode":"SW19 4QD","la":"Merton","era":"other","nn":205,"risk":30,"cat":"green"},{"name":"Barnes Home Guard Association","lat":51.46183,"lon":-0.26667,"postcode":"SW14 8LA","la":"Richmond upon Thames","era":"other","nn":322,"risk":28,"cat":"green"},{"name":"Barnes Sports Club Ltd","lat":51.47753,"lon":-0.24869,"postcode":"SW13 9QL","la":"Richmond upon Thames","era":"other","nn":443,"risk":29,"cat":"green"},{"name":"Hare and Hounds","lat":51.46503,"lon":-0.26481,"postcode":"SW14 8AH","la":"Richmond upon Thames","era":"trad","nn":195,"risk":27,"cat":"green"},{"name":"PowerStation Youth Centre","lat":51.47028,"lon":-0.25795,"postcode":"SW14 8SW","la":"Richmond upon Thames","era":"other","nn":382,"risk":28,"cat":"green"},{"name":"Sheen Lawn Tennis & Squash Club","lat":51.45815,"lon":-0.27155,"postcode":"SW14 7EH","la":"Richmond upon Thames","era":"other","nn":294,"risk":28,"cat":"green"},{"name":"The Bridge Tavern","lat":51.48585,"lon":-0.23261,"postcode":"SW13 9DW","la":"Richmond upon Thames","era":"other","nn":447,"risk":29,"cat":"green"},{"name":"The Brown Dog","lat":51.46891,"lon":-0.25156,"postcode":"SW13 0AP","la":"Richmond upon Thames","era":"other","nn":468,"risk":29,"cat":"green"},{"name":"The Bull's Head","lat":51.47377,"lon":-0.25093,"postcode":"SW13 9PY","la":"Richmond upon Thames","era":"trad","nn":116,"risk":26,"cat":"green"},{"name":"The Coach & Horses","lat":51.47351,"lon":-0.2493,"postcode":"SW13 9LW","la":"Richmond upon Thames","era":"trad","nn":116,"risk":26,"cat":"green"},{"name":"The Jolly Gardeners","lat":51.4696,"lon":-0.26866,"postcode":"SW14 7EX","la":"Richmond upon Thames","era":"other","nn":29,"risk":26,"cat":"green"},{"name":"The Pig & Whistle","lat":51.46587,"lon":-0.26727,"postcode":"SW14 8LP","la":"Richmond upon Thames","era":"other","nn":195,"risk":27,"cat":"green"},{"name":"The Plough","lat":51.46078,"lon":-0.271,"postcode":"SW14 7AF","la":"Richmond upon Thames","era":"trad","nn":294,"risk":28,"cat":"green"},{"name":"The Red Lion","lat":51.47551,"lon":-0.23894,"postcode":"SW13 9RU","la":"Richmond upon Thames","era":"trad","nn":625,"risk":32,"cat":"amber"},{"name":"The Ship","lat":51.47135,"lon":-0.26806,"postcode":"SW14 7QR","la":"Richmond upon Thames","era":"trad","nn":199,"risk":27,"cat":"green"},{"name":"The Sun Inn","lat":51.47363,"lon":-0.24745,"postcode":"SW13 9HE","la":"Richmond upon Thames","era":"trad","nn":129,"risk":26,"cat":"green"},{"name":"The Tapestry","lat":51.46934,"lon":-0.26863,"postcode":"SW14 7EZ","la":"Richmond upon Thames","era":"mod","nn":29,"risk":26,"cat":"green"},{"name":"The Victoria","lat":51.4611,"lon":-0.2756,"postcode":"SW14 7RT","la":"Richmond upon Thames","era":"trad","nn":320,"risk":28,"cat":"green"},{"name":"Amiga","lat":51.46096,"lon":-0.1657,"postcode":"SW11 1EG","la":"Wandsworth","era":"other","nn":39,"risk":24,"cat":"green"},{"name":"Apo Restobar","lat":51.46594,"lon":-0.16942,"postcode":"SW11 2LW","la":"Wandsworth","era":"other","nn":163,"risk":25,"cat":"green"},{"name":"Archer Street Clapham","lat":51.46045,"lon":-0.16663,"postcode":"SW11 1NG","la":"Wandsworth","era":"other","nn":48,"risk":24,"cat":"green"},{"name":"Asparagus","lat":51.4699,"lon":-0.17132,"postcode":"SW11 2PL","la":"Wandsworth","era":"other","nn":297,"risk":26,"cat":"green"},{"name":"Aspen & Meursault","lat":51.47588,"lon":-0.1731,"postcode":"SW11 3PH","la":"Wandsworth","era":"other","nn":218,"risk":26,"cat":"green"},{"name":"Balham Bowls Club","lat":51.44488,"lon":-0.15244,"postcode":"SW12 8QX","la":"Wandsworth","era":"other","nn":94,"risk":25,"cat":"green"},{"name":"Battersea Labour Club","lat":51.46735,"lon":-0.17003,"postcode":"SW11 2PF","la":"Wandsworth","era":"other","nn":163,"risk":25,"cat":"green"},{"name":"Be At One","lat":51.46525,"lon":-0.21484,"postcode":"SW15 1SQ","la":"Wandsworth","era":"other","nn":62,"risk":25,"cat":"green"},{"name":"Be At One","lat":51.46066,"lon":-0.1674,"postcode":"SW11 1HW","la":"Wandsworth","era":"other","nn":13,"risk":24,"cat":"green"},{"name":"Beehive PH","lat":51.45983,"lon":-0.17822,"postcode":"SW11 1TH","la":"Wandsworth","era":"other","nn":90,"risk":25,"cat":"green"},{"name":"Blame Gloria","lat":51.46064,"lon":-0.16759,"postcode":"SW11 1HW","la":"Wandsworth","era":"other","nn":13,"risk":24,"cat":"green"},{"name":"Boom Battle Bar (Primary Licence)","lat":51.458,"lon":-0.19362,"postcode":"SW18 1UL","la":"Wandsworth","era":"mod","nn":105,"risk":25,"cat":"green"},{"name":"Brewers Inn","lat":51.45672,"lon":-0.18937,"postcode":"SW18 2QB","la":"Wandsworth","era":"trad","nn":235,"risk":26,"cat":"green"},{"name":"Bricklayer's Arms","lat":51.46605,"lon":-0.21676,"postcode":"SW15 1DD","la":"Wandsworth","era":"trad","nn":140,"risk":25,"cat":"green"},{"name":"Bunga Bunga","lat":51.4789,"lon":-0.17018,"postcode":"SW11 3BA","la":"Wandsworth","era":"other","nn":243,"risk":26,"cat":"green"},{"name":"Churchill's","lat":51.46017,"lon":-0.17705,"postcode":"SW11 1TQ","la":"Wandsworth","era":"other","nn":90,"risk":25,"cat":"green"},{"name":"Club 99","lat":51.42442,"lon":-0.14117,"postcode":"SW16 6LY","la":"Wandsworth","era":"other","nn":57,"risk":25,"cat":"green"},{"name":"Country House","lat":51.44204,"lon":-0.18898,"postcode":"SW18 4EP","la":"Wandsworth","era":"other","nn":89,"risk":25,"cat":"green"},{"name":"County Arms Public House","lat":51.45009,"lon":-0.17424,"postcode":"SW18 3SH","la":"Wandsworth","era":"trad","nn":280,"risk":26,"cat":"green"},{"name":"Devas Club","lat":51.46491,"lon":-0.15661,"postcode":"SW11 5EN","la":"Wandsworth","era":"other","nn":100,"risk":25,"cat":"green"},{"name":"Duchess Belle","lat":51.47916,"lon":-0.14247,"postcode":"SW8 4DS","la":"Wandsworth","era":"other","nn":404,"risk":27,"cat":"green"},{"name":"Duke Of Cambridge","lat":51.47286,"lon":-0.16624,"postcode":"SW11 3AA","la":"Wandsworth","era":"trad","nn":108,"risk":25,"cat":"green"},{"name":"Dukes Head","lat":51.46729,"lon":-0.21712,"postcode":"SW15 1JN","la":"Wandsworth","era":"trad","nn":140,"risk":25,"cat":"green"},{"name":"Eagle Public House","lat":51.45503,"lon":-0.16362,"postcode":"SW11 6HG","la":"Wandsworth","era":"trad","nn":135,"risk":25,"cat":"green"},{"name":"Fez Club","lat":51.46082,"lon":-0.2166,"postcode":"SW15 2SH","la":"Wandsworth","era":"other","nn":61,"risk":25,"cat":"green"},{"name":"Fox and Hounds","lat":51.46713,"lon":-0.16294,"postcode":"SW11 2JU","la":"Wandsworth","era":"trad","nn":339,"risk":27,"cat":"green"},{"name":"Goldfinch","lat":51.42484,"lon":-0.16345,"postcode":"SW17 9PE","la":"Wandsworth","era":"other","nn":222,"risk":26,"cat":"green"},{"name":"Graveney & Meadow","lat":51.42692,"lon":-0.167,"postcode":"SW17 9NA","la":"Wandsworth","era":"other","nn":83,"risk":25,"cat":"green"},{"name":"Grosvenor Arms","lat":51.44736,"lon":-0.18959,"postcode":"SW18 4ED","la":"Wandsworth","era":"trad","nn":469,"risk":27,"cat":"green"},{"name":"Hagen & Hyde","lat":51.44383,"lon":-0.15203,"postcode":"SW12 9AU","la":"Wandsworth","era":"other","nn":107,"risk":25,"cat":"green"},{"name":"Halfway House","lat":51.4417,"lon":-0.18726,"postcode":"SW18 4SR","la":"Wandsworth","era":"other","nn":125,"risk":25,"cat":"green"},{"name":"Hawkins Forge","lat":51.46072,"lon":-0.16905,"postcode":"SW11 1EJ","la":"Wandsworth","era":"trad","nn":102,"risk":25,"cat":"green"},{"name":"Hudsons Bar & Restaurant","lat":51.46758,"lon":-0.22158,"postcode":"SW15 1EX","la":"Wandsworth","era":"mod","nn":107,"risk":25,"cat":"green"},{"name":"Hurlingham Yacht Club","lat":51.46476,"lon":-0.21034,"postcode":"SW15 2NP","la":"Wandsworth","era":"other","nn":175,"risk":25,"cat":"green"},{"name":"Imperial College Boat Club","lat":51.47001,"lon":-0.22073,"postcode":"SW15 1LB","la":"Wandsworth","era":"other","nn":0,"risk":24,"cat":"green"},{"name":"J J Moons","lat":51.42792,"lon":-0.16852,"postcode":"SW17 0RN","la":"Wandsworth","era":"other","nn":92,"risk":25,"cat":"green"},{"name":"Junction","lat":51.46334,"lon":-0.16984,"postcode":"SW11 1SA","la":"Wandsworth","era":"other","nn":56,"risk":25,"cat":"green"},{"name":"Kings Head Public House","lat":51.45026,"lon":-0.24076,"postcode":"SW15 4HL","la":"Wandsworth","era":"trad","nn":52,"risk":42,"cat":"amber"},{"name":"London Rowing Club","lat":51.47001,"lon":-0.22073,"postcode":"SW15 1LB","la":"Wandsworth","era":"other","nn":0,"risk":24,"cat":"green"},{"name":"Made In Italy","lat":51.45904,"lon":-0.16604,"postcode":"SW11 1NP","la":"Wandsworth","era":"other","nn":85,"risk":25,"cat":"green"},{"name":"Masons Arms","lat":51.47678,"lon":-0.14687,"postcode":"SW8 4BT","la":"Wandsworth","era":"trad","nn":177,"risk":25,"cat":"green"},{"name":"Mayfair Tavern","lat":51.43233,"lon":-0.16338,"postcode":"SW17 7TJ","la":"Wandsworth","era":"other","nn":170,"risk":25,"cat":"green"},{"name":"Nine Elms Tavern","lat":51.48221,"lon":-0.13749,"postcode":"SW11 8AY","la":"Wandsworth","era":"trad","nn":484,"risk":28,"cat":"green"},{"name":"Old Fields","lat":51.44465,"lon":-0.20518,"postcode":"SW18 5LS","la":"Wandsworth","era":"other","nn":352,"risk":27,"cat":"green"},{"name":"Paya & Horse","lat":51.47581,"lon":-0.14889,"postcode":"SW11 4LB","la":"Wandsworth","era":"trad","nn":142,"risk":25,"cat":"green"},{"name":"Peachy Queen","lat":51.46578,"lon":-0.21452,"postcode":"SW15 1SL","la":"Wandsworth","era":"trad","nn":16,"risk":24,"cat":"green"},{"name":"Pig And Whistle","lat":51.44107,"lon":-0.1967,"postcode":"SW18 5LD","la":"Wandsworth","era":"other","nn":546,"risk":28,"cat":"green"},{"name":"Plough Public House","lat":51.46147,"lon":-0.1733,"postcode":"SW11 1SY","la":"Wandsworth","era":"trad","nn":247,"risk":26,"cat":"green"},{"name":"Prince of Wales","lat":51.46015,"lon":-0.21262,"postcode":"SW15 2SP","la":"Wandsworth","era":"trad","nn":286,"risk":26,"cat":"green"},{"name":"Project Orange","lat":51.46275,"lon":-0.17038,"postcode":"SW11 1TT","la":"Wandsworth","era":"other","nn":76,"risk":25,"cat":"green"},{"name":"Putney Club","lat":51.45815,"lon":-0.2084,"postcode":"SW15 2RD","la":"Wandsworth","era":"other","nn":23,"risk":24,"cat":"green"},{"name":"Putney Lawn Tennis Club","lat":51.46212,"lon":-0.22554,"postcode":"SW15 6NG","la":"Wandsworth","era":"other","nn":108,"risk":25,"cat":"green"},{"name":"Putney Town Bowling Club","lat":51.46853,"lon":-0.22743,"postcode":"SW15 1HS","la":"Wandsworth","era":"other","nn":419,"risk":27,"cat":"green"},{"name":"Queen Adelaide","lat":51.4599,"lon":-0.19935,"postcode":"SW18 1NP","la":"Wandsworth","era":"trad","nn":103,"risk":25,"cat":"green"},{"name":"Ranelagh Sailing Club","lat":51.47001,"lon":-0.22073,"postcode":"SW15 1LB","la":"Wandsworth","era":"other","nn":0,"risk":24,"cat":"green"},{"name":"Rhythm And Booze","lat":51.47399,"lon":-0.17397,"postcode":"SW11 3HX","la":"Wandsworth","era":"other","nn":48,"risk":24,"cat":"green"},{"name":"Roehampton Youth Club Supporters Association","lat":51.44912,"lon":-0.24106,"postcode":"SW15 4JE","la":"Wandsworth","era":"other","nn":128,"risk":43,"cat":"amber"},{"name":"Rose and Crown","lat":51.43281,"lon":-0.15405,"postcode":"SW17 8BH","la":"Wandsworth","era":"trad","nn":563,"risk":28,"cat":"green"},{"name":"Royal British Legion Club","lat":51.4583,"lon":-0.20862,"postcode":"SW15 2RD","la":"Wandsworth","era":"trad","nn":23,"risk":24,"cat":"green"},{"name":"Royal Mahal Banqueting","lat":51.43518,"lon":-0.16123,"postcode":"SW17 7PG","la":"Wandsworth","era":"trad","nn":200,"risk":26,"cat":"green"},{"name":"Sambrook's Brewery Tap","lat":51.4573,"lon":-0.19263,"postcode":"SW18 1UR","la":"Wandsworth","era":"mod","nn":105,"risk":25,"cat":"green"},{"name":"South London Bowling Club","lat":51.44768,"lon":-0.17307,"postcode":"SW18 3LU","la":"Wandsworth","era":"other","nn":280,"risk":29,"cat":"green"},{"name":"Southfields Club & Institute","lat":51.44704,"lon":-0.20187,"postcode":"SW18 5TG","la":"Wandsworth","era":"other","nn":201,"risk":26,"cat":"green"},{"name":"Southfields Lawn Tennis Club","lat":51.45196,"lon":-0.20731,"postcode":"SW18 1PQ","la":"Wandsworth","era":"other","nn":569,"risk":28,"cat":"green"},{"name":"Spotted Horse","lat":51.46268,"lon":-0.21651,"postcode":"SW15 1RG","la":"Wandsworth","era":"trad","nn":182,"risk":25,"cat":"green"},{"name":"STREATHAM CONSERVATIVE CLUB","lat":51.42187,"lon":-0.1399,"postcode":"SW16 6DL","la":"Wandsworth","era":"other","nn":298,"risk":26,"cat":"green"},{"name":"Streatham Park Bowling Club","lat":51.42903,"lon":-0.14245,"postcode":"SW16 1SH","la":"Wandsworth","era":"other","nn":517,"risk":28,"cat":"green"},{"name":"Tap 13 Tooting","lat":51.42835,"lon":-0.16653,"postcode":"SW17 0RJ","la":"Wandsworth","era":"other","nn":0,"risk":24,"cat":"green"},{"name":"TBK Sports Bar and Grill","lat":51.46382,"lon":-0.16833,"postcode":"SW11 1RU","la":"Wandsworth","era":"mod","nn":17,"risk":24,"cat":"green"},{"name":"Tequila Mockingbird","lat":51.46102,"lon":-0.16515,"postcode":"SW11 1EE","la":"Wandsworth","era":"trad","nn":39,"risk":24,"cat":"green"},{"name":"Tequila Mockingbird","lat":51.46592,"lon":-0.21457,"postcode":"SW15 1SL","la":"Wandsworth","era":"trad","nn":16,"risk":24,"cat":"green"},{"name":"Tequila Mockingbird","lat":51.44063,"lon":-0.18665,"postcode":"SW18 4SR","la":"Wandsworth","era":"trad","nn":127,"risk":25,"cat":"green"},{"name":"Thames Rowing Club","lat":51.47001,"lon":-0.22073,"postcode":"SW15 1LB","la":"Wandsworth","era":"other","nn":0,"risk":24,"cat":"green"},{"name":"The Alma Tavern","lat":51.46063,"lon":-0.18769,"postcode":"SW18 1TF","la":"Wandsworth","era":"other","nn":76,"risk":25,"cat":"green"},{"name":"The Anchor","lat":51.46526,"lon":-0.17925,"postcode":"SW11 2AT","la":"Wandsworth","era":"trad","nn":442,"risk":27,"cat":"green"},{"name":"The Angel","lat":51.45029,"lon":-0.24001,"postcode":"SW15 4HL","la":"Wandsworth","era":"trad","nn":52,"risk":30,"cat":"green"},{"name":"The Antelope","lat":51.42606,"lon":-0.16598,"postcode":"SW17 9NG","la":"Wandsworth","era":"other","nn":119,"risk":25,"cat":"green"},{"name":"The Arab Boy","lat":51.46278,"lon":-0.22668,"postcode":"SW15 6SP","la":"Wandsworth","era":"other","nn":108,"risk":25,"cat":"green"},{"name":"The Bank","lat":51.45976,"lon":-0.16647,"postcode":"SW11 1NJ","la":"Wandsworth","era":"other","nn":78,"risk":25,"cat":"green"},{"name":"The Bedford","lat":51.44271,"lon":-0.14924,"postcode":"SW12 9HD","la":"Wandsworth","era":"other","nn":230,"risk":26,"cat":"green"},{"name":"The Boathouse","lat":51.4652,"lon":-0.21277,"postcode":"SW15 2JX","la":"Wandsworth","era":"other","nn":137,"risk":25,"cat":"green"},{"name":"The Bolingbroke","lat":51.45386,"lon":-0.16413,"postcode":"SW11 6RE","la":"Wandsworth","era":"other","nn":135,"risk":25,"cat":"green"},{"name":"The Castle","lat":51.42865,"lon":-0.16788,"postcode":"SW17 0RG","la":"Wandsworth","era":"other","nn":92,"risk":25,"cat":"green"},{"name":"The Cats Back","lat":51.46182,"lon":-0.19944,"postcode":"SW18 1PP","la":"Wandsworth","era":"other","nn":214,"risk":26,"cat":"green"},{"name":"The Clapham Grand","lat":51.46296,"lon":-0.16932,"postcode":"SW11 1TT","la":"Wandsworth","era":"other","nn":56,"risk":25,"cat":"green"},{"name":"The Coat And Badge","lat":51.4645,"lon":-0.21663,"postcode":"SW15 1NL","la":"Wandsworth","era":"other","nn":104,"risk":25,"cat":"green"},{"name":"The Corner Pin","lat":51.43319,"lon":-0.18594,"postcode":"SW17 0AY","la":"Merton","era":"other","nn":418,"risk":34,"cat":"amber"},{"name":"The Crown","lat":51.46572,"lon":-0.15601,"postcode":"SW11 5RD","la":"Wandsworth","era":"trad","nn":100,"risk":25,"cat":"green"},{"name":"The Devonshire","lat":51.44687,"lon":-0.14888,"postcode":"SW12 9AN","la":"Wandsworth","era":"other","nn":226,"risk":26,"cat":"green"},{"name":"The Earl Spencer","lat":51.44823,"lon":-0.1995,"postcode":"SW18 5JL","la":"Wandsworth","era":"other","nn":25,"risk":24,"cat":"green"},{"name":"The East Hill","lat":51.45868,"lon":-0.18575,"postcode":"SW18 1AA","la":"Wandsworth","era":"other","nn":254,"risk":26,"cat":"green"},{"name":"The Falcon PH","lat":51.46383,"lon":-0.16809,"postcode":"SW11 1RU","la":"Wandsworth","era":"other","nn":17,"risk":24,"cat":"green"},{"name":"The Flag","lat":51.47109,"lon":-0.15762,"postcode":"SW11 5AU","la":"Wandsworth","era":"other","nn":385,"risk":27,"cat":"green"},{"name":"The Four Thieves","lat":51.46409,"lon":-0.16268,"postcode":"SW11 1DJ","la":"Wandsworth","era":"other","nn":339,"risk":27,"cat":"green"},{"name":"The Fox And Hounds Public House","lat":51.4609,"lon":-0.21768,"postcode":"SW15 6SE","la":"Wandsworth","era":"trad","nn":35,"risk":24,"cat":"green"},{"name":"The Furzedown","lat":51.42439,"lon":-0.14199,"postcode":"SW16 6NR","la":"Wandsworth","era":"other","nn":57,"risk":25,"cat":"green"},{"name":"The Gardeners Arms","lat":51.44801,"lon":-0.19942,"postcode":"SW18 5JL","la":"Wandsworth","era":"trad","nn":25,"risk":24,"cat":"green"},{"name":"The Garratt Tavern","lat":51.45293,"lon":-0.191,"postcode":"SW18 4DW","la":"Wandsworth","era":"other","nn":39,"risk":24,"cat":"green"},{"name":"The Goat Pub","lat":51.46098,"lon":-0.16642,"postcode":"SW11 1EQ","la":"Wandsworth","era":"other","nn":50,"risk":24,"cat":"green"},{"name":"The Grove PH","lat":51.4484,"lon":-0.15105,"postcode":"SW12 8PN","la":"Wandsworth","era":"other","nn":226,"risk":26,"cat":"green"},{"name":"The Half Moon Inn","lat":51.46729,"lon":-0.2201,"postcode":"SW15 1EU","la":"Wandsworth","era":"trad","nn":107,"risk":25,"cat":"green"},{"name":"The Heathfield Club","lat":51.44371,"lon":-0.17119,"postcode":"SW18 3JP","la":"Wandsworth","era":"other","nn":461,"risk":32,"cat":"amber"},{"name":"The Hop Pole","lat":51.45928,"lon":-0.19823,"postcode":"SW18 1HR","la":"Wandsworth","era":"other","nn":103,"risk":25,"cat":"green"},{"name":"The Hope","lat":51.44606,"lon":-0.16551,"postcode":"SW17 7EG","la":"Wandsworth","era":"other","nn":472,"risk":27,"cat":"green"},{"name":"The Jolly Gardeners","lat":51.4646,"lon":-0.21847,"postcode":"SW15 1NR","la":"Wandsworth","era":"other","nn":128,"risk":25,"cat":"green"},{"name":"The Kings Head","lat":51.43385,"lon":-0.16317,"postcode":"SW17 7PB","la":"Wandsworth","era":"trad","nn":170,"risk":25,"cat":"green"},{"name":"The Latchmere","lat":51.472,"lon":-0.16551,"postcode":"SW11 3BW","la":"Wandsworth","era":"other","nn":108,"risk":25,"cat":"green"},{"name":"The Leather Bottle","lat":51.43687,"lon":-0.18717,"postcode":"SW17 0NY","la":"Wandsworth","era":"other","nn":418,"risk":27,"cat":"green"},{"name":"The Lighthouse","lat":51.47264,"lon":-0.1626,"postcode":"SW11 4LR","la":"Wandsworth","era":"other","nn":214,"risk":26,"cat":"green"},{"name":"The Little Taperia","lat":51.42541,"lon":-0.17011,"postcode":"SW17 0SY","la":"Wandsworth","era":"mod","nn":81,"risk":25,"cat":"green"},{"name":"The London and South Western","lat":51.4641,"lon":-0.16759,"postcode":"SW11 1LJ","la":"Wandsworth","era":"other","nn":46,"risk":24,"cat":"green"},{"name":"The Magic Garden","lat":51.47531,"lon":-0.15079,"postcode":"SW11 4LG","la":"Wandsworth","era":"other","nn":142,"risk":25,"cat":"green"},{"name":"The Nightingale PH","lat":51.45002,"lon":-0.15784,"postcode":"SW12 8NX","la":"Wandsworth","era":"other","nn":504,"risk":28,"cat":"green"},{"name":"The Northcote","lat":51.46069,"lon":-0.1672,"postcode":"SW11 1NT","la":"Wandsworth","era":"other","nn":14,"risk":24,"cat":"green"},{"name":"The Old Sergeant","lat":51.45153,"lon":-0.19058,"postcode":"SW18 4DJ","la":"Wandsworth","era":"other","nn":120,"risk":25,"cat":"green"},{"name":"The Park Tavern","lat":51.45056,"lon":-0.19941,"postcode":"SW18 5SW","la":"Wandsworth","era":"other","nn":260,"risk":26,"cat":"green"},{"name":"The Railway","lat":51.46113,"lon":-0.21734,"postcode":"SW15 6TD","la":"Wandsworth","era":"trad","nn":35,"risk":24,"cat":"green"},{"name":"The Ramble Inn","lat":51.42266,"lon":-0.16016,"postcode":"SW17 9JG","la":"Wandsworth","era":"trad","nn":12,"risk":24,"cat":"green"},{"name":"The Regent","lat":51.44409,"lon":-0.1539,"postcode":"SW12 8JB","la":"Wandsworth","era":"other","nn":133,"risk":25,"cat":"green"},{"name":"The River Bar","lat":51.48306,"lon":-0.14647,"postcode":"SW11 8EZ","la":"Wandsworth","era":"other","nn":117,"risk":25,"cat":"green"},{"name":"The Roundhouse Public House","lat":51.45906,"lon":-0.17411,"postcode":"SW18 2SS","la":"Wandsworth","era":"mod","nn":237,"risk":26,"cat":"green"},{"name":"The Royal Standard","lat":51.46089,"lon":-0.18668,"postcode":"SW18 1AL","la":"Wandsworth","era":"trad","nn":76,"risk":25,"cat":"green"},{"name":"The Selkirk","lat":51.4303,"lon":-0.16946,"postcode":"SW17 0ES","la":"Wandsworth","era":"other","nn":214,"risk":26,"cat":"green"},{"name":"The Ship Inn","lat":51.46349,"lon":-0.18813,"postcode":"SW18 1TB","la":"Wandsworth","era":"trad","nn":55,"risk":25,"cat":"green"},{"name":"The Tapas Room Ltd","lat":51.42835,"lon":-0.16653,"postcode":"SW17 0RJ","la":"Wandsworth","era":"mod","nn":0,"risk":24,"cat":"green"},{"name":"The Telegraph PH","lat":51.44879,"lon":-0.22644,"postcode":"SW15 3TU","la":"Wandsworth","era":"other","nn":955,"risk":51,"cat":"amber"},{"name":"The Tir Na Nog","lat":51.45258,"lon":-0.19093,"postcode":"SW18 4DW","la":"Wandsworth","era":"other","nn":39,"risk":24,"cat":"green"},{"name":"The Union Arms","lat":51.47704,"lon":-0.16833,"postcode":"SW11 3AT","la":"Wandsworth","era":"trad","nn":243,"risk":26,"cat":"green"},{"name":"The Victoria","lat":51.47286,"lon":-0.14819,"postcode":"SW8 3QH","la":"Wandsworth","era":"trad","nn":326,"risk":26,"cat":"green"},{"name":"The Wandle of Earlsfield","lat":51.44281,"lon":-0.1893,"postcode":"SW18 4EJ","la":"Wandsworth","era":"other","nn":89,"risk":25,"cat":"green"},{"name":"The Waterfront","lat":51.46422,"lon":-0.18541,"postcode":"SW18 1TS","la":"Wandsworth","era":"other","nn":205,"risk":26,"cat":"green"},{"name":"The Woodman","lat":51.47357,"lon":-0.17384,"postcode":"SW11 3HX","la":"Wandsworth","era":"other","nn":48,"risk":24,"cat":"green"},{"name":"Tooting Conservative & Unionist Club","lat":51.42726,"lon":-0.16592,"postcode":"SW17 8PW","la":"Wandsworth","era":"other","nn":83,"risk":25,"cat":"green"},{"name":"Tooting Progressive Working","lat":51.42256,"lon":-0.16011,"postcode":"SW17 9JG","la":"Wandsworth","era":"trad","nn":12,"risk":24,"cat":"green"},{"name":"Trafalgar Arms","lat":51.42517,"lon":-0.17122,"postcode":"SW17 0RT","la":"Wandsworth","era":"trad","nn":81,"risk":25,"cat":"green"},{"name":"United Services Club Ltd","lat":51.43888,"lon":-0.15685,"postcode":"SW17 7AJ","la":"Wandsworth","era":"other","nn":511,"risk":28,"cat":"green"},{"name":"Vagabond Wines","lat":51.482,"lon":-0.14637,"postcode":"SW11 8EZ","la":"Wandsworth","era":"other","nn":117,"risk":25,"cat":"green"},{"name":"Virgin Active","lat":51.46338,"lon":-0.18891,"postcode":"SW18 1DG","la":"Wandsworth","era":"other","nn":55,"risk":25,"cat":"green"},{"name":"Voodoo","lat":51.44462,"lon":-0.15115,"postcode":"SW12 9RQ","la":"Wandsworth","era":"other","nn":94,"risk":25,"cat":"green"},{"name":"Wagamama","lat":51.46474,"lon":-0.21517,"postcode":"SW15 1SQ","la":"Wandsworth","era":"other","nn":62,"risk":25,"cat":"green"},{"name":"8 Golden Horses","lat":51.49531,"lon":-0.13272,"postcode":"SW1P 2EF","la":"Westminster","era":"trad","nn":125,"risk":27,"cat":"green"},{"name":"All Bar One","lat":51.49772,"lon":-0.13681,"postcode":"SW1E 6QW","la":"Westminster","era":"mod","nn":0,"risk":26,"cat":"green"},{"name":"Curzon Cinemas Victoria Ltd","lat":51.49772,"lon":-0.13681,"postcode":"SW1E 6QW","la":"Westminster","era":"trad","nn":0,"risk":26,"cat":"green"},{"name":"DC Venues Ltd","lat":51.50901,"lon":-0.13248,"postcode":"SW1Y 4QX","la":"Westminster","era":"other","nn":175,"risk":27,"cat":"green"},{"name":"Dear Darling","lat":51.50813,"lon":-0.13701,"postcode":"SW1Y 6JB","la":"Westminster","era":"other","nn":299,"risk":28,"cat":"green"},{"name":"Hub By Premier Inn","lat":51.49901,"lon":-0.13264,"postcode":"SW1H 0DJ","la":"Westminster","era":"other","nn":118,"risk":27,"cat":"green"},{"name":"Lane 7","lat":51.49733,"lon":-0.13844,"postcode":"SW1E 6SQ","la":"Westminster","era":"other","nn":121,"risk":27,"cat":"green"},{"name":"Munich Cricket Club","lat":51.49795,"lon":-0.13248,"postcode":"SW1P 2LU","la":"Westminster","era":"other","nn":118,"risk":27,"cat":"green"},{"name":"Sports Bar & Grill","lat":51.49497,"lon":-0.14433,"postcode":"SW1V 1JT","la":"Westminster","era":"mod","nn":231,"risk":27,"cat":"green"},{"name":"The Other Place","lat":51.49871,"lon":-0.14226,"postcode":"SW1E 5JA","la":"Westminster","era":"other","nn":168,"risk":27,"cat":"green"},{"name":"The Royal Oak","lat":51.49419,"lon":-0.13255,"postcode":"SW1P 4BZ","la":"Westminster","era":"trad","nn":125,"risk":27,"cat":"green"},{"name":"Vagabond Wines","lat":51.49761,"lon":-0.14393,"postcode":"SW1W 0AJ","la":"Westminster","era":"other","nn":168,"risk":27,"cat":"green"},{"name":"Victoria Taps","lat":51.49362,"lon":-0.14181,"postcode":"SW1V 1HP","la":"Westminster","era":"other","nn":231,"risk":27,"cat":"green"}]