[{"name":"Alsager Golf Club","lat":53.08926,"lon":-2.28199,"postcode":"ST7 2UF","la":"Cheshire East","era":"other","nn":1173,"risk":52,"cat":"amber"},{"name":"Bleeding Wolf Hotel","lat":53.096,"lon":-2.2559,"postcode":"ST7 3BQ","la":"Cheshire East","era":"other","nn":458,"risk":30,"cat":"green"},{"name":"Broughton Arms","lat":53.11197,"lon":-2.29233,"postcode":"ST7 3RU","la":"Cheshire East","era":"trad","nn":982,"risk":49,"cat":"amber"},{"name":"Fifty Five Degrees","lat":53.09596,"lon":-2.30493,"postcode":"ST7 2ES","la":"Cheshire East","era":"other","nn":46,"risk":22,"cat":"green"},{"name":"Hip Hops Bar & Store","lat":53.09583,"lon":-2.30559,"postcode":"ST7 2ES","la":"Cheshire East","era":"mod","nn":46,"risk":22,"cat":"green"},{"name":"Horseshoe Inn","lat":53.10751,"lon":-2.30504,"postcode":"ST7 3RA","la":"Cheshire East","era":"trad","nn":721,"risk":44,"cat":"amber"},{"name":"Rising Sun","lat":53.1142,"lon":-2.24318,"postcode":"ST7 3JT","la":"Cheshire East","era":"other","nn":1251,"risk":53,"cat":"amber"},{"name":"The Bank Corner","lat":53.09634,"lon":-2.3026,"postcode":"ST7 2AF","la":"Cheshire East","era":"other","nn":137,"risk":23,"cat":"green"},{"name":"The Bar","lat":53.09567,"lon":-2.30433,"postcode":"ST7 2LP","la":"Cheshire East","era":"other","nn":51,"risk":22,"cat":"green"},{"name":"The Crown","lat":53.10653,"lon":-2.22613,"postcode":"ST7 4NT","la":"Cheshire East","era":"trad","nn":778,"risk":47,"cat":"amber"},{"name":"The Lawton Arms","lat":53.10044,"lon":-2.28656,"postcode":"ST7 3DL","la":"Cheshire East","era":"trad","nn":1164,"risk":52,"cat":"amber"},{"name":"The Mere Inn","lat":53.09554,"lon":-2.31069,"postcode":"ST7 2HA","la":"Cheshire East","era":"trad","nn":342,"risk":24,"cat":"green"},{"name":"The Plough Inn","lat":53.09132,"lon":-2.32579,"postcode":"ST7 2JN","la":"Cheshire East","era":"trad","nn":1112,"risk":52,"cat":"amber"},{"name":"The Railway","lat":53.09204,"lon":-2.29893,"postcode":"ST7 2QL","la":"Cheshire East","era":"trad","nn":307,"risk":24,"cat":"green"},{"name":"The Red Bull","lat":53.09208,"lon":-2.258,"postcode":"ST7 3AJ","la":"Cheshire East","era":"trad","nn":458,"risk":27,"cat":"green"},{"name":"The Thirteen Club","lat":53.09385,"lon":-2.30239,"postcode":"ST7 2PH","la":"Cheshire East","era":"other","nn":240,"risk":23,"cat":"green"},{"name":"Travellers Rest","lat":53.10419,"lon":-2.25171,"postcode":"ST7 3HA","la":"Cheshire East","era":"other","nn":952,"risk":48,"cat":"amber"},{"name":"Wilbraham Arms","lat":53.10211,"lon":-2.31102,"postcode":"ST7 2AX","la":"Cheshire East","era":"trad","nn":721,"risk":27,"cat":"green"},{"name":"1907","lat":52.89616,"lon":-1.85389,"postcode":"ST14 8BD","la":"East Staffordshire","era":"other","nn":0,"risk":25,"cat":"green"},{"name":"Annual Members at Uttoxeter Racecourse","lat":52.89616,"lon":-1.85389,"postcode":"ST14 8BD","la":"East Staffordshire","era":"other","nn":0,"risk":25,"cat":"green"},{"name":"Black Swan","lat":52.89747,"lon":-1.86409,"postcode":"ST14 8JA","la":"East Staffordshire","era":"trad","nn":48,"risk":26,"cat":"green"},{"name":"Bradley House Club","lat":52.90045,"lon":-1.86494,"postcode":"ST14 7QA","la":"East Staffordshire","era":"mod","nn":97,"risk":26,"cat":"green"},{"name":"Centre Course Bar at Uttoxeter Racecourse","lat":52.89616,"lon":-1.85389,"postcode":"ST14 8BD","la":"East Staffordshire","era":"mod","nn":0,"risk":25,"cat":"green"},{"name":"Cork and Bottle","lat":52.89616,"lon":-1.85389,"postcode":"ST14 8BD","la":"East Staffordshire","era":"other","nn":0,"risk":25,"cat":"green"},{"name":"Dapple Grey","lat":52.90029,"lon":-1.85819,"postcode":"ST14 8AZ","la":"East Staffordshire","era":"other","nn":369,"risk":28,"cat":"green"},{"name":"Express Draught Bar at Uttoxeter Racecourse","lat":52.89616,"lon":-1.85389,"postcode":"ST14 8BD","la":"East Staffordshire","era":"mod","nn":0,"risk":25,"cat":"green"},{"name":"FARMERS ARMS","lat":52.91464,"lon":-1.95337,"postcode":"ST10 4PU","la":"East Staffordshire","era":"trad","nn":970,"risk":52,"cat":"amber"},{"name":"HORSE AND DOVE","lat":52.8979,"lon":-1.86407,"postcode":"ST14 8HY","la":"East Staffordshire","era":"trad","nn":48,"risk":26,"cat":"green"},{"name":"Marston's Bar at Uttoxeter Racecourse","lat":52.89616,"lon":-1.85389,"postcode":"ST14 8BD","la":"East Staffordshire","era":"mod","nn":0,"risk":25,"cat":"green"},{"name":"Nags Head","lat":52.89616,"lon":-1.85389,"postcode":"ST14 8BD","la":"East Staffordshire","era":"trad","nn":0,"risk":25,"cat":"green"},{"name":"Night Inn","lat":52.89837,"lon":-1.86316,"postcode":"ST14 8HP","la":"East Staffordshire","era":"trad","nn":39,"risk":26,"cat":"green"},{"name":"Oldfields Sports & Social Club","lat":52.9006,"lon":-1.8727,"postcode":"ST14 7JX","la":"East Staffordshire","era":"mod","nn":455,"risk":29,"cat":"green"},{"name":"PIMMS AT UTTOXETER RACECOURSE","lat":52.89616,"lon":-1.85389,"postcode":"ST14 8BD","la":"East Staffordshire","era":"other","nn":0,"risk":25,"cat":"green"},{"name":"Premier Bar at Uttoxeter Racecourse","lat":52.89616,"lon":-1.85389,"postcode":"ST14 8BD","la":"East Staffordshire","era":"mod","nn":0,"risk":25,"cat":"green"},{"name":"Red Lion Inn","lat":52.95262,"lon":-1.83872,"postcode":"ST14 5LF","la":"East Staffordshire","era":"trad","nn":1681,"risk":60,"cat":"amber"},{"name":"The Butcher's Arms","lat":52.89741,"lon":-1.90651,"postcode":"ST14 5BG","la":"East Staffordshire","era":"trad","nn":2296,"risk":64,"cat":"red"},{"name":"The Old Star","lat":52.89762,"lon":-1.86331,"postcode":"ST14 8HJ","la":"East Staffordshire","era":"other","nn":36,"risk":26,"cat":"green"},{"name":"The Old Swan","lat":52.89795,"lon":-1.86328,"postcode":"ST14 8HN","la":"East Staffordshire","era":"trad","nn":36,"risk":26,"cat":"green"},{"name":"THE SHREW (STAFFORDSHIRE) LTD","lat":52.86602,"lon":-1.91214,"postcode":"ST14 8QH","la":"East Staffordshire","era":"other","nn":3512,"risk":72,"cat":"red"},{"name":"THE SMITHFIELD HOTEL","lat":52.89987,"lon":-1.86603,"postcode":"ST14 7HN","la":"East Staffordshire","era":"other","nn":97,"risk":26,"cat":"green"},{"name":"The Star","lat":52.9201,"lon":-1.96463,"postcode":"ST10 4PT","la":"East Staffordshire","era":"other","nn":970,"risk":52,"cat":"amber"},{"name":"The Steeplechase","lat":52.89831,"lon":-1.8626,"postcode":"ST14 8AP","la":"East Staffordshire","era":"other","nn":39,"risk":26,"cat":"green"},{"name":"The Tavern","lat":52.9637,"lon":-1.85578,"postcode":"ST14 5HR","la":"East Staffordshire","era":"other","nn":1681,"risk":60,"cat":"amber"},{"name":"Three Tuns Inn","lat":52.90648,"lon":-1.87213,"postcode":"ST14 7DA","la":"East Staffordshire","era":"trad","nn":655,"risk":35,"cat":"amber"},{"name":"Trainers & Owners Bar","lat":52.89616,"lon":-1.85389,"postcode":"ST14 8BD","la":"East Staffordshire","era":"other","nn":0,"risk":25,"cat":"green"},{"name":"Uttoxeter Cricket Club","lat":52.87238,"lon":-1.80539,"postcode":"ST14 8LW","la":"East Staffordshire","era":"other","nn":2656,"risk":67,"cat":"red"},{"name":"Winery and Vineyard","lat":52.89616,"lon":-1.85389,"postcode":"ST14 8BD","la":"East Staffordshire","era":"mod","nn":0,"risk":25,"cat":"green"},{"name":"Ye Old Talbot","lat":52.89809,"lon":-1.86477,"postcode":"ST14 8HF","la":"East Staffordshire","era":"trad","nn":51,"risk":26,"cat":"green"},{"name":"AUDLEY & DISTRICT Football Club","lat":53.05657,"lon":-2.29752,"postcode":"ST7 8QH","la":"Newcastle-under-Lyme","era":"other","nn":261,"risk":30,"cat":"green"},{"name":"BAR SOCIAL","lat":53.00962,"lon":-2.22587,"postcode":"ST5 1PT","la":"Newcastle-under-Lyme","era":"mod","nn":0,"risk":26,"cat":"green"},{"name":"BIGNALL END CRICKET CLUB AND MINERS INSTITUTE","lat":53.05375,"lon":-2.28528,"postcode":"ST7 8LA","la":"Newcastle-under-Lyme","era":"other","nn":225,"risk":30,"cat":"green"},{"name":"BLACK FRIAR","lat":53.00962,"lon":-2.22587,"postcode":"ST5 1PT","la":"Newcastle-under-Lyme","era":"other","nn":0,"risk":26,"cat":"green"},{"name":"BLACK HORSE INN","lat":53.03763,"lon":-2.25007,"postcode":"ST5 7JH","la":"Newcastle-under-Lyme","era":"trad","nn":453,"risk":46,"cat":"amber"},{"name":"BOAT & HORSES","lat":53.00709,"lon":-2.22358,"postcode":"ST5 1LU","la":"Newcastle-under-Lyme","era":"trad","nn":176,"risk":27,"cat":"green"},{"name":"BRADWELL WORKINGMENS CLUB","lat":53.04149,"lon":-2.23376,"postcode":"ST5 8JA","la":"Newcastle-under-Lyme","era":"trad","nn":232,"risk":45,"cat":"amber"},{"name":"BRIDGE STREET ALE HOUSE","lat":53.01249,"lon":-2.22997,"postcode":"ST5 2RY","la":"Newcastle-under-Lyme","era":"other","nn":0,"risk":26,"cat":"green"},{"name":"CANAL TAVERN","lat":53.08891,"lon":-2.24794,"postcode":"ST7 1EF","la":"Newcastle-under-Lyme","era":"other","nn":72,"risk":26,"cat":"green"},{"name":"CAPPELLO LOUNGE","lat":53.01146,"lon":-2.22689,"postcode":"ST5 1PE","la":"Newcastle-under-Lyme","era":"mod","nn":35,"risk":26,"cat":"green"},{"name":"CASK BAR","lat":53.01189,"lon":-2.21734,"postcode":"ST5 1DL","la":"Newcastle-under-Lyme","era":"other","nn":76,"risk":26,"cat":"green"},{"name":"CASTLE MONA","lat":53.00699,"lon":-2.22095,"postcode":"ST5 1NT","la":"Newcastle-under-Lyme","era":"other","nn":134,"risk":27,"cat":"green"},{"name":"CASTLETOWN DISTILLERY","lat":53.00957,"lon":-2.22582,"postcode":"ST5 1PT","la":"Newcastle-under-Lyme","era":"other","nn":6,"risk":26,"cat":"green"},{"name":"CLOUGH HALL HOTEL","lat":53.08289,"lon":-2.24678,"postcode":"ST7 1AN","la":"Newcastle-under-Lyme","era":"other","nn":158,"risk":27,"cat":"green"},{"name":"CRICKETERS ARMS","lat":53.02614,"lon":-2.21723,"postcode":"ST5 9PL","la":"Newcastle-under-Lyme","era":"trad","nn":329,"risk":28,"cat":"green"},{"name":"CROWN AND THISTLE","lat":53.08452,"lon":-2.23443,"postcode":"ST7 4EY","la":"Newcastle-under-Lyme","era":"trad","nn":217,"risk":27,"cat":"green"},{"name":"DARWIN AND BEAR","lat":53.00979,"lon":-2.22524,"postcode":"ST5 1PS","la":"Newcastle-under-Lyme","era":"other","nn":0,"risk":26,"cat":"green"},{"name":"DICK TURPIN","lat":53.00385,"lon":-2.24874,"postcode":"ST5 2QS","la":"Newcastle-under-Lyme","era":"other","nn":655,"risk":48,"cat":"amber"},{"name":"GOLDEN LION","lat":53.00979,"lon":-2.22524,"postcode":"ST5 1PS","la":"Newcastle-under-Lyme","era":"trad","nn":0,"risk":26,"cat":"green"},{"name":"HOGARTHS","lat":53.00979,"lon":-2.22524,"postcode":"ST5 1PS","la":"Newcastle-under-Lyme","era":"other","nn":0,"risk":26,"cat":"green"},{"name":"HOP INN","lat":53.0136,"lon":-2.21596,"postcode":"ST5 1JR","la":"Newcastle-under-Lyme","era":"trad","nn":115,"risk":26,"cat":"green"},{"name":"HOPWATER CELLAR","lat":53.01249,"lon":-2.22997,"postcode":"ST5 2RY","la":"Newcastle-under-Lyme","era":"other","nn":0,"risk":26,"cat":"green"},{"name":"IRON MONKEY","lat":53.01212,"lon":-2.22637,"postcode":"ST5 1RH","la":"Newcastle-under-Lyme","era":"trad","nn":48,"risk":26,"cat":"green"},{"name":"KIDSGROVE CRICKET CLUB","lat":53.08149,"lon":-2.24638,"postcode":"ST7 1AN","la":"Newcastle-under-Lyme","era":"other","nn":158,"risk":27,"cat":"green"},{"name":"KIDSGROVE LABOUR CLUB","lat":53.08702,"lon":-2.23876,"postcode":"ST7 4AB","la":"Newcastle-under-Lyme","era":"other","nn":0,"risk":26,"cat":"green"},{"name":"KNUTTON EX-SERVICEMANS CLUB","lat":53.01266,"lon":-2.2167,"postcode":"ST5 1JY","la":"Newcastle-under-Lyme","era":"other","nn":30,"risk":26,"cat":"green"},{"name":"LONDON ROAD BOWLING CLUB","lat":53.00581,"lon":-2.22135,"postcode":"ST5 1LZ","la":"Newcastle-under-Lyme","era":"other","nn":134,"risk":27,"cat":"green"},{"name":"MASONS ARMS","lat":53.02022,"lon":-2.24961,"postcode":"ST5 6DN","la":"Newcastle-under-Lyme","era":"trad","nn":1133,"risk":56,"cat":"amber"},{"name":"MELLARDS BAR","lat":53.0113,"lon":-2.22644,"postcode":"ST5 1AA","la":"Newcastle-under-Lyme","era":"other","nn":35,"risk":26,"cat":"green"},{"name":"MITCHELLS","lat":53.00968,"lon":-2.2252,"postcode":"ST5 1PS","la":"Newcastle-under-Lyme","era":"other","nn":13,"risk":26,"cat":"green"},{"name":"MOW COP INN","lat":53.11398,"lon":-2.20916,"postcode":"ST7 3PJ","la":"Newcastle-under-Lyme","era":"trad","nn":673,"risk":50,"cat":"amber"},{"name":"MUSEUM","lat":53.0124,"lon":-2.2166,"postcode":"ST5 1JU","la":"Newcastle-under-Lyme","era":"other","nn":30,"risk":26,"cat":"green"},{"name":"NEWCASTLE & HARTSHILL CRICKET CLUB","lat":52.99445,"lon":-2.2174,"postcode":"ST5 3BN","la":"Newcastle-under-Lyme","era":"trad","nn":179,"risk":27,"cat":"green"},{"name":"NEWCASTLE R U F C (BAR)","lat":52.99601,"lon":-2.21672,"postcode":"ST5 3BX","la":"Newcastle-under-Lyme","era":"other","nn":0,"risk":26,"cat":"green"},{"name":"NEWCASTLE TOWN FOOTBALL CLUB","lat":52.99601,"lon":-2.21672,"postcode":"ST5 3BX","la":"Newcastle-under-Lyme","era":"other","nn":0,"risk":26,"cat":"green"},{"name":"NEWCASTLE UNDER LYME GOLF CLUB","lat":52.99989,"lon":-2.24087,"postcode":"ST5 2QB","la":"Newcastle-under-Lyme","era":"other","nn":687,"risk":35,"cat":"amber"},{"name":"NEWCASTLE WORKING MENS CLUB","lat":53.02195,"lon":-2.23291,"postcode":"ST5 9HG","la":"Newcastle-under-Lyme","era":"trad","nn":653,"risk":48,"cat":"amber"},{"name":"NORTH STAFFORD SPORTS CLUB","lat":52.97898,"lon":-2.25612,"postcode":"ST5 4EB","la":"Newcastle-under-Lyme","era":"other","nn":1943,"risk":62,"cat":"red"},{"name":"OLD BULLS HEAD","lat":53.0115,"lon":-2.22789,"postcode":"ST5 1RE","la":"Newcastle-under-Lyme","era":"trad","nn":57,"risk":26,"cat":"green"},{"name":"POLITE VICAR","lat":53.01608,"lon":-2.21541,"postcode":"ST5 0LU","la":"Newcastle-under-Lyme","era":"other","nn":278,"risk":28,"cat":"green"},{"name":"PORTHILL PARK CRICKET CLUB","lat":53.02951,"lon":-2.21774,"postcode":"ST5 0HU","la":"Newcastle-under-Lyme","era":"other","nn":0,"risk":26,"cat":"green"},{"name":"POTTERS WHEEL","lat":53.03773,"lon":-2.22427,"postcode":"ST5 8PS","la":"Newcastle-under-Lyme","era":"other","nn":538,"risk":29,"cat":"green"},{"name":"QUEENS HEAD INN","lat":53.08702,"lon":-2.23876,"postcode":"ST7 4AB","la":"Newcastle-under-Lyme","era":"trad","nn":0,"risk":26,"cat":"green"},{"name":"RAILWAY INN","lat":53.08711,"lon":-2.24209,"postcode":"ST7 1EA","la":"Newcastle-under-Lyme","era":"trad","nn":220,"risk":27,"cat":"green"},{"name":"RED LION","lat":53.0411,"lon":-2.25363,"postcode":"ST5 7ER","la":"Newcastle-under-Lyme","era":"trad","nn":341,"risk":46,"cat":"amber"},{"name":"REFLEX","lat":53.01198,"lon":-2.2257,"postcode":"ST5 1PB","la":"Newcastle-under-Lyme","era":"other","nn":48,"risk":26,"cat":"green"},{"name":"RIGGER ROCK VENUE LIMITED","lat":53.01139,"lon":-2.21881,"postcode":"ST5 1BT","la":"Newcastle-under-Lyme","era":"other","nn":113,"risk":26,"cat":"green"},{"name":"ROBIN HOOD","lat":53.09705,"lon":-2.22358,"postcode":"ST7 4RN","la":"Newcastle-under-Lyme","era":"other","nn":1068,"risk":56,"cat":"amber"},{"name":"ROYAL OAK","lat":53.10107,"lon":-2.2079,"postcode":"ST7 4JT","la":"Newcastle-under-Lyme","era":"trad","nn":1033,"risk":55,"cat":"amber"},{"name":"SILVERDALE ATHLETIC FC","lat":53.01783,"lon":-2.277,"postcode":"ST5 6TA","la":"Newcastle-under-Lyme","era":"other","nn":439,"risk":29,"cat":"green"},{"name":"SILVERDALE WORKINGMENS CLUB","lat":53.01488,"lon":-2.26789,"postcode":"ST5 6LY","la":"Newcastle-under-Lyme","era":"trad","nn":133,"risk":27,"cat":"green"},{"name":"SLUG AND LETTUCE","lat":53.00979,"lon":-2.22524,"postcode":"ST5 1PS","la":"Newcastle-under-Lyme","era":"other","nn":0,"risk":26,"cat":"green"},{"name":"SNEYD ARMS","lat":53.00434,"lon":-2.28777,"postcode":"ST5 5AD","la":"Newcastle-under-Lyme","era":"trad","nn":1172,"risk":56,"cat":"amber"},{"name":"SNEYD ARMS","lat":53.00787,"lon":-2.23504,"postcode":"ST5 2TG","la":"Newcastle-under-Lyme","era":"trad","nn":219,"risk":27,"cat":"green"},{"name":"STUDENTS UNION BARS","lat":53.00238,"lon":-2.27056,"postcode":"ST5 5BJ","la":"Newcastle-under-Lyme","era":"other","nn":1172,"risk":56,"cat":"amber"},{"name":"SWAN INN","lat":53.05641,"lon":-2.29363,"postcode":"ST7 8QD","la":"Newcastle-under-Lyme","era":"trad","nn":261,"risk":30,"cat":"green"},{"name":"SWAN INN","lat":53.07657,"lon":-2.26246,"postcode":"ST7 1PS","la":"Newcastle-under-Lyme","era":"trad","nn":0,"risk":43,"cat":"amber"},{"name":"THE 4 CANDLES","lat":53.03229,"lon":-2.21864,"postcode":"ST5 0EP","la":"Newcastle-under-Lyme","era":"other","nn":4,"risk":26,"cat":"green"},{"name":"THE ALBERT INN","lat":53.0147,"lon":-2.22906,"postcode":"ST5 2DA","la":"Newcastle-under-Lyme","era":"trad","nn":216,"risk":27,"cat":"green"},{"name":"THE ARCHER","lat":53.02876,"lon":-2.21495,"postcode":"ST5 0EH","la":"Newcastle-under-Lyme","era":"other","nn":204,"risk":27,"cat":"green"},{"name":"THE ASH INN","lat":53.10921,"lon":-2.21537,"postcode":"ST7 4NE","la":"Newcastle-under-Lyme","era":"trad","nn":673,"risk":48,"cat":"amber"},{"name":"THE BLOCKHOUSE @ THE SHEET ANCHOR","lat":52.96036,"lon":-2.3039,"postcode":"ST5 5BU","la":"Newcastle-under-Lyme","era":"other","nn":1360,"risk":58,"cat":"amber"},{"name":"THE BLUE BELL INN","lat":53.08826,"lon":-2.24792,"postcode":"ST7 1EG","la":"Newcastle-under-Lyme","era":"trad","nn":72,"risk":26,"cat":"green"},{"name":"THE BRITANNIA","lat":53.03994,"lon":-2.23143,"postcode":"ST5 8JR","la":"Newcastle-under-Lyme","era":"trad","nn":232,"risk":45,"cat":"amber"},{"name":"THE BUTCHERS ARMS","lat":53.05515,"lon":-2.30202,"postcode":"ST7 8DE","la":"Newcastle-under-Lyme","era":"trad","nn":340,"risk":45,"cat":"amber"},{"name":"THE COTTON MILL","lat":53.01617,"lon":-2.23116,"postcode":"ST5 2AF","la":"Newcastle-under-Lyme","era":"trad","nn":216,"risk":27,"cat":"green"},{"name":"THE CROSSWAYS","lat":53.01165,"lon":-2.2236,"postcode":"ST5 1RW","la":"Newcastle-under-Lyme","era":"trad","nn":145,"risk":27,"cat":"green"},{"name":"THE CROWN","lat":53.05766,"lon":-2.2571,"postcode":"ST5 7AH","la":"Newcastle-under-Lyme","era":"trad","nn":602,"risk":50,"cat":"amber"},{"name":"THE CROWN INN","lat":53.01629,"lon":-2.26631,"postcode":"ST5 6JG","la":"Newcastle-under-Lyme","era":"trad","nn":188,"risk":27,"cat":"green"},{"name":"THE FORTY FIVE CLUB","lat":53.00825,"lon":-2.21562,"postcode":"ST5 1DS","la":"Newcastle-under-Lyme","era":"other","nn":383,"risk":28,"cat":"green"},{"name":"THE GATE HOUSE","lat":52.99167,"lon":-2.22494,"postcode":"ST5 3HR","la":"Newcastle-under-Lyme","era":"other","nn":592,"risk":30,"cat":"green"},{"name":"THE GRAPES","lat":53.08746,"lon":-2.2071,"postcode":"ST7 4QT","la":"Newcastle-under-Lyme","era":"other","nn":1382,"risk":58,"cat":"amber"},{"name":"THE GRESLEY ARMS","lat":53.03518,"lon":-2.29435,"postcode":"ST7 8BQ","la":"Newcastle-under-Lyme","era":"trad","nn":795,"risk":49,"cat":"amber"},{"name":"THE JOLLY POTTERS","lat":53.05271,"lon":-2.25346,"postcode":"ST5 7AB","la":"Newcastle-under-Lyme","era":"other","nn":602,"risk":47,"cat":"amber"},{"name":"THE JUG","lat":53.01249,"lon":-2.22997,"postcode":"ST5 2RY","la":"Newcastle-under-Lyme","era":"other","nn":0,"risk":26,"cat":"green"},{"name":"THE MADONNA CLUB","lat":52.94467,"lon":-2.27575,"postcode":"ST5 5JT","la":"Newcastle-under-Lyme","era":"other","nn":2537,"risk":66,"cat":"red"},{"name":"THE MAINWARING ARMS","lat":52.96656,"lon":-2.2864,"postcode":"ST5 5HR","la":"Newcastle-under-Lyme","era":"trad","nn":1360,"risk":58,"cat":"amber"},{"name":"THE OLD QUEENS HEAD","lat":53.07657,"lon":-2.26246,"postcode":"ST7 1PS","la":"Newcastle-under-Lyme","era":"trad","nn":0,"risk":43,"cat":"amber"},{"name":"THE PLOUGH INN","lat":53.08526,"lon":-2.23743,"postcode":"ST7 4EW","la":"Newcastle-under-Lyme","era":"trad","nn":165,"risk":27,"cat":"green"},{"name":"THE PLOUGH INN","lat":53.05572,"lon":-2.28604,"postcode":"ST7 8PS","la":"Newcastle-under-Lyme","era":"trad","nn":225,"risk":30,"cat":"green"},{"name":"THE RAILWAY INN","lat":53.03889,"lon":-2.3045,"postcode":"ST7 8AG","la":"Newcastle-under-Lyme","era":"trad","nn":686,"risk":48,"cat":"amber"},{"name":"THE RIFLEMAN","lat":53.07579,"lon":-2.23875,"postcode":"ST6 4QL","la":"Newcastle-under-Lyme","era":"other","nn":771,"risk":36,"cat":"amber"},{"name":"THE ROEBUCK","lat":53.01692,"lon":-2.27061,"postcode":"ST5 6JH","la":"Newcastle-under-Lyme","era":"other","nn":33,"risk":26,"cat":"green"},{"name":"THE ROEBUCK","lat":53.04394,"lon":-2.25172,"postcode":"ST5 7HL","la":"Newcastle-under-Lyme","era":"other","nn":341,"risk":33,"cat":"amber"},{"name":"THE ROYAL OAK","lat":53.04315,"lon":-2.29709,"postcode":"ST7 8LL","la":"Newcastle-under-Lyme","era":"trad","nn":686,"risk":48,"cat":"amber"},{"name":"THE SEABRIDGE","lat":52.99045,"lon":-2.23421,"postcode":"ST5 3HA","la":"Newcastle-under-Lyme","era":"other","nn":635,"risk":48,"cat":"amber"},{"name":"THE SILVER BIRCH","lat":53.01716,"lon":-2.27031,"postcode":"ST5 6JJ","la":"Newcastle-under-Lyme","era":"other","nn":33,"risk":26,"cat":"green"},{"name":"THE SWAN WITH TWO NECKS","lat":52.94734,"lon":-2.34691,"postcode":"ST5 5EH","la":"Newcastle-under-Lyme","era":"trad","nn":2652,"risk":67,"cat":"red"},{"name":"THE THISTLEBERRY HOTEL","lat":53.00655,"lon":-2.24005,"postcode":"ST5 2LT","la":"Newcastle-under-Lyme","era":"other","nn":366,"risk":28,"cat":"green"},{"name":"THE VICTORIA TAP ROOM","lat":53.0864,"lon":-2.23901,"postcode":"ST7 4EL","la":"Newcastle-under-Lyme","era":"other","nn":71,"risk":26,"cat":"green"},{"name":"THE VINE","lat":53.01496,"lon":-2.26987,"postcode":"ST5 6LX","la":"Newcastle-under-Lyme","era":"other","nn":133,"risk":27,"cat":"green"},{"name":"TOBY CARVERY","lat":53.08377,"lon":-2.2613,"postcode":"ST7 1LW","la":"Newcastle-under-Lyme","era":"other","nn":804,"risk":34,"cat":"amber"},{"name":"VICTORIA","lat":53.02269,"lon":-2.21801,"postcode":"ST5 0SJ","la":"Newcastle-under-Lyme","era":"trad","nn":387,"risk":28,"cat":"green"},{"name":"VICTORIA INN","lat":53.014,"lon":-2.21917,"postcode":"ST5 1HX","la":"Newcastle-under-Lyme","era":"trad","nn":219,"risk":27,"cat":"green"},{"name":"VILLAGE TAVERN","lat":53.03232,"lon":-2.21868,"postcode":"ST5 0EP","la":"Newcastle-under-Lyme","era":"other","nn":4,"risk":26,"cat":"green"},{"name":"WAGGON AND HORSES","lat":53.00823,"lon":-2.23182,"postcode":"ST5 2TF","la":"Newcastle-under-Lyme","era":"trad","nn":219,"risk":27,"cat":"green"},{"name":"WELLERS (CLOSED 03.05.24)","lat":53.01108,"lon":-2.22927,"postcode":"ST5 1PR","la":"Newcastle-under-Lyme","era":"other","nn":104,"risk":26,"cat":"green"},{"name":"WESTBURY TAVERN","lat":52.98409,"lon":-2.22506,"postcode":"ST5 4JW","la":"Newcastle-under-Lyme","era":"other","nn":843,"risk":49,"cat":"amber"},{"name":"WHIPPET INN","lat":53.031,"lon":-2.21604,"postcode":"ST5 0EN","la":"Newcastle-under-Lyme","era":"trad","nn":181,"risk":27,"cat":"green"},{"name":"WOLSTANTON BOWLING CLUB LTD","lat":53.02951,"lon":-2.21774,"postcode":"ST5 0HU","la":"Newcastle-under-Lyme","era":"other","nn":0,"risk":26,"cat":"green"},{"name":"WOLSTANTON CONSERVATIVE CLUB","lat":53.03272,"lon":-2.21829,"postcode":"ST5 0BE","la":"Newcastle-under-Lyme","era":"other","nn":51,"risk":26,"cat":"green"},{"name":"WOLSTANTON HIGH STREET CLUB","lat":53.03185,"lon":-2.21835,"postcode":"ST5 0HE","la":"Newcastle-under-Lyme","era":"other","nn":53,"risk":26,"cat":"green"},{"name":"WOOD LANE CRICKET AND SPORTS CLUB","lat":53.05128,"lon":-2.27745,"postcode":"ST7 8PA","la":"Newcastle-under-Lyme","era":"other","nn":591,"risk":47,"cat":"amber"},{"name":"WULSTAN","lat":53.03171,"lon":-2.22412,"postcode":"ST5 8BU","la":"Newcastle-under-Lyme","era":"other","nn":370,"risk":28,"cat":"green"},{"name":"YATES","lat":53.01182,"lon":-2.22722,"postcode":"ST5 1RF","la":"Newcastle-under-Lyme","era":"other","nn":46,"risk":26,"cat":"green"},{"name":"Aperitif","lat":52.67674,"lon":-2.17353,"postcode":"ST19 9BS","la":"South Staffordshire","era":"other","nn":27,"risk":27,"cat":"green"},{"name":"Brewood & District Royal British Legion","lat":52.67872,"lon":-2.17425,"postcode":"ST19 9EB","la":"South Staffordshire","era":"trad","nn":199,"risk":28,"cat":"green"},{"name":"Brewood Cricket Club","lat":52.67853,"lon":-2.16657,"postcode":"ST19 9HX","la":"South Staffordshire","era":"other","nn":508,"risk":30,"cat":"green"},{"name":"Catch Corner","lat":52.76557,"lon":-2.10831,"postcode":"ST18 9AP","la":"South Staffordshire","era":"other","nn":1636,"risk":61,"cat":"red"},{"name":"Chase Golf Club Ltd","lat":52.72567,"lon":-2.05622,"postcode":"ST19 5RN","la":"South Staffordshire","era":"other","nn":1379,"risk":59,"cat":"amber"},{"name":"Coach And Horses","lat":52.71049,"lon":-2.22224,"postcode":"ST19 9NP","la":"South Staffordshire","era":"trad","nn":599,"risk":48,"cat":"amber"},{"name":"Cross Keys","lat":52.7197,"lon":-2.11124,"postcode":"ST19 5HJ","la":"South Staffordshire","era":"trad","nn":532,"risk":35,"cat":"amber"},{"name":"Hockerhill","lat":52.67545,"lon":-2.18309,"postcode":"ST19 9BQ","la":"South Staffordshire","era":"other","nn":383,"risk":29,"cat":"green"},{"name":"Lapley And Wheaton Aston Recreation Centre","lat":52.71566,"lon":-2.21041,"postcode":"ST19 9QL","la":"South Staffordshire","era":"other","nn":386,"risk":34,"cat":"amber"},{"name":"Littleton Arms","lat":52.72488,"lon":-2.11627,"postcode":"ST19 5AL","la":"South Staffordshire","era":"trad","nn":262,"risk":33,"cat":"amber"},{"name":"Spread Eagle","lat":52.69352,"lon":-2.13533,"postcode":"ST19 5PN","la":"South Staffordshire","era":"trad","nn":2686,"risk":68,"cat":"red"},{"name":"Staffordshire Grill","lat":52.67697,"lon":-2.17365,"postcode":"ST19 9BS","la":"South Staffordshire","era":"other","nn":27,"risk":27,"cat":"green"},{"name":"Sunnybank Club","lat":52.71879,"lon":-2.2036,"postcode":"ST19 9QH","la":"South Staffordshire","era":"other","nn":576,"risk":48,"cat":"amber"},{"name":"Swan Hotel","lat":52.67678,"lon":-2.17399,"postcode":"ST19 9BS","la":"South Staffordshire","era":"trad","nn":31,"risk":27,"cat":"green"},{"name":"The Boat Inn","lat":52.72448,"lon":-2.1107,"postcode":"ST19 5DT","la":"South Staffordshire","era":"trad","nn":118,"risk":32,"cat":"amber"},{"name":"The Bradford Arms","lat":52.69442,"lon":-2.23327,"postcode":"ST19 9QT","la":"South Staffordshire","era":"trad","nn":1403,"risk":59,"cat":"amber"},{"name":"The Bridge Inn","lat":52.6775,"lon":-2.17853,"postcode":"ST19 9BD","la":"South Staffordshire","era":"trad","nn":317,"risk":29,"cat":"green"},{"name":"The Hartley Arms","lat":52.71389,"lon":-2.21535,"postcode":"ST19 9NF","la":"South Staffordshire","era":"trad","nn":386,"risk":34,"cat":"amber"},{"name":"The Royal Oak","lat":52.6836,"lon":-2.24397,"postcode":"ST19 9AE","la":"South Staffordshire","era":"trad","nn":1403,"risk":59,"cat":"amber"},{"name":"The Star Inn","lat":52.72475,"lon":-2.11239,"postcode":"ST19 5DJ","la":"South Staffordshire","era":"trad","nn":118,"risk":32,"cat":"amber"},{"name":"The Swan Inn","lat":52.72572,"lon":-2.15969,"postcode":"ST19 5QH","la":"South Staffordshire","era":"trad","nn":2925,"risk":70,"cat":"red"},{"name":"Amasal Sports & Social Club","lat":52.82436,"lon":-2.11341,"postcode":"ST16 3DR","la":"Stafford","era":"mod","nn":822,"risk":36,"cat":"amber"},{"name":"Barlaston Golf Club","lat":52.91827,"lon":-2.16565,"postcode":"ST15 8UX","la":"Stafford","era":"other","nn":408,"risk":48,"cat":"amber"},{"name":"Bird In Hand","lat":52.80563,"lon":-2.11911,"postcode":"ST16 2AQ","la":"Stafford","era":"other","nn":144,"risk":26,"cat":"green"},{"name":"Blacklake Inn","lat":52.94859,"lon":-2.10077,"postcode":"ST3 7NT","la":"Stafford","era":"trad","nn":439,"risk":46,"cat":"amber"},{"name":"Blame Frida","lat":52.90241,"lon":-2.14701,"postcode":"ST15 8AD","la":"Stafford","era":"other","nn":45,"risk":26,"cat":"green"},{"name":"Bod Stone","lat":52.90234,"lon":-2.14767,"postcode":"ST15 8AU","la":"Stafford","era":"other","nn":45,"risk":26,"cat":"green"},{"name":"Bridge","lat":52.90578,"lon":-2.1478,"postcode":"ST15 8EB","la":"Stafford","era":"other","nn":129,"risk":26,"cat":"green"},{"name":"Brocton Hall Golf Club","lat":52.77533,"lon":-2.05398,"postcode":"ST17 0TH","la":"Stafford","era":"other","nn":790,"risk":51,"cat":"amber"},{"name":"Burton Manor Sports Association Ltd","lat":52.78229,"lon":-2.12838,"postcode":"ST18 9AT","la":"Stafford","era":"other","nn":595,"risk":32,"cat":"amber"},{"name":"Butchers Block","lat":52.90694,"lon":-2.15228,"postcode":"ST15 8ES","la":"Stafford","era":"other","nn":289,"risk":27,"cat":"green"},{"name":"Buzz Bingo","lat":52.79493,"lon":-2.10233,"postcode":"ST17 4SU","la":"Stafford","era":"other","nn":254,"risk":32,"cat":"amber"},{"name":"Casa","lat":52.80415,"lon":-2.11534,"postcode":"ST16 2HJ","la":"Stafford","era":"other","nn":26,"risk":26,"cat":"green"},{"name":"Coach and Horses","lat":52.80472,"lon":-2.11678,"postcode":"ST16 2QT","la":"Stafford","era":"trad","nn":52,"risk":26,"cat":"green"},{"name":"Crown Wharf Brewery Tap","lat":52.90097,"lon":-2.14608,"postcode":"ST15 8QN","la":"Stafford","era":"other","nn":28,"risk":26,"cat":"green"},{"name":"Eccleshall Football Club Limited","lat":52.86594,"lon":-2.27454,"postcode":"ST21 6NE","la":"Stafford","era":"other","nn":1114,"risk":56,"cat":"amber"},{"name":"George & Dragon","lat":52.91506,"lon":-2.16857,"postcode":"ST15 0PX","la":"Stafford","era":"trad","nn":408,"risk":48,"cat":"amber"},{"name":"Gin Laboratory & Dispensary","lat":52.78388,"lon":-1.96598,"postcode":"ST17 0XN","la":"Stafford","era":"other","nn":517,"risk":49,"cat":"amber"},{"name":"Granvilles","lat":52.90334,"lon":-2.14876,"postcode":"ST15 8JP","la":"Stafford","era":"other","nn":21,"risk":26,"cat":"green"},{"name":"Great Haywood Men's Institute and Sports & Social Club","lat":52.80071,"lon":-2.00449,"postcode":"ST18 0SU","la":"Stafford","era":"mod","nn":161,"risk":46,"cat":"amber"},{"name":"Haberdasher's Arms","lat":52.83845,"lon":-2.37784,"postcode":"ST20 0QH","la":"Stafford","era":"trad","nn":3112,"risk":70,"cat":"red"},{"name":"Highfields Sports & Social Club","lat":52.78764,"lon":-2.1283,"postcode":"ST17 9RL","la":"Stafford","era":"mod","nn":577,"risk":34,"cat":"amber"},{"name":"Hogarths","lat":52.80832,"lon":-2.1185,"postcode":"ST16 2BQ","la":"Stafford","era":"other","nn":145,"risk":26,"cat":"green"},{"name":"Ingestre Park Golf Club","lat":52.81753,"lon":-2.01709,"postcode":"ST18 0RE","la":"Stafford","era":"other","nn":1893,"risk":61,"cat":"red"},{"name":"Junction Inn Public House","lat":52.80304,"lon":-2.30695,"postcode":"ST20 0PN","la":"Stafford","era":"trad","nn":2541,"risk":66,"cat":"red"},{"name":"Kennys Sports Bar","lat":52.80744,"lon":-2.11467,"postcode":"ST16 3AD","la":"Stafford","era":"other","nn":114,"risk":26,"cat":"green"},{"name":"Kings Arms","lat":52.8591,"lon":-2.25125,"postcode":"ST21 6BL","la":"Stafford","era":"trad","nn":128,"risk":31,"cat":"amber"},{"name":"Kings Arms Public House","lat":52.81741,"lon":-2.11757,"postcode":"ST16 3HD","la":"Stafford","era":"trad","nn":211,"risk":27,"cat":"green"},{"name":"Market Vaults","lat":52.80689,"lon":-2.11672,"postcode":"ST16 2LA","la":"Stafford","era":"other","nn":47,"risk":26,"cat":"green"},{"name":"Meir Heath Cricket Club","lat":52.952,"lon":-2.09746,"postcode":"ST3 7NA","la":"Stafford","era":"other","nn":439,"risk":46,"cat":"amber"},{"name":"Milford Hall Cricket Club","lat":52.78882,"lon":-2.04705,"postcode":"ST17 0UW","la":"Stafford","era":"other","nn":300,"risk":45,"cat":"amber"},{"name":"Mill at Worston","lat":52.84691,"lon":-2.1814,"postcode":"ST18 9QA","la":"Stafford","era":"trad","nn":3449,"risk":72,"cat":"red"},{"name":"Moddershall and Oulton Cricket Club","lat":52.92781,"lon":-2.13517,"postcode":"ST15 8US","la":"Stafford","era":"other","nn":1019,"risk":55,"cat":"amber"},{"name":"Moddershall and Oulton Cricket Club","lat":52.93158,"lon":-2.08852,"postcode":"ST15 8RN","la":"Stafford","era":"other","nn":428,"risk":48,"cat":"amber"},{"name":"Perkins Sports & Social Club","lat":52.80597,"lon":-2.09658,"postcode":"ST16 3UB","la":"Stafford","era":"mod","nn":351,"risk":30,"cat":"green"},{"name":"Picture House","lat":52.8043,"lon":-2.11586,"postcode":"ST16 2HL","la":"Stafford","era":"other","nn":36,"risk":26,"cat":"green"},{"name":"Poachers Cottage","lat":52.96698,"lon":-2.19953,"postcode":"ST4 8AA","la":"Stafford","era":"other","nn":336,"risk":30,"cat":"green"},{"name":"Poste Of Stone","lat":52.90358,"lon":-2.14845,"postcode":"ST15 8AB","la":"Stafford","era":"other","nn":34,"risk":26,"cat":"green"},{"name":"Prince Of Wales","lat":52.80774,"lon":-2.1009,"postcode":"ST16 3RW","la":"Stafford","era":"trad","nn":351,"risk":28,"cat":"green"},{"name":"Red Lion Inn","lat":52.89532,"lon":-2.06787,"postcode":"ST15 8RU","la":"Stafford","era":"trad","nn":1589,"risk":59,"cat":"amber"},{"name":"Red Lion Inn & Restaurant","lat":52.75882,"lon":-2.17943,"postcode":"ST18 9DZ","la":"Stafford","era":"trad","nn":2792,"risk":67,"cat":"red"},{"name":"Red Lion Inn Public House","lat":52.79145,"lon":-1.99535,"postcode":"ST18 0TS","la":"Stafford","era":"trad","nn":209,"risk":47,"cat":"amber"},{"name":"Red Lion Public House","lat":52.90178,"lon":-2.14581,"postcode":"ST15 8AJ","la":"Stafford","era":"trad","nn":26,"risk":26,"cat":"green"},{"name":"Revolution Bars Group Plc","lat":52.80498,"lon":-2.11552,"postcode":"ST16 3PT","la":"Stafford","era":"other","nn":72,"risk":26,"cat":"green"},{"name":"Royal Oak","lat":52.7867,"lon":-2.11602,"postcode":"ST17 9DH","la":"Stafford","era":"trad","nn":832,"risk":36,"cat":"amber"},{"name":"Royal Oak","lat":52.78159,"lon":-2.26127,"postcode":"ST20 0BL","la":"Stafford","era":"trad","nn":301,"risk":45,"cat":"amber"},{"name":"Shoulder Of Mutton","lat":52.93905,"lon":-2.07118,"postcode":"ST11 9QS","la":"Stafford","era":"other","nn":1331,"risk":57,"cat":"amber"},{"name":"Shropshire Inn (Haughton) Ltd","lat":52.78313,"lon":-2.20459,"postcode":"ST18 9HB","la":"Stafford","era":"trad","nn":450,"risk":49,"cat":"amber"},{"name":"Simply Bilash","lat":52.80736,"lon":-2.12456,"postcode":"ST16 2EW","la":"Stafford","era":"other","nn":90,"risk":26,"cat":"green"},{"name":"Stafford Boat Club","lat":52.78131,"lon":-2.0861,"postcode":"ST17 4SG","la":"Stafford","era":"other","nn":455,"risk":49,"cat":"amber"},{"name":"Stafford Bowling Club","lat":52.80247,"lon":-2.12461,"postcode":"ST16 1BG","la":"Stafford","era":"other","nn":186,"risk":27,"cat":"green"},{"name":"Stafford Constitutional Club","lat":52.8133,"lon":-2.11856,"postcode":"ST16 3AS","la":"Stafford","era":"other","nn":36,"risk":26,"cat":"green"},{"name":"Stafford Masonic Club","lat":52.8101,"lon":-2.11807,"postcode":"ST16 3AJ","la":"Stafford","era":"trad","nn":176,"risk":27,"cat":"green"},{"name":"Stafford North (Spitfire) Premier Inn","lat":52.83213,"lon":-2.13625,"postcode":"ST16 1GX","la":"Stafford","era":"trad","nn":102,"risk":31,"cat":"amber"},{"name":"Stafford Post Office Sports and Social Club","lat":52.78027,"lon":-2.10923,"postcode":"ST17 4HR","la":"Stafford","era":"mod","nn":849,"risk":51,"cat":"amber"},{"name":"Stafford Tenpin","lat":52.81285,"lon":-2.12314,"postcode":"ST16 2SD","la":"Stafford","era":"other","nn":224,"risk":27,"cat":"green"},{"name":"Stafford Town Football Club","lat":52.80456,"lon":-2.10535,"postcode":"ST16 3TH","la":"Stafford","era":"other","nn":306,"risk":27,"cat":"green"},{"name":"Staffordshire Bull","lat":52.82984,"lon":-2.12377,"postcode":"ST16 1TQ","la":"Stafford","era":"trad","nn":818,"risk":34,"cat":"amber"},{"name":"Star & Garter","lat":52.80088,"lon":-2.11489,"postcode":"ST17 4AW","la":"Stafford","era":"other","nn":148,"risk":26,"cat":"green"},{"name":"Stoke on Trent Rugby Union Football Club","lat":52.94625,"lon":-2.13407,"postcode":"ST15 8TL","la":"Stafford","era":"other","nn":1659,"risk":59,"cat":"amber"},{"name":"Stone Cricket Club","lat":52.89945,"lon":-2.14139,"postcode":"ST15 8NH","la":"Stafford","era":"other","nn":331,"risk":28,"cat":"green"},{"name":"Stone Dominoes F.C","lat":52.89201,"lon":-2.1923,"postcode":"ST15 0NF","la":"Stafford","era":"other","nn":699,"risk":50,"cat":"amber"},{"name":"Stone Golf Club","lat":52.90279,"lon":-2.16125,"postcode":"ST15 0NB","la":"Stafford","era":"other","nn":0,"risk":25,"cat":"green"},{"name":"Stone Lawn Tennis & Squash Club","lat":52.9045,"lon":-2.15379,"postcode":"ST15 8LD","la":"Stafford","era":"other","nn":289,"risk":27,"cat":"green"},{"name":"Swan Inn Public House","lat":52.90078,"lon":-2.1458,"postcode":"ST15 8QW","la":"Stafford","era":"trad","nn":28,"risk":26,"cat":"green"},{"name":"Swynnerton Park Cricket Club","lat":52.916,"lon":-2.22608,"postcode":"ST15 0QG","la":"Stafford","era":"other","nn":317,"risk":48,"cat":"amber"},{"name":"Ten Green Bottles","lat":52.90193,"lon":-2.1461,"postcode":"ST15 8AJ","la":"Stafford","era":"other","nn":26,"risk":26,"cat":"green"},{"name":"The Anchor Inn","lat":52.82763,"lon":-2.33512,"postcode":"ST20 0NG","la":"Stafford","era":"trad","nn":2408,"risk":65,"cat":"red"},{"name":"The Barley Mow","lat":52.78882,"lon":-2.04258,"postcode":"ST17 0UW","la":"Stafford","era":"other","nn":300,"risk":47,"cat":"amber"},{"name":"The Bear","lat":52.80647,"lon":-2.11673,"postcode":"ST16 2HP","la":"Stafford","era":"other","nn":47,"risk":26,"cat":"green"},{"name":"The Bear & Pheasant","lat":52.80136,"lon":-2.11694,"postcode":"ST17 4AU","la":"Stafford","era":"other","nn":148,"risk":26,"cat":"green"},{"name":"The Bell at Eccleshall","lat":52.85981,"lon":-2.25275,"postcode":"ST21 6BZ","la":"Stafford","era":"other","nn":76,"risk":31,"cat":"amber"},{"name":"The Bell Inn","lat":52.78098,"lon":-2.19893,"postcode":"ST18 9EX","la":"Stafford","era":"trad","nn":450,"risk":49,"cat":"amber"},{"name":"The Boar Inn","lat":52.92758,"lon":-2.11124,"postcode":"ST15 8TG","la":"Stafford","era":"trad","nn":1586,"risk":59,"cat":"amber"},{"name":"The Boat Inn","lat":52.77927,"lon":-2.26357,"postcode":"ST20 0DA","la":"Stafford","era":"trad","nn":301,"risk":45,"cat":"amber"},{"name":"The Bore Hole","lat":52.91079,"lon":-2.1546,"postcode":"ST15 8LL","la":"Stafford","era":"other","nn":455,"risk":29,"cat":"green"},{"name":"The Brushmakers Arms","lat":52.91877,"lon":-2.13768,"postcode":"ST15 8UW","la":"Stafford","era":"trad","nn":1019,"risk":55,"cat":"amber"},{"name":"The Chetwynd Arms","lat":52.76845,"lon":-2.0569,"postcode":"ST17 0ST","la":"Stafford","era":"trad","nn":790,"risk":51,"cat":"amber"},{"name":"The Clifford Arms Public House","lat":52.80203,"lon":-2.00546,"postcode":"ST18 0SR","la":"Stafford","era":"trad","nn":161,"risk":46,"cat":"amber"},{"name":"The Cock Inn","lat":52.84378,"lon":-1.99735,"postcode":"ST18 0LF","la":"Stafford","era":"trad","nn":2719,"risk":67,"cat":"red"},{"name":"The Cock Inn","lat":52.82543,"lon":-2.29946,"postcode":"ST20 0NP","la":"Stafford","era":"trad","nn":2408,"risk":65,"cat":"red"},{"name":"The Crown And Anchor","lat":52.90316,"lon":-2.14867,"postcode":"ST15 8JP","la":"Stafford","era":"trad","nn":21,"risk":26,"cat":"green"},{"name":"The Crown Inn","lat":52.77714,"lon":-2.13247,"postcode":"ST18 9BG","la":"Stafford","era":"trad","nn":635,"risk":50,"cat":"amber"},{"name":"The Devil's Taphouse","lat":52.80391,"lon":-2.11598,"postcode":"ST16 2EZ","la":"Stafford","era":"mod","nn":21,"risk":26,"cat":"green"},{"name":"The Dog & Doublet","lat":52.86097,"lon":-2.07832,"postcode":"ST18 0DJ","la":"Stafford","era":"other","nn":1406,"risk":58,"cat":"amber"},{"name":"The Duke Of York","lat":52.94458,"lon":-2.15868,"postcode":"ST12 9AA","la":"Stafford","era":"trad","nn":798,"risk":51,"cat":"amber"},{"name":"The Empourium","lat":52.80757,"lon":-2.11673,"postcode":"ST16 2JZ","la":"Stafford","era":"other","nn":26,"risk":26,"cat":"green"},{"name":"The Fitzherbert Arms","lat":52.91749,"lon":-2.22206,"postcode":"ST15 0RA","la":"Stafford","era":"trad","nn":317,"risk":48,"cat":"amber"},{"name":"The Four Crosses Public House","lat":52.81358,"lon":-2.11883,"postcode":"ST16 3ES","la":"Stafford","era":"trad","nn":36,"risk":26,"cat":"green"},{"name":"The Gables","lat":52.97331,"lon":-2.14941,"postcode":"ST3 3DS","la":"Stoke-on-Trent","era":"other","nn":330,"risk":25,"cat":"green"},{"name":"The Grapes","lat":52.80399,"lon":-2.1157,"postcode":"ST16 2HL","la":"Stafford","era":"other","nn":21,"risk":26,"cat":"green"},{"name":"The Green Man","lat":52.88794,"lon":-2.04338,"postcode":"ST18 0EG","la":"Stafford","era":"other","nn":1837,"risk":61,"cat":"red"},{"name":"The Greyhound Inn","lat":52.86013,"lon":-2.13195,"postcode":"ST18 9SD","la":"Stafford","era":"trad","nn":2590,"risk":66,"cat":"red"},{"name":"The Greyhound Inn","lat":52.8113,"lon":-2.1198,"postcode":"ST16 2PU","la":"Stafford","era":"trad","nn":176,"risk":27,"cat":"green"},{"name":"The Greyhound Inn","lat":52.86806,"lon":-2.09567,"postcode":"ST18 0DR","la":"Stafford","era":"trad","nn":1406,"risk":58,"cat":"amber"},{"name":"The Hollybush Inn","lat":52.84734,"lon":-2.062,"postcode":"ST18 0BX","la":"Stafford","era":"trad","nn":1442,"risk":58,"cat":"amber"},{"name":"The Holmcroft","lat":52.8216,"lon":-2.13208,"postcode":"ST16 1JB","la":"Stafford","era":"other","nn":764,"risk":48,"cat":"amber"},{"name":"The Hop Pole","lat":52.81429,"lon":-2.11791,"postcode":"ST16 3ES","la":"Stafford","era":"other","nn":90,"risk":26,"cat":"green"},{"name":"The Horns Inn","lat":52.78542,"lon":-2.25492,"postcode":"ST20 0EX","la":"Stafford","era":"trad","nn":603,"risk":47,"cat":"amber"},{"name":"The Hunter Public House","lat":52.9453,"lon":-2.052,"postcode":"ST11 9QX","la":"Stafford","era":"other","nn":1265,"risk":57,"cat":"amber"},{"name":"The Joiners Arms","lat":52.81482,"lon":-2.11892,"postcode":"ST16 3BS","la":"Stafford","era":"trad","nn":90,"risk":26,"cat":"green"},{"name":"The Kings Horse","lat":52.80159,"lon":-2.12696,"postcode":"ST16 1BE","la":"Stafford","era":"trad","nn":186,"risk":27,"cat":"green"},{"name":"The Labour In Vain","lat":52.89084,"lon":-2.20255,"postcode":"ST15 0NJ","la":"Stafford","era":"other","nn":699,"risk":50,"cat":"amber"},{"name":"The Lamb & Flag","lat":52.79037,"lon":-1.9928,"postcode":"ST18 0TU","la":"Stafford","era":"other","nn":209,"risk":47,"cat":"amber"},{"name":"The Lamb Inn","lat":52.89563,"lon":-2.15149,"postcode":"ST15 0HJ","la":"Stafford","era":"trad","nn":630,"risk":30,"cat":"green"},{"name":"The Lamb Inn","lat":52.80745,"lon":-2.12152,"postcode":"ST16 2QB","la":"Stafford","era":"trad","nn":205,"risk":27,"cat":"green"},{"name":"The Liquor Tank","lat":52.80556,"lon":-2.11502,"postcode":"ST16 2LP","la":"Stafford","era":"other","nn":72,"risk":26,"cat":"green"},{"name":"The Lord Nelson Inn","lat":52.80662,"lon":-2.11287,"postcode":"ST16 2LZ","la":"Stafford","era":"trad","nn":152,"risk":26,"cat":"green"},{"name":"The Luck Penny","lat":52.82756,"lon":-2.13773,"postcode":"ST16 1SQ","la":"Stafford","era":"other","nn":517,"risk":31,"cat":"amber"},{"name":"The Morris Man","lat":52.81045,"lon":-2.0898,"postcode":"ST16 3LA","la":"Stafford","era":"other","nn":676,"risk":48,"cat":"amber"},{"name":"The Old Smithy","lat":52.86023,"lon":-2.25187,"postcode":"ST21 6DF","la":"Stafford","era":"trad","nn":76,"risk":31,"cat":"amber"},{"name":"The Oxleathers Pub","lat":52.78859,"lon":-2.13674,"postcode":"ST17 9FL","la":"Stafford","era":"other","nn":577,"risk":47,"cat":"amber"},{"name":"The Pheasant Inn","lat":52.90874,"lon":-2.14845,"postcode":"ST15 8HS","la":"Stafford","era":"trad","nn":325,"risk":28,"cat":"green"},{"name":"The Plume Of Feathers","lat":52.94237,"lon":-2.17001,"postcode":"ST12 9DH","la":"Stafford","era":"other","nn":798,"risk":51,"cat":"amber"},{"name":"The Radford Bank Inn","lat":52.79276,"lon":-2.09118,"postcode":"ST17 4PG","la":"Stafford","era":"trad","nn":787,"risk":48,"cat":"amber"},{"name":"The Railway Inn","lat":52.80673,"lon":-2.12539,"postcode":"ST16 2EB","la":"Stafford","era":"trad","nn":90,"risk":26,"cat":"green"},{"name":"The Roebuck Inn","lat":52.90795,"lon":-2.07897,"postcode":"ST15 8SF","la":"Stafford","era":"trad","nn":1589,"risk":59,"cat":"amber"},{"name":"The Royal Exchange","lat":52.90476,"lon":-2.14874,"postcode":"ST15 8DA","la":"Stafford","era":"trad","nn":129,"risk":26,"cat":"green"},{"name":"The Royal Oak","lat":52.85963,"lon":-2.25411,"postcode":"ST21 6BZ","la":"Stafford","era":"trad","nn":93,"risk":31,"cat":"amber"},{"name":"The Royal Oak","lat":52.75441,"lon":-2.23148,"postcode":"ST20 0AJ","la":"Stafford","era":"trad","nn":0,"risk":45,"cat":"amber"},{"name":"The Royal Oak","lat":52.75441,"lon":-2.23148,"postcode":"ST20 0AJ","la":"Stafford","era":"trad","nn":0,"risk":45,"cat":"amber"},{"name":"The Saracen's Head","lat":52.84071,"lon":-2.04356,"postcode":"ST18 0HT","la":"Stafford","era":"trad","nn":443,"risk":48,"cat":"amber"},{"name":"The Ship Aground","lat":52.80396,"lon":-2.11511,"postcode":"ST17 4JX","la":"Stafford","era":"trad","nn":26,"risk":26,"cat":"green"},{"name":"The Shire Horse","lat":52.83266,"lon":-2.13501,"postcode":"ST16 1GZ","la":"Stafford","era":"trad","nn":102,"risk":31,"cat":"amber"},{"name":"The Spittal Brook Inn","lat":52.79703,"lon":-2.10083,"postcode":"ST17 4LP","la":"Stafford","era":"trad","nn":254,"risk":30,"cat":"green"},{"name":"The Spotgate Inn","lat":52.93531,"lon":-2.09006,"postcode":"ST15 8RP","la":"Stafford","era":"trad","nn":428,"risk":48,"cat":"amber"},{"name":"The Star Inn","lat":52.90045,"lon":-2.14654,"postcode":"ST15 8QW","la":"Stafford","era":"trad","nn":62,"risk":26,"cat":"green"},{"name":"The Star Inn","lat":52.86122,"lon":-2.28917,"postcode":"ST21 6EW","la":"Stafford","era":"trad","nn":1114,"risk":56,"cat":"amber"},{"name":"The Swynnerton Arms","lat":52.95411,"lon":-2.11269,"postcode":"ST3 7PP","la":"Stafford","era":"trad","nn":566,"risk":49,"cat":"amber"},{"name":"The Tap Bar and Restaurant","lat":52.81655,"lon":-2.11478,"postcode":"ST16 3HE","la":"Stafford","era":"mod","nn":211,"risk":27,"cat":"green"},{"name":"The Three Crowns","lat":52.89099,"lon":-2.12602,"postcode":"ST15 8QU","la":"Stafford","era":"trad","nn":1396,"risk":58,"cat":"amber"},{"name":"The Tree House Cocktail & Champagne Bar","lat":52.80514,"lon":-2.11713,"postcode":"ST16 2AJ","la":"Stafford","era":"mod","nn":52,"risk":26,"cat":"green"},{"name":"The Waggon & Horses","lat":52.81485,"lon":-2.12275,"postcode":"ST16 2RQ","la":"Stafford","era":"trad","nn":224,"risk":27,"cat":"green"},{"name":"The Wayfarer","lat":52.90279,"lon":-2.16125,"postcode":"ST15 0NB","la":"Stafford","era":"other","nn":0,"risk":25,"cat":"green"},{"name":"The White Eagle Club","lat":52.80224,"lon":-2.10779,"postcode":"ST16 3TH","la":"Stafford","era":"trad","nn":306,"risk":27,"cat":"green"},{"name":"The Wildwood","lat":52.7847,"lon":-2.08232,"postcode":"ST17 4RA","la":"Stafford","era":"other","nn":455,"risk":49,"cat":"amber"},{"name":"The Windmill Inn","lat":52.9566,"lon":-2.10532,"postcode":"ST3 7PB","la":"Stafford","era":"trad","nn":566,"risk":34,"cat":"amber"},{"name":"The Woolpack Inn","lat":52.83959,"lon":-2.03723,"postcode":"ST18 0JH","la":"Stafford","era":"trad","nn":443,"risk":48,"cat":"amber"},{"name":"The Yard","lat":52.80381,"lon":-2.11693,"postcode":"ST16 2EZ","la":"Stafford","era":"mod","nn":0,"risk":25,"cat":"green"},{"name":"Top of the World and Bierkeller Stafford","lat":52.80381,"lon":-2.11693,"postcode":"ST16 2EZ","la":"Stafford","era":"other","nn":0,"risk":25,"cat":"green"},{"name":"Trentham Park Golf Club","lat":52.96724,"lon":-2.20453,"postcode":"ST4 8AE","la":"Stafford","era":"other","nn":336,"risk":45,"cat":"amber"},{"name":"Universal Sports Club","lat":52.80962,"lon":-2.13637,"postcode":"ST16 1EB","la":"Stafford","era":"other","nn":804,"risk":36,"cat":"amber"},{"name":"Walton Tennis Club","lat":52.7887,"lon":-2.06133,"postcode":"ST17 0LD","la":"Stafford","era":"other","nn":960,"risk":52,"cat":"amber"},{"name":"Wedgwood Sports & Social Club","lat":52.95447,"lon":-2.15855,"postcode":"ST12 9BB","la":"Stafford","era":"mod","nn":1099,"risk":56,"cat":"amber"},{"name":"Wolseley Arms","lat":52.78034,"lon":-1.97097,"postcode":"ST17 0XS","la":"Stafford","era":"trad","nn":517,"risk":49,"cat":"amber"},{"name":"Ye Olde Rose & Crown","lat":52.80757,"lon":-2.11635,"postcode":"ST16 2JZ","la":"Stafford","era":"trad","nn":26,"risk":26,"cat":"green"},{"name":"3D Leek","lat":53.10651,"lon":-2.02508,"postcode":"ST13 5HH","la":"Staffordshire Moorlands","era":"other","nn":28,"risk":29,"cat":"green"},{"name":"Alton Bridge Hotel","lat":52.97964,"lon":-1.89491,"postcode":"ST10 4BX","la":"Staffordshire Moorlands","era":"other","nn":0,"risk":34,"cat":"amber"},{"name":"Aramark@The Crooked Spoon","lat":52.98832,"lon":-1.88865,"postcode":"ST10 4DB","la":"Staffordshire Moorlands","era":"trad","nn":1052,"risk":59,"cat":"amber"},{"name":"ASHBANK HOTEL","lat":53.02102,"lon":-2.10626,"postcode":"ST2 9EB","la":"Staffordshire Moorlands","era":"other","nn":1569,"risk":62,"cat":"red"},{"name":"ASHCOMBE PARK CRICKET CLUB","lat":53.06378,"lon":-2.03452,"postcode":"ST13 7EQ","la":"Staffordshire Moorlands","era":"other","nn":0,"risk":34,"cat":"amber"},{"name":"Auctioneers Arms","lat":52.98829,"lon":-2.08192,"postcode":"ST11 9EQ","la":"Staffordshire Moorlands","era":"trad","nn":642,"risk":51,"cat":"amber"},{"name":"BALL HAYE TAVERN","lat":53.1118,"lon":-2.01634,"postcode":"ST13 6BH","la":"Staffordshire Moorlands","era":"other","nn":459,"risk":32,"cat":"amber"},{"name":"Barley Mow","lat":53.11124,"lon":-2.16832,"postcode":"ST8 6NE","la":"Staffordshire Moorlands","era":"other","nn":733,"risk":36,"cat":"amber"},{"name":"Beyond The Pale Micro Brewery","lat":53.10513,"lon":-2.02148,"postcode":"ST13 5JW","la":"Staffordshire Moorlands","era":"other","nn":84,"risk":29,"cat":"green"},{"name":"Biddulph Bowling and Recreational Club","lat":53.12716,"lon":-2.16633,"postcode":"ST8 7RG","la":"Staffordshire Moorlands","era":"other","nn":695,"risk":51,"cat":"amber"},{"name":"BLACK COCK INN","lat":52.96559,"lon":-2.05662,"postcode":"ST11 9NT","la":"Staffordshire Moorlands","era":"trad","nn":574,"risk":50,"cat":"amber"},{"name":"BLACK LION","lat":53.10593,"lon":-1.88801,"postcode":"ST13 7SP","la":"Staffordshire Moorlands","era":"trad","nn":2427,"risk":68,"cat":"red"},{"name":"Black Swan","lat":53.10621,"lon":-2.02629,"postcode":"ST13 5HW","la":"Staffordshire Moorlands","era":"trad","nn":64,"risk":29,"cat":"green"},{"name":"Blacksmiths Arms","lat":53.01102,"lon":-1.97438,"postcode":"ST10 2DJ","la":"Staffordshire Moorlands","era":"trad","nn":1289,"risk":60,"cat":"amber"},{"name":"BLUE MUGGE","lat":53.1068,"lon":-2.01606,"postcode":"ST13 6LJ","la":"Staffordshire Moorlands","era":"other","nn":251,"risk":31,"cat":"amber"},{"name":"BLYTHE CRICKET CLUB","lat":52.95211,"lon":-2.03687,"postcode":"ST11 9RE","la":"Staffordshire Moorlands","era":"other","nn":1265,"risk":60,"cat":"amber"},{"name":"Boat Inn","lat":53.06378,"lon":-2.03452,"postcode":"ST13 7EQ","la":"Staffordshire Moorlands","era":"trad","nn":0,"risk":34,"cat":"amber"},{"name":"BRADLEY GREEN","lat":53.1157,"lon":-2.1764,"postcode":"ST8 6AS","la":"Staffordshire Moorlands","era":"other","nn":177,"risk":32,"cat":"amber"},{"name":"BREWCES","lat":53.10556,"lon":-2.02625,"postcode":"ST13 5HG","la":"Staffordshire Moorlands","era":"other","nn":16,"risk":29,"cat":"green"},{"name":"Britannia Inn","lat":53.10661,"lon":-2.03083,"postcode":"ST13 8AA","la":"Staffordshire Moorlands","era":"trad","nn":200,"risk":30,"cat":"green"},{"name":"Bulls Head Inn","lat":52.97769,"lon":-1.89242,"postcode":"ST10 4AQ","la":"Staffordshire Moorlands","era":"trad","nn":0,"risk":34,"cat":"amber"},{"name":"Catering UGC @ Leek Golf Club","lat":53.09558,"lon":-2.02367,"postcode":"ST13 5RE","la":"Staffordshire Moorlands","era":"other","nn":957,"risk":55,"cat":"amber"},{"name":"Cattle Market","lat":53.10582,"lon":-2.02095,"postcode":"ST13 6JR","la":"Staffordshire Moorlands","era":"other","nn":84,"risk":29,"cat":"green"},{"name":"Charlie Bassetts in Dilhorne","lat":52.98804,"lon":-2.04433,"postcode":"ST10 2PQ","la":"Staffordshire Moorlands","era":"other","nn":406,"risk":52,"cat":"amber"},{"name":"CHEADLE CRICKET CLUB","lat":52.98014,"lon":-1.98627,"postcode":"ST10 1LX","la":"Staffordshire Moorlands","era":"trad","nn":298,"risk":33,"cat":"amber"},{"name":"Cobblers","lat":53.10522,"lon":-2.02409,"postcode":"ST13 5JF","la":"Staffordshire Moorlands","era":"other","nn":41,"risk":29,"cat":"green"},{"name":"COCK INN","lat":53.10591,"lon":-2.02411,"postcode":"ST13 6HN","la":"Staffordshire Moorlands","era":"trad","nn":37,"risk":29,"cat":"green"},{"name":"CROSS KEYS INN","lat":52.95566,"lon":-1.98841,"postcode":"ST10 4DR","la":"Staffordshire Moorlands","era":"trad","nn":976,"risk":56,"cat":"amber"},{"name":"Den Engel","lat":53.10565,"lon":-2.02605,"postcode":"ST13 5HG","la":"Staffordshire Moorlands","era":"other","nn":16,"risk":29,"cat":"green"},{"name":"DOG AND PARTRIDGE INN","lat":52.94358,"lon":-1.97503,"postcode":"ST10 4LN","la":"Staffordshire Moorlands","era":"trad","nn":1168,"risk":59,"cat":"amber"},{"name":"Dyers Arms","lat":53.10953,"lon":-2.03621,"postcode":"ST13 8LD","la":"Staffordshire Moorlands","era":"trad","nn":266,"risk":31,"cat":"amber"},{"name":"Earl Grey Inn","lat":53.10478,"lon":-2.01778,"postcode":"ST13 5AT","la":"Staffordshire Moorlands","era":"trad","nn":241,"risk":30,"cat":"green"},{"name":"FOX AND GOOSE","lat":53.03499,"lon":-1.94859,"postcode":"ST10 2HN","la":"Staffordshire Moorlands","era":"trad","nn":1587,"risk":62,"cat":"red"},{"name":"Gardeners Arms","lat":53.10096,"lon":-2.18587,"postcode":"ST8 6PH","la":"Staffordshire Moorlands","era":"trad","nn":267,"risk":48,"cat":"amber"},{"name":"GREENWAY HALL GOLF CLUB","lat":53.06469,"lon":-2.12267,"postcode":"ST9 9LJ","la":"Staffordshire Moorlands","era":"other","nn":351,"risk":49,"cat":"amber"},{"name":"HARE AND GATE","lat":53.11432,"lon":-2.00758,"postcode":"ST13 6QF","la":"Staffordshire Moorlands","era":"other","nn":485,"risk":50,"cat":"amber"},{"name":"HOLLYBUSH INN","lat":53.07888,"lon":-2.06833,"postcode":"ST13 7JT","la":"Staffordshire Moorlands","era":"trad","nn":1146,"risk":59,"cat":"amber"},{"name":"Hungry Horse","lat":52.97777,"lon":-1.98836,"postcode":"ST10 1LW","la":"Staffordshire Moorlands","era":"trad","nn":298,"risk":36,"cat":"amber"},{"name":"Jervis Arms","lat":53.09442,"lon":-1.92883,"postcode":"ST13 7RU","la":"Staffordshire Moorlands","era":"trad","nn":3011,"risk":72,"cat":"red"},{"name":"KNYPERSLEY SPORTS CLUB","lat":53.10276,"lon":-2.18018,"postcode":"ST8 7AQ","la":"Staffordshire Moorlands","era":"other","nn":430,"risk":49,"cat":"amber"},{"name":"LEEK RUGBY CLUB","lat":53.08703,"lon":-2.02201,"postcode":"ST13 5RD","la":"Staffordshire Moorlands","era":"other","nn":957,"risk":55,"cat":"amber"},{"name":"LEEK TOWN FOOTBALL CLUB LTD","lat":53.11038,"lon":-2.04062,"postcode":"ST13 8LD","la":"Staffordshire Moorlands","era":"other","nn":286,"risk":33,"cat":"amber"},{"name":"MARQUIS OF GRANBY","lat":53.04747,"lon":-1.97223,"postcode":"ST10 2LD","la":"Staffordshire Moorlands","era":"other","nn":684,"risk":54,"cat":"amber"},{"name":"Old Sams","lat":53.118,"lon":-2.1735,"postcode":"ST8 6DX","la":"Staffordshire Moorlands","era":"other","nn":146,"risk":30,"cat":"green"},{"name":"PEAKSTONES INN","lat":52.98145,"lon":-1.91682,"postcode":"ST10 4DH","la":"Staffordshire Moorlands","era":"trad","nn":1480,"risk":62,"cat":"red"},{"name":"Plough Inn","lat":53.07882,"lon":-2.10842,"postcode":"ST9 9BE","la":"Staffordshire Moorlands","era":"trad","nn":698,"risk":54,"cat":"amber"},{"name":"Powys Arms","lat":53.04268,"lon":-2.0521,"postcode":"ST9 0BA","la":"Staffordshire Moorlands","era":"trad","nn":2624,"risk":70,"cat":"red"},{"name":"Prince of Wales","lat":53.09777,"lon":-2.03979,"postcode":"ST13 8JD","la":"Staffordshire Moorlands","era":"trad","nn":211,"risk":50,"cat":"amber"},{"name":"Red Cow Inn","lat":53.02557,"lon":-2.08406,"postcode":"ST9 0DT","la":"Staffordshire Moorlands","era":"trad","nn":0,"risk":49,"cat":"amber"},{"name":"RED LION","lat":53.06934,"lon":-2.04194,"postcode":"ST13 7HN","la":"Staffordshire Moorlands","era":"trad","nn":148,"risk":35,"cat":"amber"},{"name":"Red Lion","lat":53.10629,"lon":-2.02486,"postcode":"ST13 5HH","la":"Staffordshire Moorlands","era":"trad","nn":28,"risk":29,"cat":"green"},{"name":"Red Lion","lat":52.97452,"lon":-2.02267,"postcode":"ST10 2NU","la":"Staffordshire Moorlands","era":"trad","nn":1607,"risk":63,"cat":"red"},{"name":"Red Lion Inn","lat":53.0612,"lon":-1.88084,"postcode":"ST10 3HZ","la":"Staffordshire Moorlands","era":"trad","nn":1385,"risk":61,"cat":"red"},{"name":"Roaring Meg","lat":53.12112,"lon":-2.16081,"postcode":"ST8 7EA","la":"Staffordshire Moorlands","era":"other","nn":766,"risk":52,"cat":"amber"},{"name":"Roebuck Inn","lat":52.9706,"lon":-2.05455,"postcode":"ST11 9BX","la":"Staffordshire Moorlands","era":"trad","nn":318,"risk":48,"cat":"amber"},{"name":"Rose and Crown","lat":53.12077,"lon":-2.14045,"postcode":"ST8 7HZ","la":"Staffordshire Moorlands","era":"trad","nn":500,"risk":52,"cat":"amber"},{"name":"Rose and Crown","lat":53.06378,"lon":-2.11764,"postcode":"ST9 9LL","la":"Staffordshire Moorlands","era":"trad","nn":351,"risk":49,"cat":"amber"},{"name":"ROYAL OAK","lat":53.11727,"lon":-2.17593,"postcode":"ST8 6BL","la":"Staffordshire Moorlands","era":"trad","nn":42,"risk":32,"cat":"amber"},{"name":"ROYAL OAK","lat":52.99052,"lon":-2.03987,"postcode":"ST10 2PE","la":"Staffordshire Moorlands","era":"trad","nn":406,"risk":52,"cat":"amber"},{"name":"Ship Inn","lat":52.96433,"lon":-1.99068,"postcode":"ST10 4ES","la":"Staffordshire Moorlands","era":"trad","nn":976,"risk":56,"cat":"amber"},{"name":"STAFFORD ARMS","lat":53.05501,"lon":-2.10797,"postcode":"ST9 9JR","la":"Staffordshire Moorlands","era":"trad","nn":1170,"risk":59,"cat":"amber"},{"name":"STAFFORDSHIRE KNOT","lat":53.12673,"lon":-2.17672,"postcode":"ST8 6RG","la":"Staffordshire Moorlands","era":"other","nn":695,"risk":51,"cat":"amber"},{"name":"TALBOT INN","lat":53.13541,"lon":-2.15812,"postcode":"ST8 7RY","la":"Staffordshire Moorlands","era":"trad","nn":1069,"risk":59,"cat":"amber"},{"name":"TALBOT INN","lat":52.97964,"lon":-1.89491,"postcode":"ST10 4BX","la":"Staffordshire Moorlands","era":"trad","nn":0,"risk":34,"cat":"amber"},{"name":"THE BAKERS ARMS","lat":52.98771,"lon":-1.9885,"postcode":"ST10 1AA","la":"Staffordshire Moorlands","era":"trad","nn":336,"risk":36,"cat":"amber"},{"name":"THE BIRD IN HAND","lat":52.98387,"lon":-1.98569,"postcode":"ST10 1ER","la":"Staffordshire Moorlands","era":"other","nn":151,"risk":32,"cat":"amber"},{"name":"The Black Horse at Endon","lat":53.08355,"lon":-2.10155,"postcode":"ST9 9BA","la":"Staffordshire Moorlands","era":"trad","nn":698,"risk":54,"cat":"amber"},{"name":"THE BLACK LION","lat":53.03284,"lon":-1.99446,"postcode":"ST9 0AJ","la":"Staffordshire Moorlands","era":"trad","nn":1915,"risk":65,"cat":"red"},{"name":"THE BLACK LION AT CHEDDLETON","lat":53.06904,"lon":-2.04409,"postcode":"ST13 7HP","la":"Staffordshire Moorlands","era":"trad","nn":148,"risk":35,"cat":"amber"},{"name":"The Bush","lat":53.07652,"lon":-2.13748,"postcode":"ST6 8QA","la":"Staffordshire Moorlands","era":"other","nn":1040,"risk":59,"cat":"amber"},{"name":"The Butchers Arms","lat":52.97174,"lon":-2.0502,"postcode":"ST11 9AS","la":"Staffordshire Moorlands","era":"trad","nn":318,"risk":48,"cat":"amber"},{"name":"The Crafty Flanker","lat":53.11727,"lon":-2.1753,"postcode":"ST8 6AW","la":"Staffordshire Moorlands","era":"mod","nn":42,"risk":32,"cat":"amber"},{"name":"THE FOXHOUND","lat":53.12413,"lon":-2.13548,"postcode":"ST8 7JT","la":"Staffordshire Moorlands","era":"trad","nn":500,"risk":52,"cat":"amber"},{"name":"The Green Dragon","lat":53.10656,"lon":-2.02705,"postcode":"ST13 5DS","la":"Staffordshire Moorlands","era":"trad","nn":64,"risk":29,"cat":"green"},{"name":"THE HUNTSMAN","lat":52.98333,"lon":-2.00364,"postcode":"ST10 1XS","la":"Staffordshire Moorlands","era":"other","nn":1124,"risk":59,"cat":"amber"},{"name":"The Lamplighter","lat":52.98523,"lon":-1.98564,"postcode":"ST10 1ES","la":"Staffordshire Moorlands","era":"other","nn":151,"risk":32,"cat":"amber"},{"name":"THE LAZY TROUT","lat":53.14372,"lon":-2.01569,"postcode":"ST13 8SN","la":"Staffordshire Moorlands","era":"other","nn":2241,"risk":67,"cat":"red"},{"name":"The Mulberry Leaves","lat":53.11185,"lon":-2.03711,"postcode":"ST13 8YG","la":"Staffordshire Moorlands","era":"other","nn":266,"risk":31,"cat":"amber"},{"name":"THE NELSON INN","lat":53.09902,"lon":-2.1835,"postcode":"ST8 6PW","la":"Staffordshire Moorlands","era":"trad","nn":267,"risk":48,"cat":"amber"},{"name":"THE OAKS BARN LTD","lat":53.00682,"lon":-2.05079,"postcode":"ST10 2PL","la":"Staffordshire Moorlands","era":"trad","nn":1955,"risk":65,"cat":"red"},{"name":"THE OLD RED LION","lat":53.04151,"lon":-1.96971,"postcode":"ST10 2NA","la":"Staffordshire Moorlands","era":"trad","nn":684,"risk":54,"cat":"amber"},{"name":"THE PRIORY HOTEL","lat":53.11021,"lon":-2.01,"postcode":"ST13 6EZ","la":"Staffordshire Moorlands","era":"other","nn":459,"risk":32,"cat":"amber"},{"name":"THE QUEENS AT FREEHAY","lat":52.972,"lon":-1.96447,"postcode":"ST10 1RF","la":"Staffordshire Moorlands","era":"trad","nn":1717,"risk":63,"cat":"red"},{"name":"THE RADDLE INN","lat":52.95631,"lon":-1.92081,"postcode":"ST10 4HQ","la":"Staffordshire Moorlands","era":"trad","nn":2807,"risk":71,"cat":"red"},{"name":"THE RAILWAY INN AT FROGHALL","lat":53.0218,"lon":-1.96731,"postcode":"ST10 2HA","la":"Staffordshire Moorlands","era":"trad","nn":1289,"risk":60,"cat":"amber"},{"name":"THE RED HOUSE","lat":52.98364,"lon":-2.0746,"postcode":"ST11 9ED","la":"Staffordshire Moorlands","era":"other","nn":712,"risk":54,"cat":"amber"},{"name":"THE RED LION","lat":52.93803,"lon":-1.96023,"postcode":"ST10 4NJ","la":"Staffordshire Moorlands","era":"trad","nn":1168,"risk":59,"cat":"amber"},{"name":"The Reform Inn","lat":53.12387,"lon":-1.97852,"postcode":"ST13 7LP","la":"Staffordshire Moorlands","era":"trad","nn":2211,"risk":67,"cat":"red"},{"name":"The Roebuck Hotel","lat":53.10558,"lon":-2.02398,"postcode":"ST13 5AB","la":"Staffordshire Moorlands","era":"other","nn":37,"risk":29,"cat":"green"},{"name":"The Star at Cotton","lat":53.00744,"lon":-1.90541,"postcode":"ST10 3DW","la":"Staffordshire Moorlands","era":"other","nn":2404,"risk":68,"cat":"red"},{"name":"The Top Pub","lat":53.08587,"lon":-2.13753,"postcode":"ST6 8TX","la":"Staffordshire Moorlands","era":"other","nn":1040,"risk":59,"cat":"amber"},{"name":"THE VALIANT INN","lat":53.10573,"lon":-2.02562,"postcode":"ST13 5HG","la":"Staffordshire Moorlands","era":"trad","nn":30,"risk":29,"cat":"green"},{"name":"The Wheel PH","lat":53.08829,"lon":-2.06133,"postcode":"ST9 9QF","la":"Staffordshire Moorlands","era":"other","nn":1146,"risk":59,"cat":"amber"},{"name":"The Winking Man","lat":53.16522,"lon":-1.96624,"postcode":"ST13 8UH","la":"Staffordshire Moorlands","era":"trad","nn":2420,"risk":68,"cat":"red"},{"name":"TRAVELLERS REST","lat":53.06748,"lon":-2.1036,"postcode":"ST9 9LX","la":"Staffordshire Moorlands","era":"other","nn":1024,"risk":58,"cat":"amber"},{"name":"WELLINGTON INN","lat":53.10484,"lon":-2.03031,"postcode":"ST13 5EF","la":"Staffordshire Moorlands","era":"trad","nn":200,"risk":30,"cat":"green"},{"name":"Westwood Golf Club","lat":53.09591,"lon":-2.03922,"postcode":"ST13 7AA","la":"Staffordshire Moorlands","era":"other","nn":211,"risk":50,"cat":"amber"},{"name":"White Hart Hotel","lat":52.97769,"lon":-1.89242,"postcode":"ST10 4AQ","la":"Staffordshire Moorlands","era":"trad","nn":0,"risk":34,"cat":"amber"},{"name":"Windmill Inn","lat":53.02557,"lon":-2.08406,"postcode":"ST9 0DT","la":"Staffordshire Moorlands","era":"trad","nn":0,"risk":49,"cat":"amber"},{"name":"Ye Olde Crown Hotel","lat":53.04905,"lon":-1.87625,"postcode":"ST10 3HL","la":"Staffordshire Moorlands","era":"trad","nn":901,"risk":55,"cat":"amber"},{"name":"YE OLDE ROCK INN","lat":53.14569,"lon":-1.98226,"postcode":"ST13 8TY","la":"Staffordshire Moorlands","era":"trad","nn":2241,"risk":67,"cat":"red"},{"name":"YEW TREE INN","lat":53.04203,"lon":-1.88297,"postcode":"ST10 3EJ","la":"Staffordshire Moorlands","era":"trad","nn":901,"risk":55,"cat":"amber"},{"name":"Abbey Hulton Football Club","lat":53.04022,"lon":-2.14704,"postcode":"ST2 8DD","la":"Stoke-on-Trent","era":"trad","nn":0,"risk":25,"cat":"green"},{"name":"Abbey Hulton Sports & Social Club","lat":53.03826,"lon":-2.13689,"postcode":"ST2 8DY","la":"Stoke-on-Trent","era":"other","nn":532,"risk":31,"cat":"amber"},{"name":"Angel Inn","lat":52.99822,"lon":-2.15581,"postcode":"ST4 3JB","la":"Stoke-on-Trent","era":"trad","nn":310,"risk":25,"cat":"green"},{"name":"Artisan Tap","lat":53.0107,"lon":-2.21034,"postcode":"ST4 6AF","la":"Stoke-on-Trent","era":"mod","nn":54,"risk":23,"cat":"green"},{"name":"Baddeley Green Club","lat":53.05881,"lon":-2.13787,"postcode":"ST2 7HG","la":"Stoke-on-Trent","era":"other","nn":860,"risk":48,"cat":"amber"},{"name":"Ball Green W.M.C.","lat":53.07249,"lon":-2.16554,"postcode":"ST6 8BA","la":"Stoke-on-Trent","era":"other","nn":916,"risk":49,"cat":"amber"},{"name":"Bar 360 2009 Ltd","lat":53.0274,"lon":-2.17822,"postcode":"ST1 5HQ","la":"Stoke-on-Trent","era":"mod","nn":78,"risk":23,"cat":"green"},{"name":"Barge Inn Booze","lat":52.99934,"lon":-2.17796,"postcode":"ST4 4HW","la":"Stoke-on-Trent","era":"trad","nn":553,"risk":26,"cat":"green"},{"name":"Bench & Bar","lat":52.99739,"lon":-2.16482,"postcode":"ST4 3AJ","la":"Stoke-on-Trent","era":"other","nn":242,"risk":24,"cat":"green"},{"name":"Berryhill W.M.C.","lat":53.00786,"lon":-2.12312,"postcode":"ST2 0AQ","la":"Stoke-on-Trent","era":"other","nn":321,"risk":45,"cat":"amber"},{"name":"Bloom","lat":53.02474,"lon":-2.17691,"postcode":"ST1 1EN","la":"Stoke-on-Trent","era":"other","nn":1,"risk":22,"cat":"green"},{"name":"Blurton Private Club","lat":52.97915,"lon":-2.15051,"postcode":"ST3 4BT","la":"Stoke-on-Trent","era":"other","nn":654,"risk":27,"cat":"green"},{"name":"Bod","lat":52.96547,"lon":-2.1813,"postcode":"ST4 8BU","la":"Stoke-on-Trent","era":"other","nn":0,"risk":22,"cat":"green"},{"name":"Bottlecraft Ltd","lat":53.02473,"lon":-2.17691,"postcode":"ST1 1EN","la":"Stoke-on-Trent","era":"mod","nn":1,"risk":22,"cat":"green"},{"name":"Brindley Farm","lat":53.02825,"lon":-2.20242,"postcode":"ST1 5GP","la":"Stoke-on-Trent","era":"other","nn":592,"risk":27,"cat":"green"},{"name":"BRU","lat":53.00339,"lon":-2.18611,"postcode":"ST4 1NH","la":"Stoke-on-Trent","era":"other","nn":86,"risk":23,"cat":"green"},{"name":"Bucknall Bowling Club","lat":53.02456,"lon":-2.13278,"postcode":"ST2 9AB","la":"Stoke-on-Trent","era":"other","nn":524,"risk":46,"cat":"amber"},{"name":"Burslem Cricket Club","lat":53.03494,"lon":-2.18955,"postcode":"ST6 3LQ","la":"Stoke-on-Trent","era":"other","nn":893,"risk":49,"cat":"amber"},{"name":"Burslem Golf Club","lat":53.06308,"lon":-2.1875,"postcode":"ST6 7JT","la":"Stoke-on-Trent","era":"other","nn":901,"risk":49,"cat":"amber"},{"name":"Burslem Snooker Centre","lat":53.04459,"lon":-2.19643,"postcode":"ST6 3DR","la":"Stoke-on-Trent","era":"other","nn":9,"risk":23,"cat":"green"},{"name":"Bursley Ale House","lat":53.04673,"lon":-2.19775,"postcode":"ST6 4ED","la":"Stoke-on-Trent","era":"other","nn":96,"risk":23,"cat":"green"},{"name":"Buzz Bingo","lat":53.00748,"lon":-2.16361,"postcode":"ST4 2HS","la":"Stoke-on-Trent","era":"other","nn":666,"risk":27,"cat":"green"},{"name":"Captains Bar","lat":53.02263,"lon":-2.17335,"postcode":"ST1 3EA","la":"Stoke-on-Trent","era":"other","nn":5,"risk":23,"cat":"green"},{"name":"Catchems Corner","lat":52.97499,"lon":-2.09214,"postcode":"ST3 6HH","la":"Stoke-on-Trent","era":"other","nn":843,"risk":46,"cat":"amber"},{"name":"Caverswall Cricket Club","lat":52.98969,"lon":-2.09123,"postcode":"ST3 6PJ","la":"Stoke-on-Trent","era":"other","nn":460,"risk":43,"cat":"amber"},{"name":"Chatterley Whitfield Hungry Horse","lat":53.06998,"lon":-2.20701,"postcode":"ST6 5GA","la":"Stoke-on-Trent","era":"trad","nn":518,"risk":26,"cat":"green"},{"name":"Chell Social Club","lat":53.0708,"lon":-2.19752,"postcode":"ST6 6JS","la":"Stoke-on-Trent","era":"mod","nn":265,"risk":29,"cat":"green"},{"name":"Coach & Horses","lat":53.05845,"lon":-2.21298,"postcode":"ST6 5BL","la":"Stoke-on-Trent","era":"trad","nn":57,"risk":23,"cat":"green"},{"name":"Coachmakers Arms","lat":53.02267,"lon":-2.1734,"postcode":"ST1 3EA","la":"Stoke-on-Trent","era":"trad","nn":5,"risk":23,"cat":"green"},{"name":"Crafty Lion","lat":53.00453,"lon":-2.18657,"postcode":"ST4 1DB","la":"Stoke-on-Trent","era":"other","nn":18,"risk":23,"cat":"green"},{"name":"Cross Guns","lat":53.03072,"lon":-2.16185,"postcode":"ST1 6PW","la":"Stoke-on-Trent","era":"trad","nn":186,"risk":24,"cat":"green"},{"name":"Darcy's","lat":53.0016,"lon":-2.16175,"postcode":"ST4 2JX","la":"Stoke-on-Trent","era":"other","nn":224,"risk":24,"cat":"green"},{"name":"Desire Cocktail Bar","lat":53.02404,"lon":-2.17748,"postcode":"ST1 1HR","la":"Stoke-on-Trent","era":"other","nn":70,"risk":23,"cat":"green"},{"name":"Eleven","lat":53.06826,"lon":-2.2153,"postcode":"ST6 5PD","la":"Stoke-on-Trent","era":"other","nn":272,"risk":24,"cat":"green"},{"name":"Fenton Cricket Club","lat":52.99639,"lon":-2.17129,"postcode":"ST4 4JU","la":"Stoke-on-Trent","era":"other","nn":445,"risk":26,"cat":"green"},{"name":"Fenton Private Bowling Club","lat":52.99226,"lon":-2.16632,"postcode":"ST4 4LL","la":"Stoke-on-Trent","era":"other","nn":353,"risk":25,"cat":"green"},{"name":"Florence Sports and Social Club","lat":52.9765,"lon":-2.12403,"postcode":"ST3 4JS","la":"Stoke-on-Trent","era":"mod","nn":185,"risk":24,"cat":"green"},{"name":"Florence Tennis  & Bowling Club","lat":52.97975,"lon":-2.13696,"postcode":"ST3 4EB","la":"Stoke-on-Trent","era":"other","nn":162,"risk":24,"cat":"green"},{"name":"Forever 40","lat":53.02069,"lon":-2.18091,"postcode":"ST1 4JH","la":"Stoke-on-Trent","era":"other","nn":180,"risk":24,"cat":"green"},{"name":"Gardeners Rest","lat":52.98298,"lon":-2.13496,"postcode":"ST3 4DJ","la":"Stoke-on-Trent","era":"other","nn":364,"risk":25,"cat":"green"},{"name":"George & Dragon","lat":52.98809,"lon":-2.13775,"postcode":"ST3 2JR","la":"Stoke-on-Trent","era":"trad","nn":71,"risk":23,"cat":"green"},{"name":"Gin Rummy Bar & Kitchen","lat":53.02486,"lon":-2.1773,"postcode":"ST1 1EG","la":"Stoke-on-Trent","era":"mod","nn":0,"risk":22,"cat":"green"},{"name":"Goldenhill Club","lat":53.07781,"lon":-2.22015,"postcode":"ST6 5SS","la":"Stoke-on-Trent","era":"other","nn":259,"risk":29,"cat":"green"},{"name":"Gossip","lat":53.0281,"lon":-2.17815,"postcode":"ST1 5BT","la":"Stoke-on-Trent","era":"other","nn":78,"risk":23,"cat":"green"},{"name":"Greyhound Inn","lat":53.01233,"lon":-2.21542,"postcode":"ST5 1JT","la":"Newcastle-under-Lyme","era":"trad","nn":79,"risk":26,"cat":"green"},{"name":"Hanley Brewers Fayre & Premier Inn","lat":53.02443,"lon":-2.18338,"postcode":"ST1 5NH","la":"Stoke-on-Trent","era":"trad","nn":283,"risk":24,"cat":"green"},{"name":"Hanley Masonic Hall Club","lat":53.01701,"lon":-2.18354,"postcode":"ST1 4NA","la":"Stoke-on-Trent","era":"trad","nn":132,"risk":23,"cat":"green"},{"name":"Harleys","lat":53.02607,"lon":-2.17595,"postcode":"ST1 1LG","la":"Stoke-on-Trent","era":"other","nn":76,"risk":23,"cat":"green"},{"name":"Harvester Restaurant","lat":52.98939,"lon":-2.17334,"postcode":"ST4 4TL","la":"Stoke-on-Trent","era":"trad","nn":243,"risk":24,"cat":"green"},{"name":"Hazlehurst Arms","lat":53.0718,"lon":-2.19391,"postcode":"ST6 6SH","la":"Stoke-on-Trent","era":"trad","nn":265,"risk":29,"cat":"green"},{"name":"Hem Heath","lat":52.96806,"lon":-2.16706,"postcode":"ST4 8HP","la":"Stoke-on-Trent","era":"other","nn":453,"risk":28,"cat":"green"},{"name":"Hem Heath Cricket Club","lat":52.98648,"lon":-2.1705,"postcode":"ST4 4TN","la":"Stoke-on-Trent","era":"other","nn":0,"risk":22,"cat":"green"},{"name":"Hilltop Community Social Club","lat":52.9992,"lon":-2.14688,"postcode":"ST4 2NP","la":"Stoke-on-Trent","era":"mod","nn":420,"risk":25,"cat":"green"},{"name":"Hog Noggins Micro Bar","lat":53.0453,"lon":-2.19915,"postcode":"ST6 4AR","la":"Stoke-on-Trent","era":"other","nn":0,"risk":22,"cat":"green"},{"name":"Horn & Trumpet","lat":53.04636,"lon":-2.16496,"postcode":"ST1 6EJ","la":"Stoke-on-Trent","era":"other","nn":418,"risk":25,"cat":"green"},{"name":"J&G Meakin Cricket Club","lat":53.0241,"lon":-2.16054,"postcode":"ST1 3NT","la":"Stoke-on-Trent","era":"other","nn":467,"risk":26,"cat":"green"},{"name":"Johnny's Bar","lat":53.04484,"lon":-2.19877,"postcode":"ST6 3AH","la":"Stoke-on-Trent","era":"other","nn":45,"risk":23,"cat":"green"},{"name":"Joiners Square Community Hall","lat":53.01566,"lon":-2.16716,"postcode":"ST1 3JA","la":"Stoke-on-Trent","era":"other","nn":211,"risk":24,"cat":"green"},{"name":"Jollees Cabaret Venue","lat":52.99745,"lon":-2.19051,"postcode":"ST4 5AG","la":"Stoke-on-Trent","era":"other","nn":129,"risk":23,"cat":"green"},{"name":"Kings Way","lat":53.00393,"lon":-2.18424,"postcode":"ST4 1JB","la":"Stoke-on-Trent","era":"trad","nn":138,"risk":23,"cat":"green"},{"name":"Last Orders","lat":52.99458,"lon":-2.12712,"postcode":"ST3 5EF","la":"Stoke-on-Trent","era":"other","nn":430,"risk":25,"cat":"green"},{"name":"Lightwood Driving Range Ltd","lat":52.96704,"lon":-2.1257,"postcode":"ST3 4AD","la":"Stoke-on-Trent","era":"other","nn":1057,"risk":52,"cat":"amber"},{"name":"London Road Ale House / Thai Wai","lat":52.99852,"lon":-2.18974,"postcode":"ST4 5AA","la":"Stoke-on-Trent","era":"mod","nn":127,"risk":23,"cat":"green"},{"name":"Longton Cricket Club","lat":52.97102,"lon":-2.15254,"postcode":"ST3 3BL","la":"Stoke-on-Trent","era":"other","nn":192,"risk":24,"cat":"green"},{"name":"Longton Snooker and Pool","lat":52.98597,"lon":-2.13275,"postcode":"ST3 1PL","la":"Stoke-on-Trent","era":"other","nn":221,"risk":24,"cat":"green"},{"name":"Malt & Hops","lat":52.99441,"lon":-2.14599,"postcode":"ST4 3EJ","la":"Stoke-on-Trent","era":"other","nn":391,"risk":25,"cat":"green"},{"name":"Man in Space","lat":52.97111,"lon":-2.19118,"postcode":"ST4 8PZ","la":"Stoke-on-Trent","era":"other","nn":244,"risk":24,"cat":"green"},{"name":"Manor Court Ale House","lat":53.00067,"lon":-2.19693,"postcode":"ST4 5DW","la":"Stoke-on-Trent","era":"other","nn":0,"risk":22,"cat":"green"},{"name":"Market Tavern","lat":53.02522,"lon":-2.17544,"postcode":"ST1 1NA","la":"Stoke-on-Trent","era":"other","nn":39,"risk":23,"cat":"green"},{"name":"Marquis Of Granby","lat":53.00136,"lon":-2.19611,"postcode":"ST4 7LA","la":"Stoke-on-Trent","era":"other","nn":94,"risk":23,"cat":"green"},{"name":"Meir Royal British Legion Club","lat":52.97998,"lon":-2.11309,"postcode":"ST3 7JF","la":"Stoke-on-Trent","era":"trad","nn":690,"risk":32,"cat":"amber"},{"name":"Milton Bowling & Recreation Club","lat":53.04933,"lon":-2.1416,"postcode":"ST2 7BN","la":"Stoke-on-Trent","era":"other","nn":2,"risk":22,"cat":"green"},{"name":"Moorland Inn","lat":53.04799,"lon":-2.18281,"postcode":"ST6 1JP","la":"Stoke-on-Trent","era":"trad","nn":262,"risk":24,"cat":"green"},{"name":"New Finney Gardens","lat":53.02339,"lon":-2.15367,"postcode":"ST1 6AJ","la":"Stoke-on-Trent","era":"trad","nn":407,"risk":25,"cat":"green"},{"name":"New Inn","lat":53.0453,"lon":-2.19915,"postcode":"ST6 4AR","la":"Stoke-on-Trent","era":"trad","nn":0,"risk":22,"cat":"green"},{"name":"No 41","lat":53.04931,"lon":-2.14158,"postcode":"ST2 7BN","la":"Stoke-on-Trent","era":"other","nn":2,"risk":22,"cat":"green"},{"name":"Norton Central Social Club","lat":53.06455,"lon":-2.16188,"postcode":"ST6 8HZ","la":"Stoke-on-Trent","era":"mod","nn":808,"risk":46,"cat":"amber"},{"name":"Norton Sports","lat":53.05002,"lon":-2.17163,"postcode":"ST6 1QF","la":"Stoke-on-Trent","era":"other","nn":240,"risk":24,"cat":"green"},{"name":"Nuffield Heath & Fitness","lat":52.98731,"lon":-2.17223,"postcode":"ST4 4TU","la":"Stoke-on-Trent","era":"other","nn":148,"risk":24,"cat":"green"},{"name":"Oakhill Bowling Club","lat":52.99184,"lon":-2.19641,"postcode":"ST4 5NN","la":"Stoke-on-Trent","era":"trad","nn":167,"risk":24,"cat":"green"},{"name":"Oddfellows Arms","lat":53.05812,"lon":-2.21102,"postcode":"ST6 5AB","la":"Stoke-on-Trent","era":"trad","nn":59,"risk":23,"cat":"green"},{"name":"Oggy's","lat":53.01768,"lon":-2.17025,"postcode":"ST1 3EJ","la":"Stoke-on-Trent","era":"other","nn":216,"risk":24,"cat":"green"},{"name":"Paradise Inn","lat":53.05828,"lon":-2.21219,"postcode":"ST6 5AG","la":"Stoke-on-Trent","era":"trad","nn":57,"risk":23,"cat":"green"},{"name":"Pink","lat":53.02686,"lon":-2.17729,"postcode":"ST1 1LS","la":"Stoke-on-Trent","era":"other","nn":86,"risk":23,"cat":"green"},{"name":"Plaza Snooker & Pool Club Ltd","lat":52.99682,"lon":-2.15181,"postcode":"ST4 3NA","la":"Stoke-on-Trent","era":"other","nn":310,"risk":25,"cat":"green"},{"name":"Potters Bar","lat":52.9663,"lon":-2.09495,"postcode":"ST3 7TW","la":"Stoke-on-Trent","era":"other","nn":815,"risk":46,"cat":"amber"},{"name":"PowerLeague Group Limited","lat":52.98648,"lon":-2.1705,"postcode":"ST4 4TN","la":"Stoke-on-Trent","era":"other","nn":0,"risk":22,"cat":"green"},{"name":"Priscilla's","lat":53.04467,"lon":-2.19647,"postcode":"ST6 3EL","la":"Stoke-on-Trent","era":"other","nn":9,"risk":23,"cat":"green"},{"name":"Reflex","lat":53.02609,"lon":-2.17708,"postcode":"ST1 5LY","la":"Stoke-on-Trent","era":"other","nn":76,"risk":23,"cat":"green"},{"name":"Royal Music Hall","lat":53.02515,"lon":-2.17778,"postcode":"ST1 1DR","la":"Stoke-on-Trent","era":"trad","nn":0,"risk":22,"cat":"green"},{"name":"Sanctuary","lat":53.01019,"lon":-2.20952,"postcode":"ST4 6AA","la":"Stoke-on-Trent","era":"other","nn":31,"risk":23,"cat":"green"},{"name":"Sandyford Cricket Club","lat":53.07068,"lon":-2.21467,"postcode":"ST6 5LA","la":"Stoke-on-Trent","era":"other","nn":272,"risk":24,"cat":"green"},{"name":"Saracens Head","lat":52.9675,"lon":-2.10695,"postcode":"ST3 7BL","la":"Stoke-on-Trent","era":"trad","nn":815,"risk":48,"cat":"amber"},{"name":"Sir Robert Peel","lat":52.97853,"lon":-2.13397,"postcode":"ST3 4PF","la":"Stoke-on-Trent","era":"other","nn":135,"risk":23,"cat":"green"},{"name":"Smallthorne Pioneer Club","lat":53.05331,"lon":-2.17035,"postcode":"ST6 1PP","la":"Stoke-on-Trent","era":"other","nn":309,"risk":25,"cat":"green"},{"name":"Smashed Brothers Burgers","lat":53.02555,"lon":-2.17276,"postcode":"ST1 2AT","la":"Stoke-on-Trent","era":"other","nn":0,"risk":22,"cat":"green"},{"name":"Sneyd Arms Hotel","lat":53.0586,"lon":-2.2114,"postcode":"ST6 5AA","la":"Stoke-on-Trent","era":"trad","nn":59,"risk":23,"cat":"green"},{"name":"Staff of Life","lat":53.00386,"lon":-2.18714,"postcode":"ST4 1NL","la":"Stoke-on-Trent","era":"other","nn":84,"risk":23,"cat":"green"},{"name":"Stoke Repertory Theatre","lat":53.01246,"lon":-2.17153,"postcode":"ST4 2TR","la":"Stoke-on-Trent","era":"other","nn":444,"risk":26,"cat":"green"},{"name":"Stoke Tenpin","lat":53.02508,"lon":-2.19299,"postcode":"ST1 5SP","la":"Stoke-on-Trent","era":"other","nn":260,"risk":24,"cat":"green"},{"name":"Stoke Town Hall Bars","lat":53.00494,"lon":-2.1822,"postcode":"ST4 1HH","la":"Stoke-on-Trent","era":"other","nn":52,"risk":23,"cat":"green"},{"name":"Sugarcane","lat":53.02515,"lon":-2.17778,"postcode":"ST1 1DR","la":"Stoke-on-Trent","era":"other","nn":0,"risk":22,"cat":"green"},{"name":"Sutherland","lat":52.98999,"lon":-2.13053,"postcode":"ST3 1JR","la":"Stoke-on-Trent","era":"other","nn":43,"risk":23,"cat":"green"},{"name":"Sutherland Arms","lat":52.99956,"lon":-2.18897,"postcode":"ST4 5RW","la":"Stoke-on-Trent","era":"trad","nn":83,"risk":23,"cat":"green"},{"name":"Swiftys Microbar","lat":52.97662,"lon":-2.10443,"postcode":"ST3 7DJ","la":"Stoke-on-Trent","era":"other","nn":690,"risk":45,"cat":"amber"},{"name":"The Albert Inn","lat":53.00016,"lon":-2.1897,"postcode":"ST4 5DA","la":"Stoke-on-Trent","era":"trad","nn":83,"risk":23,"cat":"green"},{"name":"The Albion","lat":53.02395,"lon":-2.17451,"postcode":"ST1 1QS","la":"Stoke-on-Trent","era":"other","nn":82,"risk":23,"cat":"green"},{"name":"The Ashwood","lat":52.99191,"lon":-2.13176,"postcode":"ST3 1DH","la":"Stoke-on-Trent","era":"other","nn":228,"risk":24,"cat":"green"},{"name":"The Basement","lat":53.02412,"lon":-2.17852,"postcode":"ST1 1JA","la":"Stoke-on-Trent","era":"other","nn":70,"risk":23,"cat":"green"},{"name":"The Beehive Inn","lat":53.00351,"lon":-2.1914,"postcode":"ST4 7HU","la":"Stoke-on-Trent","era":"trad","nn":288,"risk":24,"cat":"green"},{"name":"The Bellringer","lat":53.01536,"lon":-2.15203,"postcode":"ST2 9ND","la":"Stoke-on-Trent","era":"other","nn":643,"risk":44,"cat":"amber"},{"name":"The Berwick Inn","lat":53.04449,"lon":-2.15954,"postcode":"ST1 6JU","la":"Stoke-on-Trent","era":"trad","nn":418,"risk":25,"cat":"green"},{"name":"The Beverley","lat":53.00899,"lon":-2.1187,"postcode":"ST2 0QD","la":"Stoke-on-Trent","era":"other","nn":321,"risk":45,"cat":"amber"},{"name":"The Birches Head","lat":53.03487,"lon":-2.16672,"postcode":"ST1 6LL","la":"Stoke-on-Trent","era":"trad","nn":209,"risk":24,"cat":"green"},{"name":"The Black Lion","lat":52.98774,"lon":-2.20196,"postcode":"ST4 5NZ","la":"Stoke-on-Trent","era":"trad","nn":485,"risk":31,"cat":"amber"},{"name":"The Bradeley","lat":53.05484,"lon":-2.17957,"postcode":"ST6 7NU","la":"Stoke-on-Trent","era":"other","nn":393,"risk":25,"cat":"green"},{"name":"The Bulls Head","lat":53.04462,"lon":-2.19934,"postcode":"ST6 3AJ","la":"Stoke-on-Trent","era":"trad","nn":0,"risk":22,"cat":"green"},{"name":"The Bulls Head","lat":53.03124,"lon":-2.1777,"postcode":"ST1 5AT","la":"Stoke-on-Trent","era":"trad","nn":284,"risk":24,"cat":"green"},{"name":"The Cat Inn","lat":53.0303,"lon":-2.16487,"postcode":"ST1 6PA","la":"Stoke-on-Trent","era":"trad","nn":150,"risk":24,"cat":"green"},{"name":"The Cheshire Cheese","lat":53.03389,"lon":-2.1694,"postcode":"ST1 6BA","la":"Stoke-on-Trent","era":"other","nn":209,"risk":24,"cat":"green"},{"name":"The Clayhanger","lat":53.04523,"lon":-2.1984,"postcode":"ST6 3AG","la":"Stoke-on-Trent","era":"other","nn":50,"risk":23,"cat":"green"},{"name":"The Congress","lat":52.98795,"lon":-2.13243,"postcode":"ST3 1HJ","la":"Stoke-on-Trent","era":"other","nn":221,"risk":24,"cat":"green"},{"name":"The Corner Pin","lat":52.99892,"lon":-2.12524,"postcode":"ST3 5DB","la":"Stoke-on-Trent","era":"other","nn":498,"risk":31,"cat":"amber"},{"name":"The Cottage","lat":52.99233,"lon":-2.19405,"postcode":"ST4 5AU","la":"Stoke-on-Trent","era":"other","nn":167,"risk":24,"cat":"green"},{"name":"The Cuckoo","lat":52.96942,"lon":-2.15145,"postcode":"ST3 3LD","la":"Stafford","era":"other","nn":192,"risk":29,"cat":"green"},{"name":"The Cushion Inn","lat":53.07453,"lon":-2.2274,"postcode":"ST6 4QE","la":"Stoke-on-Trent","era":"trad","nn":595,"risk":29,"cat":"green"},{"name":"The Duke William","lat":53.04462,"lon":-2.19934,"postcode":"ST6 3AJ","la":"Stoke-on-Trent","era":"trad","nn":0,"risk":22,"cat":"green"},{"name":"The Foaming Quart","lat":53.06607,"lon":-2.15006,"postcode":"ST6 8PD","la":"Stoke-on-Trent","era":"other","nn":808,"risk":48,"cat":"amber"},{"name":"The Forresters","lat":53.05097,"lon":-2.17522,"postcode":"ST6 1NT","la":"Stoke-on-Trent","era":"other","nn":0,"risk":22,"cat":"green"},{"name":"The Foxley Hotel","lat":53.04927,"lon":-2.15024,"postcode":"ST2 7EH","la":"Stoke-on-Trent","era":"trad","nn":102,"risk":23,"cat":"green"},{"name":"The Furlong","lat":53.06484,"lon":-2.20298,"postcode":"ST6 5UP","la":"Stoke-on-Trent","era":"other","nn":458,"risk":26,"cat":"green"},{"name":"The Gardeners Rest","lat":53.0883,"lon":-2.18222,"postcode":"ST8 7QJ","la":"Stoke-on-Trent","era":"other","nn":1195,"risk":53,"cat":"amber"},{"name":"The Gardeners Retreat","lat":52.99437,"lon":-2.1872,"postcode":"ST4 4BJ","la":"Stoke-on-Trent","era":"other","nn":332,"risk":25,"cat":"green"},{"name":"The Glebe","lat":53.00505,"lon":-2.18144,"postcode":"ST4 1HG","la":"Stoke-on-Trent","era":"other","nn":52,"risk":23,"cat":"green"},{"name":"The Globe Inn","lat":53.05723,"lon":-2.21069,"postcode":"ST6 5TA","la":"Stoke-on-Trent","era":"trad","nn":0,"risk":22,"cat":"green"},{"name":"The Golden Cup","lat":53.02999,"lon":-2.174,"postcode":"ST1 2JS","la":"Stoke-on-Trent","era":"other","nn":284,"risk":24,"cat":"green"},{"name":"The Green Star","lat":53.04642,"lon":-2.17291,"postcode":"ST6 1SF","la":"Stoke-on-Trent","era":"other","nn":167,"risk":24,"cat":"green"},{"name":"The Greyhound Inn","lat":53.00067,"lon":-2.19693,"postcode":"ST4 5DW","la":"Stoke-on-Trent","era":"trad","nn":0,"risk":22,"cat":"green"},{"name":"The Hardman Football Development Centre","lat":53.04907,"lon":-2.14358,"postcode":"ST2 7DN","la":"Stoke-on-Trent","era":"other","nn":136,"risk":23,"cat":"green"},{"name":"The Holy Inadequate","lat":53.02034,"lon":-2.20002,"postcode":"ST1 5PE","la":"Stoke-on-Trent","era":"other","nn":490,"risk":31,"cat":"amber"},{"name":"The John Marston","lat":52.98595,"lon":-2.1482,"postcode":"ST3 2NQ","la":"Stoke-on-Trent","era":"other","nn":634,"risk":27,"cat":"green"},{"name":"The Jolly Carter","lat":53.04319,"lon":-2.20498,"postcode":"ST6 3QJ","la":"Stoke-on-Trent","era":"other","nn":226,"risk":24,"cat":"green"},{"name":"The Jolly Potters","lat":53.00946,"lon":-2.20126,"postcode":"ST4 7NH","la":"Stoke-on-Trent","era":"other","nn":260,"risk":24,"cat":"green"},{"name":"The Jubilee Bar","lat":52.99097,"lon":-2.20682,"postcode":"ST4 6PZ","la":"Stoke-on-Trent","era":"other","nn":485,"risk":26,"cat":"green"},{"name":"The Kings Head","lat":53.05162,"lon":-2.17402,"postcode":"ST6 1NT","la":"Stoke-on-Trent","era":"trad","nn":107,"risk":23,"cat":"green"},{"name":"The Lambourne Inn","lat":52.97166,"lon":-2.1639,"postcode":"ST3 3HU","la":"Stoke-on-Trent","era":"trad","nn":453,"risk":26,"cat":"green"},{"name":"The Last Post","lat":52.98913,"lon":-2.13613,"postcode":"ST3 1BF","la":"Stoke-on-Trent","era":"other","nn":158,"risk":24,"cat":"green"},{"name":"The Liquor Vaults","lat":53.00468,"lon":-2.1867,"postcode":"ST4 1DB","la":"Stoke-on-Trent","era":"other","nn":18,"risk":23,"cat":"green"},{"name":"The Locomotive Inn","lat":52.99353,"lon":-2.16148,"postcode":"ST4 3AR","la":"Stoke-on-Trent","era":"trad","nn":353,"risk":25,"cat":"green"},{"name":"The Masons Arms","lat":53.03143,"lon":-2.17008,"postcode":"ST1 2LJ","la":"Stoke-on-Trent","era":"trad","nn":221,"risk":24,"cat":"green"},{"name":"The Millrace","lat":53.04979,"lon":-2.14897,"postcode":"ST2 7DU","la":"Stoke-on-Trent","era":"trad","nn":102,"risk":23,"cat":"green"},{"name":"The Musician","lat":52.99947,"lon":-2.16373,"postcode":"ST4 2QA","la":"Stoke-on-Trent","era":"other","nn":149,"risk":24,"cat":"green"},{"name":"The New Florence","lat":52.97752,"lon":-2.1262,"postcode":"ST3 4TP","la":"Stoke-on-Trent","era":"other","nn":185,"risk":24,"cat":"green"},{"name":"The Newtown Pub","lat":53.00036,"lon":-2.16829,"postcode":"ST4 4NA","la":"Stoke-on-Trent","era":"other","nn":71,"risk":23,"cat":"green"},{"name":"The Noah\u2019s Bar and Restaurant","lat":53.00909,"lon":-2.20509,"postcode":"ST4 7NX","la":"Stoke-on-Trent","era":"mod","nn":260,"risk":24,"cat":"green"},{"name":"The Northwood Inn","lat":53.02983,"lon":-2.1595,"postcode":"ST1 6PU","la":"Stoke-on-Trent","era":"trad","nn":186,"risk":24,"cat":"green"},{"name":"The Old  Post Office","lat":53.04613,"lon":-2.19673,"postcode":"ST6 4JH","la":"Stoke-on-Trent","era":"other","nn":70,"risk":23,"cat":"green"},{"name":"The Old Bulldog","lat":52.98962,"lon":-2.13035,"postcode":"ST3 1JR","la":"Stoke-on-Trent","era":"trad","nn":43,"risk":23,"cat":"green"},{"name":"The Old House At Home","lat":53.01089,"lon":-2.2112,"postcode":"ST4 6AF","la":"Stoke-on-Trent","era":"mod","nn":61,"risk":23,"cat":"green"},{"name":"The Old Sal","lat":52.99814,"lon":-2.13529,"postcode":"ST3 5SN","la":"Stoke-on-Trent","era":"other","nn":497,"risk":26,"cat":"green"},{"name":"The Orange Tree","lat":52.99667,"lon":-2.21144,"postcode":"ST4 6PG","la":"Stoke-on-Trent","era":"other","nn":361,"risk":27,"cat":"green"},{"name":"The Park Inn","lat":53.04915,"lon":-2.18622,"postcode":"ST6 1HA","la":"Stoke-on-Trent","era":"trad","nn":262,"risk":24,"cat":"green"},{"name":"The Park Inn","lat":52.97752,"lon":-2.13657,"postcode":"ST3 4EN","la":"Stoke-on-Trent","era":"trad","nn":108,"risk":23,"cat":"green"},{"name":"The Pepper Mill","lat":52.99106,"lon":-2.14402,"postcode":"ST3 2JD","la":"Stoke-on-Trent","era":"trad","nn":228,"risk":24,"cat":"green"},{"name":"The Pool Dole","lat":53.00083,"lon":-2.14122,"postcode":"ST4 2PA","la":"Stoke-on-Trent","era":"other","nn":420,"risk":25,"cat":"green"},{"name":"The Post Office Vaults","lat":53.04551,"lon":-2.19687,"postcode":"ST6 3AA","la":"Stoke-on-Trent","era":"other","nn":70,"risk":23,"cat":"green"},{"name":"The Potter","lat":52.9923,"lon":-2.14131,"postcode":"ST4 3DB","la":"Stoke-on-Trent","era":"other","nn":228,"risk":24,"cat":"green"},{"name":"The Princess Royal","lat":52.97842,"lon":-2.13598,"postcode":"ST3 4HA","la":"Stoke-on-Trent","era":"trad","nn":108,"risk":23,"cat":"green"},{"name":"The Reardon","lat":53.02302,"lon":-2.17595,"postcode":"ST1 3AF","la":"Stoke-on-Trent","era":"other","nn":60,"risk":23,"cat":"green"},{"name":"The Red Lion","lat":53.01182,"lon":-2.2106,"postcode":"ST4 6ES","la":"Stoke-on-Trent","era":"trad","nn":111,"risk":23,"cat":"green"},{"name":"The Regent Theatre","lat":53.02469,"lon":-2.17708,"postcode":"ST1 1EN","la":"Stoke-on-Trent","era":"other","nn":12,"risk":23,"cat":"green"},{"name":"The Reginald Mitchell","lat":53.02534,"lon":-2.17447,"postcode":"ST1 1SB","la":"Stoke-on-Trent","era":"other","nn":33,"risk":23,"cat":"green"},{"name":"The Signalman","lat":52.98772,"lon":-2.12668,"postcode":"ST3 1JE","la":"Stoke-on-Trent","era":"other","nn":325,"risk":25,"cat":"green"},{"name":"The Sneyd Arms","lat":53.03601,"lon":-2.14393,"postcode":"ST2 8BY","la":"Stoke-on-Trent","era":"trad","nn":513,"risk":31,"cat":"amber"},{"name":"The Sneyd Arms","lat":53.04036,"lon":-2.16928,"postcode":"ST1 6DB","la":"Stoke-on-Trent","era":"trad","nn":561,"risk":26,"cat":"green"},{"name":"The Sportsman","lat":53.06395,"lon":-2.12826,"postcode":"ST9 9NT","la":"Stoke-on-Trent","era":"other","nn":383,"risk":30,"cat":"green"},{"name":"The Strand","lat":52.98753,"lon":-2.13723,"postcode":"ST3 2NL","la":"Stoke-on-Trent","era":"other","nn":71,"risk":23,"cat":"green"},{"name":"The Sugarmill","lat":53.02515,"lon":-2.17778,"postcode":"ST1 1DR","la":"Stoke-on-Trent","era":"trad","nn":0,"risk":22,"cat":"green"},{"name":"The Talbot","lat":53.05801,"lon":-2.17698,"postcode":"ST6 7NG","la":"Stoke-on-Trent","era":"trad","nn":393,"risk":25,"cat":"green"},{"name":"The Talisman","lat":53.06271,"lon":-2.20885,"postcode":"ST6 5TZ","la":"Stoke-on-Trent","era":"other","nn":374,"risk":25,"cat":"green"},{"name":"The Tavern","lat":53.05723,"lon":-2.21069,"postcode":"ST6 5TA","la":"Stoke-on-Trent","era":"other","nn":0,"risk":22,"cat":"green"},{"name":"The Terrace Inn","lat":53.00022,"lon":-2.16933,"postcode":"ST4 4NB","la":"Stoke-on-Trent","era":"trad","nn":71,"risk":23,"cat":"green"},{"name":"The Terrace Inn","lat":53.00958,"lon":-2.17612,"postcode":"ST4 2BW","la":"Stoke-on-Trent","era":"trad","nn":444,"risk":26,"cat":"green"},{"name":"The Terrace Inn","lat":53.00104,"lon":-2.19364,"postcode":"ST4 5DG","la":"Stoke-on-Trent","era":"trad","nn":169,"risk":24,"cat":"green"},{"name":"The Tontine","lat":53.02541,"lon":-2.17495,"postcode":"ST1 1NQ","la":"Stoke-on-Trent","era":"other","nn":33,"risk":23,"cat":"green"},{"name":"The Travellers Rest","lat":53.02521,"lon":-2.14054,"postcode":"ST2 9AW","la":"Stoke-on-Trent","era":"other","nn":524,"risk":31,"cat":"amber"},{"name":"The Travellers Rest","lat":53.04921,"lon":-2.1403,"postcode":"ST2 7AQ","la":"Stoke-on-Trent","era":"other","nn":86,"risk":23,"cat":"green"},{"name":"The Trent Tavern","lat":53.02089,"lon":-2.14921,"postcode":"ST2 9JP","la":"Stoke-on-Trent","era":"other","nn":407,"risk":28,"cat":"green"},{"name":"The Underground","lat":53.02263,"lon":-2.18039,"postcode":"ST1 4LS","la":"Stoke-on-Trent","era":"other","nn":207,"risk":24,"cat":"green"},{"name":"The Unicorn Inn","lat":53.02486,"lon":-2.1773,"postcode":"ST1 1EG","la":"Stoke-on-Trent","era":"trad","nn":0,"risk":22,"cat":"green"},{"name":"The Village Tavern","lat":53.01755,"lon":-2.16703,"postcode":"ST1 3ER","la":"Stoke-on-Trent","era":"other","nn":211,"risk":24,"cat":"green"},{"name":"The Vine Inn","lat":53.0469,"lon":-2.1948,"postcode":"ST6 1AE","la":"Stoke-on-Trent","era":"trad","nn":154,"risk":24,"cat":"green"},{"name":"The Wellington Inn","lat":52.99574,"lon":-2.1916,"postcode":"ST4 5AN","la":"Stoke-on-Trent","era":"trad","nn":205,"risk":24,"cat":"green"},{"name":"The Wheatsheaf Hotel","lat":53.01978,"lon":-2.18314,"postcode":"ST1 4LW","la":"Stoke-on-Trent","era":"trad","nn":180,"risk":24,"cat":"green"},{"name":"The White Hart","lat":53.0595,"lon":-2.21466,"postcode":"ST6 5JJ","la":"Stoke-on-Trent","era":"trad","nn":162,"risk":24,"cat":"green"},{"name":"The White Hart","lat":53.05097,"lon":-2.17522,"postcode":"ST6 1NT","la":"Stoke-on-Trent","era":"trad","nn":0,"risk":22,"cat":"green"},{"name":"The White Swan","lat":53.04118,"lon":-2.20541,"postcode":"ST6 3PJ","la":"Stoke-on-Trent","era":"trad","nn":226,"risk":24,"cat":"green"},{"name":"The Woodman","lat":53.02555,"lon":-2.17276,"postcode":"ST1 2AT","la":"Stoke-on-Trent","era":"other","nn":0,"risk":22,"cat":"green"},{"name":"Thyme 2 Dine","lat":53.01815,"lon":-2.183,"postcode":"ST1 4LU","la":"Stoke-on-Trent","era":"other","nn":132,"risk":23,"cat":"green"},{"name":"Toby Carvery Festival Park","lat":53.02423,"lon":-2.1966,"postcode":"ST1 5PA","la":"Stoke-on-Trent","era":"other","nn":260,"risk":27,"cat":"green"},{"name":"Toby Carvery Trentham Village","lat":52.96547,"lon":-2.1813,"postcode":"ST4 8BU","la":"Stoke-on-Trent","era":"other","nn":0,"risk":22,"cat":"green"},{"name":"Tollgate Hotel & Leisure","lat":52.97206,"lon":-2.15664,"postcode":"ST3 3BS","la":"Stoke-on-Trent","era":"other","nn":298,"risk":25,"cat":"green"},{"name":"Travellers Rest","lat":53.07925,"lon":-2.22319,"postcode":"ST6 5SJ","la":"Stoke-on-Trent","era":"other","nn":259,"risk":29,"cat":"green"},{"name":"Trent Country Club Ltd","lat":53.04022,"lon":-2.14704,"postcode":"ST2 8DD","la":"Stoke-on-Trent","era":"other","nn":0,"risk":25,"cat":"green"},{"name":"Trentham Golf Club Ltd","lat":52.96462,"lon":-2.18582,"postcode":"ST4 8HB","la":"Stoke-on-Trent","era":"other","nn":317,"risk":25,"cat":"green"},{"name":"Trentham RUFC","lat":52.96937,"lon":-2.18897,"postcode":"ST4 8BE","la":"Stoke-on-Trent","era":"other","nn":244,"risk":24,"cat":"green"},{"name":"Valhalla","lat":53.01028,"lon":-2.20995,"postcode":"ST4 6AA","la":"Stoke-on-Trent","era":"other","nn":31,"risk":23,"cat":"green"},{"name":"Victoria Hall","lat":53.02344,"lon":-2.17539,"postcode":"ST1 3AD","la":"Stoke-on-Trent","era":"trad","nn":60,"risk":23,"cat":"green"},{"name":"Victory W.M.C & Institute Ltd","lat":53.04492,"lon":-2.17288,"postcode":"ST6 1RE","la":"Stoke-on-Trent","era":"other","nn":167,"risk":24,"cat":"green"},{"name":"Weston Coyney Private Club","lat":52.99218,"lon":-2.0967,"postcode":"ST3 6PE","la":"Stoke-on-Trent","era":"other","nn":460,"risk":46,"cat":"amber"},{"name":"Wheatsheaf","lat":53.05949,"lon":-2.21045,"postcode":"ST6 5TT","la":"Stoke-on-Trent","era":"trad","nn":118,"risk":23,"cat":"green"},{"name":"Wheatsheaf Stores","lat":53.03068,"lon":-2.16702,"postcode":"ST1 6PB","la":"Stoke-on-Trent","era":"trad","nn":150,"risk":24,"cat":"green"},{"name":"White Horse","lat":53.05485,"lon":-2.2104,"postcode":"ST6 4JU","la":"Stoke-on-Trent","era":"trad","nn":265,"risk":24,"cat":"green"},{"name":"Ye Olde Crown","lat":53.0457,"lon":-2.19973,"postcode":"ST6 4AW","la":"Stoke-on-Trent","era":"trad","nn":59,"risk":23,"cat":"green"},{"name":"Ye Olde Manor Inne","lat":53.00067,"lon":-2.16473,"postcode":"ST4 2PT","la":"Stoke-on-Trent","era":"trad","nn":149,"risk":24,"cat":"green"}]