[{"name":"Abercamlais Arms","lat":51.94602,"lon":-3.57152,"postcode":"LD3 8PH","la":"Powys","era":"trad","nn":0,"risk":40,"cat":"amber"},{"name":"Arvon Tap House LTD","lat":52.23945,"lon":-3.37777,"postcode":"LD1 5DP","la":"Powys","era":"mod","nn":46,"risk":22,"cat":"green"},{"name":"Black Cock Inn","lat":51.94676,"lon":-3.28919,"postcode":"LD3 7TL","la":"Powys","era":"trad","nn":1739,"risk":57,"cat":"amber"},{"name":"Brecon Bowling Club","lat":51.95011,"lon":-3.39759,"postcode":"LD3 9BA","la":"Powys","era":"other","nn":407,"risk":25,"cat":"green"},{"name":"Brecon Freemasons","lat":51.94886,"lon":-3.38589,"postcode":"LD3 7NR","la":"Powys","era":"trad","nn":237,"risk":24,"cat":"green"},{"name":"Brecon Rugby  Football  Club","lat":51.94463,"lon":-3.38571,"postcode":"LD3 7EL","la":"Powys","era":"other","nn":53,"risk":22,"cat":"green"},{"name":"Brecon Workmans Club","lat":52.32698,"lon":-3.43953,"postcode":"LD3 9AN","la":"Powys","era":"other","nn":0,"risk":25,"cat":"green"},{"name":"Bridge End Hotel","lat":51.99539,"lon":-3.2325,"postcode":"LD3 0BP","la":"Powys","era":"other","nn":256,"risk":41,"cat":"amber"},{"name":"Bridge End Inn","lat":52.0369,"lon":-3.27091,"postcode":"LD3 0YB","la":"Powys","era":"trad","nn":647,"risk":47,"cat":"amber"},{"name":"British Charolais Society","lat":52.15207,"lon":-3.402,"postcode":"LD2 3SR","la":"Powys","era":"mod","nn":268,"risk":24,"cat":"green"},{"name":"Builth Wells Bowling Club","lat":52.15157,"lon":-3.40786,"postcode":"LD2 3BU","la":"Powys","era":"other","nn":287,"risk":24,"cat":"green"},{"name":"Builth Wells Cricket Club","lat":52.14981,"lon":-3.41321,"postcode":"LD2 3NH","la":"Powys","era":"other","nn":415,"risk":25,"cat":"green"},{"name":"Builth Wells Golf Club","lat":52.15342,"lon":-3.41533,"postcode":"LD2 3NF","la":"Powys","era":"other","nn":427,"risk":25,"cat":"green"},{"name":"Builth Wells Rugby Football Club Ltd","lat":52.14815,"lon":-3.40334,"postcode":"LD2 3AG","la":"Powys","era":"other","nn":55,"risk":22,"cat":"green"},{"name":"Castle Hotel","lat":51.99751,"lon":-3.23396,"postcode":"LD3 0AA","la":"Powys","era":"other","nn":256,"risk":41,"cat":"amber"},{"name":"Castle Hotel Rhayader","lat":52.30079,"lon":-3.51001,"postcode":"LD6 5DL","la":"Powys","era":"other","nn":76,"risk":23,"cat":"green"},{"name":"Castle Inn","lat":52.36137,"lon":-3.09832,"postcode":"LD7 1PW","la":"Powys","era":"trad","nn":3612,"risk":70,"cat":"red"},{"name":"Catering - Meals Only","lat":52.2381,"lon":-3.3851,"postcode":"LD1 6AE","la":"Powys","era":"other","nn":0,"risk":22,"cat":"green"},{"name":"Cock Hotel","lat":52.00692,"lon":-3.24856,"postcode":"LD3 0LE","la":"Powys","era":"other","nn":1125,"risk":52,"cat":"amber"},{"name":"Cradoc Golf Club","lat":51.96736,"lon":-3.42685,"postcode":"LD3 9LP","la":"Powys","era":"other","nn":2774,"risk":64,"cat":"red"},{"name":"Drovers Thai Restaurant","lat":52.21782,"lon":-3.38979,"postcode":"LD1 5PT","la":"Powys","era":"other","nn":2277,"risk":61,"cat":"red"},{"name":"Farmers Inn","lat":52.27294,"lon":-3.00588,"postcode":"LD8 2AW","la":"Powys","era":"trad","nn":86,"risk":23,"cat":"green"},{"name":"Fforest Inn","lat":52.22147,"lon":-3.1851,"postcode":"LD8 2TN","la":"Powys","era":"trad","nn":0,"risk":42,"cat":"amber"},{"name":"Freedom Leisure","lat":52.30178,"lon":-3.51112,"postcode":"LD6 5BU","la":"Powys","era":"other","nn":46,"risk":22,"cat":"green"},{"name":"George & Dragon","lat":52.34387,"lon":-3.04924,"postcode":"LD7 1BL","la":"Powys","era":"trad","nn":69,"risk":23,"cat":"green"},{"name":"George Hotel","lat":51.94877,"lon":-3.39121,"postcode":"LD3 7LD","la":"Powys","era":"trad","nn":33,"risk":22,"cat":"green"},{"name":"Golden Lion Inn","lat":52.21548,"lon":-3.44275,"postcode":"LD1 6LN","la":"Powys","era":"trad","nn":253,"risk":44,"cat":"amber"},{"name":"Grand Pavilion Events CIC Ltd","lat":52.2392,"lon":-3.37831,"postcode":"LD1 5EY","la":"Powys","era":"trad","nn":46,"risk":22,"cat":"green"},{"name":"Greyhound Hotel","lat":52.14913,"lon":-3.40647,"postcode":"LD2 3AR","la":"Powys","era":"trad","nn":186,"risk":23,"cat":"green"},{"name":"Greyhound Inn","lat":52.33493,"lon":-3.16016,"postcode":"LD7 1SP","la":"Powys","era":"trad","nn":5127,"risk":80,"cat":"red"},{"name":"Happy Union Pub & Shop","lat":52.33016,"lon":-3.38822,"postcode":"LD1 6PH","la":"Powys","era":"other","nn":3505,"risk":69,"cat":"red"},{"name":"Hop In Beer & Gin House","lat":51.94558,"lon":-3.38817,"postcode":"LD3 7EG","la":"Powys","era":"other","nn":15,"risk":22,"cat":"green"},{"name":"Horse & Jockey Inn","lat":52.34417,"lon":-3.04835,"postcode":"LD7 1AE","la":"Powys","era":"trad","nn":69,"risk":23,"cat":"green"},{"name":"Hundred House Inn","lat":52.18244,"lon":-3.29793,"postcode":"LD1 5RY","la":"Powys","era":"other","nn":7394,"risk":80,"cat":"red"},{"name":"Knighton Bowling Club","lat":52.34386,"lon":-3.04675,"postcode":"LD7 1DR","la":"Powys","era":"other","nn":114,"risk":23,"cat":"green"},{"name":"Knighton Football Club Social Club","lat":52.34125,"lon":-3.04351,"postcode":"LD7 1HP","la":"Powys","era":"mod","nn":364,"risk":25,"cat":"green"},{"name":"Knighton Golf Club","lat":52.34172,"lon":-3.05311,"postcode":"LD7 1DE","la":"Powys","era":"other","nn":312,"risk":24,"cat":"green"},{"name":"Lion Hotel","lat":52.34999,"lon":-3.30919,"postcode":"LD1 6TN","la":"Powys","era":"trad","nn":5804,"risk":80,"cat":"red"},{"name":"Llandrindod Football Club","lat":52.24272,"lon":-3.37303,"postcode":"LD1 5EF","la":"Powys","era":"other","nn":448,"risk":25,"cat":"green"},{"name":"Llandrindod Wells Bowling Club Bar O","lat":52.2381,"lon":-3.3851,"postcode":"LD1 6AE","la":"Powys","era":"mod","nn":0,"risk":22,"cat":"green"},{"name":"Llandrindod Wells Conservative Club","lat":52.24059,"lon":-3.37861,"postcode":"LD1 5DH","la":"Powys","era":"other","nn":139,"risk":23,"cat":"green"},{"name":"Llandrindod Wells R F Club","lat":52.24173,"lon":-3.36536,"postcode":"LD1 5LE","la":"Powys","era":"other","nn":533,"risk":26,"cat":"green"},{"name":"Llynfi Holiday Park","lat":51.94108,"lon":-3.26555,"postcode":"LD3 7TR","la":"Powys","era":"other","nn":420,"risk":45,"cat":"amber"},{"name":"Markets Tavern","lat":51.94688,"lon":-3.38718,"postcode":"LD3 7BN","la":"Powys","era":"other","nn":149,"risk":23,"cat":"green"},{"name":"Medrare Catering","lat":51.94007,"lon":-3.25965,"postcode":"LD3 7UB","la":"Powys","era":"other","nn":420,"risk":45,"cat":"amber"},{"name":"Middleton Arms","lat":52.24612,"lon":-3.37663,"postcode":"LD1 5EB","la":"Powys","era":"trad","nn":0,"risk":22,"cat":"green"},{"name":"New Inn","lat":51.89039,"lon":-3.23671,"postcode":"LD3 7RQ","la":"Powys","era":"trad","nn":0,"risk":42,"cat":"amber"},{"name":"Northcote Conservative Club","lat":51.94706,"lon":-3.39139,"postcode":"LD3 7AA","la":"Powys","era":"other","nn":40,"risk":22,"cat":"green"},{"name":"Old Barn Inn","lat":52.03241,"lon":-3.20617,"postcode":"LD3 0SL","la":"Powys","era":"trad","nn":1499,"risk":55,"cat":"amber"},{"name":"Pizza51","lat":52.34441,"lon":-3.05056,"postcode":"LD7 1AT","la":"Powys","era":"other","nn":0,"risk":22,"cat":"green"},{"name":"Plough & Harrow","lat":52.32698,"lon":-3.43953,"postcode":"LD3 0UB","la":"Powys","era":"trad","nn":0,"risk":25,"cat":"green"},{"name":"Plough Hotel","lat":52.34453,"lon":-3.05285,"postcode":"LD7 1EY","la":"Powys","era":"trad","nn":141,"risk":23,"cat":"green"},{"name":"Presteigne Bowling Club","lat":52.27177,"lon":-3.00313,"postcode":"LD8 2AS","la":"Powys","era":"other","nn":82,"risk":23,"cat":"green"},{"name":"Presteigne St Andrews Football Club","lat":52.27045,"lon":-2.99736,"postcode":"LD8 2LB","la":"Powys","era":"other","nn":419,"risk":25,"cat":"green"},{"name":"Prince Llewelyn Inn","lat":52.15157,"lon":-3.45845,"postcode":"LD2 3NU","la":"Powys","era":"trad","nn":2949,"risk":65,"cat":"red"},{"name":"Radnorshire Arms","lat":52.40905,"lon":-3.18403,"postcode":"LD7 1YE","la":"Powys","era":"trad","nn":3016,"risk":66,"cat":"red"},{"name":"RAFA Club","lat":51.94892,"lon":-3.39162,"postcode":"LD3 7LT","la":"Powys","era":"other","nn":33,"risk":22,"cat":"green"},{"name":"Rhayader Rugby Football Club","lat":52.30066,"lon":-3.43069,"postcode":"LD6 5PE","la":"Powys","era":"other","nn":2988,"risk":65,"cat":"red"},{"name":"Rhosgoch Golf Club","lat":52.12112,"lon":-3.18869,"postcode":"LD2 3JY","la":"Powys","era":"other","nn":2454,"risk":62,"cat":"red"},{"name":"Roast Ox Inn","lat":52.10864,"lon":-3.21834,"postcode":"LD2 3JL","la":"Powys","era":"trad","nn":2454,"risk":62,"cat":"red"},{"name":"Royal British Legion","lat":52.27223,"lon":-3.00407,"postcode":"LD8 2AR","la":"Powys","era":"trad","nn":82,"risk":23,"cat":"green"},{"name":"Royal British Legion","lat":52.24612,"lon":-3.37663,"postcode":"LD1 5EB","la":"Powys","era":"trad","nn":0,"risk":22,"cat":"green"},{"name":"Sarah Siddons Inn","lat":51.94742,"lon":-3.39141,"postcode":"LD3 7AP","la":"Powys","era":"trad","nn":40,"risk":22,"cat":"green"},{"name":"Severn Arms Hotel","lat":52.26796,"lon":-3.29728,"postcode":"LD1 5UA","la":"Powys","era":"trad","nn":5476,"risk":80,"cat":"red"},{"name":"SOBREMESA Drinks - Tap Room","lat":52.01337,"lon":-3.22166,"postcode":"LD3 0DL","la":"Powys","era":"mod","nn":1757,"risk":57,"cat":"amber"},{"name":"Stonecroft Inn","lat":52.10761,"lon":-3.63985,"postcode":"LD5 4RA","la":"Powys","era":"trad","nn":6245,"risk":80,"cat":"red"},{"name":"Tanners Arms","lat":51.93718,"lon":-3.56393,"postcode":"LD3 8SF","la":"Powys","era":"trad","nn":1080,"risk":52,"cat":"amber"},{"name":"Temple Bar","lat":52.23819,"lon":-3.37857,"postcode":"LD1 5HG","la":"Powys","era":"other","nn":114,"risk":23,"cat":"green"},{"name":"The Barley Mow","lat":52.14835,"lon":-3.40407,"postcode":"LD2 3AH","la":"Powys","era":"other","nn":55,"risk":22,"cat":"green"},{"name":"The Bell Country Inn","lat":52.25233,"lon":-3.40368,"postcode":"LD1 6DY","la":"Powys","era":"trad","nn":1896,"risk":58,"cat":"amber"},{"name":"The Black Lion (Bar)","lat":52.30137,"lon":-3.51122,"postcode":"LD6 5BU","la":"Powys","era":"trad","nn":15,"risk":22,"cat":"green"},{"name":"The Cafe Bar","lat":51.94222,"lon":-3.36506,"postcode":"LD3 7RA","la":"Powys","era":"other","nn":1440,"risk":55,"cat":"amber"},{"name":"The Castle Coaching Inn","lat":51.94969,"lon":-3.63414,"postcode":"LD3 8UH","la":"Powys","era":"trad","nn":4311,"risk":75,"cat":"red"},{"name":"The Clarence","lat":51.94509,"lon":-3.38589,"postcode":"LD3 7ED","la":"Powys","era":"other","nn":53,"risk":22,"cat":"green"},{"name":"The Crown Inn","lat":52.30084,"lon":-3.51113,"postcode":"LD6 5BT","la":"Powys","era":"trad","nn":44,"risk":22,"cat":"green"},{"name":"The Dukes Arms","lat":52.2737,"lon":-3.00562,"postcode":"LD8 2AD","la":"Powys","era":"trad","nn":86,"risk":23,"cat":"green"},{"name":"The Foundry","lat":51.94827,"lon":-3.39247,"postcode":"LD3 9EE","la":"Powys","era":"mod","nn":93,"risk":23,"cat":"green"},{"name":"The Fountain Inn","lat":52.14951,"lon":-3.40082,"postcode":"LD2 3DT","la":"Powys","era":"trad","nn":59,"risk":22,"cat":"green"},{"name":"The Golden Lion","lat":52.34441,"lon":-3.05056,"postcode":"LD7 1AT","la":"Powys","era":"trad","nn":0,"risk":22,"cat":"green"},{"name":"The Gremlin Hotel","lat":51.94563,"lon":-3.38797,"postcode":"LD3 7EG","la":"Powys","era":"other","nn":15,"risk":22,"cat":"green"},{"name":"The Griffin Inn (Llyswen) Limited","lat":52.03238,"lon":-3.26497,"postcode":"LD3 0UR","la":"Powys","era":"trad","nn":647,"risk":47,"cat":"amber"},{"name":"The Harp Inn","lat":52.22483,"lon":-3.10095,"postcode":"LD8 2RH","la":"Powys","era":"trad","nn":4326,"risk":75,"cat":"red"},{"name":"The Lamb and Flag Inn","lat":52.30123,"lon":-3.51117,"postcode":"LD6 5BU","la":"Powys","era":"trad","nn":15,"risk":22,"cat":"green"},{"name":"The Llanerch Inn","lat":52.24272,"lon":-3.38066,"postcode":"LD1 6AG","la":"Powys","era":"trad","nn":275,"risk":24,"cat":"green"},{"name":"The Log Cabin","lat":52.23975,"lon":-3.38031,"postcode":"LD1 5ER","la":"Powys","era":"other","nn":149,"risk":23,"cat":"green"},{"name":"The New Gurkha Inn","lat":52.00031,"lon":-3.23612,"postcode":"LD3 0HH","la":"Powys","era":"trad","nn":345,"risk":42,"cat":"amber"},{"name":"The New Inn","lat":52.21389,"lon":-3.4401,"postcode":"LD1 6HY","la":"Powys","era":"trad","nn":253,"risk":44,"cat":"amber"},{"name":"The Old Ford Inn","lat":51.92852,"lon":-3.32539,"postcode":"LD3 7YB","la":"Powys","era":"trad","nn":1506,"risk":55,"cat":"amber"},{"name":"The Red Lion","lat":51.94602,"lon":-3.57152,"postcode":"LD3 8PH","la":"Powys","era":"trad","nn":0,"risk":40,"cat":"amber"},{"name":"The Red Lion Country Inn","lat":52.22147,"lon":-3.1851,"postcode":"LD8 2TN","la":"Powys","era":"trad","nn":0,"risk":42,"cat":"amber"},{"name":"The Rorkes Drift","lat":51.94726,"lon":-3.39199,"postcode":"LD3 7DG","la":"Powys","era":"other","nn":43,"risk":22,"cat":"green"},{"name":"The Royal Oak","lat":52.30115,"lon":-3.50864,"postcode":"LD6 5DS","la":"Powys","era":"trad","nn":101,"risk":23,"cat":"green"},{"name":"The Royal Oak","lat":52.27402,"lon":-3.00714,"postcode":"LD8 2BA","la":"Powys","era":"trad","nn":27,"risk":22,"cat":"green"},{"name":"The Royal Oak","lat":51.91527,"lon":-3.32089,"postcode":"LD3 7LX","la":"Powys","era":"trad","nn":1506,"risk":55,"cat":"amber"},{"name":"The Star Bunkhouse","lat":51.89039,"lon":-3.23671,"postcode":"LD3 7RQ","la":"Powys","era":"other","nn":0,"risk":42,"cat":"amber"},{"name":"The Star Inn","lat":51.89492,"lon":-3.28896,"postcode":"LD3 7YX","la":"Powys","era":"trad","nn":115,"risk":40,"cat":"amber"},{"name":"The Tai'r Bull Inn","lat":51.92654,"lon":-3.45738,"postcode":"LD3 8EL","la":"Powys","era":"trad","nn":4591,"risk":77,"cat":"red"},{"name":"The Triangle Inn Ltd","lat":52.29831,"lon":-3.51514,"postcode":"LD6 5AR","la":"Powys","era":"trad","nn":392,"risk":25,"cat":"green"},{"name":"The Trout Inn","lat":52.1491,"lon":-3.57817,"postcode":"LD5 4UU","la":"Powys","era":"trad","nn":6245,"risk":80,"cat":"red"},{"name":"The Usk & Railway Inn","lat":51.94636,"lon":-3.56903,"postcode":"LD3 8RS","la":"Powys","era":"trad","nn":175,"risk":28,"cat":"green"},{"name":"Three Horseshoes Inn","lat":51.94602,"lon":-3.39834,"postcode":"LD3 8AL","la":"Powys","era":"trad","nn":456,"risk":25,"cat":"green"},{"name":"Three Horseshoes Inn","lat":52.32698,"lon":-3.43953,"postcode":"LD3 7SN","la":"Powys","era":"trad","nn":0,"risk":25,"cat":"green"},{"name":"Travellers Rest","lat":51.89342,"lon":-3.28383,"postcode":"LD3 7YP","la":"Powys","era":"other","nn":276,"risk":42,"cat":"amber"},{"name":"Watsons Ale House","lat":52.34438,"lon":-3.05079,"postcode":"LD7 1AT","la":"Powys","era":"other","nn":16,"risk":22,"cat":"green"},{"name":"Wharf Inn","lat":52.42238,"lon":-3.22275,"postcode":"LD7 1YW","la":"Powys","era":"trad","nn":3016,"risk":66,"cat":"red"},{"name":"Wheelwright Arms","lat":52.07863,"lon":-3.32097,"postcode":"LD2 3EQ","la":"Powys","era":"trad","nn":5766,"risk":80,"cat":"red"},{"name":"White Hart","lat":52.14914,"lon":-3.40223,"postcode":"LD2 3DT","la":"Powys","era":"trad","nn":46,"risk":22,"cat":"green"},{"name":"White Hart Inn and Bunkhouse","lat":51.89437,"lon":-3.28754,"postcode":"LD3 7JD","la":"Powys","era":"trad","nn":115,"risk":40,"cat":"amber"},{"name":"White Horse Hotel","lat":52.14926,"lon":-3.40159,"postcode":"LD2 3DN","la":"Powys","era":"trad","nn":46,"risk":22,"cat":"green"},{"name":"White House Country Inn","lat":51.95173,"lon":-3.56004,"postcode":"LD3 8RP","la":"Powys","era":"other","nn":858,"risk":48,"cat":"amber"},{"name":"Wine Bar 46","lat":52.27395,"lon":-3.00752,"postcode":"LD8 2BE","la":"Powys","era":"mod","nn":27,"risk":22,"cat":"green"},{"name":"Wyeside Arts Centre","lat":52.1502,"lon":-3.39951,"postcode":"LD2 3BN","la":"Powys","era":"other","nn":118,"risk":23,"cat":"green"}]