[{"name":"101 Nightclub","lat":52.4754,"lon":-1.8975,"postcode":"B5 4RT","la":"Birmingham","era":"other","nn":0,"risk":14,"cat":"green"},{"name":"90 Boldmere","lat":52.54756,"lon":-1.84125,"postcode":"B73 5UB","la":"Birmingham","era":"other","nn":0,"risk":14,"cat":"green"},{"name":"Acocks Green Legion Club","lat":52.444,"lon":-1.82225,"postcode":"B27 7YD","la":"Birmingham","era":"other","nn":317,"risk":18,"cat":"green"},{"name":"Actress & Bishop","lat":52.48453,"lon":-1.90481,"postcode":"B3 1EH","la":"Birmingham","era":"trad","nn":70,"risk":14,"cat":"green"},{"name":"Akkommodate Ltd","lat":52.47286,"lon":-1.86259,"postcode":"B9 5BU","la":"Birmingham","era":"other","nn":121,"risk":14,"cat":"green"},{"name":"Albert's Schloss","lat":52.47921,"lon":-1.90511,"postcode":"B3 3AX","la":"Birmingham","era":"other","nn":135,"risk":15,"cat":"green"},{"name":"Albion Vaults","lat":52.49352,"lon":-1.8684,"postcode":"B7 5AP","la":"Birmingham","era":"other","nn":103,"risk":14,"cat":"green"},{"name":"Ale Hub - Sutton Coldfield","lat":52.58775,"lon":-1.82973,"postcode":"B75 5BA","la":"Birmingham","era":"mod","nn":72,"risk":14,"cat":"green"},{"name":"All Bar One","lat":52.48209,"lon":-1.90277,"postcode":"B3 3QR","la":"Birmingham","era":"mod","nn":71,"risk":14,"cat":"green"},{"name":"All Bar One","lat":52.4781,"lon":-1.91248,"postcode":"B1 2HL","la":"Birmingham","era":"mod","nn":0,"risk":14,"cat":"green"},{"name":"All Bar One","lat":52.47739,"lon":-1.89803,"postcode":"B2 4QE","la":"Birmingham","era":"mod","nn":0,"risk":14,"cat":"green"},{"name":"Amber Tavern","lat":52.46506,"lon":-1.98728,"postcode":"B32 2AL","la":"Birmingham","era":"other","nn":531,"risk":20,"cat":"green"},{"name":"Anawim","lat":52.45554,"lon":-1.89183,"postcode":"B12 9RJ","la":"Birmingham","era":"other","nn":111,"risk":14,"cat":"green"},{"name":"Arden Oak","lat":52.45228,"lon":-1.76962,"postcode":"B26 3LU","la":"Birmingham","era":"trad","nn":567,"risk":23,"cat":"green"},{"name":"Aston Manor Cricket And Lucas Sports","lat":52.52712,"lon":-1.89825,"postcode":"B42 2LA","la":"Birmingham","era":"other","nn":0,"risk":16,"cat":"green"},{"name":"Aura Lounge Birmingham ltd","lat":52.47094,"lon":-1.89344,"postcode":"B5 6JL","la":"Birmingham","era":"mod","nn":20,"risk":14,"cat":"green"},{"name":"Austin Sports & Social Club","lat":52.39947,"lon":-1.98188,"postcode":"B31 2SF","la":"Birmingham","era":"mod","nn":447,"risk":17,"cat":"green"},{"name":"Avenue Club and Lodge","lat":52.44317,"lon":-1.95764,"postcode":"B29 6PS","la":"Birmingham","era":"other","nn":490,"risk":37,"cat":"amber"},{"name":"B15 Student Bar","lat":52.47327,"lon":-1.9102,"postcode":"B15 1NH","la":"Birmingham","era":"other","nn":286,"risk":16,"cat":"green"},{"name":"Bacchus Bar, Burlington Arcade","lat":52.47888,"lon":-1.89911,"postcode":"B2 4JH","la":"Birmingham","era":"other","nn":0,"risk":14,"cat":"green"},{"name":"Bagot Arms","lat":52.52383,"lon":-1.80449,"postcode":"B24 0QL","la":"Birmingham","era":"trad","nn":799,"risk":39,"cat":"amber"},{"name":"Baptist Church","lat":52.45705,"lon":-1.95544,"postcode":"B17 0DH","la":"Birmingham","era":"other","nn":111,"risk":14,"cat":"green"},{"name":"Bar 28","lat":52.55848,"lon":-1.827,"postcode":"B72 1QG","la":"Birmingham","era":"mod","nn":40,"risk":14,"cat":"green"},{"name":"Barfly Club Ltd","lat":52.47576,"lon":-1.88756,"postcode":"B5 6DY","la":"Birmingham","era":"other","nn":0,"risk":14,"cat":"green"},{"name":"Barford Road Members Club","lat":52.486,"lon":-1.93538,"postcode":"B16 0DY","la":"Birmingham","era":"other","nn":243,"risk":20,"cat":"green"},{"name":"Barley Mow","lat":52.49535,"lon":-1.83075,"postcode":"B8 2BD","la":"Birmingham","era":"other","nn":264,"risk":33,"cat":"amber"},{"name":"Bartley Green Football Club","lat":52.43807,"lon":-1.99494,"postcode":"B32 3LD","la":"Birmingham","era":"other","nn":144,"risk":15,"cat":"green"},{"name":"Bartley Green Social Club","lat":52.43383,"lon":-2.00307,"postcode":"B32 4ES","la":"Birmingham","era":"mod","nn":545,"risk":20,"cat":"green"},{"name":"Bartley Sailing Club Ltd","lat":52.43233,"lon":-1.99394,"postcode":"B32 3NU","la":"Birmingham","era":"other","nn":213,"risk":18,"cat":"green"},{"name":"Barton Arms","lat":52.49924,"lon":-1.89512,"postcode":"B6 4UP","la":"Birmingham","era":"trad","nn":647,"risk":18,"cat":"green"},{"name":"Be at One","lat":52.4789,"lon":-1.90045,"postcode":"B2 4BJ","la":"Birmingham","era":"other","nn":85,"risk":14,"cat":"green"},{"name":"Be At One Brindley Place","lat":52.4781,"lon":-1.91248,"postcode":"B1 2HL","la":"Birmingham","era":"other","nn":0,"risk":14,"cat":"green"},{"name":"Bear and Staff","lat":52.43874,"lon":-1.94173,"postcode":"B29 6ND","la":"Birmingham","era":"other","nn":685,"risk":21,"cat":"green"},{"name":"Beaufort Arms","lat":52.53199,"lon":-1.92954,"postcode":"B42 1NP","la":"Birmingham","era":"trad","nn":1308,"risk":45,"cat":"amber"},{"name":"Beggars Bush","lat":52.54694,"lon":-1.85638,"postcode":"B73 5BA","la":"Birmingham","era":"other","nn":166,"risk":15,"cat":"green"},{"name":"Beorma","lat":52.44898,"lon":-1.93087,"postcode":"B15 2TT","la":"Birmingham","era":"other","nn":366,"risk":16,"cat":"green"},{"name":"Big Bulls Head","lat":52.47576,"lon":-1.88756,"postcode":"B5 6DY","la":"Birmingham","era":"trad","nn":0,"risk":14,"cat":"green"},{"name":"Big Shot Snooker Club","lat":52.48949,"lon":-1.85136,"postcode":"B8 3QX","la":"Birmingham","era":"other","nn":515,"risk":35,"cat":"amber"},{"name":"Birmingham Co-Operative Sports And S","lat":52.46986,"lon":-1.8028,"postcode":"B26 1SA","la":"Birmingham","era":"other","nn":416,"risk":17,"cat":"green"},{"name":"Birmingham Forum","lat":52.48131,"lon":-1.89382,"postcode":"B4 7LS","la":"Birmingham","era":"other","nn":12,"risk":14,"cat":"green"},{"name":"Black Horse","lat":52.41065,"lon":-1.97395,"postcode":"B31 2QT","la":"Birmingham","era":"trad","nn":226,"risk":18,"cat":"green"},{"name":"Boat","lat":52.52878,"lon":-1.77599,"postcode":"B76 9AE","la":"Birmingham","era":"other","nn":634,"risk":23,"cat":"green"},{"name":"Boldmere Oak","lat":52.53803,"lon":-1.83611,"postcode":"B73 5HE","la":"Birmingham","era":"trad","nn":359,"risk":16,"cat":"green"},{"name":"Boltz Club","lat":52.47244,"lon":-1.8968,"postcode":"B5 6RD","la":"Birmingham","era":"other","nn":1,"risk":14,"cat":"green"},{"name":"Boom Battle Bar","lat":52.4744,"lon":-1.91468,"postcode":"B15 1DA","la":"Birmingham","era":"other","nn":0,"risk":14,"cat":"green"},{"name":"Bordesley Labour Club","lat":52.46926,"lon":-1.86251,"postcode":"B10 0NP","la":"Birmingham","era":"other","nn":348,"risk":16,"cat":"green"},{"name":"Bottle Of Sack","lat":52.55812,"lon":-1.8271,"postcode":"B72 1QQ","la":"Birmingham","era":"other","nn":40,"risk":14,"cat":"green"},{"name":"Bournbrook & Selly Oak Social Club","lat":52.44349,"lon":-1.93416,"postcode":"B29 6DX","la":"Birmingham","era":"other","nn":114,"risk":14,"cat":"green"},{"name":"Bournville Social Club","lat":52.42518,"lon":-1.93026,"postcode":"B30 2DN","la":"Birmingham","era":"mod","nn":551,"risk":17,"cat":"green"},{"name":"Bowlplex","lat":52.47353,"lon":-1.92167,"postcode":"B16 8LP","la":"Birmingham","era":"other","nn":1,"risk":14,"cat":"green"},{"name":"Box","lat":52.4781,"lon":-1.91248,"postcode":"B1 2HL","la":"Birmingham","era":"other","nn":0,"risk":14,"cat":"green"},{"name":"Brasshouse / Chik Box / K-Town Chick","lat":52.47774,"lon":-1.9113,"postcode":"B1 2HP","la":"Birmingham","era":"mod","nn":38,"risk":14,"cat":"green"},{"name":"Brewdog Birmingham","lat":52.47685,"lon":-1.90163,"postcode":"B1 1BL","la":"Birmingham","era":"other","nn":56,"risk":14,"cat":"green"},{"name":"Bridge House","lat":52.4849,"lon":-1.85233,"postcode":"B8 3TE","la":"Birmingham","era":"other","nn":515,"risk":17,"cat":"green"},{"name":"Bristol Pear","lat":52.44372,"lon":-1.9358,"postcode":"B29 6BJ","la":"Birmingham","era":"other","nn":114,"risk":14,"cat":"green"},{"name":"Britannia Inn","lat":52.4517,"lon":-1.83326,"postcode":"B11 2ER","la":"Birmingham","era":"trad","nn":535,"risk":20,"cat":"green"},{"name":"British Muslim Association","lat":52.45699,"lon":-1.88546,"postcode":"B12 9AH","la":"Birmingham","era":"other","nn":180,"risk":15,"cat":"green"},{"name":"British Oak","lat":52.42811,"lon":-1.92188,"postcode":"B30 2XS","la":"Birmingham","era":"trad","nn":79,"risk":14,"cat":"green"},{"name":"Broadway Dance Centre","lat":52.51149,"lon":-1.90534,"postcode":"B20 3LL","la":"Birmingham","era":"other","nn":310,"risk":16,"cat":"green"},{"name":"Bull Ring Tavern","lat":52.47681,"lon":-1.89261,"postcode":"B5 6BH","la":"Birmingham","era":"trad","nn":207,"risk":15,"cat":"green"},{"name":"Bulls Head","lat":52.42824,"lon":-1.84174,"postcode":"B28 9EF","la":"Birmingham","era":"trad","nn":574,"risk":23,"cat":"green"},{"name":"Buzz Bingo","lat":52.40103,"lon":-2.0062,"postcode":"B45 9WA","la":"Birmingham","era":"other","nn":213,"risk":18,"cat":"green"},{"name":"Calthorpe Arms","lat":52.51523,"lon":-1.91273,"postcode":"B20 2DZ","la":"Birmingham","era":"trad","nn":494,"risk":17,"cat":"green"},{"name":"Casey Joes","lat":52.44256,"lon":-1.81269,"postcode":"B27 6PU","la":"Birmingham","era":"other","nn":667,"risk":21,"cat":"green"},{"name":"Charlie Hall Public House","lat":52.52425,"lon":-1.83952,"postcode":"B23 6SH","la":"Birmingham","era":"other","nn":101,"risk":14,"cat":"green"},{"name":"Chic Birmingham Ltd","lat":52.47391,"lon":-1.89902,"postcode":"B1 1DD","la":"Birmingham","era":"other","nn":50,"risk":14,"cat":"green"},{"name":"Christophers lounge","lat":52.49557,"lon":-1.8859,"postcode":"B6 4DT","la":"Birmingham","era":"mod","nn":1,"risk":14,"cat":"green"},{"name":"Church Tavern","lat":52.52712,"lon":-1.89825,"postcode":"B42 2LA","la":"Birmingham","era":"other","nn":0,"risk":16,"cat":"green"},{"name":"Circo Bar","lat":52.44557,"lon":-1.93407,"postcode":"B29 6AF","la":"Birmingham","era":"other","nn":73,"risk":14,"cat":"green"},{"name":"Club Maragh","lat":52.52343,"lon":-1.84029,"postcode":"B23 6SY","la":"Birmingham","era":"other","nn":79,"risk":14,"cat":"green"},{"name":"Club Sensations","lat":52.45858,"lon":-1.88493,"postcode":"B12 9AN","la":"Birmingham","era":"other","nn":180,"risk":15,"cat":"green"},{"name":"Coach House","lat":52.44669,"lon":-1.88752,"postcode":"B13 8HW","la":"Birmingham","era":"trad","nn":0,"risk":14,"cat":"green"},{"name":"Comet Public House","lat":52.50361,"lon":-1.80925,"postcode":"B36 8PE","la":"Birmingham","era":"other","nn":667,"risk":36,"cat":"amber"},{"name":"Connollys Wine Bars Arch 13","lat":52.48461,"lon":-1.90144,"postcode":"B3 1EU","la":"Birmingham","era":"other","nn":150,"risk":15,"cat":"green"},{"name":"Conservative Club","lat":52.52676,"lon":-1.83341,"postcode":"B24 9HU","la":"Birmingham","era":"other","nn":63,"risk":14,"cat":"green"},{"name":"Copper Fox Bar & Grill","lat":52.44758,"lon":-1.95761,"postcode":"B17 0RP","la":"Birmingham","era":"other","nn":490,"risk":22,"cat":"green"},{"name":"Cotteridge Social Club","lat":52.41536,"lon":-1.92931,"postcode":"B30 3AS","la":"Birmingham","era":"mod","nn":120,"risk":14,"cat":"green"},{"name":"Couch","lat":52.4258,"lon":-1.92171,"postcode":"B30 2NT","la":"Birmingham","era":"other","nn":36,"risk":14,"cat":"green"},{"name":"Coyote Ugly Saloon Birmingham","lat":52.47723,"lon":-1.91106,"postcode":"B1 2HF","la":"Birmingham","era":"other","nn":2,"risk":14,"cat":"green"},{"name":"Craven Arms","lat":52.47483,"lon":-1.90436,"postcode":"B1 1JG","la":"Birmingham","era":"trad","nn":119,"risk":14,"cat":"green"},{"name":"Cricketers Arms","lat":52.47384,"lon":-1.86375,"postcode":"B9 5AX","la":"Birmingham","era":"trad","nn":124,"risk":14,"cat":"green"},{"name":"Cross Guns Pub","lat":52.50359,"lon":-1.93725,"postcode":"B21 9SA","la":"Birmingham","era":"trad","nn":110,"risk":14,"cat":"green"},{"name":"Cross Keys","lat":52.52739,"lon":-1.83674,"postcode":"B23 6RG","la":"Birmingham","era":"trad","nn":114,"risk":14,"cat":"green"},{"name":"Crown Inn","lat":52.59076,"lon":-1.84854,"postcode":"B74 4RA","la":"Birmingham","era":"trad","nn":691,"risk":36,"cat":"amber"},{"name":"Cuttle Bridge Inn","lat":52.53185,"lon":-1.75396,"postcode":"B76 9DP","la":"Birmingham","era":"trad","nn":728,"risk":39,"cat":"amber"},{"name":"David Lloyd Leisure Birmingham","lat":52.55245,"lon":-1.89715,"postcode":"B44 9ER","la":"Birmingham","era":"other","nn":628,"risk":18,"cat":"green"},{"name":"Deadbeat","lat":52.42563,"lon":-1.92217,"postcode":"B30 2JL","la":"Birmingham","era":"other","nn":36,"risk":14,"cat":"green"},{"name":"Deers Leap","lat":52.5614,"lon":-1.89245,"postcode":"B43 7EE","la":"Birmingham","era":"other","nn":423,"risk":17,"cat":"green"},{"name":"Devonshire Arms","lat":52.494,"lon":-1.9309,"postcode":"B18 5DH","la":"Birmingham","era":"trad","nn":396,"risk":16,"cat":"green"},{"name":"Dingle Social Club","lat":52.40276,"lon":-2.00483,"postcode":"B45 0BP","la":"Birmingham","era":"mod","nn":213,"risk":18,"cat":"green"},{"name":"Dirty Martini Birmingham","lat":52.48032,"lon":-1.9008,"postcode":"B2 5ST","la":"Birmingham","era":"other","nn":21,"risk":14,"cat":"green"},{"name":"Drakes Drum","lat":52.54051,"lon":-1.89685,"postcode":"B44 8TR","la":"Birmingham","era":"other","nn":1141,"risk":44,"cat":"amber"},{"name":"Duke Inn P H","lat":52.55877,"lon":-1.82479,"postcode":"B72 1RJ","la":"Birmingham","era":"trad","nn":110,"risk":14,"cat":"green"},{"name":"E 57 Club","lat":52.4124,"lon":-1.88427,"postcode":"B14 5EY","la":"Birmingham","era":"other","nn":248,"risk":35,"cat":"amber"},{"name":"East Birminghams Allotment Holders","lat":52.48601,"lon":-1.82616,"postcode":"B8 3RY","la":"Birmingham","era":"other","nn":1075,"risk":44,"cat":"amber"},{"name":"Eden","lat":52.47105,"lon":-1.89368,"postcode":"B5 6NB","la":"Birmingham","era":"other","nn":20,"risk":14,"cat":"green"},{"name":"Edgbaston Golf Club Ltd","lat":52.46098,"lon":-1.9181,"postcode":"B15 3TB","la":"Birmingham","era":"other","nn":893,"risk":40,"cat":"amber"},{"name":"Elderlink","lat":52.49744,"lon":-1.80001,"postcode":"B34 6DB","la":"Birmingham","era":"other","nn":159,"risk":17,"cat":"green"},{"name":"Elmsdale Social Club","lat":52.55614,"lon":-1.82292,"postcode":"B72 1JE","la":"Birmingham","era":"other","nn":236,"risk":15,"cat":"green"},{"name":"Erdington Court Sports Club","lat":52.53829,"lon":-1.8473,"postcode":"B23 5QU","la":"Birmingham","era":"other","nn":332,"risk":16,"cat":"green"},{"name":"Exousia Community Church","lat":52.47128,"lon":-1.9017,"postcode":"B15 2EQ","la":"Birmingham","era":"other","nn":238,"risk":15,"cat":"green"},{"name":"Flat","lat":52.51588,"lon":-1.87999,"postcode":"B6 7AS","la":"Birmingham","era":"other","nn":534,"risk":22,"cat":"green"},{"name":"Flex Fitness Birmingham Ltd","lat":52.47029,"lon":-1.88322,"postcode":"B12 0RY","la":"Birmingham","era":"other","nn":131,"risk":15,"cat":"green"},{"name":"Food at the Hare","lat":52.43585,"lon":-1.893,"postcode":"B14 7JZ","la":"Birmingham","era":"other","nn":0,"risk":14,"cat":"green"},{"name":"Four Oaks P H","lat":52.58647,"lon":-1.83806,"postcode":"B74 4TR","la":"Birmingham","era":"trad","nn":580,"risk":18,"cat":"green"},{"name":"Four Oaks Tennis Club","lat":52.57949,"lon":-1.83872,"postcode":"B74 2SP","la":"Birmingham","era":"trad","nn":778,"risk":37,"cat":"amber"},{"name":"Fox and Chance","lat":52.47922,"lon":-1.90168,"postcode":"B2 4AY","la":"Birmingham","era":"trad","nn":91,"risk":14,"cat":"green"},{"name":"Fox Inn","lat":52.54109,"lon":-1.80073,"postcode":"B76 1NP","la":"Birmingham","era":"trad","nn":436,"risk":22,"cat":"green"},{"name":"Garden House Ph","lat":52.47158,"lon":-1.93679,"postcode":"B16 9NX","la":"Birmingham","era":"mod","nn":203,"risk":15,"cat":"green"},{"name":"Garrets Green Sports Bar","lat":52.47338,"lon":-1.77679,"postcode":"B33 0TD","la":"Birmingham","era":"other","nn":765,"risk":39,"cat":"amber"},{"name":"Gatecrasher","lat":52.4744,"lon":-1.91468,"postcode":"B15 1DA","la":"Birmingham","era":"other","nn":0,"risk":14,"cat":"green"},{"name":"Genting Casinos Uk Ltd","lat":52.47024,"lon":-1.94409,"postcode":"B15 3PS","la":"Birmingham","era":"other","nn":235,"risk":15,"cat":"green"},{"name":"George & Dragon","lat":52.46698,"lon":-1.849,"postcode":"B10 0UU","la":"Birmingham","era":"trad","nn":774,"risk":37,"cat":"amber"},{"name":"Ghost Club","lat":52.4738,"lon":-1.90482,"postcode":"B1 1QP","la":"Birmingham","era":"other","nn":119,"risk":14,"cat":"green"},{"name":"Glamorous Show Bar","lat":52.47486,"lon":-1.89793,"postcode":"B5 4BD","la":"Birmingham","era":"other","nn":67,"risk":14,"cat":"green"},{"name":"GostaGreen/KT/CB/LL/88th/VM/SC/PA/DM","lat":52.48766,"lon":-1.88731,"postcode":"B7 4BG","la":"Birmingham","era":"trad","nn":72,"risk":14,"cat":"green"},{"name":"Grange members Club","lat":52.44813,"lon":-1.82795,"postcode":"B27 7XE","la":"Birmingham","era":"other","nn":303,"risk":18,"cat":"green"},{"name":"Grant Arms","lat":52.41757,"lon":-1.92573,"postcode":"B30 3AU","la":"Birmingham","era":"trad","nn":260,"risk":15,"cat":"green"},{"name":"Great Park Brewers Fayre","lat":52.39804,"lon":-2.00622,"postcode":"B45 9FP","la":"Birmingham","era":"other","nn":333,"risk":16,"cat":"green"},{"name":"Greenwood Tree","lat":52.39913,"lon":-1.93451,"postcode":"B38 9JX","la":"Birmingham","era":"other","nn":566,"risk":38,"cat":"amber"},{"name":"Greyhound Inn","lat":52.54092,"lon":-1.84962,"postcode":"B23 5JX","la":"Birmingham","era":"trad","nn":332,"risk":16,"cat":"green"},{"name":"Hall Green Conservative Club","lat":52.43309,"lon":-1.846,"postcode":"B28 9AA","la":"Birmingham","era":"other","nn":41,"risk":31,"cat":"amber"},{"name":"Handsworth Wood Bowling Club","lat":52.51677,"lon":-1.92779,"postcode":"B20 2PB","la":"Birmingham","era":"other","nn":498,"risk":22,"cat":"green"},{"name":"Harbin Lounge","lat":52.47248,"lon":-1.8988,"postcode":"B5 6AJ","la":"Birmingham","era":"mod","nn":129,"risk":15,"cat":"green"},{"name":"Harborne Cricket Club","lat":52.45429,"lon":-1.95877,"postcode":"B17 0BE","la":"Birmingham","era":"other","nn":87,"risk":14,"cat":"green"},{"name":"Harborne Stores Public House","lat":52.45914,"lon":-1.94862,"postcode":"B17 9NP","la":"Birmingham","era":"other","nn":68,"risk":14,"cat":"green"},{"name":"Harborne Village Social Club","lat":52.45891,"lon":-1.95742,"postcode":"B17 9RD","la":"Birmingham","era":"mod","nn":140,"risk":15,"cat":"green"},{"name":"Hare & Hounds","lat":52.43585,"lon":-1.893,"postcode":"B14 7JZ","la":"Birmingham","era":"trad","nn":0,"risk":14,"cat":"green"},{"name":"Hare And Hounds","lat":52.52951,"lon":-1.76402,"postcode":"B76 9DD","la":"Birmingham","era":"trad","nn":373,"risk":21,"cat":"green"},{"name":"Hare And Hounds P H","lat":52.43585,"lon":-1.893,"postcode":"B14 7JZ","la":"Birmingham","era":"trad","nn":0,"risk":14,"cat":"green"},{"name":"Head of Steam","lat":52.48027,"lon":-1.89879,"postcode":"B2 5DP","la":"Birmingham","era":"trad","nn":11,"risk":14,"cat":"green"},{"name":"Heartlands Club","lat":52.49944,"lon":-1.86112,"postcode":"B7 5RX","la":"Birmingham","era":"other","nn":814,"risk":19,"cat":"green"},{"name":"Heavens Wine Bar","lat":52.47484,"lon":-1.89962,"postcode":"B1 1EG","la":"Birmingham","era":"other","nn":1,"risk":14,"cat":"green"},{"name":"Heidi's Bier Bar","lat":52.47485,"lon":-1.91405,"postcode":"B15 1AY","la":"Birmingham","era":"other","nn":45,"risk":14,"cat":"green"},{"name":"Hen and Chicken","lat":52.48721,"lon":-1.9025,"postcode":"B19 3LE","la":"Birmingham","era":"other","nn":79,"risk":14,"cat":"green"},{"name":"Henman and Cooper","lat":52.48052,"lon":-1.90111,"postcode":"B3 3AG","la":"Birmingham","era":"trad","nn":31,"risk":14,"cat":"green"},{"name":"Hennesseys Bar","lat":52.47761,"lon":-1.88984,"postcode":"B5 5TJ","la":"Birmingham","era":"other","nn":199,"risk":15,"cat":"green"},{"name":"Herberts Yard","lat":52.39469,"lon":-1.987,"postcode":"B31 2QR","la":"Birmingham","era":"mod","nn":144,"risk":15,"cat":"green"},{"name":"Highcroft Sports & Social Club Ltd","lat":52.51243,"lon":-1.85871,"postcode":"B23 7PW","la":"Birmingham","era":"mod","nn":271,"risk":33,"cat":"amber"},{"name":"Hollywood Social Club","lat":52.51479,"lon":-1.84722,"postcode":"B24 8QJ","la":"Birmingham","era":"other","nn":659,"risk":21,"cat":"green"},{"name":"Holy Souls Social Club","lat":52.44906,"lon":-1.80577,"postcode":"B27 6RL","la":"Solihull","era":"mod","nn":657,"risk":34,"cat":"amber"},{"name":"Home Guard Club","lat":52.4207,"lon":-1.84722,"postcode":"B28 0LS","la":"Birmingham","era":"other","nn":674,"risk":23,"cat":"green"},{"name":"Horse & Jockey","lat":52.55195,"lon":-1.82724,"postcode":"B72 1LY","la":"Birmingham","era":"trad","nn":248,"risk":15,"cat":"green"},{"name":"Horseshoe Inn","lat":52.4145,"lon":-1.88551,"postcode":"B14 5EL","la":"Birmingham","era":"trad","nn":248,"risk":20,"cat":"green"},{"name":"Inn On The Green","lat":52.44567,"lon":-1.82604,"postcode":"B27 7UH","la":"Birmingham","era":"trad","nn":303,"risk":16,"cat":"green"},{"name":"Ivy Bush","lat":52.47214,"lon":-1.93074,"postcode":"B16 8UQ","la":"Birmingham","era":"other","nn":330,"risk":16,"cat":"green"},{"name":"J D Wetherspoon","lat":52.47646,"lon":-1.91237,"postcode":"B1 2HG","la":"Birmingham","era":"other","nn":0,"risk":14,"cat":"green"},{"name":"JD Wetherspoon Mare Pool","lat":52.58584,"lon":-1.82923,"postcode":"B74 2UG","la":"Birmingham","era":"other","nn":63,"risk":14,"cat":"green"},{"name":"Jewellers Arms","lat":52.48957,"lon":-1.91134,"postcode":"B18 6BW","la":"Birmingham","era":"trad","nn":109,"risk":14,"cat":"green"},{"name":"Journeys End","lat":52.45462,"lon":-1.80906,"postcode":"B26 1EH","la":"Birmingham","era":"other","nn":657,"risk":21,"cat":"green"},{"name":"Jukeboxers Duelling Piano Bar","lat":52.47993,"lon":-1.91492,"postcode":"B1 2AA","la":"Birmingham","era":"other","nn":111,"risk":14,"cat":"green"},{"name":"Karen Ashmore Services","lat":52.507,"lon":-1.87571,"postcode":"B6 7JU","la":"Birmingham","era":"other","nn":131,"risk":15,"cat":"green"},{"name":"Keg and Grill","lat":52.47635,"lon":-1.9016,"postcode":"B1 1LW","la":"Birmingham","era":"other","nn":53,"risk":14,"cat":"green"},{"name":"Kerryman","lat":52.47576,"lon":-1.88756,"postcode":"B5 6DY","la":"Birmingham","era":"other","nn":0,"risk":14,"cat":"green"},{"name":"KH Bar Services Ltd","lat":52.42223,"lon":-1.89172,"postcode":"B14 6DT","la":"Birmingham","era":"mod","nn":166,"risk":15,"cat":"green"},{"name":"Kilo Ziro","lat":52.47486,"lon":-1.88397,"postcode":"B9 4BF","la":"Birmingham","era":"other","nn":26,"risk":14,"cat":"green"},{"name":"King Of The Road","lat":52.49468,"lon":-1.90299,"postcode":"B19 2XU","la":"Birmingham","era":"trad","nn":533,"risk":17,"cat":"green"},{"name":"Kings Heath Cricket & Sport Club","lat":52.42372,"lon":-1.89166,"postcode":"B14 6DT","la":"Birmingham","era":"trad","nn":0,"risk":14,"cat":"green"},{"name":"Kings Norton Ex-Servicemen's Club","lat":52.41643,"lon":-1.92907,"postcode":"B30 3DJ","la":"Birmingham","era":"trad","nn":120,"risk":14,"cat":"green"},{"name":"Kings Snooker Club","lat":52.43479,"lon":-1.89461,"postcode":"B14 7RZ","la":"Birmingham","era":"trad","nn":45,"risk":14,"cat":"green"},{"name":"Kingstanding Kitchen","lat":52.54322,"lon":-1.87907,"postcode":"B44 0QN","la":"Birmingham","era":"other","nn":0,"risk":16,"cat":"green"},{"name":"Kingstanding Public House","lat":52.55198,"lon":-1.88535,"postcode":"B44 9ST","la":"Birmingham","era":"trad","nn":255,"risk":15,"cat":"green"},{"name":"Kingsway","lat":52.43667,"lon":-1.89208,"postcode":"B14 7BH","la":"Birmingham","era":"trad","nn":110,"risk":14,"cat":"green"},{"name":"La Sante","lat":52.43513,"lon":-1.89369,"postcode":"B14 7JZ","la":"Birmingham","era":"other","nn":74,"risk":14,"cat":"green"},{"name":"Lab 11","lat":52.477,"lon":-1.88612,"postcode":"B5 5NL","la":"Birmingham","era":"other","nn":73,"risk":14,"cat":"green"},{"name":"Lad in The Lane","lat":52.51476,"lon":-1.83531,"postcode":"B24 8BU","la":"Birmingham","era":"other","nn":806,"risk":37,"cat":"amber"},{"name":"Ladywood Social Club","lat":52.4756,"lon":-1.92406,"postcode":"B16 8SY","la":"Birmingham","era":"mod","nn":281,"risk":16,"cat":"green"},{"name":"Le Bar Jester","lat":52.47483,"lon":-1.89964,"postcode":"B1 1EG","la":"Birmingham","era":"mod","nn":1,"risk":14,"cat":"green"},{"name":"Learn2Drift","lat":52.48001,"lon":-1.86413,"postcode":"B8 1AD","la":"Birmingham","era":"other","nn":0,"risk":14,"cat":"green"},{"name":"Levana Bar","lat":52.47454,"lon":-1.89662,"postcode":"B5 4TD","la":"Birmingham","era":"other","nn":0,"risk":14,"cat":"green"},{"name":"Lickey Banker","lat":52.40375,"lon":-2.02571,"postcode":"B45 0JD","la":"Birmingham","era":"other","nn":657,"risk":38,"cat":"amber"},{"name":"Lindsey's Kitchen","lat":52.49239,"lon":-1.85792,"postcode":"B8 1RS","la":"Birmingham","era":"mod","nn":549,"risk":17,"cat":"green"},{"name":"Lin'S Bar","lat":52.46028,"lon":-1.9872,"postcode":"B32 2TW","la":"Birmingham","era":"other","nn":512,"risk":20,"cat":"green"},{"name":"Longbridge Beefeater","lat":52.39535,"lon":-1.98496,"postcode":"B31 2US","la":"Birmingham","era":"other","nn":16,"risk":14,"cat":"green"},{"name":"Longbridge Social Club","lat":52.40788,"lon":-1.97527,"postcode":"B31 2QU","la":"Birmingham","era":"mod","nn":238,"risk":15,"cat":"green"},{"name":"Loyal Caledonian Corks","lat":52.42372,"lon":-1.89166,"postcode":"B14 6DT","la":"Birmingham","era":"other","nn":0,"risk":14,"cat":"green"},{"name":"Man On The Moon","lat":52.394,"lon":-1.95397,"postcode":"B38 8LR","la":"Birmingham","era":"other","nn":946,"risk":40,"cat":"amber"},{"name":"Manor Farm","lat":52.51065,"lon":-1.7982,"postcode":"B35 7AF","la":"Birmingham","era":"other","nn":849,"risk":40,"cat":"amber"},{"name":"Maries Bar","lat":52.48965,"lon":-1.89994,"postcode":"B19 3RD","la":"Birmingham","era":"other","nn":86,"risk":14,"cat":"green"},{"name":"Masshouse Convenience Store","lat":52.40272,"lon":-1.9286,"postcode":"B38 9AD","la":"Birmingham","era":"mod","nn":566,"risk":23,"cat":"green"},{"name":"Mcdwyers","lat":52.45613,"lon":-1.8639,"postcode":"B11 4RD","la":"Birmingham","era":"other","nn":747,"risk":36,"cat":"amber"},{"name":"Meadway Sports And Social Club","lat":52.47829,"lon":-1.78468,"postcode":"B33 8LJ","la":"Birmingham","era":"mod","nn":615,"risk":23,"cat":"green"},{"name":"Mecca Bingo","lat":52.55425,"lon":-1.8859,"postcode":"B44 9JD","la":"Birmingham","era":"other","nn":103,"risk":14,"cat":"green"},{"name":"Medusa Gentlemen's Club","lat":52.47555,"lon":-1.90186,"postcode":"B1 1LN","la":"Birmingham","era":"other","nn":90,"risk":14,"cat":"green"},{"name":"Merrymaid","lat":52.46497,"lon":-1.88379,"postcode":"B12 0EA","la":"Birmingham","era":"other","nn":593,"risk":18,"cat":"green"},{"name":"Minworth Social Club And Institute Ltd","lat":52.52678,"lon":-1.76721,"postcode":"B76 9BB","la":"Birmingham","era":"mod","nn":373,"risk":34,"cat":"amber"},{"name":"Missing Bar","lat":52.47367,"lon":-1.89603,"postcode":"B5 6NU","la":"Birmingham","era":"other","nn":105,"risk":14,"cat":"green"},{"name":"Moseley All Services Club","lat":52.44719,"lon":-1.8831,"postcode":"B13 9EA","la":"Birmingham","era":"other","nn":234,"risk":15,"cat":"green"},{"name":"Moseley Arms Public House","lat":52.47071,"lon":-1.88141,"postcode":"B12 0HB","la":"Birmingham","era":"trad","nn":131,"risk":15,"cat":"green"},{"name":"Moseley Masonic Hall","lat":52.42372,"lon":-1.89166,"postcode":"B14 6DT","la":"Birmingham","era":"trad","nn":0,"risk":14,"cat":"green"},{"name":"Navigation Inn","lat":52.40792,"lon":-1.92619,"postcode":"B30 3LS","la":"Birmingham","era":"trad","nn":216,"risk":18,"cat":"green"},{"name":"New Inn","lat":52.46138,"lon":-1.81208,"postcode":"B26 1DG","la":"Birmingham","era":"trad","nn":285,"risk":16,"cat":"green"},{"name":"New Inn","lat":52.5246,"lon":-1.84284,"postcode":"B23 6UT","la":"Birmingham","era":"trad","nn":216,"risk":15,"cat":"green"},{"name":"New Snobs","lat":52.47556,"lon":-1.8976,"postcode":"B5 4HX","la":"Birmingham","era":"other","nn":19,"risk":14,"cat":"green"},{"name":"Nightingale Club","lat":52.47244,"lon":-1.89682,"postcode":"B5 6RD","la":"Birmingham","era":"other","nn":1,"risk":14,"cat":"green"},{"name":"No 1 Pub","lat":52.54266,"lon":-1.86679,"postcode":"B44 0AT","la":"Birmingham","era":"other","nn":0,"risk":14,"cat":"green"},{"name":"North Taproom: Snowhill","lat":52.4839,"lon":-1.89764,"postcode":"B4 6GH","la":"Birmingham","era":"mod","nn":212,"risk":15,"cat":"green"},{"name":"Northfield Conservative Club","lat":52.40282,"lon":-1.97354,"postcode":"B31 4HL","la":"Birmingham","era":"other","nn":286,"risk":16,"cat":"green"},{"name":"Northfield Masonic Hall","lat":52.41873,"lon":-1.96661,"postcode":"B31 2JS","la":"Birmingham","era":"trad","nn":489,"risk":35,"cat":"amber"},{"name":"Nuffield Fitness And Wellbeing","lat":52.47353,"lon":-1.92169,"postcode":"B16 8EQ","la":"Birmingham","era":"other","nn":1,"risk":14,"cat":"green"},{"name":"O Mahoneys Bar","lat":52.46902,"lon":-1.81042,"postcode":"B25 8RE","la":"Birmingham","era":"other","nn":0,"risk":14,"cat":"green"},{"name":"O'Donovans","lat":52.46881,"lon":-1.89312,"postcode":"B5 7HP","la":"Birmingham","era":"other","nn":163,"risk":15,"cat":"green"},{"name":"Old Bill & Bull","lat":52.46272,"lon":-1.82391,"postcode":"B25 8AW","la":"Birmingham","era":"trad","nn":587,"risk":23,"cat":"green"},{"name":"Old Contemptibles","lat":52.48275,"lon":-1.90015,"postcode":"B3 2HB","la":"Birmingham","era":"other","nn":75,"risk":14,"cat":"green"},{"name":"Old Hare & Hounds","lat":52.38305,"lon":-2.00282,"postcode":"B45 8UU","la":"Bromsgrove","era":"trad","nn":291,"risk":29,"cat":"green"},{"name":"Old House At Home","lat":52.46589,"lon":-1.96554,"postcode":"B17 8QP","la":"Birmingham","era":"mod","nn":717,"risk":19,"cat":"green"},{"name":"Old Oscott Working Mens Club","lat":52.55185,"lon":-1.90722,"postcode":"B44 8PE","la":"Birmingham","era":"trad","nn":207,"risk":20,"cat":"green"},{"name":"Old Windmill","lat":52.48667,"lon":-1.93196,"postcode":"B18 7QN","la":"Birmingham","era":"trad","nn":243,"risk":33,"cat":"amber"},{"name":"One Trick Pony Club","lat":52.4471,"lon":-1.88841,"postcode":"B13 8DD","la":"Birmingham","era":"other","nn":76,"risk":14,"cat":"green"},{"name":"O'Neills Harborne","lat":52.45798,"lon":-1.95603,"postcode":"B17 9PU","la":"Birmingham","era":"other","nn":111,"risk":14,"cat":"green"},{"name":"O'Neills On Broad Street","lat":52.47646,"lon":-1.91237,"postcode":"B1 2HG","la":"Birmingham","era":"other","nn":0,"risk":14,"cat":"green"},{"name":"Oscott Social Club","lat":52.5379,"lon":-1.8587,"postcode":"B23 5LX","la":"Birmingham","era":"mod","nn":621,"risk":18,"cat":"green"},{"name":"Otherworld","lat":52.47961,"lon":-1.89999,"postcode":"B2 5QJ","la":"Birmingham","era":"other","nn":11,"risk":14,"cat":"green"},{"name":"Our Lady Of Lourdes Social Centre","lat":52.42198,"lon":-1.85994,"postcode":"B13 0EU","la":"Birmingham","era":"mod","nn":874,"risk":40,"cat":"amber"},{"name":"Paradise Snooker Club","lat":52.47673,"lon":-1.85751,"postcode":"B9 4TS","la":"Birmingham","era":"other","nn":459,"risk":17,"cat":"green"},{"name":"Peg & Grill","lat":52.47357,"lon":-1.91439,"postcode":"B15 1EJ","la":"Birmingham","era":"mod","nn":95,"risk":14,"cat":"green"},{"name":"Perfection Snooker Club","lat":52.43141,"lon":-1.92008,"postcode":"B30 2YT","la":"Birmingham","era":"other","nn":130,"risk":15,"cat":"green"},{"name":"Performances Birmingham Ltd","lat":52.47888,"lon":-1.9108,"postcode":"B1 2EA","la":"Birmingham","era":"other","nn":73,"risk":14,"cat":"green"},{"name":"Perry Barr Conservative Club","lat":52.53539,"lon":-1.88017,"postcode":"B44 8QH","la":"Birmingham","era":"other","nn":675,"risk":21,"cat":"green"},{"name":"Pickwick Cricket & Social Club","lat":52.43885,"lon":-1.86553,"postcode":"B13 9QR","la":"Birmingham","era":"mod","nn":344,"risk":36,"cat":"amber"},{"name":"Play Sports Bar Grill","lat":52.4754,"lon":-1.8975,"postcode":"B5 4RT","la":"Birmingham","era":"mod","nn":0,"risk":14,"cat":"green"},{"name":"Players Birmingham","lat":52.47646,"lon":-1.91237,"postcode":"B1 2HG","la":"Birmingham","era":"other","nn":0,"risk":14,"cat":"green"},{"name":"Popworld Birmingham","lat":52.47718,"lon":-1.91229,"postcode":"B1 2HJ","la":"Birmingham","era":"other","nn":80,"risk":14,"cat":"green"},{"name":"Prestige Bar Restaurant","lat":52.48412,"lon":-1.91733,"postcode":"B1 3RB","la":"Birmingham","era":"mod","nn":200,"risk":15,"cat":"green"},{"name":"PRI Birmingham Wheels Raceway","lat":52.48001,"lon":-1.86413,"postcode":"B8 1AD","la":"Birmingham","era":"other","nn":0,"risk":14,"cat":"green"},{"name":"Pritchatts Park Social Club","lat":52.45723,"lon":-1.93766,"postcode":"B15 2QW","la":"Birmingham","era":"mod","nn":490,"risk":17,"cat":"green"},{"name":"Pryzm","lat":52.4744,"lon":-1.91468,"postcode":"B15 1DA","la":"Birmingham","era":"other","nn":0,"risk":14,"cat":"green"},{"name":"PST Community Centre & Private Club","lat":52.47073,"lon":-1.88681,"postcode":"B12 0QR","la":"Birmingham","era":"other","nn":158,"risk":15,"cat":"green"},{"name":"Pump Tavern","lat":52.5037,"lon":-1.93563,"postcode":"B21 9LR","la":"Birmingham","era":"other","nn":110,"risk":17,"cat":"green"},{"name":"PX entertainment Limited","lat":52.48134,"lon":-1.88967,"postcode":"B5 5JE","la":"Birmingham","era":"other","nn":246,"risk":15,"cat":"green"},{"name":"Quarry Club","lat":52.40892,"lon":-1.9722,"postcode":"B31 2PY","la":"Birmingham","era":"other","nn":226,"risk":15,"cat":"green"},{"name":"Quill and Taper","lat":52.60507,"lon":-1.84353,"postcode":"B74 4YE","la":"Birmingham","era":"mod","nn":528,"risk":35,"cat":"amber"},{"name":"Raekk Piri Piri","lat":52.55441,"lon":-1.8844,"postcode":"B44 9RT","la":"Birmingham","era":"other","nn":103,"risk":14,"cat":"green"},{"name":"RAHYA RESTAURANT (pre Observatory)","lat":52.50171,"lon":-1.91653,"postcode":"B19 1EP","la":"Birmingham","era":"other","nn":684,"risk":18,"cat":"green"},{"name":"Railway Inn","lat":52.49608,"lon":-1.92615,"postcode":"B18 5HE","la":"Birmingham","era":"trad","nn":243,"risk":15,"cat":"green"},{"name":"Rainbow Casino Ltd","lat":52.47307,"lon":-1.93852,"postcode":"B16 9HN","la":"Birmingham","era":"other","nn":203,"risk":15,"cat":"green"},{"name":"Ravenscroft Social Club","lat":52.47333,"lon":-1.85368,"postcode":"B10 9QT","la":"Birmingham","era":"mod","nn":459,"risk":17,"cat":"green"},{"name":"Rear Of","lat":52.57397,"lon":-1.81548,"postcode":"B75 6DH","la":"Birmingham","era":"other","nn":940,"risk":25,"cat":"green"},{"name":"Red Lion","lat":52.52848,"lon":-1.84259,"postcode":"B23 6UG","la":"Birmingham","era":"trad","nn":175,"risk":15,"cat":"green"},{"name":"Redhill Tavern","lat":52.46298,"lon":-1.83256,"postcode":"B25 8DG","la":"Birmingham","era":"other","nn":587,"risk":38,"cat":"amber"},{"name":"Reflex","lat":52.47823,"lon":-1.91064,"postcode":"B1 2DY","la":"Birmingham","era":"other","nn":58,"risk":14,"cat":"green"},{"name":"Roebuck","lat":52.48209,"lon":-1.90037,"postcode":"B3 2NP","la":"Birmingham","era":"other","nn":0,"risk":14,"cat":"green"},{"name":"Roost","lat":52.47493,"lon":-1.86413,"postcode":"B9 4RL","la":"Birmingham","era":"other","nn":124,"risk":14,"cat":"green"},{"name":"ROSEY MACS PHS LTD","lat":52.53411,"lon":-1.8389,"postcode":"B23 5SB","la":"Birmingham","era":"other","nn":118,"risk":14,"cat":"green"},{"name":"Rosie's","lat":52.47724,"lon":-1.91104,"postcode":"B1 2HF","la":"Birmingham","era":"other","nn":2,"risk":14,"cat":"green"},{"name":"Route 69 Bar","lat":52.4194,"lon":-1.9196,"postcode":"B30 3DZ","la":"Birmingham","era":"other","nn":463,"risk":17,"cat":"green"},{"name":"Roxy Ball Room","lat":52.47896,"lon":-1.90316,"postcode":"B1 1BD","la":"Birmingham","era":"other","nn":104,"risk":14,"cat":"green"},{"name":"Roxy Lanes","lat":52.47609,"lon":-1.88299,"postcode":"B9 4AR","la":"Birmingham","era":"other","nn":136,"risk":15,"cat":"green"},{"name":"Royal Air Force Association","lat":52.4586,"lon":-1.78014,"postcode":"B26 3UB","la":"Birmingham","era":"trad","nn":302,"risk":21,"cat":"green"},{"name":"Royal No 1 Club","lat":52.47578,"lon":-1.89635,"postcode":"B5 4ST","la":"Birmingham","era":"trad","nn":89,"risk":14,"cat":"green"},{"name":"Royal Oak","lat":52.52805,"lon":-1.84507,"postcode":"B23 6HX","la":"Birmingham","era":"trad","nn":175,"risk":15,"cat":"green"},{"name":"Royal Sutton Coldfield Club","lat":52.5483,"lon":-1.8574,"postcode":"B73 5DF","la":"Birmingham","era":"trad","nn":166,"risk":15,"cat":"green"},{"name":"Royale Suite","lat":52.51316,"lon":-1.90167,"postcode":"B20 3DD","la":"Birmingham","era":"trad","nn":310,"risk":16,"cat":"green"},{"name":"Rum Rum Bar Birmingham","lat":52.47478,"lon":-1.89695,"postcode":"B5 4TD","la":"Birmingham","era":"mod","nn":0,"risk":14,"cat":"green"},{"name":"Saint Pauls House","lat":52.48562,"lon":-1.90477,"postcode":"B3 1RB","la":"Birmingham","era":"trad","nn":62,"risk":14,"cat":"green"},{"name":"Scarlets","lat":52.47439,"lon":-1.89956,"postcode":"B1 1DA","la":"Birmingham","era":"other","nn":49,"risk":14,"cat":"green"},{"name":"Schooners","lat":52.43442,"lon":-1.89431,"postcode":"B14 7SA","la":"Birmingham","era":"other","nn":45,"risk":14,"cat":"green"},{"name":"Scruffy Murphys","lat":52.4824,"lon":-1.89286,"postcode":"B4 6NB","la":"Birmingham","era":"other","nn":106,"risk":14,"cat":"green"},{"name":"Second City Mount Tavern","lat":52.54979,"lon":-1.86576,"postcode":"B44 0SH","la":"Birmingham","era":"other","nn":589,"risk":20,"cat":"green"},{"name":"Sector 57","lat":52.4766,"lon":-1.88497,"postcode":"B5 5TR","la":"Birmingham","era":"other","nn":90,"risk":14,"cat":"green"},{"name":"Sedgemere Sports & Social Club","lat":52.47194,"lon":-1.79355,"postcode":"B26 2AX","la":"Birmingham","era":"mod","nn":650,"risk":21,"cat":"green"},{"name":"Selly Park Tavern","lat":52.44725,"lon":-1.91346,"postcode":"B29 7HQ","la":"Birmingham","era":"other","nn":995,"risk":41,"cat":"amber"},{"name":"Shakespeare Inn","lat":52.47888,"lon":-1.89911,"postcode":"B2 4JD","la":"Birmingham","era":"trad","nn":0,"risk":14,"cat":"green"},{"name":"Shanahans","lat":52.49639,"lon":-1.87979,"postcode":"B7 5EP","la":"Birmingham","era":"other","nn":424,"risk":17,"cat":"green"},{"name":"Shard End Social Club","lat":52.49795,"lon":-1.76999,"postcode":"B34 7RN","la":"Birmingham","era":"mod","nn":331,"risk":33,"cat":"amber"},{"name":"Sheldon Heath Social Club","lat":52.46188,"lon":-1.78306,"postcode":"B26 2RJ","la":"Birmingham","era":"mod","nn":415,"risk":34,"cat":"amber"},{"name":"Shenley Lane Community Association","lat":52.42303,"lon":-1.96806,"postcode":"B29 4HZ","la":"Birmingham","era":"other","nn":489,"risk":37,"cat":"amber"},{"name":"Shooters and Bierkeller Bar","lat":52.47363,"lon":-1.89846,"postcode":"B5 4TR","la":"Birmingham","era":"other","nn":0,"risk":14,"cat":"green"},{"name":"Simpsons Gin Bar","lat":52.56541,"lon":-1.82286,"postcode":"B72 1XH","la":"Birmingham","era":"other","nn":77,"risk":14,"cat":"green"},{"name":"Sir Charles Napier","lat":52.46717,"lon":-1.89312,"postcode":"B5 7HY","la":"Birmingham","era":"other","nn":183,"risk":15,"cat":"green"},{"name":"Slimming World Franchise","lat":52.47528,"lon":-1.80142,"postcode":"B33 8PD","la":"Birmingham","era":"other","nn":611,"risk":18,"cat":"green"},{"name":"Slug & Lettuce","lat":52.5596,"lon":-1.82568,"postcode":"B72 1QA","la":"Birmingham","era":"other","nn":110,"risk":14,"cat":"green"},{"name":"Slug & Lettuce","lat":52.47818,"lon":-1.91201,"postcode":"B1 2HL","la":"Birmingham","era":"other","nn":33,"risk":14,"cat":"green"},{"name":"Slug & Lettuce/K-Town/Chik Box/Locke","lat":52.4586,"lon":-1.94909,"postcode":"B17 9PP","la":"Birmingham","era":"other","nn":68,"risk":14,"cat":"green"},{"name":"Snobs","lat":52.47524,"lon":-1.91383,"postcode":"B15 1AY","la":"Birmingham","era":"other","nn":0,"risk":14,"cat":"green"},{"name":"Snooker Club 147","lat":52.47224,"lon":-1.86406,"postcode":"B10 0XE","la":"Birmingham","era":"other","nn":121,"risk":14,"cat":"green"},{"name":"Sobar Bar","lat":52.4754,"lon":-1.8975,"postcode":"B5 4RT","la":"Birmingham","era":"mod","nn":0,"risk":14,"cat":"green"},{"name":"Soho Tavern","lat":52.49784,"lon":-1.92826,"postcode":"B18 5SR","la":"Birmingham","era":"other","nn":130,"risk":15,"cat":"green"},{"name":"Soiree Lounge","lat":52.48178,"lon":-1.90759,"postcode":"B3 1JP","la":"Birmingham","era":"mod","nn":21,"risk":14,"cat":"green"},{"name":"Soloman Cutler","lat":52.47774,"lon":-1.9103,"postcode":"B1 2DS","la":"Birmingham","era":"other","nn":0,"risk":14,"cat":"green"},{"name":"Sommar Bar and Taproom","lat":52.48018,"lon":-1.9006,"postcode":"B2 5TB","la":"Birmingham","era":"mod","nn":21,"risk":14,"cat":"green"},{"name":"Son Caney Cuba Bar","lat":52.47826,"lon":-1.88193,"postcode":"B5 5SE","la":"Birmingham","era":"other","nn":252,"risk":15,"cat":"green"},{"name":"Spearmint Rhino","lat":52.47171,"lon":-1.92591,"postcode":"B16 8PF","la":"Birmingham","era":"other","nn":330,"risk":16,"cat":"green"},{"name":"St Gerards Church Centre","lat":52.52215,"lon":-1.78432,"postcode":"B35 6PR","la":"Birmingham","era":"other","nn":928,"risk":40,"cat":"amber"},{"name":"St Thomas' Association","lat":52.52763,"lon":-1.83838,"postcode":"B23 6UB","la":"Birmingham","era":"other","nn":114,"risk":14,"cat":"green"},{"name":"Station  Inn Hotel & Bar","lat":52.48321,"lon":-1.81023,"postcode":"B33 8BB","la":"Birmingham","era":"trad","nn":773,"risk":39,"cat":"amber"},{"name":"Staynewhall Square Ltd","lat":52.48234,"lon":-1.90828,"postcode":"B3 1PW","la":"Birmingham","era":"other","nn":78,"risk":14,"cat":"green"},{"name":"Stirchley United Working Mens Club","lat":52.42906,"lon":-1.92002,"postcode":"B30 2PR","la":"Birmingham","era":"trad","nn":5,"risk":14,"cat":"green"},{"name":"Streetly Lawn Tennis Club Ltd","lat":52.59195,"lon":-1.85857,"postcode":"B74 4PT","la":"Birmingham","era":"other","nn":639,"risk":36,"cat":"amber"},{"name":"Student Bar","lat":52.43413,"lon":-1.99504,"postcode":"B32 3NT","la":"Birmingham","era":"other","nn":213,"risk":15,"cat":"green"},{"name":"Student Union Bar","lat":52.45155,"lon":-1.92634,"postcode":"B15 2TT","la":"Birmingham","era":"other","nn":420,"risk":17,"cat":"green"},{"name":"Subside Bar Ltd","lat":52.47565,"lon":-1.88959,"postcode":"B5 6DA","la":"Birmingham","era":"mod","nn":138,"risk":15,"cat":"green"},{"name":"Sugar Suite","lat":52.47524,"lon":-1.91383,"postcode":"B15 1AY","la":"Birmingham","era":"other","nn":0,"risk":14,"cat":"green"},{"name":"Sun Valley Amusements","lat":52.43402,"lon":-1.8932,"postcode":"B14 7LG","la":"Birmingham","era":"other","nn":88,"risk":14,"cat":"green"},{"name":"Sutton Coldfield Cricket And Hockey Club","lat":52.56661,"lon":-1.80719,"postcode":"B75 7RU","la":"Birmingham","era":"other","nn":0,"risk":14,"cat":"green"},{"name":"Sutton Coldfield Hard Courts Club","lat":52.54972,"lon":-1.82744,"postcode":"B73 5QB","la":"Birmingham","era":"other","nn":248,"risk":15,"cat":"green"},{"name":"Sutton Coldfield Rugby Football Club","lat":52.54605,"lon":-1.79823,"postcode":"B76 2QA","la":"Birmingham","era":"other","nn":577,"risk":35,"cat":"amber"},{"name":"Sutton Coldfield Town Football Club","lat":52.55609,"lon":-1.81942,"postcode":"B72 1NL","la":"Birmingham","era":"other","nn":236,"risk":15,"cat":"green"},{"name":"Sutton Park Hotel","lat":52.54956,"lon":-1.84127,"postcode":"B73 5UY","la":"Birmingham","era":"other","nn":106,"risk":14,"cat":"green"},{"name":"Sutton Sports & Social Club Limited","lat":52.56174,"lon":-1.82315,"postcode":"B72 1QU","la":"Birmingham","era":"mod","nn":293,"risk":16,"cat":"green"},{"name":"Sutton United F C","lat":52.56179,"lon":-1.80324,"postcode":"B75 7SN","la":"Birmingham","era":"other","nn":599,"risk":35,"cat":"amber"},{"name":"Swan & Mitre P H","lat":52.50459,"lon":-1.87024,"postcode":"B6 7ST","la":"Birmingham","era":"trad","nn":457,"risk":19,"cat":"green"},{"name":"T/A Medicine Bar","lat":52.47537,"lon":-1.88462,"postcode":"B9 4AA","la":"Birmingham","era":"other","nn":72,"risk":14,"cat":"green"},{"name":"Talk Bar","lat":52.48138,"lon":-1.89369,"postcode":"B4 7LL","la":"Birmingham","era":"other","nn":0,"risk":14,"cat":"green"},{"name":"Tap & Spile","lat":52.477,"lon":-1.90969,"postcode":"B1 2JT","la":"Birmingham","era":"other","nn":0,"risk":14,"cat":"green"},{"name":"Tascos Social Club","lat":52.42904,"lon":-1.9201,"postcode":"B30 2PR","la":"Birmingham","era":"mod","nn":5,"risk":14,"cat":"green"},{"name":"Tennis Court Birmingham","lat":52.52619,"lon":-1.90502,"postcode":"B42 1TY","la":"Birmingham","era":"other","nn":469,"risk":34,"cat":"amber"},{"name":"The Albion At Aston","lat":52.49557,"lon":-1.88592,"postcode":"B6 4DT","la":"Birmingham","era":"other","nn":1,"risk":14,"cat":"green"},{"name":"The Anchor","lat":52.47454,"lon":-1.88853,"postcode":"B5 6ET","la":"Birmingham","era":"trad","nn":143,"risk":15,"cat":"green"},{"name":"The Anson Boat","lat":52.47701,"lon":-1.90969,"postcode":"B1 2JT","la":"Birmingham","era":"other","nn":0,"risk":14,"cat":"green"},{"name":"The Anvil Inn","lat":52.55981,"lon":-1.78644,"postcode":"B75 7ET","la":"Birmingham","era":"trad","nn":1157,"risk":44,"cat":"amber"},{"name":"The Armada","lat":52.51134,"lon":-1.85513,"postcode":"B23 7NX","la":"Birmingham","era":"other","nn":271,"risk":33,"cat":"amber"},{"name":"The Arthur Robertson","lat":52.51705,"lon":-1.90289,"postcode":"B42 1AA","la":"Birmingham","era":"other","nn":441,"risk":22,"cat":"green"},{"name":"The Aston Inn","lat":52.50776,"lon":-1.87719,"postcode":"B6 7JU","la":"Birmingham","era":"trad","nn":131,"risk":15,"cat":"green"},{"name":"The Baldwin (Hungry Horse)","lat":52.41541,"lon":-1.84239,"postcode":"B28 0QB","la":"Birmingham","era":"trad","nn":674,"risk":18,"cat":"green"},{"name":"The Bannatyne Spa","lat":52.47808,"lon":-1.91454,"postcode":"B1 2JF","la":"Birmingham","era":"other","nn":116,"risk":14,"cat":"green"},{"name":"The Barrel Store","lat":52.48579,"lon":-1.90251,"postcode":"B3 1HL","la":"Birmingham","era":"other","nn":11,"risk":14,"cat":"green"},{"name":"The Barrell Bar & Grill","lat":52.49037,"lon":-1.89953,"postcode":"B19 3RG","la":"Birmingham","era":"mod","nn":86,"risk":14,"cat":"green"},{"name":"The Bell","lat":52.45392,"lon":-1.9599,"postcode":"B17 0BB","la":"Birmingham","era":"other","nn":87,"risk":14,"cat":"green"},{"name":"The Birmingham Whiskey Club","lat":52.49039,"lon":-1.91219,"postcode":"B18 6HA","la":"Birmingham","era":"other","nn":20,"risk":14,"cat":"green"},{"name":"The Bishop Vesey","lat":52.54863,"lon":-1.841,"postcode":"B73 5XA","la":"Birmingham","era":"trad","nn":106,"risk":17,"cat":"green"},{"name":"The Black Eagle","lat":52.49888,"lon":-1.92738,"postcode":"B18 5JU","la":"Birmingham","era":"trad","nn":130,"risk":15,"cat":"green"},{"name":"The Boot Inn","lat":52.56661,"lon":-1.80719,"postcode":"B75 7RU","la":"Birmingham","era":"trad","nn":0,"risk":14,"cat":"green"},{"name":"The Bournbrook Inn Public House","lat":52.43051,"lon":-1.92131,"postcode":"B30 2YT","la":"Birmingham","era":"trad","nn":130,"risk":15,"cat":"green"},{"name":"The Box Office","lat":52.4815,"lon":-1.89335,"postcode":"B4 7LS","la":"Birmingham","era":"other","nn":26,"risk":14,"cat":"green"},{"name":"The Bugle Horn","lat":52.40798,"lon":-2.00411,"postcode":"B45 0JS","la":"Birmingham","era":"other","nn":584,"risk":23,"cat":"green"},{"name":"The Bull","lat":52.48653,"lon":-1.89525,"postcode":"B4 6JU","la":"Birmingham","era":"trad","nn":89,"risk":14,"cat":"green"},{"name":"The Bulls Head","lat":52.40781,"lon":-1.92938,"postcode":"B38 8RU","la":"Birmingham","era":"trad","nn":216,"risk":18,"cat":"green"},{"name":"The Button Factory","lat":52.4865,"lon":-1.9121,"postcode":"B1 3HH","la":"Birmingham","era":"other","nn":79,"risk":14,"cat":"green"},{"name":"The Cambridge","lat":52.39522,"lon":-1.98507,"postcode":"B31 2US","la":"Birmingham","era":"other","nn":16,"risk":14,"cat":"green"},{"name":"The Canal House","lat":52.47739,"lon":-1.90884,"postcode":"B1 2JR","la":"Birmingham","era":"other","nn":72,"risk":14,"cat":"green"},{"name":"The Cavalier Pub","lat":52.39993,"lon":-1.96398,"postcode":"B31 3RT","la":"Birmingham","era":"other","nn":441,"risk":22,"cat":"green"},{"name":"The Church","lat":52.48909,"lon":-1.90741,"postcode":"B18 6AQ","la":"Birmingham","era":"other","nn":272,"risk":16,"cat":"green"},{"name":"The Church Tavern","lat":52.52273,"lon":-1.84048,"postcode":"B23 6SJ","la":"Birmingham","era":"other","nn":79,"risk":14,"cat":"green"},{"name":"The Clements","lat":52.49136,"lon":-1.89498,"postcode":"B6 4HG","la":"Birmingham","era":"other","nn":327,"risk":16,"cat":"green"},{"name":"The Clock Public House","lat":52.45737,"lon":-1.88971,"postcode":"B12 9LR","la":"Birmingham","era":"other","nn":139,"risk":15,"cat":"green"},{"name":"The Clumsy Swan Ltd","lat":52.46902,"lon":-1.81042,"postcode":"B25 8RE","la":"Birmingham","era":"trad","nn":0,"risk":14,"cat":"green"},{"name":"The Cock Pub","lat":52.43681,"lon":-1.99542,"postcode":"B32 3LE","la":"Birmingham","era":"other","nn":144,"risk":15,"cat":"green"},{"name":"The Cocktail Club Birmingham","lat":52.47993,"lon":-1.89896,"postcode":"B2 5DB","la":"Birmingham","era":"other","nn":39,"risk":14,"cat":"green"},{"name":"The Coldstream","lat":52.40302,"lon":-2.01609,"postcode":"B45 0JA","la":"Birmingham","era":"other","nn":657,"risk":18,"cat":"green"},{"name":"The Court Oak","lat":52.46195,"lon":-1.97735,"postcode":"B32 2EH","la":"Birmingham","era":"trad","nn":592,"risk":18,"cat":"green"},{"name":"The Covered Wagon","lat":52.43857,"lon":-1.87058,"postcode":"B13 9JW","la":"Birmingham","era":"other","nn":344,"risk":36,"cat":"amber"},{"name":"The Crane","lat":52.47478,"lon":-1.87745,"postcode":"B9 4ED","la":"Birmingham","era":"other","nn":338,"risk":16,"cat":"green"},{"name":"The Crane Hungry Horse","lat":52.45674,"lon":-1.7769,"postcode":"B26 3SN","la":"Birmingham","era":"trad","nn":302,"risk":18,"cat":"green"},{"name":"The Crown","lat":52.51911,"lon":-1.81338,"postcode":"B24 0TH","la":"Birmingham","era":"trad","nn":799,"risk":39,"cat":"amber"},{"name":"The Crown","lat":52.42052,"lon":-1.892,"postcode":"B14 6EN","la":"Birmingham","era":"trad","nn":191,"risk":15,"cat":"green"},{"name":"The Crown At Kingstanding","lat":52.55765,"lon":-1.89352,"postcode":"B44 9NR","la":"Birmingham","era":"trad","nn":423,"risk":17,"cat":"green"},{"name":"The Crown Members Club","lat":52.49839,"lon":-1.76516,"postcode":"B34 7HP","la":"Birmingham","era":"trad","nn":331,"risk":21,"cat":"green"},{"name":"The Cuban Embassy","lat":52.44669,"lon":-1.88752,"postcode":"B13 8HW","la":"Birmingham","era":"other","nn":0,"risk":14,"cat":"green"},{"name":"The Dark Horse","lat":52.44605,"lon":-1.88897,"postcode":"B13 8JP","la":"Birmingham","era":"trad","nn":120,"risk":14,"cat":"green"},{"name":"The Dragon Inn","lat":52.47478,"lon":-1.89695,"postcode":"B5 4TD","la":"Birmingham","era":"trad","nn":0,"risk":14,"cat":"green"},{"name":"The Duck Beefeater","lat":52.47122,"lon":-1.94101,"postcode":"B16 9NY","la":"Birmingham","era":"other","nn":235,"risk":15,"cat":"green"},{"name":"The Eagle Tavern","lat":52.45711,"lon":-1.8925,"postcode":"B12 9RN","la":"Birmingham","era":"trad","nn":141,"risk":15,"cat":"green"},{"name":"The Elizabeth of York","lat":52.44613,"lon":-1.88721,"postcode":"B13 8JG","la":"Birmingham","era":"other","nn":65,"risk":14,"cat":"green"},{"name":"The Fighting Cocks","lat":52.44669,"lon":-1.88752,"postcode":"B13 8HW","la":"Birmingham","era":"other","nn":0,"risk":14,"cat":"green"},{"name":"The Flapper","lat":52.48019,"lon":-1.91248,"postcode":"B1 2NU","la":"Birmingham","era":"other","nn":69,"risk":14,"cat":"green"},{"name":"The Florence","lat":52.48165,"lon":-1.90202,"postcode":"B3 2ES","la":"Birmingham","era":"other","nn":71,"risk":14,"cat":"green"},{"name":"The Fountain","lat":52.47178,"lon":-1.88525,"postcode":"B12 0QH","la":"Birmingham","era":"other","nn":158,"risk":15,"cat":"green"},{"name":"The Fox","lat":52.4718,"lon":-1.89538,"postcode":"B5 6SN","la":"Birmingham","era":"trad","nn":102,"risk":14,"cat":"green"},{"name":"The Garrison","lat":52.4803,"lon":-1.87265,"postcode":"B9 4BS","la":"Birmingham","era":"other","nn":238,"risk":15,"cat":"green"},{"name":"The Gate","lat":52.45815,"lon":-1.87611,"postcode":"B12 8JB","la":"Birmingham","era":"other","nn":599,"risk":18,"cat":"green"},{"name":"The golden hind","lat":52.53089,"lon":-1.89097,"postcode":"B44 8JR","la":"Birmingham","era":"other","nn":450,"risk":19,"cat":"green"},{"name":"The Goose Selly Oak","lat":52.44605,"lon":-1.93333,"postcode":"B29 6AF","la":"Birmingham","era":"trad","nn":73,"risk":14,"cat":"green"},{"name":"The Great Stone","lat":52.41311,"lon":-1.96501,"postcode":"B31 2LU","la":"Birmingham","era":"other","nn":634,"risk":21,"cat":"green"},{"name":"The Great Western Hotel","lat":52.44998,"lon":-1.81917,"postcode":"B27 6EB","la":"Birmingham","era":"other","nn":630,"risk":18,"cat":"green"},{"name":"The Green  Man","lat":52.46015,"lon":-1.94425,"postcode":"B17 9NE","la":"Birmingham","era":"other","nn":64,"risk":14,"cat":"green"},{"name":"The Greenlands Inn","lat":52.39549,"lon":-1.98094,"postcode":"B31 4LF","la":"Birmingham","era":"trad","nn":0,"risk":14,"cat":"green"},{"name":"THE GREENLANDS KITCHEN","lat":52.39549,"lon":-1.98094,"postcode":"B31 4LF","la":"Birmingham","era":"mod","nn":0,"risk":14,"cat":"green"},{"name":"The Grey Lantern","lat":52.48138,"lon":-1.89369,"postcode":"B4 7LL","la":"Birmingham","era":"other","nn":0,"risk":14,"cat":"green"},{"name":"The Grove Bar & Restaurant","lat":52.51261,"lon":-1.93352,"postcode":"B20 2HA","la":"Birmingham","era":"mod","nn":374,"risk":21,"cat":"green"},{"name":"The Gunmakers Arms","lat":52.48665,"lon":-1.89655,"postcode":"B4 6HG","la":"Birmingham","era":"trad","nn":89,"risk":14,"cat":"green"},{"name":"The Hairy Lemon","lat":52.44209,"lon":-1.99394,"postcode":"B32 3DD","la":"Birmingham","era":"other","nn":452,"risk":22,"cat":"green"},{"name":"The Hangout","lat":52.47686,"lon":-1.88717,"postcode":"B5 5NR","la":"Birmingham","era":"other","nn":73,"risk":14,"cat":"green"},{"name":"The Harborne Club","lat":52.45961,"lon":-1.95107,"postcode":"B17 9JX","la":"Birmingham","era":"other","nn":174,"risk":15,"cat":"green"},{"name":"The Hazelwell Public House","lat":52.42847,"lon":-1.91018,"postcode":"B30 2SY","la":"Birmingham","era":"other","nn":565,"risk":18,"cat":"green"},{"name":"The Highbury","lat":52.43693,"lon":-1.90805,"postcode":"B13 8PQ","la":"Birmingham","era":"other","nn":900,"risk":20,"cat":"green"},{"name":"The Highlander","lat":52.42484,"lon":-1.98306,"postcode":"B31 1TN","la":"Birmingham","era":"other","nn":1037,"risk":43,"cat":"amber"},{"name":"The Holte Pub","lat":52.50849,"lon":-1.88496,"postcode":"B6 6HE","la":"Birmingham","era":"other","nn":406,"risk":16,"cat":"green"},{"name":"The Hop Garden","lat":52.45993,"lon":-1.94338,"postcode":"B17 0HT","la":"Birmingham","era":"other","nn":64,"risk":14,"cat":"green"},{"name":"The Hub","lat":52.48213,"lon":-1.90667,"postcode":"B3 1JP","la":"Birmingham","era":"mod","nn":73,"risk":14,"cat":"green"},{"name":"The Hunters Moon","lat":52.49914,"lon":-1.80265,"postcode":"B36 8BE","la":"Birmingham","era":"other","nn":261,"risk":20,"cat":"green"},{"name":"The Iron Horse","lat":52.48404,"lon":-1.79889,"postcode":"B33 9ES","la":"Birmingham","era":"trad","nn":773,"risk":37,"cat":"amber"},{"name":"The Jam House","lat":52.4851,"lon":-1.9044,"postcode":"B3 1QU","la":"Birmingham","era":"other","nn":62,"risk":14,"cat":"green"},{"name":"The Junction","lat":52.45797,"lon":-1.95345,"postcode":"B17 9PT","la":"Birmingham","era":"other","nn":170,"risk":15,"cat":"green"},{"name":"The Kings Head","lat":52.4725,"lon":-1.96648,"postcode":"B17 8BJ","la":"Birmingham","era":"trad","nn":320,"risk":16,"cat":"green"},{"name":"The Kings Oak","lat":52.40527,"lon":-1.94608,"postcode":"B38 8XH","la":"Birmingham","era":"trad","nn":1040,"risk":43,"cat":"amber"},{"name":"The Kingstanding Inn","lat":52.54322,"lon":-1.87907,"postcode":"B44 0QN","la":"Birmingham","era":"trad","nn":0,"risk":16,"cat":"green"},{"name":"The Kulture Bar & Restaurant","lat":52.49268,"lon":-1.91176,"postcode":"B18 5AN","la":"Birmingham","era":"mod","nn":180,"risk":15,"cat":"green"},{"name":"The Lamp Tavern","lat":52.47167,"lon":-1.89125,"postcode":"B5 6AH","la":"Birmingham","era":"other","nn":169,"risk":15,"cat":"green"},{"name":"The Leopard","lat":52.53534,"lon":-1.85054,"postcode":"B23 5NX","la":"Birmingham","era":"other","nn":395,"risk":16,"cat":"green"},{"name":"The London and North Western","lat":52.47739,"lon":-1.89803,"postcode":"B2 4QE","la":"Birmingham","era":"other","nn":0,"risk":14,"cat":"green"},{"name":"The Lost & Found","lat":52.47989,"lon":-1.90069,"postcode":"B2 5RS","la":"Birmingham","era":"other","nn":33,"risk":14,"cat":"green"},{"name":"The Lounge","lat":52.4842,"lon":-1.88871,"postcode":"B4 7BX","la":"Birmingham","era":"mod","nn":325,"risk":16,"cat":"green"},{"name":"The Lounge at Boldmere","lat":52.54756,"lon":-1.84125,"postcode":"B73 5UB","la":"Birmingham","era":"mod","nn":0,"risk":14,"cat":"green"},{"name":"The Mare Pool","lat":52.5864,"lon":-1.82922,"postcode":"B74 2UW","la":"Birmingham","era":"other","nn":63,"risk":14,"cat":"green"},{"name":"The Marlborough","lat":52.46285,"lon":-1.8639,"postcode":"B11 1ND","la":"Birmingham","era":"other","nn":719,"risk":24,"cat":"green"},{"name":"The Merry Mare","lat":52.46902,"lon":-1.81042,"postcode":"B25 8RE","la":"Birmingham","era":"other","nn":0,"risk":14,"cat":"green"},{"name":"The Monastry Nighclub","lat":52.47467,"lon":-1.88264,"postcode":"B12 0LD","la":"Birmingham","era":"other","nn":66,"risk":14,"cat":"green"},{"name":"The New Bell","lat":52.5415,"lon":-1.91815,"postcode":"B42 2NX","la":"Birmingham","era":"other","nn":1154,"risk":44,"cat":"amber"},{"name":"The New Irish Centre","lat":52.43017,"lon":-1.87794,"postcode":"B13 0ST","la":"Birmingham","era":"other","nn":1049,"risk":43,"cat":"amber"},{"name":"The O Bar","lat":52.47774,"lon":-1.9103,"postcode":"B1 2DS","la":"Birmingham","era":"other","nn":0,"risk":14,"cat":"green"},{"name":"The Oak","lat":52.53947,"lon":-1.79255,"postcode":"B76 1QR","la":"Birmingham","era":"trad","nn":581,"risk":23,"cat":"green"},{"name":"The Old Court","lat":52.43586,"lon":-1.893,"postcode":"B14 7JZ","la":"Birmingham","era":"other","nn":0,"risk":14,"cat":"green"},{"name":"The Old Crown","lat":52.44496,"lon":-2.01403,"postcode":"B62 0EP","la":"Birmingham","era":"trad","nn":617,"risk":35,"cat":"amber"},{"name":"The Old Crown","lat":52.47481,"lon":-1.88359,"postcode":"B12 0LD","la":"Birmingham","era":"trad","nn":26,"risk":14,"cat":"green"},{"name":"The Old Joint Stock","lat":52.48074,"lon":-1.90011,"postcode":"B2 5NY","la":"Birmingham","era":"other","nn":22,"risk":14,"cat":"green"},{"name":"The Old Moseley Arms","lat":52.45524,"lon":-1.88951,"postcode":"B12 9QU","la":"Birmingham","era":"trad","nn":152,"risk":15,"cat":"green"},{"name":"The Old Rep Theatre","lat":52.4766,"lon":-1.89841,"postcode":"B5 4EB","la":"Birmingham","era":"other","nn":91,"risk":14,"cat":"green"},{"name":"The Old School House","lat":52.5877,"lon":-1.82868,"postcode":"B75 5BL","la":"Birmingham","era":"other","nn":72,"risk":14,"cat":"green"},{"name":"The Oyster Club","lat":52.48036,"lon":-1.89882,"postcode":"B2 5DP","la":"Birmingham","era":"other","nn":11,"risk":14,"cat":"green"},{"name":"The Paddocks Sports Club","lat":52.51367,"lon":-1.91957,"postcode":"B20 2DU","la":"Birmingham","era":"other","nn":494,"risk":20,"cat":"green"},{"name":"The Park Playground Birmingham","lat":52.47856,"lon":-1.91303,"postcode":"B1 2JB","la":"Birmingham","era":"other","nn":63,"risk":14,"cat":"green"},{"name":"The Patrick Kavanagh","lat":52.44831,"lon":-1.88602,"postcode":"B13 8BX","la":"Birmingham","era":"other","nn":131,"risk":15,"cat":"green"},{"name":"The Pavillion","lat":52.52992,"lon":-1.88451,"postcode":"B6 7AA","la":"Birmingham","era":"trad","nn":450,"risk":19,"cat":"green"},{"name":"The Pavillion","lat":52.42372,"lon":-1.89166,"postcode":"B14 6DT","la":"Birmingham","era":"trad","nn":0,"risk":14,"cat":"green"},{"name":"The Peaky Blinder","lat":52.48067,"lon":-1.89428,"postcode":"B4 7LS","la":"Birmingham","era":"other","nn":77,"risk":14,"cat":"green"},{"name":"The Pheasant Plucker","lat":52.52733,"lon":-1.83341,"postcode":"B24 9HX","la":"Birmingham","era":"other","nn":63,"risk":14,"cat":"green"},{"name":"The Pheonix","lat":52.40552,"lon":-1.89859,"postcode":"B14 5SB","la":"Birmingham","era":"other","nn":1236,"risk":45,"cat":"amber"},{"name":"The Pig & Tail","lat":52.48417,"lon":-1.91439,"postcode":"B1 3AA","la":"Birmingham","era":"other","nn":200,"risk":15,"cat":"green"},{"name":"The Pint Pot","lat":52.58948,"lon":-1.82444,"postcode":"B75 5EA","la":"Birmingham","era":"other","nn":349,"risk":16,"cat":"green"},{"name":"The Plough / Death Row Sandwich","lat":52.46112,"lon":-1.94361,"postcode":"B17 9NT","la":"Birmingham","era":"trad","nn":116,"risk":14,"cat":"green"},{"name":"The Plough And Harrow","lat":52.58959,"lon":-1.80728,"postcode":"B75 5PF","la":"Birmingham","era":"trad","nn":1159,"risk":44,"cat":"amber"},{"name":"The Prince of Wales","lat":52.47981,"lon":-1.91329,"postcode":"B1 2NP","la":"Birmingham","era":"trad","nn":69,"risk":14,"cat":"green"},{"name":"The Prince of Wales  Taconistas Leaf","lat":52.44895,"lon":-1.88765,"postcode":"B13 8EE","la":"Birmingham","era":"trad","nn":131,"risk":15,"cat":"green"},{"name":"The Pub at Kings Heath","lat":52.43298,"lon":-1.89271,"postcode":"B14 7DJ","la":"Birmingham","era":"trad","nn":120,"risk":14,"cat":"green"},{"name":"The Pump","lat":52.48305,"lon":-1.78005,"postcode":"B33 9SB","la":"Birmingham","era":"other","nn":615,"risk":38,"cat":"amber"},{"name":"The Queens Head","lat":52.49591,"lon":-1.91312,"postcode":"B19 2TX","la":"Birmingham","era":"trad","nn":234,"risk":15,"cat":"green"},{"name":"The Raven","lat":52.49626,"lon":-1.79869,"postcode":"B34 6DR","la":"Birmingham","era":"other","nn":159,"risk":20,"cat":"green"},{"name":"The Red Lion","lat":52.42897,"lon":-1.90189,"postcode":"B14 7LY","la":"Birmingham","era":"trad","nn":565,"risk":18,"cat":"green"},{"name":"The Red Lion Hockley","lat":52.48692,"lon":-1.91582,"postcode":"B18 6NG","la":"Birmingham","era":"trad","nn":242,"risk":15,"cat":"green"},{"name":"The Rootless Pub","lat":52.46669,"lon":-1.79953,"postcode":"B26 2LA","la":"Birmingham","era":"other","nn":416,"risk":17,"cat":"green"},{"name":"The Rose And Crown","lat":52.53502,"lon":-1.83802,"postcode":"B23 5SB","la":"Birmingham","era":"trad","nn":118,"risk":14,"cat":"green"},{"name":"The Rose Villa Tavern","lat":52.4872,"lon":-1.91227,"postcode":"B18 6JW","la":"Birmingham","era":"trad","nn":79,"risk":14,"cat":"green"},{"name":"The Royal British Legion","lat":52.4559,"lon":-1.98954,"postcode":"B32 2RX","la":"Birmingham","era":"trad","nn":512,"risk":37,"cat":"amber"},{"name":"The Royal British Legion","lat":52.54266,"lon":-1.86679,"postcode":"B44 0AT","la":"Birmingham","era":"trad","nn":0,"risk":14,"cat":"green"},{"name":"The Royal British Legion","lat":52.49841,"lon":-1.93287,"postcode":"B18 4QR","la":"Birmingham","era":"trad","nn":318,"risk":16,"cat":"green"},{"name":"The Royal British Legion","lat":52.43688,"lon":-1.89477,"postcode":"B14 7SS","la":"Birmingham","era":"trad","nn":165,"risk":15,"cat":"green"},{"name":"The Royal British Legion","lat":52.564,"lon":-1.81996,"postcode":"B75 7AL","la":"Birmingham","era":"trad","nn":251,"risk":15,"cat":"green"},{"name":"The Royal Oak","lat":52.50766,"lon":-1.95313,"postcode":"B21 0BD","la":"Birmingham","era":"trad","nn":1166,"risk":44,"cat":"amber"},{"name":"The Sack Of Potatoes","lat":52.48742,"lon":-1.8883,"postcode":"B4 7ER","la":"Birmingham","era":"other","nn":72,"risk":14,"cat":"green"},{"name":"The Shakespeare","lat":52.48161,"lon":-1.90745,"postcode":"B3 1JJ","la":"Birmingham","era":"other","nn":21,"risk":14,"cat":"green"},{"name":"The Sheldon Ivy Leaf Sports And Soci","lat":52.45172,"lon":-1.77794,"postcode":"B26 3JR","la":"Birmingham","era":"other","nn":562,"risk":18,"cat":"green"},{"name":"The Sly Old Fox","lat":52.47454,"lon":-1.89662,"postcode":"B5 4TD","la":"Birmingham","era":"trad","nn":0,"risk":14,"cat":"green"},{"name":"The Sportsman","lat":52.49278,"lon":-1.86749,"postcode":"B7 4TH","la":"Birmingham","era":"other","nn":103,"risk":17,"cat":"green"},{"name":"The Sportsman","lat":52.47879,"lon":-1.87015,"postcode":"B9 4QG","la":"Birmingham","era":"other","nn":238,"risk":15,"cat":"green"},{"name":"The Sportsmans Rest","lat":52.55738,"lon":-1.88479,"postcode":"B44 9QN","la":"Birmingham","era":"other","nn":331,"risk":16,"cat":"green"},{"name":"The Spotted Dog","lat":52.47298,"lon":-1.88149,"postcode":"B12 0NH","la":"Birmingham","era":"other","nn":203,"risk":15,"cat":"green"},{"name":"The Square Peg","lat":52.48277,"lon":-1.89507,"postcode":"B4 6PH","la":"Birmingham","era":"other","nn":155,"risk":15,"cat":"green"},{"name":"The Station","lat":52.5646,"lon":-1.82422,"postcode":"B73 6AT","la":"Birmingham","era":"other","nn":129,"risk":15,"cat":"green"},{"name":"The Station","lat":52.43788,"lon":-1.89247,"postcode":"B14 7BB","la":"Birmingham","era":"other","nn":137,"risk":15,"cat":"green"},{"name":"The Stork Public House","lat":52.50709,"lon":-1.90751,"postcode":"B19 1JF","la":"Birmingham","era":"other","nn":510,"risk":17,"cat":"green"},{"name":"The Sun On The Hill","lat":52.47969,"lon":-1.89989,"postcode":"B2 5QP","la":"Birmingham","era":"other","nn":11,"risk":14,"cat":"green"},{"name":"The Swan","lat":52.52477,"lon":-1.83828,"postcode":"B23 6SA","la":"Birmingham","era":"trad","nn":101,"risk":14,"cat":"green"},{"name":"The Three Tuns","lat":52.56604,"lon":-1.82335,"postcode":"B72 1XS","la":"Birmingham","era":"other","nn":77,"risk":14,"cat":"green"},{"name":"The Thurlestone","lat":52.3911,"lon":-1.97825,"postcode":"B31 4PD","la":"Birmingham","era":"other","nn":521,"risk":17,"cat":"green"},{"name":"The Trocadero","lat":52.47941,"lon":-1.89911,"postcode":"B2 5BG","la":"Birmingham","era":"other","nn":34,"risk":14,"cat":"green"},{"name":"The Tropicana","lat":52.47363,"lon":-1.89846,"postcode":"B5 4TR","la":"Birmingham","era":"other","nn":0,"risk":14,"cat":"green"},{"name":"The Victoria","lat":52.47657,"lon":-1.90091,"postcode":"B1 1BN","la":"Birmingham","era":"trad","nn":53,"risk":14,"cat":"green"},{"name":"The Village","lat":52.4449,"lon":-1.89058,"postcode":"B13 8JR","la":"Birmingham","era":"other","nn":168,"risk":15,"cat":"green"},{"name":"The Village Inn","lat":52.47236,"lon":-1.89418,"postcode":"B5 6RY","la":"Birmingham","era":"trad","nn":102,"risk":14,"cat":"green"},{"name":"The Village Inn","lat":52.51585,"lon":-1.935,"postcode":"B20 2JR","la":"Birmingham","era":"trad","nn":374,"risk":34,"cat":"amber"},{"name":"The Vine","lat":52.47534,"lon":-1.91992,"postcode":"B16 8BB","la":"Birmingham","era":"other","nn":234,"risk":15,"cat":"green"},{"name":"The Vine","lat":52.501,"lon":-1.87502,"postcode":"B6 5TP","la":"Birmingham","era":"other","nn":513,"risk":17,"cat":"green"},{"name":"The Wellington","lat":52.48065,"lon":-1.9004,"postcode":"B2 5SN","la":"Birmingham","era":"trad","nn":22,"risk":14,"cat":"green"},{"name":"The White Horse","lat":52.45859,"lon":-1.9463,"postcode":"B17 0HG","la":"Birmingham","era":"trad","nn":169,"risk":15,"cat":"green"},{"name":"The Windsor","lat":52.47942,"lon":-1.89861,"postcode":"B2 5EE","la":"Birmingham","era":"other","nn":34,"risk":14,"cat":"green"},{"name":"The Wolf","lat":52.4866,"lon":-1.90192,"postcode":"B19 3LY","la":"Birmingham","era":"other","nn":79,"risk":14,"cat":"green"},{"name":"The Woodpecker Public House","lat":52.40192,"lon":-1.9696,"postcode":"B31 4HA","la":"Birmingham","era":"other","nn":286,"risk":16,"cat":"green"},{"name":"The Yenton","lat":52.53388,"lon":-1.82794,"postcode":"B23 5TW","la":"Birmingham","era":"other","nn":141,"risk":15,"cat":"green"},{"name":"Theatrix","lat":52.48016,"lon":-1.90186,"postcode":"B3 3AP","la":"Birmingham","era":"other","nn":65,"risk":14,"cat":"green"},{"name":"Tilt","lat":52.4798,"lon":-1.8965,"postcode":"B2 4TX","la":"Birmingham","era":"other","nn":149,"risk":15,"cat":"green"},{"name":"Toby Jug","lat":52.39024,"lon":-2.01124,"postcode":"B45 9LX","la":"Birmingham","era":"other","nn":323,"risk":16,"cat":"green"},{"name":"Tonight, Josephine","lat":52.47873,"lon":-1.89887,"postcode":"B2 4BL","la":"Birmingham","era":"other","nn":23,"risk":14,"cat":"green"},{"name":"Town Crier","lat":52.46988,"lon":-1.89148,"postcode":"B5 6TG","la":"Birmingham","era":"other","nn":163,"risk":15,"cat":"green"},{"name":"Tunnel Club","lat":52.48586,"lon":-1.9024,"postcode":"B3 1HL","la":"Birmingham","era":"other","nn":11,"risk":14,"cat":"green"},{"name":"Twelfth Man","lat":52.45723,"lon":-1.90645,"postcode":"B5 7QN","la":"Birmingham","era":"other","nn":893,"risk":37,"cat":"amber"},{"name":"Tyseley Working Mens Club","lat":52.4529,"lon":-1.84431,"postcode":"B11 2EX","la":"Birmingham","era":"trad","nn":761,"risk":39,"cat":"amber"},{"name":"Upper Grounds P H","lat":52.50791,"lon":-1.89088,"postcode":"B6 6HZ","la":"Birmingham","era":"other","nn":406,"risk":19,"cat":"green"},{"name":"Urban Cafe Bar Kitchen Church Street","lat":52.48209,"lon":-1.90037,"postcode":"B3 2NP","la":"Birmingham","era":"mod","nn":0,"risk":14,"cat":"green"},{"name":"Vaughans Members Club","lat":52.43272,"lon":-1.84594,"postcode":"B28 9AA","la":"Birmingham","era":"other","nn":41,"risk":31,"cat":"amber"},{"name":"Verdo Lounge Cafe Bar","lat":52.53515,"lon":-1.82795,"postcode":"B72 1YJ","la":"Birmingham","era":"mod","nn":141,"risk":15,"cat":"green"},{"name":"VIP 144 Restaurant Bar Dancing Club","lat":52.50246,"lon":-1.90309,"postcode":"B19 2TJ","la":"Birmingham","era":"mod","nn":596,"risk":18,"cat":"green"},{"name":"Walkabout Birmingham (88th Street, V","lat":52.47771,"lon":-1.91075,"postcode":"B1 2DS","la":"Birmingham","era":"other","nn":30,"risk":14,"cat":"green"},{"name":"Walmley Cricket Club","lat":52.53769,"lon":-1.80393,"postcode":"B76 1LT","la":"Birmingham","era":"other","nn":436,"risk":34,"cat":"amber"},{"name":"Walmley Golf Club","lat":52.5418,"lon":-1.82112,"postcode":"B72 1HR","la":"Birmingham","era":"other","nn":871,"risk":25,"cat":"green"},{"name":"Ward End Social Club","lat":52.49433,"lon":-1.83427,"postcode":"B8 2BA","la":"Birmingham","era":"mod","nn":91,"risk":32,"cat":"amber"},{"name":"Washwood Heath Conservative Club","lat":52.49481,"lon":-1.83536,"postcode":"B8 2HF","la":"Birmingham","era":"other","nn":91,"risk":32,"cat":"amber"},{"name":"Weoley Castle Inn","lat":52.4336,"lon":-1.97392,"postcode":"B29 5LX","la":"Birmingham","era":"trad","nn":766,"risk":39,"cat":"amber"},{"name":"Weoley Castle Working Mens Club","lat":52.44012,"lon":-1.97757,"postcode":"B29 5TY","la":"Birmingham","era":"trad","nn":766,"risk":39,"cat":"amber"},{"name":"Whisky Bars","lat":52.49055,"lon":-1.91206,"postcode":"B18 6HA","la":"Birmingham","era":"other","nn":20,"risk":14,"cat":"green"},{"name":"White Hart Public House","lat":52.48331,"lon":-1.76192,"postcode":"B33 9UU","la":"Birmingham","era":"trad","nn":476,"risk":34,"cat":"amber"},{"name":"White Horse","lat":52.57097,"lon":-1.80248,"postcode":"B75 6HD","la":"Birmingham","era":"trad","nn":580,"risk":23,"cat":"green"},{"name":"White Swan","lat":52.4667,"lon":-1.93435,"postcode":"B15 3TT","la":"Birmingham","era":"trad","nn":567,"risk":18,"cat":"green"},{"name":"White Swan","lat":52.47348,"lon":-1.88529,"postcode":"B12 0QY","la":"Birmingham","era":"trad","nn":177,"risk":15,"cat":"green"},{"name":"Whitehouse Public House","lat":52.49424,"lon":-1.91102,"postcode":"B19 3TZ","la":"Birmingham","era":"mod","nn":180,"risk":15,"cat":"green"},{"name":"Wildcat Tap Limited","lat":52.42755,"lon":-1.92261,"postcode":"B30 2JR","la":"Birmingham","era":"mod","nn":79,"risk":14,"cat":"green"},{"name":"Witton Arms","lat":52.51251,"lon":-1.88561,"postcode":"B6 6SN","la":"Birmingham","era":"trad","nn":449,"risk":17,"cat":"green"},{"name":"Xover Spaces","lat":52.45634,"lon":-1.89086,"postcode":"B12 9RG","la":"Birmingham","era":"other","nn":111,"risk":14,"cat":"green"},{"name":"Yardley & District Rugby Club","lat":52.49389,"lon":-1.78833,"postcode":"B34 6HE","la":"Birmingham","era":"mod","nn":749,"risk":36,"cat":"amber"},{"name":"Yardley Ex Servicemens Club","lat":52.4603,"lon":-1.81589,"postcode":"B25 8LT","la":"Birmingham","era":"mod","nn":285,"risk":21,"cat":"green"},{"name":"Yardley Wood Social Club","lat":52.41388,"lon":-1.86778,"postcode":"B14 4JR","la":"Birmingham","era":"mod","nn":1046,"risk":43,"cat":"amber"},{"name":"57 Monkeys","lat":52.33243,"lon":-2.06351,"postcode":"B61 7DN","la":"Bromsgrove","era":"trad","nn":79,"risk":28,"cat":"green"},{"name":"Alvechurch Village Hall","lat":52.35157,"lon":-1.9608,"postcode":"B48 7JX","la":"Bromsgrove","era":"other","nn":93,"risk":33,"cat":"amber"},{"name":"Artrix","lat":52.33843,"lon":-2.05248,"postcode":"B60 1AX","la":"Bromsgrove","era":"other","nn":220,"risk":29,"cat":"green"},{"name":"Aston Fields Club Thai","lat":52.32274,"lon":-2.05189,"postcode":"B60 3EG","la":"Bromsgrove","era":"other","nn":305,"risk":47,"cat":"amber"},{"name":"Avoncroft Cricket Club","lat":52.31283,"lon":-2.07432,"postcode":"B60 4JS","la":"Bromsgrove","era":"other","nn":314,"risk":34,"cat":"amber"},{"name":"Barnt Green Cricket Club","lat":52.36425,"lon":-1.99634,"postcode":"B45 8LN","la":"Bromsgrove","era":"other","nn":309,"risk":34,"cat":"amber"},{"name":"Barnt Green Social Club","lat":52.35719,"lon":-1.99358,"postcode":"B45 8BT","la":"Bromsgrove","era":"mod","nn":807,"risk":38,"cat":"amber"},{"name":"Barnt Green Sports Club","lat":52.36451,"lon":-1.98777,"postcode":"B45 8LR","la":"Bromsgrove","era":"other","nn":289,"risk":34,"cat":"amber"},{"name":"Bentley Village Hall","lat":52.29202,"lon":-2.00668,"postcode":"B97 5TB","la":"Bromsgrove","era":"other","nn":1978,"risk":63,"cat":"red"},{"name":"Beoley Village Hall","lat":52.32379,"lon":-1.89345,"postcode":"B98 9AN","la":"Bromsgrove","era":"other","nn":1870,"risk":63,"cat":"red"},{"name":"Blackwell Club","lat":52.34972,"lon":-2.00608,"postcode":"B60 1BS","la":"Bromsgrove","era":"other","nn":1188,"risk":58,"cat":"amber"},{"name":"Bromsgrove Central Premier Inn","lat":52.33882,"lon":-2.04931,"postcode":"B61 0BA","la":"Bromsgrove","era":"trad","nn":220,"risk":29,"cat":"green"},{"name":"Bromsgrove Rugby Club","lat":52.32511,"lon":-2.03994,"postcode":"B60 3DH","la":"Bromsgrove","era":"other","nn":558,"risk":36,"cat":"amber"},{"name":"Bromsgrove Unionist Club","lat":52.33513,"lon":-2.0682,"postcode":"B61 7JS","la":"Bromsgrove","era":"other","nn":438,"risk":30,"cat":"green"},{"name":"Catshill Village Hall","lat":52.36399,"lon":-2.05865,"postcode":"B61 0JZ","la":"Bromsgrove","era":"other","nn":319,"risk":29,"cat":"green"},{"name":"Catshill Working Mens Club","lat":52.3621,"lon":-2.06219,"postcode":"B61 0JJ","la":"Bromsgrove","era":"trad","nn":304,"risk":29,"cat":"green"},{"name":"Dodford Village Hall","lat":52.35357,"lon":-2.10167,"postcode":"B61 9DD","la":"Bromsgrove","era":"other","nn":603,"risk":51,"cat":"amber"},{"name":"Fairfield Villa Social Club","lat":52.375,"lon":-2.07828,"postcode":"B61 9LZ","la":"Bromsgrove","era":"mod","nn":298,"risk":49,"cat":"amber"},{"name":"Finstall Village Hall","lat":52.33001,"lon":-2.03061,"postcode":"B60 1EL","la":"Bromsgrove","era":"other","nn":836,"risk":53,"cat":"amber"},{"name":"Five Ways Old Edwardians Sports Club Limited","lat":52.36776,"lon":-1.95058,"postcode":"B48 7BD","la":"Bromsgrove","era":"other","nn":0,"risk":45,"cat":"amber"},{"name":"Gourmet Street At Crown Inn","lat":52.36566,"lon":-2.06547,"postcode":"B61 9LE","la":"Bromsgrove","era":"trad","nn":100,"risk":28,"cat":"green"},{"name":"Hawthorn Social Club","lat":52.38822,"lon":-2.01465,"postcode":"B45 9LL","la":"Bromsgrove","era":"other","nn":323,"risk":29,"cat":"green"},{"name":"Hewell Bowling Club","lat":52.31534,"lon":-1.99922,"postcode":"B97 5SR","la":"Bromsgrove","era":"other","nn":1894,"risk":63,"cat":"red"},{"name":"Hopwood Village Hall","lat":52.37785,"lon":-1.95822,"postcode":"B48 7AL","la":"Bromsgrove","era":"other","nn":653,"risk":52,"cat":"amber"},{"name":"Hunnington & Romsley Cricket And Bowling Club","lat":52.40797,"lon":-2.05596,"postcode":"B62 0ET","la":"Bromsgrove","era":"other","nn":853,"risk":53,"cat":"amber"},{"name":"Ian And Gareth Butler Shooting School","lat":52.32152,"lon":-1.97325,"postcode":"B97 6RB","la":"Bromsgrove","era":"other","nn":1894,"risk":63,"cat":"red"},{"name":"Kings Norton RFC","lat":52.36776,"lon":-1.95058,"postcode":"B48 7BD","la":"Bromsgrove","era":"trad","nn":0,"risk":45,"cat":"amber"},{"name":"Lickey End & District Working Mens Club","lat":52.35311,"lon":-2.04467,"postcode":"B60 1JT","la":"Bromsgrove","era":"trad","nn":0,"risk":47,"cat":"amber"},{"name":"Lickey End Social Club","lat":52.35311,"lon":-2.04467,"postcode":"B60 1JT","la":"Bromsgrove","era":"mod","nn":0,"risk":47,"cat":"amber"},{"name":"Miller & Carter Marlbrook","lat":52.36447,"lon":-2.04604,"postcode":"B61 0HR","la":"Bromsgrove","era":"trad","nn":375,"risk":47,"cat":"amber"},{"name":"Millfield And  District Social Club","lat":52.32854,"lon":-2.07527,"postcode":"B61 7BT","la":"Bromsgrove","era":"other","nn":734,"risk":32,"cat":"amber"},{"name":"New Inn","lat":52.36165,"lon":-2.07544,"postcode":"B61 9JE","la":"Bromsgrove","era":"trad","nn":372,"risk":30,"cat":"green"},{"name":"Plough & Harrow","lat":52.36477,"lon":-2.06529,"postcode":"B61 9LG","la":"Bromsgrove","era":"trad","nn":100,"risk":28,"cat":"green"},{"name":"Rednal Social Club","lat":52.38058,"lon":-2.00142,"postcode":"B45 8NB","la":"Bromsgrove","era":"mod","nn":291,"risk":34,"cat":"amber"},{"name":"Royal British Legion Club","lat":52.38412,"lon":-1.87905,"postcode":"B47 6LS","la":"Bromsgrove","era":"trad","nn":428,"risk":48,"cat":"amber"},{"name":"Rubery Memorial Club","lat":52.3923,"lon":-2.02225,"postcode":"B45 9HY","la":"Bromsgrove","era":"other","nn":206,"risk":31,"cat":"amber"},{"name":"Rubery Social Club","lat":52.39347,"lon":-2.0199,"postcode":"B45 9JW","la":"Bromsgrove","era":"mod","nn":166,"risk":31,"cat":"amber"},{"name":"Serious Steaks @ The Rose \\\\& Crown","lat":52.35253,"lon":-1.88464,"postcode":"B48 7JD","la":"Bromsgrove","era":"trad","nn":522,"risk":51,"cat":"amber"},{"name":"Slug And Lettuce","lat":52.33597,"lon":-2.0591,"postcode":"B61 8ES","la":"Bromsgrove","era":"other","nn":104,"risk":28,"cat":"green"},{"name":"Stoke Prior Sports And Country Club","lat":52.29514,"lon":-2.0819,"postcode":"B60 4AL","la":"Bromsgrove","era":"other","nn":515,"risk":48,"cat":"amber"},{"name":"The Alvechurch Inn","lat":52.35191,"lon":-1.95735,"postcode":"B48 7LD","la":"Bromsgrove","era":"trad","nn":167,"risk":33,"cat":"amber"},{"name":"The Barnt Green Inn","lat":52.365,"lon":-1.99195,"postcode":"B45 8PZ","la":"Bromsgrove","era":"trad","nn":289,"risk":34,"cat":"amber"},{"name":"The Boat And Railway","lat":52.2921,"lon":-2.08761,"postcode":"B60 4EQ","la":"Bromsgrove","era":"trad","nn":515,"risk":48,"cat":"amber"},{"name":"The Coach & Horses","lat":52.36462,"lon":-1.91454,"postcode":"B48 7EA","la":"Bromsgrove","era":"trad","nn":1199,"risk":58,"cat":"amber"},{"name":"The Crown Inn","lat":52.35994,"lon":-2.06493,"postcode":"B61 9LE","la":"Bromsgrove","era":"trad","nn":304,"risk":29,"cat":"green"},{"name":"The Dodford Inn","lat":52.355,"lon":-2.0931,"postcode":"B61 9BG","la":"Bromsgrove","era":"trad","nn":603,"risk":51,"cat":"amber"},{"name":"The Drawbridge Inn","lat":52.39881,"lon":-1.85024,"postcode":"B90 1DD","la":"Bromsgrove","era":"trad","nn":1239,"risk":58,"cat":"amber"},{"name":"The Duck Pond Cafe","lat":52.38014,"lon":-2.00777,"postcode":"B45 8RT","la":"Bromsgrove","era":"other","nn":0,"risk":32,"cat":"amber"},{"name":"The Duke Of York","lat":52.34199,"lon":-2.0666,"postcode":"B61 8LN","la":"Bromsgrove","era":"trad","nn":770,"risk":32,"cat":"amber"},{"name":"The Ewe & Lamb","lat":52.30763,"lon":-2.07826,"postcode":"B60 4DN","la":"Bromsgrove","era":"other","nn":637,"risk":37,"cat":"amber"},{"name":"The Gate At Bourneheath","lat":52.36474,"lon":-2.07757,"postcode":"B61 9JR","la":"Bromsgrove","era":"other","nn":372,"risk":35,"cat":"amber"},{"name":"The Golden Cross Hotel","lat":52.33385,"lon":-2.06159,"postcode":"B61 8HH","la":"Bromsgrove","era":"trad","nn":127,"risk":28,"cat":"green"},{"name":"The Golden Lion Sports & Restaurant","lat":52.31986,"lon":-2.07212,"postcode":"B60 3PB","la":"Bromsgrove","era":"trad","nn":758,"risk":37,"cat":"amber"},{"name":"The Hanbury Turn","lat":52.31421,"lon":-2.07836,"postcode":"B60 4LU","la":"Bromsgrove","era":"other","nn":314,"risk":34,"cat":"amber"},{"name":"The Hop Pole","lat":52.34042,"lon":-2.05347,"postcode":"B61 0DF","la":"Bromsgrove","era":"other","nn":231,"risk":29,"cat":"green"},{"name":"The Hopwood House","lat":52.37207,"lon":-1.95649,"postcode":"B48 7AB","la":"Bromsgrove","era":"other","nn":625,"risk":36,"cat":"amber"},{"name":"The Ladybird Inn","lat":52.32308,"lon":-2.04745,"postcode":"B60 2DZ","la":"Bromsgrove","era":"trad","nn":305,"risk":47,"cat":"amber"},{"name":"The Little Ale House","lat":52.33294,"lon":-2.06271,"postcode":"B61 7DL","la":"Bromsgrove","era":"other","nn":79,"risk":28,"cat":"green"},{"name":"The Navigation Inn","lat":52.30199,"lon":-2.07316,"postcode":"B60 4LB","la":"Bromsgrove","era":"trad","nn":717,"risk":50,"cat":"amber"},{"name":"The Neighbourhood","lat":52.39329,"lon":-2.01747,"postcode":"B45 9JA","la":"Bromsgrove","era":"other","nn":166,"risk":28,"cat":"green"},{"name":"The Old Rose & Crown Hotel","lat":52.38014,"lon":-2.00777,"postcode":"B45 8RT","la":"Bromsgrove","era":"trad","nn":0,"risk":32,"cat":"amber"},{"name":"The Packhorse","lat":52.39257,"lon":-1.88498,"postcode":"B47 5HA","la":"Bromsgrove","era":"trad","nn":1022,"risk":57,"cat":"amber"},{"name":"The Park Gate Inn","lat":52.34223,"lon":-2.09532,"postcode":"B61 9AJ","la":"Bromsgrove","era":"trad","nn":1333,"risk":59,"cat":"amber"},{"name":"The Peacock Inn","lat":52.37481,"lon":-1.92033,"postcode":"B38 0EH","la":"Bromsgrove","era":"trad","nn":923,"risk":54,"cat":"amber"},{"name":"The Queens Head","lat":52.33733,"lon":-2.05759,"postcode":"B61 8AB","la":"Bromsgrove","era":"trad","nn":183,"risk":28,"cat":"green"},{"name":"The Queens Head","lat":52.31167,"lon":-2.05462,"postcode":"B60 3AU","la":"Bromsgrove","era":"trad","nn":1245,"risk":58,"cat":"amber"},{"name":"The Red Lion","lat":52.33551,"lon":-2.06043,"postcode":"B61 8AQ","la":"Bromsgrove","era":"trad","nn":104,"risk":28,"cat":"green"},{"name":"The Red Lion","lat":52.35259,"lon":-1.96036,"postcode":"B48 7LG","la":"Bromsgrove","era":"trad","nn":118,"risk":33,"cat":"amber"},{"name":"The Royal Oak","lat":52.3624,"lon":-2.05041,"postcode":"B61 0LU","la":"Bromsgrove","era":"trad","nn":375,"risk":35,"cat":"amber"},{"name":"The Sun Hotel","lat":52.41839,"lon":-2.05506,"postcode":"B62 0LA","la":"Bromsgrove","era":"other","nn":335,"risk":49,"cat":"amber"},{"name":"The Swallows Nest","lat":52.41562,"lon":-2.05697,"postcode":"B62 0LF","la":"Bromsgrove","era":"other","nn":335,"risk":47,"cat":"amber"},{"name":"The Swan","lat":52.3775,"lon":-2.07985,"postcode":"B61 9NG","la":"Bromsgrove","era":"trad","nn":298,"risk":49,"cat":"amber"},{"name":"The Swan Inn","lat":52.35123,"lon":-1.95955,"postcode":"B48 7RP","la":"Bromsgrove","era":"trad","nn":93,"risk":33,"cat":"amber"},{"name":"The White Swan","lat":52.38192,"lon":-1.88423,"postcode":"B47 6JG","la":"Bromsgrove","era":"trad","nn":428,"risk":48,"cat":"amber"},{"name":"The Wildmoor  Oak","lat":52.38173,"lon":-2.05756,"postcode":"B61 0RB","la":"Bromsgrove","era":"trad","nn":1585,"risk":61,"cat":"red"},{"name":"Woodrush Rugby FC","lat":52.38309,"lon":-1.92085,"postcode":"B38 0EL","la":"Bromsgrove","era":"other","nn":923,"risk":54,"cat":"amber"},{"name":"Wythall Community Club","lat":52.38354,"lon":-1.89023,"postcode":"B47 6LZ","la":"Bromsgrove","era":"other","nn":445,"risk":48,"cat":"amber"},{"name":"Ye Olde Black Cross","lat":52.33151,"lon":-2.06562,"postcode":"B61 7AG","la":"Bromsgrove","era":"trad","nn":176,"risk":28,"cat":"green"},{"name":"Benjamins Bar And Banqueting Suites","lat":52.44922,"lon":-2.04908,"postcode":"B63 3HN","la":"Dudley","era":"mod","nn":87,"risk":21,"cat":"green"},{"name":"Bigmouths Kitchen Halesowen","lat":52.4421,"lon":-2.06703,"postcode":"B63 4JP","la":"Dudley","era":"mod","nn":0,"risk":25,"cat":"green"},{"name":"Christopher Vincent","lat":52.45147,"lon":-2.05461,"postcode":"B63 3TU","la":"Dudley","era":"other","nn":106,"risk":21,"cat":"green"},{"name":"Church View Tavern","lat":52.45017,"lon":-2.0502,"postcode":"B63 3BG","la":"Dudley","era":"other","nn":0,"risk":20,"cat":"green"},{"name":"Cobham arms","lat":52.45038,"lon":-2.01593,"postcode":"B62 0JD","la":"Dudley","era":"trad","nn":0,"risk":25,"cat":"green"},{"name":"Coombs Wood Sports & Social Club","lat":52.4663,"lon":-2.03602,"postcode":"B62 8ND","la":"Dudley","era":"mod","nn":376,"risk":23,"cat":"green"},{"name":"CRADLEY LABOUR CLUB","lat":52.45934,"lon":-2.08617,"postcode":"B63 2BU","la":"Dudley","era":"other","nn":98,"risk":21,"cat":"green"},{"name":"Cradley Sports and Social Club","lat":52.46155,"lon":-2.08686,"postcode":"B63 2TN","la":"Dudley","era":"mod","nn":251,"risk":22,"cat":"green"},{"name":"Halesowen Athletic & Cycling Club","lat":52.44456,"lon":-2.04243,"postcode":"B62 8RW","la":"Dudley","era":"other","nn":243,"risk":22,"cat":"green"},{"name":"Halesowen Cornbow Hall","lat":52.448,"lon":-2.05064,"postcode":"B63 3AT","la":"Dudley","era":"other","nn":170,"risk":22,"cat":"green"},{"name":"Halesowen Cricket Club","lat":52.44524,"lon":-2.04583,"postcode":"B63 3EG","la":"Dudley","era":"other","nn":243,"risk":22,"cat":"green"},{"name":"Halesowen Golf Club","lat":52.45317,"lon":-2.03044,"postcode":"B62 8QF","la":"Dudley","era":"other","nn":534,"risk":44,"cat":"amber"},{"name":"Halesowen Masonic Hall","lat":52.45517,"lon":-2.051,"postcode":"B63 3LU","la":"Dudley","era":"trad","nn":281,"risk":22,"cat":"green"},{"name":"Halesowen Town Fc","lat":52.45451,"lon":-2.05737,"postcode":"B63 3ST","la":"Dudley","era":"other","nn":195,"risk":22,"cat":"green"},{"name":"Hasbury Conservative Club","lat":52.44564,"lon":-2.05246,"postcode":"B63 4NZ","la":"Dudley","era":"other","nn":291,"risk":22,"cat":"green"},{"name":"Hill & Cakemore Ex Servicemans","lat":52.47215,"lon":-2.03698,"postcode":"B62 8HY","la":"Dudley","era":"other","nn":284,"risk":22,"cat":"green"},{"name":"Hill & Cakemore Liberal Club","lat":52.47331,"lon":-2.03122,"postcode":"B62 9JG","la":"Dudley","era":"other","nn":195,"risk":22,"cat":"green"},{"name":"King Edward VII Public House","lat":52.45285,"lon":-2.05643,"postcode":"B63 3UP","la":"Dudley","era":"trad","nn":195,"risk":22,"cat":"green"},{"name":"Lounge 101","lat":52.45534,"lon":-2.02342,"postcode":"B62 8PB","la":"Dudley","era":"mod","nn":534,"risk":29,"cat":"green"},{"name":"Loyal Lodge","lat":52.45761,"lon":-2.04995,"postcode":"B63 3LY","la":"Dudley","era":"other","nn":281,"risk":22,"cat":"green"},{"name":"Lutley Oak Public House","lat":52.45438,"lon":-2.07152,"postcode":"B63 3QT","la":"Dudley","era":"trad","nn":481,"risk":24,"cat":"green"},{"name":"Picks","lat":52.44951,"lon":-2.05028,"postcode":"B63 3BQ","la":"Dudley","era":"other","nn":73,"risk":21,"cat":"green"},{"name":"Rose and Crown Public House","lat":52.4421,"lon":-2.06703,"postcode":"B63 4JP","la":"Dudley","era":"trad","nn":0,"risk":25,"cat":"green"},{"name":"Stag & Three Horseshoes","lat":52.45008,"lon":-2.10569,"postcode":"B62 9BB","la":"Dudley","era":"trad","nn":143,"risk":26,"cat":"green"},{"name":"The Clock Inn","lat":52.47163,"lon":-2.03211,"postcode":"B62 9JH","la":"Dudley","era":"trad","nn":110,"risk":21,"cat":"green"},{"name":"The Cobham Arms","lat":52.45038,"lon":-2.01593,"postcode":"B62 0JD","la":"Dudley","era":"trad","nn":0,"risk":25,"cat":"green"},{"name":"The Crafty Pint","lat":52.44307,"lon":-2.06742,"postcode":"B63 4JU","la":"Dudley","era":"mod","nn":112,"risk":26,"cat":"green"},{"name":"The Hare and Hounds","lat":52.44434,"lon":-2.05905,"postcode":"B63 4QQ","la":"Dudley","era":"trad","nn":469,"risk":24,"cat":"green"},{"name":"The Hawne Tavern","lat":52.45503,"lon":-2.06263,"postcode":"B63 3UG","la":"Dudley","era":"other","nn":201,"risk":22,"cat":"green"},{"name":"The Laurels Social Club","lat":52.45908,"lon":-2.08478,"postcode":"B63 2BY","la":"Dudley","era":"mod","nn":98,"risk":21,"cat":"green"},{"name":"The Lighthouse","lat":52.46636,"lon":-2.0474,"postcode":"B62 8AF","la":"Dudley","era":"other","nn":0,"risk":20,"cat":"green"},{"name":"The Lighthouse Bar and Grill","lat":52.46636,"lon":-2.0474,"postcode":"B62 8AF","la":"Dudley","era":"mod","nn":0,"risk":20,"cat":"green"},{"name":"The Liquor Lounge","lat":52.45017,"lon":-2.0502,"postcode":"B63 3BG","la":"Dudley","era":"mod","nn":0,"risk":20,"cat":"green"},{"name":"The Little Chop House","lat":52.45833,"lon":-2.08312,"postcode":"B63 2BZ","la":"Dudley","era":"other","nn":91,"risk":21,"cat":"green"},{"name":"The Round of Beef Public House","lat":52.45775,"lon":-2.08218,"postcode":"B63 2DB","la":"Dudley","era":"other","nn":91,"risk":21,"cat":"green"},{"name":"The Shell-ter","lat":52.47095,"lon":-2.03328,"postcode":"B62 9JJ","la":"Dudley","era":"other","nn":110,"risk":21,"cat":"green"},{"name":"The Swan Inn","lat":52.46776,"lon":-2.03101,"postcode":"B62 9JY","la":"Dudley","era":"trad","nn":376,"risk":23,"cat":"green"},{"name":"The Vine Inn","lat":52.46654,"lon":-2.08882,"postcode":"B63 2PQ","la":"Dudley","era":"trad","nn":565,"risk":24,"cat":"green"},{"name":"The Whitley","lat":52.45365,"lon":-2.06453,"postcode":"B63 3QX","la":"Dudley","era":"other","nn":201,"risk":22,"cat":"green"},{"name":"The Widders","lat":52.46037,"lon":-2.0902,"postcode":"B63 2UX","la":"Dudley","era":"other","nn":262,"risk":22,"cat":"green"},{"name":"The William Shenstone","lat":52.44949,"lon":-2.0517,"postcode":"B63 4AB","la":"Dudley","era":"other","nn":97,"risk":21,"cat":"green"},{"name":"TOWNSEND SOCIAL CLUB","lat":52.45137,"lon":-2.05306,"postcode":"B63 3US","la":"Dudley","era":"mod","nn":106,"risk":21,"cat":"green"},{"name":"Why Not Inn","lat":52.45424,"lon":-2.09068,"postcode":"B63 2JH","la":"Dudley","era":"trad","nn":644,"risk":25,"cat":"green"},{"name":"Aston Wood Golf Club","lat":52.6038,"lon":-1.85107,"postcode":"B74 4EU","la":"Lichfield","era":"other","nn":528,"risk":50,"cat":"amber"},{"name":"Coton & Hopwas Social Club","lat":52.64381,"lon":-1.73682,"postcode":"B78 3AD","la":"Lichfield","era":"mod","nn":199,"risk":33,"cat":"amber"},{"name":"Drayton Bassett Working Mens Club","lat":52.59904,"lon":-1.71564,"postcode":"B78 3TX","la":"Lichfield","era":"trad","nn":1014,"risk":56,"cat":"amber"},{"name":"Drayton Manor Cricket & Social Club","lat":52.61601,"lon":-1.70775,"postcode":"B78 3SJ","la":"Lichfield","era":"mod","nn":401,"risk":29,"cat":"green"},{"name":"Drayton Park Golf Club","lat":52.60799,"lon":-1.71278,"postcode":"B78 3TN","la":"Lichfield","era":"other","nn":954,"risk":53,"cat":"amber"},{"name":"Elford Cricket Club","lat":52.70169,"lon":-1.72545,"postcode":"B79 9DE","la":"Lichfield","era":"other","nn":1085,"risk":57,"cat":"amber"},{"name":"Harvester Bassetts Pole","lat":52.59101,"lon":-1.78055,"postcode":"B75 5SA","la":"North Warwickshire","era":"trad","nn":1813,"risk":67,"cat":"red"},{"name":"Little Aston Golf Club","lat":52.59587,"lon":-1.86549,"postcode":"B74 3AN","la":"Lichfield","era":"other","nn":639,"risk":51,"cat":"amber"},{"name":"Mile Oak Rovers Football Club","lat":52.61647,"lon":-1.72412,"postcode":"B78 3NN","la":"Lichfield","era":"trad","nn":664,"risk":51,"cat":"amber"},{"name":"The Crown Inn","lat":52.69214,"lon":-1.7222,"postcode":"B79 9DB","la":"Lichfield","era":"trad","nn":1085,"risk":57,"cat":"amber"},{"name":"The Fazeley Inn","lat":52.61435,"lon":-1.69932,"postcode":"B78 3RA","la":"Lichfield","era":"trad","nn":86,"risk":27,"cat":"green"},{"name":"The Green Man","lat":52.6963,"lon":-1.62281,"postcode":"B79 0AX","la":"Lichfield","era":"other","nn":2079,"risk":64,"cat":"red"},{"name":"The Longwood","lat":52.61723,"lon":-1.71437,"postcode":"B78 3QP","la":"Lichfield","era":"other","nn":467,"risk":35,"cat":"amber"},{"name":"The Old Crown","lat":52.65739,"lon":-1.69216,"postcode":"B79 9DW","la":"Lichfield","era":"trad","nn":1015,"risk":56,"cat":"amber"},{"name":"The Plough & Harrow","lat":52.61371,"lon":-1.69201,"postcode":"B78 3RF","la":"Lichfield","era":"trad","nn":418,"risk":29,"cat":"green"},{"name":"The Red Lion","lat":52.64262,"lon":-1.73903,"postcode":"B78 3AF","la":"Lichfield","era":"trad","nn":0,"risk":32,"cat":"amber"},{"name":"The Tame Otter","lat":52.64262,"lon":-1.73903,"postcode":"B78 3AF","la":"Lichfield","era":"other","nn":0,"risk":32,"cat":"amber"},{"name":"The Three Tuns","lat":52.61544,"lon":-1.70189,"postcode":"B78 3QN","la":"Lichfield","era":"other","nn":211,"risk":28,"cat":"green"},{"name":"Three Horseshoes","lat":52.61402,"lon":-1.69817,"postcode":"B78 3RD","la":"Lichfield","era":"trad","nn":86,"risk":27,"cat":"green"},{"name":"White Lion","lat":52.69631,"lon":-1.68251,"postcode":"B79 9HT","la":"Lichfield","era":"trad","nn":2714,"risk":68,"cat":"red"},{"name":"Beehive Inn","lat":52.53182,"lon":-1.73572,"postcode":"B76 9HG","la":"North Warwickshire","era":"trad","nn":1234,"risk":63,"cat":"red"},{"name":"Birchmoor Working Mens Club","lat":52.61053,"lon":-1.63122,"postcode":"B78 1AF","la":"North Warwickshire","era":"trad","nn":1318,"risk":63,"cat":"red"},{"name":"Coleshill & District Social Club Ltd","lat":52.49756,"lon":-1.70666,"postcode":"B46 3BJ","la":"North Warwickshire","era":"mod","nn":154,"risk":33,"cat":"amber"},{"name":"Coleshill Cricket Club","lat":52.4973,"lon":-1.70902,"postcode":"B46 3LA","la":"North Warwickshire","era":"other","nn":162,"risk":33,"cat":"amber"},{"name":"George and Dragon (Coleshill) Ltd","lat":52.489,"lon":-1.70499,"postcode":"B46 3EH","la":"North Warwickshire","era":"trad","nn":733,"risk":39,"cat":"amber"},{"name":"Maxstoke Park Golf Club Ltd","lat":52.49618,"lon":-1.66391,"postcode":"B46 2BU","la":"North Warwickshire","era":"other","nn":2774,"risk":74,"cat":"red"},{"name":"Midlands Hydroplane Club Ltd","lat":52.5685,"lon":-1.7033,"postcode":"B76 0DY","la":"North Warwickshire","era":"other","nn":1530,"risk":65,"cat":"red"},{"name":"Samuel barlow","lat":52.63545,"lon":-1.63546,"postcode":"B78 1AS","la":"North Warwickshire","era":"other","nn":818,"risk":55,"cat":"amber"},{"name":"The Bell Inn","lat":52.49959,"lon":-1.70903,"postcode":"B46 1AA","la":"North Warwickshire","era":"trad","nn":254,"risk":36,"cat":"amber"},{"name":"The Coach Hotel","lat":52.49643,"lon":-1.70534,"postcode":"B46 3BG","la":"North Warwickshire","era":"trad","nn":99,"risk":32,"cat":"amber"},{"name":"The Dog Inn","lat":52.53364,"lon":-1.66157,"postcode":"B46 2DU","la":"North Warwickshire","era":"trad","nn":1179,"risk":62,"cat":"red"},{"name":"The Mini Miner","lat":52.60087,"lon":-1.61585,"postcode":"B78 1TR","la":"North Warwickshire","era":"other","nn":1494,"risk":65,"cat":"red"},{"name":"The Office at Warton","lat":52.63006,"lon":-1.58363,"postcode":"B79 0JN","la":"North Warwickshire","era":"other","nn":164,"risk":53,"cat":"amber"},{"name":"The Railway Inn","lat":52.53168,"lon":-1.6787,"postcode":"B46 2EH","la":"North Warwickshire","era":"trad","nn":1179,"risk":62,"cat":"red"},{"name":"The Red Lion","lat":52.61971,"lon":-1.61519,"postcode":"B78 1DR","la":"North Warwickshire","era":"trad","nn":522,"risk":55,"cat":"amber"},{"name":"The Red Lion","lat":52.49559,"lon":-1.70488,"postcode":"B46 3BB","la":"North Warwickshire","era":"trad","nn":99,"risk":32,"cat":"amber"},{"name":"The Royal Oak","lat":52.61517,"lon":-1.61324,"postcode":"B78 1NU","la":"North Warwickshire","era":"trad","nn":522,"risk":55,"cat":"amber"},{"name":"The Waterfront (Cliff Lakes)","lat":52.58218,"lon":-1.69574,"postcode":"B78 2DL","la":"North Warwickshire","era":"other","nn":1605,"risk":65,"cat":"red"},{"name":"The White Swan","lat":52.56479,"lon":-1.6815,"postcode":"B78 2LN","la":"North Warwickshire","era":"trad","nn":1530,"risk":65,"cat":"red"},{"name":"Warton Club","lat":52.63152,"lon":-1.58327,"postcode":"B79 0HW","la":"North Warwickshire","era":"other","nn":164,"risk":53,"cat":"amber"},{"name":"Wishaw Cricket Club","lat":52.54904,"lon":-1.74565,"postcode":"B76 9QD","la":"North Warwickshire","era":"other","nn":1993,"risk":68,"cat":"red"},{"name":"Abbeydale Kitchen At Abbeydale Community Club","lat":52.31124,"lon":-1.92708,"postcode":"B98 8JE","la":"Redditch","era":"other","nn":562,"risk":32,"cat":"amber"},{"name":"Astwood Bank Club","lat":52.25814,"lon":-1.94353,"postcode":"B96 6AS","la":"Redditch","era":"other","nn":332,"risk":35,"cat":"amber"},{"name":"Black Tap (Our Rooms)","lat":52.30737,"lon":-1.93997,"postcode":"B98 8BP","la":"Redditch","era":"mod","nn":63,"risk":28,"cat":"green"},{"name":"Bramley Cottage","lat":52.28124,"lon":-1.95655,"postcode":"B97 5QB","la":"Redditch","era":"trad","nn":848,"risk":51,"cat":"amber"},{"name":"Bridley Moor & Batchley Social Club","lat":52.30998,"lon":-1.95258,"postcode":"B97 6HS","la":"Redditch","era":"mod","nn":524,"risk":32,"cat":"amber"},{"name":"Easemore Social Club","lat":52.30895,"lon":-1.93807,"postcode":"B98 8ER","la":"Redditch","era":"mod","nn":217,"risk":29,"cat":"green"},{"name":"Feckenham Cricket Club","lat":52.25274,"lon":-1.9895,"postcode":"B96 6HY","la":"Redditch","era":"other","nn":0,"risk":33,"cat":"amber"},{"name":"Feckenham Football Club","lat":52.25274,"lon":-1.9895,"postcode":"B96 6HY","la":"Redditch","era":"other","nn":0,"risk":33,"cat":"amber"},{"name":"Gate Hangs Well","lat":52.29145,"lon":-1.94607,"postcode":"B97 5ES","la":"Redditch","era":"other","nn":44,"risk":28,"cat":"green"},{"name":"Golden Carvery/ The Golden Goose","lat":52.29269,"lon":-1.9041,"postcode":"B98 0DD","la":"Redditch","era":"other","nn":626,"risk":50,"cat":"amber"},{"name":"Greenfields","lat":52.29298,"lon":-1.91881,"postcode":"B98 7HL","la":"Redditch","era":"other","nn":669,"risk":35,"cat":"amber"},{"name":"Lodge Park Residents Association","lat":52.29834,"lon":-1.92797,"postcode":"B98 7JT","la":"Redditch","era":"other","nn":319,"risk":30,"cat":"green"},{"name":"Meadow Farm","lat":52.32406,"lon":-1.9379,"postcode":"B98 9BJ","la":"Bromsgrove","era":"other","nn":1604,"risk":61,"cat":"red"},{"name":"Palace Theatre","lat":52.30638,"lon":-1.93968,"postcode":"B98 8AE","la":"Redditch","era":"other","nn":54,"risk":28,"cat":"green"},{"name":"Popworld And Zinc Redditch","lat":52.30647,"lon":-1.94053,"postcode":"B98 8AA","la":"Redditch","era":"other","nn":59,"risk":28,"cat":"green"},{"name":"Redditch Borough Community Sports And Social Club","lat":52.30554,"lon":-1.96131,"postcode":"B97 6PB","la":"Redditch","era":"mod","nn":327,"risk":33,"cat":"amber"},{"name":"Redditch Borough Council Civic Suite","lat":52.30515,"lon":-1.93821,"postcode":"B98 8AH","la":"Redditch","era":"other","nn":157,"risk":29,"cat":"green"},{"name":"Redditch Cricket Hockey & Rugby Club","lat":52.30574,"lon":-1.95651,"postcode":"B97 4SP","la":"Redditch","era":"other","nn":247,"risk":30,"cat":"green"},{"name":"Rocklands Social Club","lat":52.2925,"lon":-1.94761,"postcode":"B97 4LB","la":"Redditch","era":"mod","nn":81,"risk":29,"cat":"green"},{"name":"Rose & Crown","lat":52.29781,"lon":-1.96677,"postcode":"B97 5RB","la":"Redditch","era":"trad","nn":936,"risk":54,"cat":"amber"},{"name":"Rose & Crown","lat":52.25122,"lon":-1.98765,"postcode":"B96 6HS","la":"Redditch","era":"trad","nn":211,"risk":34,"cat":"amber"},{"name":"South Redditch Sports & Social Club","lat":52.28819,"lon":-1.92809,"postcode":"B98 7RS","la":"Redditch","era":"mod","nn":570,"risk":37,"cat":"amber"},{"name":"Steps Bar \\\\& Club","lat":52.28879,"lon":-1.94489,"postcode":"B97 5EN","la":"Redditch","era":"mod","nn":307,"risk":30,"cat":"green"},{"name":"Studley Road Social Club","lat":52.29862,"lon":-1.92331,"postcode":"B98 7HF","la":"Redditch","era":"mod","nn":319,"risk":30,"cat":"green"},{"name":"The Bell","lat":52.25701,"lon":-1.93737,"postcode":"B96 6AX","la":"Redditch","era":"other","nn":225,"risk":35,"cat":"amber"},{"name":"The Brook Inn","lat":52.27882,"lon":-1.98719,"postcode":"B97 5UD","la":"Redditch","era":"trad","nn":1978,"risk":64,"cat":"red"},{"name":"The Cricks","lat":52.3063,"lon":-1.92879,"postcode":"B98 8LY","la":"Redditch","era":"other","nn":64,"risk":28,"cat":"green"},{"name":"The Duck Inn","lat":52.28543,"lon":-1.93516,"postcode":"B98 7YH","la":"Redditch","era":"trad","nn":570,"risk":34,"cat":"amber"},{"name":"The Eagle","lat":52.28298,"lon":-1.9427,"postcode":"B97 5JA","la":"Redditch","era":"trad","nn":581,"risk":32,"cat":"amber"},{"name":"The Hart Pub","lat":52.29179,"lon":-1.94573,"postcode":"B97 5EJ","la":"Redditch","era":"trad","nn":44,"risk":28,"cat":"green"},{"name":"The Kings Arms","lat":52.30637,"lon":-1.92972,"postcode":"B98 8LY","la":"Redditch","era":"trad","nn":64,"risk":28,"cat":"green"},{"name":"The Lounge","lat":52.25908,"lon":-1.93758,"postcode":"B96 6AA","la":"Redditch","era":"mod","nn":86,"risk":34,"cat":"amber"},{"name":"The Lygon","lat":52.25002,"lon":-1.99093,"postcode":"B96 6JE","la":"Redditch","era":"other","nn":260,"risk":35,"cat":"amber"},{"name":"The Oast House","lat":52.30994,"lon":-1.90906,"postcode":"B98 8QJ","la":"Redditch","era":"other","nn":1234,"risk":59,"cat":"amber"},{"name":"The Oddies","lat":52.25884,"lon":-1.93879,"postcode":"B96 6BW","la":"Redditch","era":"other","nn":86,"risk":34,"cat":"amber"},{"name":"The Old Sticky Wicket","lat":52.29581,"lon":-1.89643,"postcode":"B98 0EP","la":"Redditch","era":"other","nn":626,"risk":52,"cat":"amber"},{"name":"The Park Inn","lat":52.29564,"lon":-1.94541,"postcode":"B97 4JU","la":"Redditch","era":"trad","nn":360,"risk":30,"cat":"green"},{"name":"The Pound Pub","lat":52.30456,"lon":-1.93397,"postcode":"B98 7AH","la":"Redditch","era":"other","nn":296,"risk":30,"cat":"green"},{"name":"The Queens Head","lat":52.30527,"lon":-1.95296,"postcode":"B97 4RL","la":"Redditch","era":"trad","nn":247,"risk":30,"cat":"green"},{"name":"The Queen's Head","lat":52.30654,"lon":-1.93778,"postcode":"B98 8AY","la":"Redditch","era":"trad","nn":126,"risk":29,"cat":"green"},{"name":"The Railway Inn","lat":52.30818,"lon":-1.94472,"postcode":"B97 6AE","la":"Redditch","era":"trad","nn":200,"risk":29,"cat":"green"},{"name":"The Red Lion","lat":52.27527,"lon":-1.94879,"postcode":"B97 5NF","la":"Redditch","era":"trad","nn":848,"risk":51,"cat":"amber"},{"name":"The Royal Enfield","lat":52.30675,"lon":-1.94293,"postcode":"B97 4QR","la":"Redditch","era":"trad","nn":167,"risk":29,"cat":"green"},{"name":"The Seven Stars","lat":52.29298,"lon":-1.9485,"postcode":"B97 4LB","la":"Redditch","era":"other","nn":81,"risk":29,"cat":"green"},{"name":"The Sportsmans Arms","lat":52.30686,"lon":-1.93956,"postcode":"B98 8DA","la":"Redditch","era":"trad","nn":54,"risk":28,"cat":"green"},{"name":"The Woodland Cottage","lat":52.30044,"lon":-1.94385,"postcode":"B97 4JH","la":"Redditch","era":"other","nn":544,"risk":32,"cat":"amber"},{"name":"The Woodrow","lat":52.28734,"lon":-1.91539,"postcode":"B98 7RY","la":"Redditch","era":"other","nn":669,"risk":38,"cat":"amber"},{"name":"Vaughan's Tapas Bar","lat":52.29242,"lon":-1.94592,"postcode":"B97 4JX","la":"Redditch","era":"mod","nn":71,"risk":28,"cat":"green"},{"name":"Craft Union Pub Company Ltd","lat":52.3913,"lon":-1.80184,"postcode":"B90 4SJ","la":"Solihull","era":"mod","nn":139,"risk":48,"cat":"amber"},{"name":"Angels Gentlemens Club","lat":52.52014,"lon":-1.99631,"postcode":"B70 8ND","la":"Sandwell","era":"trad","nn":184,"risk":25,"cat":"green"},{"name":"Be Our Guest (Midlands) Limited","lat":52.47409,"lon":-2.06489,"postcode":"B64 6LB","la":"Sandwell","era":"other","nn":61,"risk":25,"cat":"green"},{"name":"Beacon Harvester","lat":52.55799,"lon":-1.9384,"postcode":"B43 7AG","la":"Sandwell","era":"trad","nn":837,"risk":50,"cat":"amber"},{"name":"Bearwood Corks Social Club Ltd","lat":52.47464,"lon":-1.96965,"postcode":"B66 4BT","la":"Sandwell","era":"mod","nn":162,"risk":25,"cat":"green"},{"name":"Bell Inn","lat":52.49744,"lon":-1.99777,"postcode":"B68 8SL","la":"Sandwell","era":"trad","nn":433,"risk":27,"cat":"green"},{"name":"Bennetts Reggae Lounge","lat":52.47134,"lon":-2.08443,"postcode":"B64 5HE","la":"Sandwell","era":"mod","nn":53,"risk":25,"cat":"green"},{"name":"Blackheath Coronation Social Club","lat":52.47825,"lon":-2.03734,"postcode":"B65 9BD","la":"Sandwell","era":"mod","nn":141,"risk":25,"cat":"green"},{"name":"Blackheath Liberal Club","lat":52.47439,"lon":-2.04429,"postcode":"B65 0EP","la":"Sandwell","era":"other","nn":150,"risk":25,"cat":"green"},{"name":"Brades Tavern","lat":52.50532,"lon":-2.02887,"postcode":"B69 2ET","la":"Sandwell","era":"other","nn":425,"risk":30,"cat":"green"},{"name":"Brandhall Conservative Club","lat":52.48495,"lon":-2.02143,"postcode":"B69 4RB","la":"Sandwell","era":"other","nn":377,"risk":29,"cat":"green"},{"name":"Britannia Inn","lat":52.53426,"lon":-2.0182,"postcode":"B70 0EF","la":"Sandwell","era":"trad","nn":509,"risk":30,"cat":"green"},{"name":"Cagneys Bar & Grill Ltd","lat":52.54337,"lon":-2.00161,"postcode":"B71 2EX","la":"Sandwell","era":"mod","nn":448,"risk":27,"cat":"green"},{"name":"Caribbean Delight","lat":52.48764,"lon":-1.9472,"postcode":"B18 4HE","la":"Sandwell","era":"other","nn":579,"risk":28,"cat":"green"},{"name":"Chacha Ka Dabba","lat":52.5152,"lon":-1.98852,"postcode":"B70 6JJ","la":"Sandwell","era":"other","nn":25,"risk":24,"cat":"green"},{"name":"Charlemont Bowling Club","lat":52.5423,"lon":-1.97949,"postcode":"B71 3DU","la":"Sandwell","era":"other","nn":161,"risk":28,"cat":"green"},{"name":"Charlemont Social Club & Institute","lat":52.54476,"lon":-1.98245,"postcode":"B71 3AR","la":"Sandwell","era":"mod","nn":112,"risk":25,"cat":"green"},{"name":"Club 99 Banqueting Suite Ltd","lat":52.49542,"lon":-2.00395,"postcode":"B69 4NH","la":"Sandwell","era":"other","nn":81,"risk":25,"cat":"green"},{"name":"Community Action Project","lat":52.49415,"lon":-1.95419,"postcode":"B66 3LX","la":"Sandwell","era":"other","nn":364,"risk":27,"cat":"green"},{"name":"Cradley Heath Sports and Social Club","lat":52.47513,"lon":-2.07652,"postcode":"B64 5HU","la":"Sandwell","era":"mod","nn":168,"risk":25,"cat":"green"},{"name":"Crown & Anchor","lat":52.53775,"lon":-1.98258,"postcode":"B71 3BS","la":"Sandwell","era":"trad","nn":548,"risk":28,"cat":"green"},{"name":"Curry N Grill House","lat":52.5456,"lon":-1.98338,"postcode":"B71 3LH","la":"Sandwell","era":"other","nn":112,"risk":25,"cat":"green"},{"name":"Dudley Golf Club Ltd","lat":52.49804,"lon":-2.05084,"postcode":"B65 9DP","la":"Sandwell","era":"other","nn":829,"risk":47,"cat":"amber"},{"name":"Flirts","lat":52.51538,"lon":-1.98874,"postcode":"B70 6JJ","la":"Sandwell","era":"other","nn":0,"risk":24,"cat":"green"},{"name":"Fridah's Hall","lat":52.51392,"lon":-2.0434,"postcode":"B69 2PJ","la":"Sandwell","era":"other","nn":423,"risk":45,"cat":"amber"},{"name":"Great Barr Conservative Club","lat":52.54504,"lon":-1.93419,"postcode":"B43 6BN","la":"Sandwell","era":"other","nn":56,"risk":45,"cat":"amber"},{"name":"Half Penny Farm","lat":52.49423,"lon":-2.02105,"postcode":"B69 2AQ","la":"Sandwell","era":"other","nn":528,"risk":28,"cat":"green"},{"name":"Halfway House","lat":52.52869,"lon":-2.00654,"postcode":"B70 9SR","la":"Sandwell","era":"other","nn":421,"risk":27,"cat":"green"},{"name":"Hen and Chickens","lat":52.53791,"lon":-2.01179,"postcode":"B70 0RT","la":"Sandwell","era":"other","nn":277,"risk":26,"cat":"green"},{"name":"Horse & Jockey","lat":52.52446,"lon":-1.98859,"postcode":"B71 4EZ","la":"Sandwell","era":"trad","nn":324,"risk":26,"cat":"green"},{"name":"Hotshots Snooker Club","lat":52.4907,"lon":-2.00182,"postcode":"B68 8HH","la":"Sandwell","era":"other","nn":494,"risk":30,"cat":"green"},{"name":"Jolly Collier","lat":52.50887,"lon":-2.02342,"postcode":"B69 3HD","la":"Sandwell","era":"other","nn":129,"risk":28,"cat":"green"},{"name":"King Arthur Grill and Greets Green Sports Bar","lat":52.52254,"lon":-2.02703,"postcode":"B70 0HG","la":"Sandwell","era":"trad","nn":335,"risk":29,"cat":"green"},{"name":"Miller & Carter - Hagley Road","lat":52.46722,"lon":-1.97859,"postcode":"B67 5EY","la":"Sandwell","era":"trad","nn":339,"risk":27,"cat":"green"},{"name":"Night Inn","lat":52.50041,"lon":-1.97463,"postcode":"B66 1DH","la":"Sandwell","era":"trad","nn":597,"risk":46,"cat":"amber"},{"name":"Old Bush Revived","lat":52.47616,"lon":-2.05064,"postcode":"B65 0AD","la":"Sandwell","era":"other","nn":168,"risk":25,"cat":"green"},{"name":"Old Dispensary","lat":52.48306,"lon":-2.01681,"postcode":"B68 8LS","la":"Sandwell","era":"other","nn":377,"risk":29,"cat":"green"},{"name":"Old Talbot","lat":52.49554,"lon":-1.97089,"postcode":"B66 3AP","la":"Sandwell","era":"trad","nn":390,"risk":27,"cat":"green"},{"name":"Oldbury Social Club","lat":52.50266,"lon":-2.00983,"postcode":"B69 4EE","la":"Sandwell","era":"mod","nn":0,"risk":24,"cat":"green"},{"name":"Oldbury Social Club Bar & Grill Nepali Chef Indian Food & Takeaway","lat":52.50266,"lon":-2.00983,"postcode":"B69 4EE","la":"Sandwell","era":"mod","nn":0,"risk":24,"cat":"green"},{"name":"Oryan Cocktail Bar & Restaurant","lat":52.47718,"lon":-1.97049,"postcode":"B67 5BT","la":"Sandwell","era":"mod","nn":58,"risk":25,"cat":"green"},{"name":"R & R Bar & Grill","lat":52.53611,"lon":-1.9507,"postcode":"B43 5AB","la":"Sandwell","era":"mod","nn":514,"risk":33,"cat":"amber"},{"name":"Railway Inn","lat":52.52074,"lon":-2.00567,"postcode":"B70 9JD","la":"Sandwell","era":"trad","nn":140,"risk":25,"cat":"green"},{"name":"Riddins Tavern","lat":52.47322,"lon":-2.06626,"postcode":"B64 6DP","la":"Sandwell","era":"other","nn":73,"risk":25,"cat":"green"},{"name":"Rowley & Blackheath Labour Club","lat":52.48403,"lon":-2.047,"postcode":"B65 9AL","la":"Sandwell","era":"other","nn":229,"risk":26,"cat":"green"},{"name":"Rowley Bar & Grill","lat":52.48551,"lon":-2.04936,"postcode":"B65 9AE","la":"Sandwell","era":"mod","nn":189,"risk":28,"cat":"green"},{"name":"Royal Naval Association Club","lat":52.51782,"lon":-2.01407,"postcode":"B70 9PB","la":"Sandwell","era":"trad","nn":320,"risk":26,"cat":"green"},{"name":"Seven Stars On Cape Hill","lat":52.48694,"lon":-1.95963,"postcode":"B66 4SF","la":"Sandwell","era":"other","nn":84,"risk":25,"cat":"green"},{"name":"Shoulder of Mutton","lat":52.47594,"lon":-2.0389,"postcode":"B65 9BA","la":"Sandwell","era":"other","nn":139,"risk":25,"cat":"green"},{"name":"Smethwick Conservative Club","lat":52.49232,"lon":-1.96862,"postcode":"B66 3NL","la":"Sandwell","era":"other","nn":390,"risk":27,"cat":"green"},{"name":"Smethwick Mencap Social Club","lat":52.49288,"lon":-1.9592,"postcode":"B66 3QR","la":"Sandwell","era":"mod","nn":353,"risk":27,"cat":"green"},{"name":"Soho Foundary Tavern","lat":52.49723,"lon":-1.94706,"postcode":"B66 2LL","la":"Sandwell","era":"other","nn":592,"risk":28,"cat":"green"},{"name":"Sopreme Nightclub","lat":52.51538,"lon":-1.98874,"postcode":"B70 6JJ","la":"Sandwell","era":"other","nn":0,"risk":24,"cat":"green"},{"name":"Special Spices","lat":52.54252,"lon":-1.95595,"postcode":"B43 6QU","la":"Sandwell","era":"other","nn":80,"risk":30,"cat":"green"},{"name":"Springfield Social Club","lat":52.49092,"lon":-2.05634,"postcode":"B65 8PX","la":"Sandwell","era":"mod","nn":506,"risk":28,"cat":"green"},{"name":"Starvalley Bar & Restaurant Ltd","lat":52.49427,"lon":-2.0614,"postcode":"B65 8NB","la":"Sandwell","era":"mod","nn":506,"risk":33,"cat":"amber"},{"name":"The Bear Tavern","lat":52.47675,"lon":-1.97,"postcode":"B66 4BX","la":"Sandwell","era":"other","nn":58,"risk":25,"cat":"green"},{"name":"The Beehive","lat":52.5315,"lon":-2.02671,"postcode":"B70 0DR","la":"Sandwell","era":"other","nn":462,"risk":27,"cat":"green"},{"name":"The Britannia","lat":52.47378,"lon":-2.04192,"postcode":"B65 0ES","la":"Sandwell","era":"trad","nn":164,"risk":25,"cat":"green"},{"name":"The Britannia Inn","lat":52.48121,"lon":-2.0425,"postcode":"B65 9AT","la":"Sandwell","era":"trad","nn":437,"risk":27,"cat":"green"},{"name":"The Bulls Head Inn","lat":52.48811,"lon":-2.02804,"postcode":"B69 1AQ","la":"Sandwell","era":"trad","nn":100,"risk":25,"cat":"green"},{"name":"The Cherry Wood Smokehouse","lat":52.47086,"lon":-2.08442,"postcode":"B64 6AH","la":"Sandwell","era":"other","nn":53,"risk":25,"cat":"green"},{"name":"The Clock House - (Pub Only)","lat":52.5226,"lon":-2.00051,"postcode":"B70 9QG","la":"Sandwell","era":"mod","nn":0,"risk":24,"cat":"green"},{"name":"The Clock House - Kitchen","lat":52.5226,"lon":-2.00051,"postcode":"B70 9QG","la":"Sandwell","era":"mod","nn":0,"risk":24,"cat":"green"},{"name":"The Coal Shed","lat":52.49278,"lon":-2.01362,"postcode":"B69 4PY","la":"Sandwell","era":"other","nn":528,"risk":28,"cat":"green"},{"name":"The Cricketers Arms","lat":52.5081,"lon":-1.98955,"postcode":"B70 6EA","la":"Sandwell","era":"trad","nn":330,"risk":26,"cat":"green"},{"name":"The Crown & Cushion","lat":52.52182,"lon":-1.98652,"postcode":"B71 4AT","la":"Sandwell","era":"trad","nn":324,"risk":26,"cat":"green"},{"name":"The Crown Inn","lat":52.47187,"lon":-2.05788,"postcode":"B64 6NT","la":"Sandwell","era":"trad","nn":535,"risk":28,"cat":"green"},{"name":"The Dog Inn","lat":52.46913,"lon":-1.97469,"postcode":"B67 5EU","la":"Sandwell","era":"trad","nn":339,"risk":27,"cat":"green"},{"name":"The Dovecote","lat":52.54028,"lon":-2.01306,"postcode":"B70 0SD","la":"Sandwell","era":"other","nn":277,"risk":26,"cat":"green"},{"name":"The Fox & Goose","lat":52.5215,"lon":-2.02238,"postcode":"B70 9EW","la":"Sandwell","era":"trad","nn":335,"risk":44,"cat":"amber"},{"name":"The Fox Tavern","lat":52.48727,"lon":-2.02749,"postcode":"B65 0PT","la":"Sandwell","era":"trad","nn":100,"risk":25,"cat":"green"},{"name":"The George","lat":52.5084,"lon":-2.02516,"postcode":"B69 3DP","la":"Sandwell","era":"trad","nn":129,"risk":28,"cat":"green"},{"name":"The George","lat":52.47668,"lon":-1.99792,"postcode":"B68 9LN","la":"Sandwell","era":"trad","nn":1463,"risk":57,"cat":"amber"},{"name":"The Hamstead","lat":52.5403,"lon":-1.94749,"postcode":"B43 5LG","la":"Sandwell","era":"other","nn":514,"risk":33,"cat":"amber"},{"name":"The Interceptor","lat":52.51976,"lon":-1.99162,"postcode":"B70 7PP","la":"Sandwell","era":"other","nn":205,"risk":26,"cat":"green"},{"name":"The Ivy Bush","lat":52.50033,"lon":-1.99051,"postcode":"B66 1QR","la":"Sandwell","era":"other","nn":0,"risk":29,"cat":"green"},{"name":"The Ivy Bush Kitchen","lat":52.50033,"lon":-1.99051,"postcode":"B66 1QR","la":"Sandwell","era":"mod","nn":0,"risk":29,"cat":"green"},{"name":"The Junction Inn","lat":52.50349,"lon":-2.01468,"postcode":"B69 4DY","la":"Sandwell","era":"trad","nn":117,"risk":25,"cat":"green"},{"name":"The Knights Quest","lat":52.476,"lon":-2.04434,"postcode":"B65 0EE","la":"Sandwell","era":"other","nn":52,"risk":25,"cat":"green"},{"name":"The Little Beech","lat":52.47489,"lon":-2.04035,"postcode":"B65 0ES","la":"Sandwell","era":"other","nn":147,"risk":25,"cat":"green"},{"name":"The Malt Shovel","lat":52.47568,"lon":-2.0449,"postcode":"B65 0EH","la":"Sandwell","era":"other","nn":52,"risk":25,"cat":"green"},{"name":"The Malt Shovel","lat":52.54323,"lon":-1.95577,"postcode":"B43 6HN","la":"Sandwell","era":"other","nn":80,"risk":30,"cat":"green"},{"name":"The Midland","lat":52.47609,"lon":-1.96988,"postcode":"B66 4BX","la":"Sandwell","era":"other","nn":73,"risk":25,"cat":"green"},{"name":"The Moon Under Water","lat":52.47215,"lon":-2.08257,"postcode":"B64 5HJ","la":"Sandwell","era":"other","nn":102,"risk":25,"cat":"green"},{"name":"The New Cottage Bar and Grill","lat":52.4951,"lon":-2.00288,"postcode":"B69 4NB","la":"Sandwell","era":"mod","nn":81,"risk":25,"cat":"green"},{"name":"The New Flower Pot Bar & Grill","lat":52.51037,"lon":-1.99269,"postcode":"B70 6AS","la":"Sandwell","era":"mod","nn":259,"risk":26,"cat":"green"},{"name":"The New Inn","lat":52.47795,"lon":-2.03532,"postcode":"B65 0PH","la":"Sandwell","era":"trad","nn":141,"risk":25,"cat":"green"},{"name":"The Old Chapel Inn","lat":52.48714,"lon":-1.97243,"postcode":"B67 6EQ","la":"Sandwell","era":"trad","nn":631,"risk":29,"cat":"green"},{"name":"The Old Crown","lat":52.5234,"lon":-1.99686,"postcode":"B70 8TG","la":"Sandwell","era":"trad","nn":263,"risk":26,"cat":"green"},{"name":"The Old Hop Pole","lat":52.52361,"lon":-2.00303,"postcode":"B70 9LD","la":"Sandwell","era":"other","nn":58,"risk":25,"cat":"green"},{"name":"The Prince Albert","lat":52.51288,"lon":-1.99742,"postcode":"B70 7EG","la":"Sandwell","era":"trad","nn":212,"risk":26,"cat":"green"},{"name":"The Queen's Head","lat":52.53097,"lon":-2.00157,"postcode":"B71 1BU","la":"Sandwell","era":"trad","nn":421,"risk":27,"cat":"green"},{"name":"The Red Lion","lat":52.53213,"lon":-1.98769,"postcode":"B71 1RH","la":"Sandwell","era":"trad","nn":714,"risk":34,"cat":"amber"},{"name":"The Regis","lat":52.47775,"lon":-2.06901,"postcode":"B64 5JJ","la":"Sandwell","era":"other","nn":422,"risk":27,"cat":"green"},{"name":"The Robin Pub","lat":52.48983,"lon":-1.96063,"postcode":"B66 3PZ","la":"Sandwell","era":"other","nn":247,"risk":26,"cat":"green"},{"name":"The Roost","lat":52.47171,"lon":-2.08126,"postcode":"B64 6BD","la":"Sandwell","era":"other","nn":102,"risk":25,"cat":"green"},{"name":"The Royal Castle","lat":52.51247,"lon":-1.99435,"postcode":"B70 7ED","la":"Sandwell","era":"trad","nn":212,"risk":26,"cat":"green"},{"name":"The Sandwell","lat":52.51899,"lon":-1.99436,"postcode":"B70 8ND","la":"Sandwell","era":"other","nn":184,"risk":25,"cat":"green"},{"name":"The Scott Arms","lat":52.54553,"lon":-1.93401,"postcode":"B43 6BN","la":"Sandwell","era":"trad","nn":56,"risk":45,"cat":"amber"},{"name":"The Sow Bar and Grill","lat":52.53445,"lon":-2.01068,"postcode":"B70 0PS","la":"Sandwell","era":"mod","nn":393,"risk":27,"cat":"green"},{"name":"The Spinney Bar & Grill","lat":52.54271,"lon":-1.9772,"postcode":"B71 3EZ","la":"Sandwell","era":"other","nn":161,"risk":28,"cat":"green"},{"name":"The Sportsman Club","lat":52.51316,"lon":-1.98417,"postcode":"B70 6PP","la":"Sandwell","era":"other","nn":350,"risk":27,"cat":"green"},{"name":"The Spring Meadow","lat":52.47368,"lon":-2.06548,"postcode":"B64 6NP","la":"Sandwell","era":"other","nn":61,"risk":25,"cat":"green"},{"name":"The Victoria Suite","lat":52.48769,"lon":-1.95961,"postcode":"B66 3EN","la":"Sandwell","era":"trad","nn":84,"risk":25,"cat":"green"},{"name":"The Vine","lat":52.50929,"lon":-1.97864,"postcode":"B70 6RD","la":"Sandwell","era":"other","nn":466,"risk":27,"cat":"green"},{"name":"The Vine","lat":52.51951,"lon":-2.00607,"postcode":"B70 8DB","la":"Sandwell","era":"other","nn":140,"risk":25,"cat":"green"},{"name":"The Waterfall","lat":52.47471,"lon":-2.05129,"postcode":"B64 6RG","la":"Sandwell","era":"other","nn":168,"risk":25,"cat":"green"},{"name":"The Wheatsheaf Hotel","lat":52.52356,"lon":-2.00218,"postcode":"B70 9QW","la":"Sandwell","era":"trad","nn":58,"risk":25,"cat":"green"},{"name":"The White Swan (Bar)","lat":52.5144,"lon":-2.00117,"postcode":"B70 7HW","la":"Sandwell","era":"trad","nn":0,"risk":24,"cat":"green"},{"name":"The White Swan (Kitchen)","lat":52.5144,"lon":-2.00117,"postcode":"B70 7HW","la":"Sandwell","era":"other","nn":0,"risk":24,"cat":"green"},{"name":"The Windmill's End","lat":52.47477,"lon":-2.03819,"postcode":"B65 0JE","la":"Sandwell","era":"trad","nn":139,"risk":25,"cat":"green"},{"name":"The Wonder","lat":52.51483,"lon":-2.04948,"postcode":"B69 2HU","la":"Sandwell","era":"other","nn":423,"risk":30,"cat":"green"},{"name":"The Woodlands Bar & Grill","lat":52.49087,"lon":-1.95391,"postcode":"B66 3TD","la":"Sandwell","era":"mod","nn":364,"risk":27,"cat":"green"},{"name":"The Yew Tree","lat":52.5155,"lon":-2.01127,"postcode":"B70 8QX","la":"Sandwell","era":"other","nn":320,"risk":26,"cat":"green"},{"name":"Three Horseshoes","lat":52.54105,"lon":-2.00703,"postcode":"B71 2AQ","la":"Sandwell","era":"trad","nn":416,"risk":30,"cat":"green"},{"name":"Tippity Green Gold Club Limited","lat":52.48719,"lon":-2.04959,"postcode":"B65 9AA","la":"Sandwell","era":"other","nn":189,"risk":28,"cat":"green"},{"name":"Tivi Ale Micro Bar","lat":52.50951,"lon":-2.05616,"postcode":"B69 1TR","la":"Sandwell","era":"other","nn":581,"risk":31,"cat":"amber"},{"name":"Waggon and Horses","lat":52.4761,"lon":-2.07461,"postcode":"B64 5JR","la":"Sandwell","era":"trad","nn":168,"risk":25,"cat":"green"},{"name":"Warley Rugby Football Club","lat":52.49925,"lon":-2.01002,"postcode":"B69 4NH","la":"Sandwell","era":"other","nn":379,"risk":27,"cat":"green"},{"name":"West Bromwich Dartmouth Cricke","lat":52.51163,"lon":-1.97293,"postcode":"B71 4JQ","la":"Sandwell","era":"other","nn":466,"risk":45,"cat":"amber"},{"name":"White Swan","lat":52.50423,"lon":-2.01592,"postcode":"B69 3AD","la":"Sandwell","era":"trad","nn":117,"risk":25,"cat":"green"},{"name":"Whiteheath Tavern","lat":52.48905,"lon":-2.02652,"postcode":"B69 1AD","la":"Sandwell","era":"other","nn":147,"risk":25,"cat":"green"},{"name":"Ye Olde Wine Shoppe","lat":52.51532,"lon":-1.98793,"postcode":"B70 6NZ","la":"Sandwell","era":"other","nn":42,"risk":24,"cat":"green"},{"name":"Ale Hub Limited","lat":52.40344,"lon":-1.81009,"postcode":"B90 3ER","la":"Solihull","era":"mod","nn":301,"risk":47,"cat":"amber"},{"name":"Ale Hub Micro Pub","lat":52.38485,"lon":-1.83645,"postcode":"B90 1UB","la":"Solihull","era":"mod","nn":985,"risk":54,"cat":"amber"},{"name":"Ale Rooms","lat":52.38999,"lon":-1.7366,"postcode":"B93 0LF","la":"Solihull","era":"mod","nn":83,"risk":28,"cat":"green"},{"name":"Avenue Bowling Club","lat":52.40082,"lon":-1.75358,"postcode":"B93 9AU","la":"Solihull","era":"other","nn":1450,"risk":60,"cat":"amber"},{"name":"Castle Bromwich Mens Club","lat":52.50434,"lon":-1.78181,"postcode":"B36 9BU","la":"Solihull","era":"other","nn":497,"risk":35,"cat":"amber"},{"name":"Chelmsley Wood Conservative Club","lat":52.47908,"lon":-1.7458,"postcode":"B37 5DZ","la":"Solihull","era":"trad","nn":203,"risk":46,"cat":"amber"},{"name":"Chelmsley Wood Town Council (Food \\\\& Beverage)","lat":52.47078,"lon":-1.7322,"postcode":"B37 7NS","la":"Solihull","era":"trad","nn":367,"risk":47,"cat":"amber"},{"name":"Crafty Cat","lat":52.41303,"lon":-1.82879,"postcode":"B90 3GG","la":"Solihull","era":"mod","nn":0,"risk":27,"cat":"green"},{"name":"Dance Warehouse","lat":52.42709,"lon":-1.77543,"postcode":"B91 2JU","la":"Solihull","era":"other","nn":366,"risk":35,"cat":"amber"},{"name":"Drum & Monkey","lat":52.37651,"lon":-1.76635,"postcode":"B93 8ND","la":"Solihull","era":"trad","nn":1217,"risk":58,"cat":"amber"},{"name":"Earlswood Cricket Club","lat":52.37777,"lon":-1.81919,"postcode":"B94 6EE","la":"Solihull","era":"other","nn":266,"risk":49,"cat":"amber"},{"name":"Fordbridge Centre","lat":52.4797,"lon":-1.74862,"postcode":"B37 5DD","la":"Solihull","era":"other","nn":203,"risk":33,"cat":"amber"},{"name":"Greens","lat":52.41391,"lon":-1.77612,"postcode":"B91 3AY","la":"Solihull","era":"other","nn":187,"risk":28,"cat":"green"},{"name":"Greswolde Arms Hotel","lat":52.38999,"lon":-1.73538,"postcode":"B93 0LL","la":"Solihull","era":"trad","nn":83,"risk":28,"cat":"green"},{"name":"Greville Arms","lat":52.42381,"lon":-1.7718,"postcode":"B91 2RB","la":"Solihull","era":"trad","nn":232,"risk":31,"cat":"amber"},{"name":"Hillfield Farm","lat":52.39253,"lon":-1.8022,"postcode":"B90 4GT","la":"Solihull","era":"other","nn":139,"risk":48,"cat":"amber"},{"name":"Hockley Heath Mens Social Club Limited","lat":52.34981,"lon":-1.77702,"postcode":"B94 5NH","la":"Solihull","era":"mod","nn":0,"risk":29,"cat":"green"},{"name":"King George Vi Memorial Club","lat":52.34981,"lon":-1.77702,"postcode":"B94 5NH","la":"Solihull","era":"trad","nn":0,"risk":29,"cat":"green"},{"name":"Kings Arms","lat":52.37429,"lon":-1.72167,"postcode":"B93 0EE","la":"Solihull","era":"trad","nn":478,"risk":50,"cat":"amber"},{"name":"Knowle Royal British Legion","lat":52.39172,"lon":-1.73829,"postcode":"B93 9LU","la":"Solihull","era":"trad","nn":134,"risk":28,"cat":"green"},{"name":"Land Rover Sports & Social Club","lat":52.43038,"lon":-1.77513,"postcode":"B92 9LN","la":"Solihull","era":"mod","nn":366,"risk":35,"cat":"amber"},{"name":"Langley Hall Social Club","lat":52.42896,"lon":-1.82267,"postcode":"B92 7HE","la":"Solihull","era":"mod","nn":774,"risk":50,"cat":"amber"},{"name":"Loki Wines","lat":52.38705,"lon":-1.73449,"postcode":"B93 0HT","la":"Solihull","era":"other","nn":95,"risk":28,"cat":"green"},{"name":"Marston Green Club Limited - Artisan Bailey Limited","lat":52.46638,"lon":-1.74495,"postcode":"B37 7EL","la":"Solihull","era":"other","nn":617,"risk":49,"cat":"amber"},{"name":"Marston Green Tavern","lat":52.46752,"lon":-1.75387,"postcode":"B37 7AS","la":"Solihull","era":"other","nn":617,"risk":51,"cat":"amber"},{"name":"Masons Arms","lat":52.41218,"lon":-1.77619,"postcode":"B91 3ST","la":"Solihull","era":"trad","nn":192,"risk":28,"cat":"green"},{"name":"Miller & Carter","lat":52.39109,"lon":-1.82543,"postcode":"B90 4EA","la":"Solihull","era":"trad","nn":1020,"risk":57,"cat":"amber"},{"name":"Miller & Carter","lat":52.35261,"lon":-1.77684,"postcode":"B94 6NL","la":"Solihull","era":"trad","nn":211,"risk":31,"cat":"amber"},{"name":"Old Edwardians Sports Club","lat":52.42296,"lon":-1.82847,"postcode":"B90 3PE","la":"Solihull","era":"other","nn":491,"risk":48,"cat":"amber"},{"name":"Olton Mere Sailing Club","lat":52.43155,"lon":-1.79913,"postcode":"B92 7AN","la":"Solihull","era":"other","nn":1321,"risk":59,"cat":"amber"},{"name":"Olton Tavern","lat":52.43819,"lon":-1.78297,"postcode":"B92 8NU","la":"Solihull","era":"other","nn":767,"risk":35,"cat":"amber"},{"name":"Popworld","lat":52.41479,"lon":-1.77924,"postcode":"B91 3AB","la":"Solihull","era":"other","nn":112,"risk":28,"cat":"green"},{"name":"Punch Bowl","lat":52.49214,"lon":-1.74405,"postcode":"B37 6LB","la":"Solihull","era":"other","nn":142,"risk":30,"cat":"green"},{"name":"Pup & Duckling","lat":52.44606,"lon":-1.77713,"postcode":"B92 9AG","la":"Solihull","era":"other","nn":208,"risk":28,"cat":"green"},{"name":"Remembrance Social Club","lat":52.50554,"lon":-1.78889,"postcode":"B36 9DD","la":"Solihull","era":"mod","nn":497,"risk":48,"cat":"amber"},{"name":"Rileys Sports Bar","lat":52.44497,"lon":-1.78495,"postcode":"B92 8JN","la":"Solihull","era":"other","nn":284,"risk":29,"cat":"green"},{"name":"Rumours Bar Grill","lat":52.48323,"lon":-1.75489,"postcode":"B37 5AY","la":"Solihull","era":"mod","nn":476,"risk":35,"cat":"amber"},{"name":"Saracens Head","lat":52.41166,"lon":-1.82731,"postcode":"B90 3AG","la":"Solihull","era":"trad","nn":182,"risk":28,"cat":"green"},{"name":"Saxon","lat":52.37828,"lon":-1.81537,"postcode":"B90 4JA","la":"Solihull","era":"other","nn":266,"risk":49,"cat":"amber"},{"name":"Sharmans Cross","lat":52.41424,"lon":-1.80823,"postcode":"B91 1HT","la":"Solihull","era":"trad","nn":402,"risk":47,"cat":"amber"},{"name":"Shirley Social Club Ltd","lat":52.40172,"lon":-1.81352,"postcode":"B90 4RB","la":"Solihull","era":"mod","nn":301,"risk":32,"cat":"amber"},{"name":"Silhill Football Club","lat":52.4175,"lon":-1.79828,"postcode":"B91 1RQ","la":"Solihull","era":"other","nn":377,"risk":47,"cat":"amber"},{"name":"Simone@Ed's - Old Edwardians Sports Club -","lat":52.42137,"lon":-1.82171,"postcode":"B90 3PE","la":"Solihull","era":"other","nn":491,"risk":48,"cat":"amber"},{"name":"Solihull Arden Club","lat":52.41537,"lon":-1.80261,"postcode":"B91 1RG","la":"Solihull","era":"other","nn":377,"risk":47,"cat":"amber"},{"name":"Strawberry Fields","lat":52.40685,"lon":-1.82462,"postcode":"B90 3DN","la":"Solihull","era":"other","nn":76,"risk":28,"cat":"green"},{"name":"Tanworth & Camp Hill Cricket Club","lat":52.37764,"lon":-1.8449,"postcode":"B94 5NA","la":"Solihull","era":"other","nn":985,"risk":54,"cat":"amber"},{"name":"The Arches","lat":52.47227,"lon":-1.72737,"postcode":"B37 7NP","la":"Solihull","era":"other","nn":367,"risk":50,"cat":"amber"},{"name":"The Barn Beefeater","lat":52.35822,"lon":-1.78027,"postcode":"B94 6NX","la":"Solihull","era":"other","nn":666,"risk":34,"cat":"amber"},{"name":"The Black Boy","lat":52.37048,"lon":-1.71841,"postcode":"B93 0EB","la":"Solihull","era":"other","nn":478,"risk":50,"cat":"amber"},{"name":"The Boat Inn","lat":52.42076,"lon":-1.73703,"postcode":"B91 2TJ","la":"Solihull","era":"trad","nn":1136,"risk":57,"cat":"amber"},{"name":"The Bulls Head","lat":52.36699,"lon":-1.81934,"postcode":"B94 6BU","la":"Solihull","era":"trad","nn":403,"risk":50,"cat":"amber"},{"name":"The Centurion Pub","lat":52.48655,"lon":-1.73714,"postcode":"B37 6PR","la":"Solihull","era":"other","nn":245,"risk":34,"cat":"amber"},{"name":"The Colebrook","lat":52.40801,"lon":-1.83994,"postcode":"B90 2LL","la":"Solihull","era":"other","nn":839,"risk":33,"cat":"amber"},{"name":"The Dingle","lat":52.44421,"lon":-1.77665,"postcode":"B92 9EY","la":"Solihull","era":"other","nn":208,"risk":28,"cat":"green"},{"name":"The Dry Spy","lat":52.38923,"lon":-1.7349,"postcode":"B93 0LL","la":"Solihull","era":"other","nn":90,"risk":28,"cat":"green"},{"name":"The Family Tree Social Club","lat":52.48876,"lon":-1.73728,"postcode":"B37 6QU","la":"Solihull","era":"mod","nn":245,"risk":34,"cat":"amber"},{"name":"The Farthings Inc K-Town, Chik Box, Locked And Loaded, 88th Street, Value Mighty, Sin City Burger","lat":52.50701,"lon":-1.76995,"postcode":"B36 0AY","la":"Solihull","era":"other","nn":565,"risk":48,"cat":"amber"},{"name":"The Fieldhouse Ember Inn","lat":52.39693,"lon":-1.78648,"postcode":"B91 3JU","la":"Solihull","era":"other","nn":1174,"risk":58,"cat":"amber"},{"name":"The Flute & Flagon (88th Street, Value Mighty, Sin City Burger)","lat":52.41453,"lon":-1.78083,"postcode":"B91 3SB","la":"Solihull","era":"other","nn":15,"risk":27,"cat":"green"},{"name":"The Flying Elephant","lat":52.42223,"lon":-1.77401,"postcode":"B91 2LP","la":"Solihull","era":"other","nn":232,"risk":29,"cat":"green"},{"name":"The Funky Bear Solihull","lat":52.41467,"lon":-1.78175,"postcode":"B91 3RX","la":"Solihull","era":"other","nn":50,"risk":27,"cat":"green"},{"name":"The Glades Football Centre","lat":52.42319,"lon":-1.7533,"postcode":"B91 2RX","la":"Solihull","era":"other","nn":1136,"risk":57,"cat":"amber"},{"name":"The Hobs Meadow","lat":52.4442,"lon":-1.78894,"postcode":"B92 8ED","la":"Solihull","era":"other","nn":284,"risk":29,"cat":"green"},{"name":"The Honey Club","lat":52.41314,"lon":-1.77857,"postcode":"B91 3TA","la":"Solihull","era":"other","nn":187,"risk":28,"cat":"green"},{"name":"The Kingfisher","lat":52.51002,"lon":-1.75161,"postcode":"B36 9JS","la":"Solihull","era":"trad","nn":1286,"risk":58,"cat":"amber"},{"name":"The Lyndon Pub Company","lat":52.44691,"lon":-1.79642,"postcode":"B92 7QQ","la":"Solihull","era":"other","nn":590,"risk":36,"cat":"amber"},{"name":"The Pavilions Club Limited","lat":52.49108,"lon":-1.74521,"postcode":"B37 6BX","la":"Solihull","era":"trad","nn":142,"risk":30,"cat":"green"},{"name":"The Plume Of Feathers","lat":52.40749,"lon":-1.82424,"postcode":"B90 3BW","la":"Solihull","era":"other","nn":76,"risk":28,"cat":"green"},{"name":"The Pump House","lat":52.41303,"lon":-1.82879,"postcode":"B90 3GG","la":"Solihull","era":"other","nn":0,"risk":27,"cat":"green"},{"name":"The Railway Inn","lat":52.36636,"lon":-1.75962,"postcode":"B93 8QA","la":"Solihull","era":"trad","nn":1217,"risk":58,"cat":"amber"},{"name":"The Red Lion","lat":52.38787,"lon":-1.73411,"postcode":"B93 0LY","la":"Solihull","era":"trad","nn":95,"risk":28,"cat":"green"},{"name":"The Royal British Legion","lat":52.41609,"lon":-1.77342,"postcode":"B91 3DH","la":"Solihull","era":"trad","nn":304,"risk":29,"cat":"green"},{"name":"The Shaking Hand","lat":52.41303,"lon":-1.82879,"postcode":"B90 3GG","la":"Solihull","era":"trad","nn":0,"risk":27,"cat":"green"},{"name":"The Toby Jug","lat":52.49781,"lon":-1.75062,"postcode":"B36 0JU","la":"Solihull","era":"other","nn":771,"risk":37,"cat":"amber"},{"name":"The Vaults","lat":52.38748,"lon":-1.73709,"postcode":"B93 0JU","la":"Solihull","era":"other","nn":183,"risk":28,"cat":"green"},{"name":"Toby Carvery","lat":52.50284,"lon":-1.77472,"postcode":"B36 0AG","la":"Solihull","era":"other","nn":508,"risk":33,"cat":"amber"},{"name":"Wharf Tavern Hockley Heath","lat":52.35075,"lon":-1.77753,"postcode":"B94 6QT","la":"Solihull","era":"other","nn":111,"risk":30,"cat":"green"},{"name":"White Lion","lat":52.4248,"lon":-1.70226,"postcode":"B92 0AA","la":"Solihull","era":"trad","nn":2401,"risk":66,"cat":"red"},{"name":"White Swan","lat":52.41453,"lon":-1.78105,"postcode":"B91 3SB","la":"Solihull","era":"trad","nn":15,"risk":27,"cat":"green"},{"name":"Wilsons Arms Toby Carvery","lat":52.39082,"lon":-1.73698,"postcode":"B93 9AH","la":"Solihull","era":"trad","nn":96,"risk":28,"cat":"green"},{"name":"Woodmans Rest","lat":52.40535,"lon":-1.82232,"postcode":"B90 3DB","la":"Solihull","era":"other","nn":228,"risk":29,"cat":"green"},{"name":"Alcester And Ragley Park Cricket Club","lat":52.19888,"lon":-1.89591,"postcode":"B49 5NH","la":"Stratford-on-Avon","era":"other","nn":2003,"risk":62,"cat":"red"},{"name":"Alcester Unionist Club Ltd","lat":52.21412,"lon":-1.87018,"postcode":"B49 5AB","la":"Stratford-on-Avon","era":"other","nn":0,"risk":26,"cat":"green"},{"name":"Astwood Bank Cricket Club","lat":52.26523,"lon":-1.92194,"postcode":"B96 6ES","la":"Stratford-on-Avon","era":"other","nn":1239,"risk":57,"cat":"amber"},{"name":"Bidford Bowling Club","lat":52.16432,"lon":-1.86531,"postcode":"B50 4EL","la":"Stratford-on-Avon","era":"other","nn":457,"risk":46,"cat":"amber"},{"name":"Bidford Grange Golf Club","lat":52.16261,"lon":-1.83014,"postcode":"B50 4LY","la":"Stratford-on-Avon","era":"other","nn":970,"risk":53,"cat":"amber"},{"name":"Blue Boar Inn","lat":52.19477,"lon":-1.80589,"postcode":"B49 6NR","la":"Stratford-on-Avon","era":"trad","nn":843,"risk":52,"cat":"amber"},{"name":"Broom Hall Inn","lat":52.17567,"lon":-1.86741,"postcode":"B50 4HE","la":"Stratford-on-Avon","era":"trad","nn":372,"risk":48,"cat":"amber"},{"name":"Conservative And Unionist Club","lat":52.27136,"lon":-1.89381,"postcode":"B80 7NJ","la":"Stratford-on-Avon","era":"other","nn":240,"risk":27,"cat":"green"},{"name":"Dog And Partridge","lat":52.21223,"lon":-1.87176,"postcode":"B49 5BB","la":"Stratford-on-Avon","era":"other","nn":237,"risk":27,"cat":"green"},{"name":"Earlswood Town Football Club","lat":52.35816,"lon":-1.84877,"postcode":"B94 5DX","la":"Stratford-on-Avon","era":"other","nn":1707,"risk":60,"cat":"amber"},{"name":"Golden Cross","lat":52.18221,"lon":-1.83337,"postcode":"B50 4LG","la":"Stratford-on-Avon","era":"trad","nn":2191,"risk":64,"cat":"red"},{"name":"Miller And Carter Washford Mill","lat":52.28329,"lon":-1.89624,"postcode":"B80 7BD","la":"Stratford-on-Avon","era":"trad","nn":395,"risk":31,"cat":"amber"},{"name":"Moat House Inn","lat":52.22954,"lon":-1.87975,"postcode":"B49 5QF","la":"Stratford-on-Avon","era":"other","nn":730,"risk":51,"cat":"amber"},{"name":"Navigation Inn & Jamesons Bar","lat":52.26449,"lon":-1.76849,"postcode":"B95 6BZ","la":"Stratford-on-Avon","era":"trad","nn":1017,"risk":55,"cat":"amber"},{"name":"Needlemakers Arms","lat":52.26488,"lon":-1.89331,"postcode":"B80 7PT","la":"Stratford-on-Avon","era":"trad","nn":353,"risk":28,"cat":"green"},{"name":"Portway Bar","lat":52.35318,"lon":-1.87704,"postcode":"B94 5LH","la":"Stratford-on-Avon","era":"other","nn":522,"risk":49,"cat":"amber"},{"name":"Shakespeare Inn","lat":52.27511,"lon":-1.89625,"postcode":"B80 7AX","la":"Stratford-on-Avon","era":"trad","nn":80,"risk":26,"cat":"green"},{"name":"Studley Sports Centre","lat":52.2814,"lon":-1.89134,"postcode":"B80 7BF","la":"Stratford-on-Avon","era":"other","nn":395,"risk":29,"cat":"green"},{"name":"Tanworth And Camp Hill Cricket Club","lat":52.3232,"lon":-1.86164,"postcode":"B98 9EH","la":"Stratford-on-Avon","era":"other","nn":1046,"risk":56,"cat":"amber"},{"name":"The Barley Mow","lat":52.27475,"lon":-1.89522,"postcode":"B80 7BA","la":"Stratford-on-Avon","era":"other","nn":80,"risk":26,"cat":"green"},{"name":"The Bear Hotel","lat":52.21412,"lon":-1.87018,"postcode":"B49 5AB","la":"Stratford-on-Avon","era":"other","nn":0,"risk":26,"cat":"green"},{"name":"The Bell","lat":52.27366,"lon":-1.89473,"postcode":"B80 7AR","la":"Stratford-on-Avon","era":"other","nn":126,"risk":27,"cat":"green"},{"name":"The Bell Inn","lat":52.33251,"lon":-1.83658,"postcode":"B94 5AL","la":"Stratford-on-Avon","era":"trad","nn":1122,"risk":56,"cat":"amber"},{"name":"The Black Swan","lat":52.29586,"lon":-1.77821,"postcode":"B95 5AA","la":"Stratford-on-Avon","era":"trad","nn":191,"risk":32,"cat":"amber"},{"name":"The Blue Bell Cider House","lat":52.36609,"lon":-1.81359,"postcode":"B94 6BP","la":"Solihull","era":"other","nn":403,"risk":50,"cat":"amber"},{"name":"The Boot Inn","lat":52.28645,"lon":-1.88612,"postcode":"B80 7BJ","la":"Stratford-on-Avon","era":"trad","nn":664,"risk":48,"cat":"amber"},{"name":"The Bulls Head Inn","lat":52.16527,"lon":-1.85482,"postcode":"B50 4AA","la":"Stratford-on-Avon","era":"trad","nn":285,"risk":45,"cat":"amber"},{"name":"The Cottage Of Content","lat":52.159,"lon":-1.84307,"postcode":"B50 4NP","la":"Stratford-on-Avon","era":"other","nn":970,"risk":53,"cat":"amber"},{"name":"The Dog Inn","lat":52.29906,"lon":-1.87557,"postcode":"B80 7DR","la":"Stratford-on-Avon","era":"trad","nn":1464,"risk":58,"cat":"amber"},{"name":"The Fish Inn","lat":52.18907,"lon":-1.87127,"postcode":"B49 6DA","la":"Stratford-on-Avon","era":"trad","nn":1185,"risk":57,"cat":"amber"},{"name":"The Frog","lat":52.16419,"lon":-1.85861,"postcode":"B50 4BG","la":"Stratford-on-Avon","era":"other","nn":285,"risk":45,"cat":"amber"},{"name":"The Green Dragon","lat":52.25487,"lon":-1.91172,"postcode":"B96 6NU","la":"Stratford-on-Avon","era":"trad","nn":1325,"risk":58,"cat":"amber"},{"name":"The Hockley House","lat":52.33934,"lon":-1.7745,"postcode":"B94 5NW","la":"Stratford-on-Avon","era":"other","nn":1176,"risk":56,"cat":"amber"},{"name":"The Holly Bush","lat":52.31447,"lon":-1.86738,"postcode":"B98 9EN","la":"Stratford-on-Avon","era":"trad","nn":1046,"risk":56,"cat":"amber"},{"name":"The Holly Bush Inn","lat":52.21589,"lon":-1.86875,"postcode":"B49 5QX","la":"Stratford-on-Avon","era":"trad","nn":150,"risk":27,"cat":"green"},{"name":"The Jubilee Inn","lat":52.26301,"lon":-1.89751,"postcode":"B80 7PQ","la":"Stratford-on-Avon","era":"trad","nn":353,"risk":31,"cat":"amber"},{"name":"The Kings Head","lat":52.23831,"lon":-1.79848,"postcode":"B95 6HY","la":"Stratford-on-Avon","era":"trad","nn":2617,"risk":67,"cat":"red"},{"name":"The Lark","lat":52.26811,"lon":-1.89297,"postcode":"B80 7NP","la":"Stratford-on-Avon","era":"other","nn":360,"risk":28,"cat":"green"},{"name":"The Mother Huff Cap","lat":52.2334,"lon":-1.83608,"postcode":"B49 6HY","la":"Stratford-on-Avon","era":"other","nn":2617,"risk":67,"cat":"red"},{"name":"The Nags Head","lat":52.29086,"lon":-1.78006,"postcode":"B95 5BA","la":"Stratford-on-Avon","era":"trad","nn":190,"risk":32,"cat":"amber"},{"name":"The Railway Inn","lat":52.27006,"lon":-1.90553,"postcode":"B80 7JS","la":"Stratford-on-Avon","era":"trad","nn":688,"risk":31,"cat":"amber"},{"name":"The Roebuck","lat":52.22301,"lon":-1.87857,"postcode":"B49 5QA","la":"Stratford-on-Avon","era":"other","nn":730,"risk":51,"cat":"amber"},{"name":"The Royal Oak","lat":52.21412,"lon":-1.87018,"postcode":"B49 5AB","la":"Stratford-on-Avon","era":"trad","nn":0,"risk":26,"cat":"green"},{"name":"The Swan","lat":52.27279,"lon":-1.89646,"postcode":"B80 7HJ","la":"Stratford-on-Avon","era":"trad","nn":50,"risk":26,"cat":"green"},{"name":"The Tavern","lat":52.17842,"lon":-1.87052,"postcode":"B50 4HL","la":"Stratford-on-Avon","era":"other","nn":372,"risk":48,"cat":"amber"},{"name":"The Three Tuns","lat":52.29421,"lon":-1.77895,"postcode":"B95 5AT","la":"Stratford-on-Avon","era":"other","nn":191,"risk":32,"cat":"amber"},{"name":"The Throckmorton","lat":52.24647,"lon":-1.88616,"postcode":"B49 5HX","la":"Stratford-on-Avon","era":"other","nn":1932,"risk":62,"cat":"red"},{"name":"The Warwickshire Lad","lat":52.34367,"lon":-1.84045,"postcode":"B94 5DP","la":"Stratford-on-Avon","era":"other","nn":1269,"risk":57,"cat":"amber"},{"name":"The White Swan Hotel","lat":52.29254,"lon":-1.78052,"postcode":"B95 5BY","la":"Stratford-on-Avon","era":"trad","nn":190,"risk":32,"cat":"amber"},{"name":"The Winged Spur","lat":52.30425,"lon":-1.82275,"postcode":"B95 5PA","la":"Stratford-on-Avon","era":"other","nn":3153,"risk":70,"cat":"red"},{"name":"Turks Head","lat":52.21469,"lon":-1.86975,"postcode":"B49 5AD","la":"Stratford-on-Avon","era":"trad","nn":69,"risk":26,"cat":"green"},{"name":"Umberslade Deli And Wine Shed","lat":52.33436,"lon":-1.82034,"postcode":"B94 5AE","la":"Stratford-on-Avon","era":"other","nn":1122,"risk":56,"cat":"amber"},{"name":"Weatheroak Brewery Tap House","lat":52.27325,"lon":-1.89647,"postcode":"B80 7HN","la":"Stratford-on-Avon","era":"other","nn":50,"risk":26,"cat":"green"},{"name":"Wootton Wawen Social Club","lat":52.26697,"lon":-1.78288,"postcode":"B95 6AY","la":"Stratford-on-Avon","era":"mod","nn":1017,"risk":55,"cat":"amber"},{"name":"Belgrave Sports And Social Club","lat":52.61565,"lon":-1.67343,"postcode":"B77 2LF","la":"Tamworth","era":"mod","nn":618,"risk":31,"cat":"amber"},{"name":"Bolehall Manor Club","lat":52.63204,"lon":-1.6844,"postcode":"B77 3LH","la":"Tamworth","era":"other","nn":461,"risk":30,"cat":"green"},{"name":"Bolehall Swifts 2010","lat":52.63483,"lon":-1.67477,"postcode":"B77 3NW","la":"Tamworth","era":"other","nn":313,"risk":32,"cat":"amber"},{"name":"Bonds","lat":52.63405,"lon":-1.69649,"postcode":"B79 7DH","la":"Tamworth","era":"other","nn":29,"risk":27,"cat":"green"},{"name":"Castle Sports Lounge","lat":52.63349,"lon":-1.69686,"postcode":"B79 7LU","la":"Tamworth","era":"mod","nn":27,"risk":27,"cat":"green"},{"name":"Colin Grazier Hotel & U Bar","lat":52.634,"lon":-1.69528,"postcode":"B79 7BX","la":"Tamworth","era":"other","nn":55,"risk":27,"cat":"green"},{"name":"Dosthill Old Boys Social Club","lat":52.59862,"lon":-1.68104,"postcode":"B77 1PQ","la":"Tamworth","era":"mod","nn":404,"risk":50,"cat":"amber"},{"name":"Hogarths Gin Palace","lat":52.63495,"lon":-1.69367,"postcode":"B79 7AT","la":"Tamworth","era":"other","nn":38,"risk":27,"cat":"green"},{"name":"Jynx Bar and Nightclub","lat":52.63296,"lon":-1.69196,"postcode":"B79 7PD","la":"Tamworth","era":"mod","nn":43,"risk":27,"cat":"green"},{"name":"Kettlebrook Wmc & Institute","lat":52.62727,"lon":-1.68744,"postcode":"B77 1AH","la":"Tamworth","era":"other","nn":143,"risk":28,"cat":"green"},{"name":"Market Vaults","lat":52.63324,"lon":-1.69632,"postcode":"B79 7LU","la":"Tamworth","era":"other","nn":16,"risk":27,"cat":"green"},{"name":"Moat House","lat":52.63304,"lon":-1.70265,"postcode":"B79 7QQ","la":"Tamworth","era":"other","nn":152,"risk":28,"cat":"green"},{"name":"Phoenix Tamworth (88th Street / Value Mighty /Sin City Burger)","lat":52.63331,"lon":-1.6932,"postcode":"B79 7LJ","la":"Tamworth","era":"other","nn":75,"risk":27,"cat":"green"},{"name":"RAF Association Club","lat":52.63381,"lon":-1.69999,"postcode":"B79 7QD","la":"Tamworth","era":"other","nn":47,"risk":27,"cat":"green"},{"name":"Royal Naval Association","lat":52.63374,"lon":-1.69142,"postcode":"B79 7HL","la":"Tamworth","era":"trad","nn":51,"risk":27,"cat":"green"},{"name":"Tam O' Shanter","lat":52.64782,"lon":-1.70127,"postcode":"B79 8QL","la":"Tamworth","era":"other","nn":223,"risk":28,"cat":"green"},{"name":"Tamworth & District Rugby Club","lat":52.64427,"lon":-1.70678,"postcode":"B79 8ED","la":"Tamworth","era":"other","nn":238,"risk":31,"cat":"amber"},{"name":"Tamworth Athletic Club","lat":52.64655,"lon":-1.69873,"postcode":"B79 8QN","la":"Tamworth","era":"other","nn":223,"risk":28,"cat":"green"},{"name":"Tamworth Brewing Company Limited","lat":52.63296,"lon":-1.69593,"postcode":"B79 7LR","la":"Tamworth","era":"other","nn":41,"risk":27,"cat":"green"},{"name":"Tamworth Castle Bowling Club","lat":52.6328,"lon":-1.69784,"postcode":"B79 7NB","la":"Tamworth","era":"other","nn":24,"risk":27,"cat":"green"},{"name":"Tamworth Football Club Bar","lat":52.62789,"lon":-1.6893,"postcode":"B77 1AA","la":"Tamworth","era":"other","nn":143,"risk":28,"cat":"green"},{"name":"Tamworth Indoor Bowls Club","lat":52.62982,"lon":-1.64327,"postcode":"B77 4EG","la":"Tamworth","era":"other","nn":818,"risk":53,"cat":"amber"},{"name":"Tamworth Masonic Rooms","lat":52.63364,"lon":-1.70063,"postcode":"B79 7QE","la":"Tamworth","era":"other","nn":47,"risk":27,"cat":"green"},{"name":"Tamworth Progressive Club","lat":52.63498,"lon":-1.69947,"postcode":"B79 7RD","la":"Tamworth","era":"other","nn":135,"risk":28,"cat":"green"},{"name":"Tamworth Snooker Centre","lat":52.63497,"lon":-1.69019,"postcode":"B79 7HS","la":"Tamworth","era":"other","nn":161,"risk":28,"cat":"green"},{"name":"The Aldergate Club","lat":52.6356,"lon":-1.69616,"postcode":"B79 7DL","la":"Tamworth","era":"other","nn":121,"risk":28,"cat":"green"},{"name":"The Amington Inn","lat":52.63262,"lon":-1.67764,"postcode":"B77 3PU","la":"Tamworth","era":"trad","nn":313,"risk":29,"cat":"green"},{"name":"The Blacksmiths Arms","lat":52.61757,"lon":-1.65091,"postcode":"B77 4JA","la":"Tamworth","era":"trad","nn":1036,"risk":57,"cat":"amber"},{"name":"The Bolebridge","lat":52.63333,"lon":-1.6918,"postcode":"B79 7PA","la":"Tamworth","era":"other","nn":43,"risk":27,"cat":"green"},{"name":"The Bulls Head","lat":52.6128,"lon":-1.68521,"postcode":"B77 1HW","la":"Tamworth","era":"trad","nn":241,"risk":29,"cat":"green"},{"name":"The Coton Arms","lat":52.64558,"lon":-1.70958,"postcode":"B79 8JT","la":"Tamworth","era":"trad","nn":238,"risk":31,"cat":"amber"},{"name":"The Crafty Two","lat":52.63411,"lon":-1.69607,"postcode":"B79 7DN","la":"Tamworth","era":"mod","nn":29,"risk":27,"cat":"green"},{"name":"The Fox Inn - Loco Loco / El Rodeo Mexicano / Burrito Bandits","lat":52.64373,"lon":-1.72883,"postcode":"B79 7SH","la":"Tamworth","era":"trad","nn":539,"risk":36,"cat":"amber"},{"name":"The Fox Pub","lat":52.59613,"lon":-1.68539,"postcode":"B77 1LQ","la":"Tamworth","era":"trad","nn":404,"risk":50,"cat":"amber"},{"name":"The Garden Bar Terrace","lat":52.63524,"lon":-1.69396,"postcode":"B79 7AT","la":"Tamworth","era":"mod","nn":38,"risk":27,"cat":"green"},{"name":"The Gate Inn","lat":52.63478,"lon":-1.66507,"postcode":"B77 3BY","la":"Tamworth","era":"trad","nn":568,"risk":36,"cat":"amber"},{"name":"The Globe Inn","lat":52.60824,"lon":-1.66629,"postcode":"B77 5BA","la":"Tamworth","era":"trad","nn":93,"risk":33,"cat":"amber"},{"name":"The Globe Inn & Horsebox Bar","lat":52.6358,"lon":-1.69377,"postcode":"B79 7AT","la":"Tamworth","era":"trad","nn":32,"risk":27,"cat":"green"},{"name":"The Jolly Sailor","lat":52.63358,"lon":-1.69723,"postcode":"B79 7NH","la":"Tamworth","era":"other","nn":27,"risk":27,"cat":"green"},{"name":"The Kings Ditch","lat":52.63579,"lon":-1.69425,"postcode":"B79 7AS","la":"Tamworth","era":"trad","nn":32,"risk":27,"cat":"green"},{"name":"The Lucky Kiss","lat":52.6333,"lon":-1.69653,"postcode":"B79 7LU","la":"Tamworth","era":"other","nn":16,"risk":27,"cat":"green"},{"name":"The Mercian","lat":52.61949,"lon":-1.68003,"postcode":"B77 2LA","la":"Tamworth","era":"other","nn":618,"risk":34,"cat":"amber"},{"name":"The Old Bank House","lat":52.63293,"lon":-1.69756,"postcode":"B79 7NB","la":"Tamworth","era":"other","nn":24,"risk":27,"cat":"green"},{"name":"The Old Stone Cross","lat":52.63412,"lon":-1.69373,"postcode":"B79 7BX","la":"Tamworth","era":"trad","nn":61,"risk":27,"cat":"green"},{"name":"The Penny Black / Chik Box / K-Town Chicken / Locked and Loaded","lat":52.63421,"lon":-1.69284,"postcode":"B79 7AL","la":"Tamworth","era":"other","nn":43,"risk":27,"cat":"green"},{"name":"The Pretty Pigs","lat":52.63995,"lon":-1.64742,"postcode":"B79 0ED","la":"Tamworth","era":"other","nn":950,"risk":54,"cat":"amber"},{"name":"The Riftswood","lat":52.64328,"lon":-1.6961,"postcode":"B79 8PB","la":"Tamworth","era":"other","nn":404,"risk":30,"cat":"green"},{"name":"The Sheriff of Tamworth","lat":52.63386,"lon":-1.69256,"postcode":"B79 7HE","la":"Tamworth","era":"other","nn":43,"risk":27,"cat":"green"},{"name":"The St George","lat":52.62219,"lon":-1.66423,"postcode":"B77 2ED","la":"Tamworth","era":"trad","nn":957,"risk":54,"cat":"amber"},{"name":"The Tamworth Arms","lat":52.63417,"lon":-1.70414,"postcode":"B79 7QL","la":"Tamworth","era":"trad","nn":161,"risk":28,"cat":"green"},{"name":"The White Lion","lat":52.63479,"lon":-1.69734,"postcode":"B79 7DJ","la":"Tamworth","era":"trad","nn":100,"risk":28,"cat":"green"},{"name":"The Wigginton","lat":52.64827,"lon":-1.69196,"postcode":"B79 8RW","la":"Tamworth","era":"other","nn":495,"risk":35,"cat":"amber"},{"name":"The Winning Post","lat":52.63227,"lon":-1.6724,"postcode":"B77 3EW","la":"Tamworth","era":"trad","nn":326,"risk":32,"cat":"amber"},{"name":"Two Gates Club","lat":52.61098,"lon":-1.68327,"postcode":"B77 1HU","la":"Tamworth","era":"other","nn":241,"risk":31,"cat":"amber"},{"name":"Wilnecote Sports & Recreation Association","lat":52.60877,"lon":-1.66142,"postcode":"B77 5BT","la":"Tamworth","era":"other","nn":335,"risk":47,"cat":"amber"},{"name":"Wilnecote Working Mens Club","lat":52.60829,"lon":-1.66767,"postcode":"B77 5EA","la":"Tamworth","era":"trad","nn":93,"risk":33,"cat":"amber"},{"name":"Brew House","lat":52.57188,"lon":-1.88579,"postcode":"B74 2JR","la":"Walsall","era":"other","nn":565,"risk":45,"cat":"amber"},{"name":"Cat & Fiddle","lat":52.55888,"lon":-1.91173,"postcode":"B43 7BY","la":"Walsall","era":"other","nn":643,"risk":46,"cat":"amber"},{"name":"Farmer John's","lat":52.57157,"lon":-1.89413,"postcode":"B74 2DX","la":"Walsall","era":"other","nn":565,"risk":45,"cat":"amber"},{"name":"Foley Arms","lat":52.58186,"lon":-1.90202,"postcode":"B74 3NU","la":"Walsall","era":"trad","nn":614,"risk":48,"cat":"amber"},{"name":"Hardwick Arms","lat":52.58575,"lon":-1.88711,"postcode":"B74 3DX","la":"Walsall","era":"trad","nn":903,"risk":50,"cat":"amber"},{"name":"Sutton Coldfield Golf Club","lat":52.58147,"lon":-1.87575,"postcode":"B74 3ER","la":"Walsall","era":"other","nn":903,"risk":50,"cat":"amber"},{"name":"The Old Horns","lat":52.5537,"lon":-1.90752,"postcode":"B43 7EQ","la":"Walsall","era":"other","nn":207,"risk":30,"cat":"green"},{"name":"The Queslett","lat":52.56597,"lon":-1.88597,"postcode":"B74 2EY","la":"Walsall","era":"other","nn":658,"risk":31,"cat":"amber"},{"name":"Lapworth Cricket Club","lat":52.33994,"lon":-1.75092,"postcode":"B94 6AZ","la":"Warwick","era":"other","nn":1603,"risk":59,"cat":"amber"},{"name":"Oaklands","lat":52.27319,"lon":-2.02463,"postcode":"B60 4HS","la":"Wychavon","era":"trad","nn":2210,"risk":64,"cat":"red"},{"name":"The Bowling Green Inn","lat":52.28863,"lon":-2.0935,"postcode":"B60 4BH","la":"Wychavon","era":"trad","nn":556,"risk":50,"cat":"amber"},{"name":"The Nevill Arms","lat":52.23864,"lon":-1.92682,"postcode":"B96 6NB","la":"Wychavon","era":"trad","nn":1031,"risk":56,"cat":"amber"},{"name":"The Swan Inn","lat":52.30698,"lon":-2.09757,"postcode":"B61 7ET","la":"Wychavon","era":"trad","nn":1315,"risk":58,"cat":"amber"},{"name":"The Vernon Arms","lat":52.26417,"lon":-2.05357,"postcode":"B60 4DB","la":"Wychavon","era":"trad","nn":2210,"risk":64,"cat":"red"},{"name":"The Why Not Inn","lat":52.24733,"lon":-1.93212,"postcode":"B96 6LU","la":"Wychavon","era":"trad","nn":1031,"risk":56,"cat":"amber"}]