[{"name":"Bear on the Square","lat":54.20965,"lon":-3.26918,"postcode":"LA18 4DB","la":"Cumberland","era":"other","nn":0,"risk":23,"cat":"green"},{"name":"Brown Cown Inn","lat":54.32629,"lon":-3.37567,"postcode":"LA19 5YJ","la":"Cumberland","era":"trad","nn":3926,"risk":73,"cat":"red"},{"name":"Harbour Hotel","lat":54.19723,"lon":-3.28931,"postcode":"LA18 4EX","la":"Cumberland","era":"other","nn":0,"risk":25,"cat":"green"},{"name":"Haverigg Working Mens Club","lat":54.19765,"lon":-3.2917,"postcode":"LA18 4EY","la":"Cumberland","era":"trad","nn":134,"risk":26,"cat":"green"},{"name":"King William I V Inn","lat":54.2157,"lon":-3.32056,"postcode":"LA18 4NN","la":"Cumberland","era":"trad","nn":1459,"risk":55,"cat":"amber"},{"name":"Knights Of St. Columb Club","lat":54.21088,"lon":-3.26445,"postcode":"LA18 4BG","la":"Cumberland","era":"other","nn":337,"risk":25,"cat":"green"},{"name":"Millom Conservative Club","lat":54.20999,"lon":-3.26948,"postcode":"LA18 4BT","la":"Cumberland","era":"trad","nn":34,"risk":23,"cat":"green"},{"name":"Millom RUFC","lat":54.19646,"lon":-3.29204,"postcode":"LA18 4HB","la":"Cumberland","era":"trad","nn":134,"risk":26,"cat":"green"},{"name":"Millom Rugby League Club","lat":54.20658,"lon":-3.25998,"postcode":"LA18 4PG","la":"Cumberland","era":"trad","nn":130,"risk":24,"cat":"green"},{"name":"Miners Arms","lat":54.22647,"lon":-3.33338,"postcode":"LA18 5LP","la":"Cumberland","era":"trad","nn":1459,"risk":55,"cat":"amber"},{"name":"Plough Inn","lat":54.21183,"lon":-3.27424,"postcode":"LA18 5BH","la":"Cumberland","era":"trad","nn":350,"risk":25,"cat":"green"},{"name":"Rising Sun","lat":54.19723,"lon":-3.28931,"postcode":"LA18 4EX","la":"Cumberland","era":"other","nn":0,"risk":25,"cat":"green"},{"name":"The Clock Tower","lat":54.20991,"lon":-3.26998,"postcode":"LA18 4HZ","la":"Cumberland","era":"other","nn":34,"risk":23,"cat":"green"},{"name":"The Devonshire Arms","lat":54.20763,"lon":-3.25912,"postcode":"LA18 4JP","la":"Cumberland","era":"trad","nn":130,"risk":24,"cat":"green"},{"name":"The Ski Bar","lat":54.19763,"lon":-3.27969,"postcode":"LA18 4LG","la":"Cumberland","era":"other","nn":627,"risk":30,"cat":"green"},{"name":"Workies and Reflections","lat":54.20965,"lon":-3.26918,"postcode":"LA18 4DB","la":"Cumberland","era":"other","nn":0,"risk":23,"cat":"green"},{"name":"Bar Eighteen 66","lat":54.07247,"lon":-2.86344,"postcode":"LA4 5EL","la":"Lancaster","era":"mod","nn":90,"risk":25,"cat":"green"},{"name":"Bare Village Club","lat":54.07678,"lon":-2.83724,"postcode":"LA4 6DF","la":"Lancaster","era":"other","nn":116,"risk":28,"cat":"green"},{"name":"Bay Horse Hotel","lat":54.14403,"lon":-2.64066,"postcode":"LA6 1AS","la":"Lancaster","era":"trad","nn":2885,"risk":67,"cat":"red"},{"name":"Bay Horse Inn","lat":53.96948,"lon":-2.77506,"postcode":"LA2 0HR","la":"Lancaster","era":"trad","nn":1556,"risk":58,"cat":"amber"},{"name":"Black Bull Inn","lat":54.07502,"lon":-2.70172,"postcode":"LA2 9JP","la":"Lancaster","era":"trad","nn":940,"risk":51,"cat":"amber"},{"name":"Boardwalk","lat":54.06777,"lon":-2.87797,"postcode":"LA4 4DQ","la":"Lancaster","era":"other","nn":185,"risk":26,"cat":"green"},{"name":"Boot & Shoe","lat":54.02752,"lon":-2.79502,"postcode":"LA1 4PU","la":"Lancaster","era":"other","nn":556,"risk":48,"cat":"amber"},{"name":"Bowerham Hotel","lat":54.03797,"lon":-2.7901,"postcode":"LA1 4DT","la":"Lancaster","era":"other","nn":476,"risk":28,"cat":"green"},{"name":"Brittlestar Wine Bar and Coffee House","lat":54.07325,"lon":-2.86578,"postcode":"LA4 5BX","la":"Lancaster","era":"mod","nn":24,"risk":24,"cat":"green"},{"name":"Brown Cow Inn","lat":54.04702,"lon":-2.80002,"postcode":"LA1 1XF","la":"Lancaster","era":"trad","nn":0,"risk":24,"cat":"green"},{"name":"Buzz Bingo","lat":54.07575,"lon":-2.85946,"postcode":"LA4 5HY","la":"Lancaster","era":"other","nn":106,"risk":25,"cat":"green"},{"name":"Carnforth Cricket Club","lat":54.12471,"lon":-2.77299,"postcode":"LA5 9EA","la":"Lancaster","era":"other","nn":0,"risk":24,"cat":"green"},{"name":"Carnforth Hotel","lat":54.12798,"lon":-2.76891,"postcode":"LA5 9LD","la":"Lancaster","era":"other","nn":0,"risk":24,"cat":"green"},{"name":"Chieftain Hotel","lat":54.0729,"lon":-2.8653,"postcode":"LA4 5DZ","la":"Lancaster","era":"other","nn":18,"risk":24,"cat":"green"},{"name":"Cockerham Sands Caravan Park","lat":53.96778,"lon":-2.85611,"postcode":"LA2 0BB","la":"Lancaster","era":"other","nn":3380,"risk":70,"cat":"red"},{"name":"Coffeys TA","lat":54.06959,"lon":-2.85383,"postcode":"LA4 5QJ","la":"Lancaster","era":"other","nn":28,"risk":25,"cat":"green"},{"name":"Conservative Club","lat":54.12967,"lon":-2.77021,"postcode":"LA5 9BS","la":"Lancaster","era":"other","nn":57,"risk":25,"cat":"green"},{"name":"County Snooker","lat":54.06945,"lon":-2.85347,"postcode":"LA4 5QL","la":"Lancaster","era":"other","nn":28,"risk":25,"cat":"green"},{"name":"Cumberland View Hotel","lat":54.06096,"lon":-2.88922,"postcode":"LA3 1DE","la":"Lancaster","era":"other","nn":0,"risk":24,"cat":"green"},{"name":"Dalton Arms","lat":53.99796,"lon":-2.84991,"postcode":"LA2 0BZ","la":"Lancaster","era":"trad","nn":1424,"risk":57,"cat":"amber"},{"name":"Duke of Rothesay","lat":54.03582,"lon":-2.90268,"postcode":"LA3 2UP","la":"Lancaster","era":"trad","nn":942,"risk":51,"cat":"amber"},{"name":"Eric Bartholomew","lat":54.07249,"lon":-2.86598,"postcode":"LA4 5DD","la":"Lancaster","era":"other","nn":63,"risk":25,"cat":"green"},{"name":"Fenwick Arms","lat":54.0923,"lon":-2.66605,"postcode":"LA2 9LA","la":"Lancaster","era":"trad","nn":3017,"risk":68,"cat":"red"},{"name":"Fleece Inn","lat":53.97367,"lon":-2.75236,"postcode":"LA2 9AQ","la":"Lancaster","era":"trad","nn":1556,"risk":58,"cat":"amber"},{"name":"Fox & Goose","lat":54.03258,"lon":-2.77986,"postcode":"LA1 4JF","la":"Lancaster","era":"trad","nn":898,"risk":48,"cat":"amber"},{"name":"Generation Bar","lat":54.04728,"lon":-2.79918,"postcode":"LA1 1UU","la":"Lancaster","era":"other","nn":62,"risk":25,"cat":"green"},{"name":"George and Dragon","lat":54.10307,"lon":-2.60942,"postcode":"LA2 8QG","la":"Lancaster","era":"trad","nn":2122,"risk":62,"cat":"red"},{"name":"George Washington","lat":54.14365,"lon":-2.76887,"postcode":"LA5 9PG","la":"Lancaster","era":"trad","nn":0,"risk":42,"cat":"amber"},{"name":"Golden Ball Limited","lat":54.04812,"lon":-2.84271,"postcode":"LA3 3ER","la":"Lancaster","era":"other","nn":1651,"risk":58,"cat":"amber"},{"name":"Golden Lion","lat":54.04903,"lon":-2.79627,"postcode":"LA1 1QD","la":"Lancaster","era":"trad","nn":44,"risk":25,"cat":"green"},{"name":"Great Hall Bar","lat":54.01021,"lon":-2.78459,"postcode":"LA1 4XX","la":"Lancaster","era":"other","nn":156,"risk":30,"cat":"green"},{"name":"Greaves Park","lat":54.05535,"lon":-2.79081,"postcode":"LA1 3NH","la":"Lancaster","era":"other","nn":580,"risk":28,"cat":"green"},{"name":"Greens","lat":54.04992,"lon":-2.79941,"postcode":"LA1 1LU","la":"Lancaster","era":"other","nn":72,"risk":25,"cat":"green"},{"name":"Gregson Arts & Community Centre Ltd","lat":54.04844,"lon":-2.79177,"postcode":"LA1 3PY","la":"Lancaster","era":"other","nn":139,"risk":25,"cat":"green"},{"name":"Grizedale Bar","lat":54.01048,"lon":-2.78693,"postcode":"LA1 4YW","la":"Lancaster","era":"other","nn":0,"risk":29,"cat":"green"},{"name":"Hurley Flyer","lat":54.06107,"lon":-2.86727,"postcode":"LA4 4TB","la":"Lancaster","era":"other","nn":544,"risk":28,"cat":"green"},{"name":"Jimmy's Taphouse","lat":54.0484,"lon":-2.80082,"postcode":"LA1 1JT","la":"Lancaster","era":"mod","nn":97,"risk":25,"cat":"green"},{"name":"John O'Gaunt","lat":54.04852,"lon":-2.80229,"postcode":"LA1 1JG","la":"Lancaster","era":"other","nn":82,"risk":25,"cat":"green"},{"name":"Johnny's Warehouse Bar and Events Venue","lat":54.07157,"lon":-2.8718,"postcode":"LA4 4BU","la":"Lancaster","era":"mod","nn":96,"risk":25,"cat":"green"},{"name":"Joiners Arms","lat":54.07306,"lon":-2.86461,"postcode":"LA4 5EQ","la":"Lancaster","era":"trad","nn":34,"risk":25,"cat":"green"},{"name":"Jubilee Working Men's Club","lat":54.06712,"lon":-2.83132,"postcode":"LA4 6NZ","la":"Lancaster","era":"trad","nn":118,"risk":30,"cat":"green"},{"name":"Kanteena","lat":54.04942,"lon":-2.79614,"postcode":"LA1 1QL","la":"Lancaster","era":"other","nn":44,"risk":25,"cat":"green"},{"name":"Kings Arms","lat":54.07267,"lon":-2.86723,"postcode":"LA4 4BJ","la":"Lancaster","era":"trad","nn":0,"risk":24,"cat":"green"},{"name":"Lancaster Railway Club","lat":54.05526,"lon":-2.80451,"postcode":"LA1 2RX","la":"Lancaster","era":"trad","nn":184,"risk":26,"cat":"green"},{"name":"Lansil Sports & Social Club","lat":54.06386,"lon":-2.78673,"postcode":"LA1 3PE","la":"Lancaster","era":"mod","nn":948,"risk":48,"cat":"amber"},{"name":"Longlands Hotel","lat":54.15626,"lon":-2.73928,"postcode":"LA6 1JH","la":"Lancaster","era":"other","nn":2384,"risk":64,"cat":"red"},{"name":"Lord Nelson","lat":54.07299,"lon":-2.86553,"postcode":"LA4 5EF","la":"Lancaster","era":"trad","nn":18,"risk":24,"cat":"green"},{"name":"LRL Family House","lat":54.06333,"lon":-2.80123,"postcode":"LA1 2JH","la":"Lancaster","era":"other","nn":922,"risk":48,"cat":"amber"},{"name":"Mint","lat":54.04983,"lon":-2.80091,"postcode":"LA1 1LH","la":"Lancaster","era":"other","nn":0,"risk":24,"cat":"green"},{"name":"Morecambe & Heysham Constitutional Club","lat":54.06467,"lon":-2.88154,"postcode":"LA3 1RH","la":"Lancaster","era":"other","nn":153,"risk":25,"cat":"green"},{"name":"Morecambe Cricket Club","lat":54.06817,"lon":-2.86761,"postcode":"LA4 4NL","la":"Lancaster","era":"other","nn":442,"risk":27,"cat":"green"},{"name":"Morecambe Golf Club - Catering","lat":54.08171,"lon":-2.83488,"postcode":"LA4 6AJ","la":"Lancaster","era":"other","nn":493,"risk":30,"cat":"green"},{"name":"Morecambe York Hotel","lat":54.0707,"lon":-2.85607,"postcode":"LA4 5QH","la":"Lancaster","era":"other","nn":191,"risk":26,"cat":"green"},{"name":"New Inn","lat":53.993,"lon":-2.78864,"postcode":"LA2 0JW","la":"Lancaster","era":"trad","nn":480,"risk":48,"cat":"amber"},{"name":"New Inn","lat":54.07365,"lon":-2.85883,"postcode":"LA4 5PZ","la":"Lancaster","era":"trad","nn":55,"risk":25,"cat":"green"},{"name":"Old Hall Inn","lat":54.04306,"lon":-2.8952,"postcode":"LA3 2RT","la":"Lancaster","era":"trad","nn":515,"risk":33,"cat":"amber"},{"name":"Park Hotel Lancaster LTD","lat":54.04217,"lon":-2.79143,"postcode":"LA1 3AS","la":"Lancaster","era":"other","nn":476,"risk":28,"cat":"green"},{"name":"Pendle Rooms","lat":54.01048,"lon":-2.78693,"postcode":"LA1 4YW","la":"Lancaster","era":"mod","nn":0,"risk":29,"cat":"green"},{"name":"Pendle Witch","lat":54.04581,"lon":-2.79955,"postcode":"LA1 1XN","la":"Lancaster","era":"other","nn":90,"risk":25,"cat":"green"},{"name":"Penny Bank","lat":54.04702,"lon":-2.80002,"postcode":"LA1 1XF","la":"Lancaster","era":"other","nn":0,"risk":24,"cat":"green"},{"name":"Redwell Country Inn","lat":54.12416,"lon":-2.69365,"postcode":"LA6 1BQ","la":"Lancaster","era":"trad","nn":2736,"risk":66,"cat":"red"},{"name":"Royal Hotel","lat":54.10766,"lon":-2.78922,"postcode":"LA5 8DH","la":"Lancaster","era":"trad","nn":496,"risk":48,"cat":"amber"},{"name":"Royal Station Hotel","lat":54.1289,"lon":-2.76993,"postcode":"LA5 9BT","la":"Lancaster","era":"trad","nn":88,"risk":25,"cat":"green"},{"name":"Runner Duck Wine Room","lat":54.04721,"lon":-2.80148,"postcode":"LA1 1RE","la":"Lancaster","era":"other","nn":77,"risk":25,"cat":"green"},{"name":"Shackletons of Bare Ltd","lat":54.07805,"lon":-2.83916,"postcode":"LA4 6BY","la":"Lancaster","era":"other","nn":27,"risk":27,"cat":"green"},{"name":"Shore Thing Kitchen","lat":54.07275,"lon":-2.86694,"postcode":"LA4 5DB","la":"Lancaster","era":"mod","nn":21,"risk":24,"cat":"green"},{"name":"Shovel Inn","lat":54.12947,"lon":-2.76207,"postcode":"LA5 9NA","la":"Lancaster","era":"trad","nn":422,"risk":27,"cat":"green"},{"name":"Silverdale Hotel","lat":54.16638,"lon":-2.83018,"postcode":"LA5 0TP","la":"Lancaster","era":"other","nn":312,"risk":47,"cat":"amber"},{"name":"Sir Richard Owen","lat":54.04691,"lon":-2.80041,"postcode":"LA1 1RQ","la":"Lancaster","era":"other","nn":29,"risk":25,"cat":"green"},{"name":"Skerton Liberal Club","lat":54.05424,"lon":-2.7995,"postcode":"LA1 2AJ","la":"Lancaster","era":"other","nn":347,"risk":27,"cat":"green"},{"name":"Smugglers Den","lat":54.07337,"lon":-2.85953,"postcode":"LA4 5HB","la":"Lancaster","era":"other","nn":55,"risk":25,"cat":"green"},{"name":"Squires","lat":54.04946,"lon":-2.8002,"postcode":"LA1 1LP","la":"Lancaster","era":"other","nn":29,"risk":25,"cat":"green"},{"name":"Strawberry Gardens","lat":54.05653,"lon":-2.89195,"postcode":"LA3 1NZ","la":"Lancaster","era":"other","nn":524,"risk":33,"cat":"amber"},{"name":"Tap House","lat":54.04821,"lon":-2.79871,"postcode":"LA1 1UH","la":"Lancaster","era":"other","nn":45,"risk":25,"cat":"green"},{"name":"Taps on the Green","lat":54.1257,"lon":-2.76283,"postcode":"LA5 9LR","la":"Lancaster","era":"other","nn":422,"risk":27,"cat":"green"},{"name":"Tatham Bridge Inn","lat":54.12001,"lon":-2.59443,"postcode":"LA2 8NL","la":"Lancaster","era":"trad","nn":2122,"risk":62,"cat":"red"},{"name":"The Bath Morecambe","lat":54.0718,"lon":-2.87038,"postcode":"LA4 4AU","la":"Lancaster","era":"other","nn":96,"risk":25,"cat":"green"},{"name":"The Blue Anchor","lat":54.1033,"lon":-2.79092,"postcode":"LA5 8DN","la":"Lancaster","era":"trad","nn":496,"risk":48,"cat":"amber"},{"name":"The Boars Head","lat":54.04854,"lon":-2.79834,"postcode":"LA1 1NG","la":"Lancaster","era":"trad","nn":45,"risk":25,"cat":"green"},{"name":"The Bobbin","lat":54.05092,"lon":-2.7993,"postcode":"LA1 1HH","la":"Lancaster","era":"other","nn":112,"risk":25,"cat":"green"},{"name":"The Bookmakers","lat":54.04912,"lon":-2.89235,"postcode":"LA3 2BJ","la":"Lancaster","era":"other","nn":613,"risk":34,"cat":"amber"},{"name":"The Borough","lat":54.04813,"lon":-2.79715,"postcode":"LA1 1PP","la":"Lancaster","era":"other","nn":90,"risk":25,"cat":"green"},{"name":"The Cavern Bar","lat":54.06637,"lon":-2.87948,"postcode":"LA4 4HA","la":"Lancaster","era":"other","nn":121,"risk":25,"cat":"green"},{"name":"The Commodore Club","lat":54.06096,"lon":-2.88922,"postcode":"LA3 1DE","la":"Lancaster","era":"other","nn":0,"risk":24,"cat":"green"},{"name":"The County Hotel","lat":54.12798,"lon":-2.76891,"postcode":"LA5 9LD","la":"Lancaster","era":"other","nn":0,"risk":24,"cat":"green"},{"name":"The Crafty Scholar Lancaster, 88th Street/Value Mighty/Sin City Burger","lat":54.04953,"lon":-2.80063,"postcode":"LA1 1LP","la":"Lancaster","era":"mod","nn":29,"risk":25,"cat":"green"},{"name":"The Dog & Partridge Hotel","lat":54.0776,"lon":-2.83834,"postcode":"LA4 6DE","la":"Lancaster","era":"other","nn":73,"risk":27,"cat":"green"},{"name":"The Eagles Head Country Pub Ltd","lat":54.12324,"lon":-2.7356,"postcode":"LA6 1DL","la":"Lancaster","era":"trad","nn":1796,"risk":59,"cat":"amber"},{"name":"The Exchange","lat":54.06528,"lon":-2.87943,"postcode":"LA3 1QQ","la":"Lancaster","era":"other","nn":121,"risk":25,"cat":"green"},{"name":"The Freeholders Arms","lat":54.04959,"lon":-2.79096,"postcode":"LA1 3PS","la":"Lancaster","era":"trad","nn":139,"risk":25,"cat":"green"},{"name":"The George & Dragon","lat":54.05338,"lon":-2.80524,"postcode":"LA1 1RB","la":"Lancaster","era":"trad","nn":118,"risk":25,"cat":"green"},{"name":"The George Hotel","lat":54.06652,"lon":-2.83283,"postcode":"LA4 6LY","la":"Lancaster","era":"trad","nn":1,"risk":29,"cat":"green"},{"name":"The Greyhound","lat":54.07699,"lon":-2.76208,"postcode":"LA2 6LZ","la":"Lancaster","era":"trad","nn":2173,"risk":62,"cat":"red"},{"name":"The Hest Bank","lat":54.09022,"lon":-2.81173,"postcode":"LA2 6DN","la":"Lancaster","era":"other","nn":874,"risk":50,"cat":"amber"},{"name":"The Highwayman","lat":54.17168,"lon":-2.59315,"postcode":"LA6 2RJ","la":"Lancaster","era":"other","nn":1814,"risk":60,"cat":"amber"},{"name":"The Jailor's Barrel","lat":54.04875,"lon":-2.80349,"postcode":"LA1 1HP","la":"Lancaster","era":"other","nn":53,"risk":25,"cat":"green"},{"name":"The Little Bare","lat":54.07818,"lon":-2.8395,"postcode":"LA4 6BY","la":"Lancaster","era":"other","nn":27,"risk":27,"cat":"green"},{"name":"The Lodge at Lancaster","lat":54.08563,"lon":-2.80085,"postcode":"LA2 6AZ","la":"Lancaster","era":"other","nn":874,"risk":50,"cat":"amber"},{"name":"The Lunesdale Arms","lat":54.15611,"lon":-2.60145,"postcode":"LA6 2QN","la":"Lancaster","era":"trad","nn":1814,"risk":60,"cat":"amber"},{"name":"The Malt Shovel Inn","lat":54.14365,"lon":-2.76887,"postcode":"LA5 9PG","la":"Lancaster","era":"trad","nn":0,"risk":42,"cat":"amber"},{"name":"The Masons","lat":54.07318,"lon":-2.86413,"postcode":"LA4 5EG","la":"Lancaster","era":"trad","nn":34,"risk":25,"cat":"green"},{"name":"The Merchants 1688","lat":54.04912,"lon":-2.80401,"postcode":"LA1 1YN","la":"Lancaster","era":"mod","nn":53,"risk":25,"cat":"green"},{"name":"The Middle Inn","lat":54.02172,"lon":-2.87913,"postcode":"LA3 3LG","la":"Lancaster","era":"trad","nn":865,"risk":50,"cat":"amber"},{"name":"The Middleton Pub","lat":54.01852,"lon":-2.8912,"postcode":"LA3 3LH","la":"Lancaster","era":"other","nn":865,"risk":50,"cat":"amber"},{"name":"The Mill @ Fylde","lat":54.01048,"lon":-2.78693,"postcode":"LA1 4YW","la":"Lancaster","era":"trad","nn":0,"risk":29,"cat":"green"},{"name":"The Mill at Conder Green","lat":53.99299,"lon":-2.82351,"postcode":"LA2 0BD","la":"Lancaster","era":"trad","nn":569,"risk":48,"cat":"amber"},{"name":"The Morecambe Hotel","lat":54.07494,"lon":-2.8603,"postcode":"LA4 5HX","la":"Lancaster","era":"other","nn":106,"risk":25,"cat":"green"},{"name":"The Nib","lat":54.13627,"lon":-2.77204,"postcode":"LA5 9HN","la":"Lancaster","era":"other","nn":743,"risk":30,"cat":"green"},{"name":"The Palatine","lat":54.07321,"lon":-2.86542,"postcode":"LA4 5BZ","la":"Lancaster","era":"other","nn":24,"risk":24,"cat":"green"},{"name":"The Pavilion","lat":54.12471,"lon":-2.77299,"postcode":"LA5 9EA","la":"Lancaster","era":"trad","nn":0,"risk":24,"cat":"green"},{"name":"The Pier","lat":54.07407,"lon":-2.86433,"postcode":"LA4 5BY","la":"Lancaster","era":"other","nn":101,"risk":25,"cat":"green"},{"name":"The Platform","lat":54.07131,"lon":-2.8748,"postcode":"LA4 4DB","la":"Lancaster","era":"other","nn":0,"risk":24,"cat":"green"},{"name":"The Plough","lat":53.98884,"lon":-2.7906,"postcode":"LA2 0LQ","la":"Lancaster","era":"trad","nn":480,"risk":48,"cat":"amber"},{"name":"The Royal","lat":54.16844,"lon":-2.82693,"postcode":"LA5 0RA","la":"Lancaster","era":"trad","nn":312,"risk":44,"cat":"amber"},{"name":"The Royal Bar & Shaker","lat":54.07267,"lon":-2.86723,"postcode":"LA4 4BJ","la":"Lancaster","era":"other","nn":0,"risk":24,"cat":"green"},{"name":"The Royal Hotel","lat":54.04646,"lon":-2.90058,"postcode":"LA3 2RN","la":"Lancaster","era":"trad","nn":515,"risk":45,"cat":"amber"},{"name":"The Ship Hotel","lat":54.01496,"lon":-2.8616,"postcode":"LA3 3HD","la":"Lancaster","era":"trad","nn":1370,"risk":56,"cat":"amber"},{"name":"The Ship Inn at Caton","lat":54.07575,"lon":-2.71894,"postcode":"LA2 9QJ","la":"Lancaster","era":"trad","nn":200,"risk":46,"cat":"amber"},{"name":"The Snug Micropub","lat":54.12941,"lon":-2.77097,"postcode":"LA5 9TR","la":"Lancaster","era":"other","nn":57,"risk":25,"cat":"green"},{"name":"The Station","lat":54.07131,"lon":-2.8748,"postcode":"LA4 4DB","la":"Lancaster","era":"other","nn":0,"risk":24,"cat":"green"},{"name":"The Station Hotel","lat":54.07621,"lon":-2.71598,"postcode":"LA2 9QS","la":"Lancaster","era":"other","nn":200,"risk":43,"cat":"amber"},{"name":"The Stork Hotel","lat":53.99733,"lon":-2.82814,"postcode":"LA2 0AN","la":"Lancaster","era":"other","nn":569,"risk":48,"cat":"amber"},{"name":"The Study Room","lat":54.04983,"lon":-2.80091,"postcode":"LA1 1LH","la":"Lancaster","era":"other","nn":0,"risk":24,"cat":"green"},{"name":"The Sun Hotel","lat":54.04994,"lon":-2.80269,"postcode":"LA1 1ET","la":"Lancaster","era":"other","nn":116,"risk":25,"cat":"green"},{"name":"The Three Mariners","lat":54.05109,"lon":-2.80309,"postcode":"LA1 1EE","la":"Lancaster","era":"other","nn":130,"risk":25,"cat":"green"},{"name":"The Wagon and Horses","lat":54.05412,"lon":-2.80654,"postcode":"LA1 1RD","la":"Lancaster","era":"trad","nn":118,"risk":25,"cat":"green"},{"name":"The Water Witch","lat":54.0436,"lon":-2.80079,"postcode":"LA1 1SU","la":"Lancaster","era":"other","nn":173,"risk":26,"cat":"green"},{"name":"The William Mitchell","lat":54.06131,"lon":-2.8543,"postcode":"LA4 4TG","la":"Lancaster","era":"other","nn":556,"risk":28,"cat":"green"},{"name":"The Woodlands Hotel","lat":54.17489,"lon":-2.82375,"postcode":"LA5 0RU","la":"Lancaster","era":"other","nn":746,"risk":50,"cat":"amber"},{"name":"Toll House Inn","lat":54.045,"lon":-2.79963,"postcode":"LA1 1XT","la":"Lancaster","era":"other","nn":90,"risk":25,"cat":"green"},{"name":"Torrisholme Taps","lat":54.06652,"lon":-2.83281,"postcode":"LA4 6LY","la":"Lancaster","era":"mod","nn":1,"risk":29,"cat":"green"},{"name":"Trimpell Sports and Social Club","lat":54.06823,"lon":-2.8568,"postcode":"LA4 4UP","la":"Lancaster","era":"mod","nn":246,"risk":26,"cat":"green"},{"name":"Vale of Lune R.U.F.C","lat":54.0618,"lon":-2.81983,"postcode":"LA1 2TT","la":"Lancaster","era":"other","nn":955,"risk":36,"cat":"amber"},{"name":"WC's Bar","lat":54.06435,"lon":-2.86107,"postcode":"LA4 4TH","la":"Lancaster","era":"other","nn":514,"risk":28,"cat":"green"},{"name":"White Cross","lat":54.04473,"lon":-2.79732,"postcode":"LA1 4XQ","la":"Lancaster","era":"trad","nn":154,"risk":25,"cat":"green"},{"name":"Wobbly Cobbler","lat":54.03249,"lon":-2.79408,"postcode":"LA1 4SA","la":"Lancaster","era":"other","nn":556,"risk":33,"cat":"amber"},{"name":"Punch Bowl","lat":54.14383,"lon":-2.53325,"postcode":"LA6 3LF","la":"North Yorkshire","era":"other","nn":2724,"risk":56,"cat":"amber"},{"name":"Sundial Inn LLP","lat":54.11944,"lon":-2.53709,"postcode":"LA2 7DS","la":"North Yorkshire","era":"trad","nn":1776,"risk":49,"cat":"amber"},{"name":"The Black Bull Hotel","lat":54.11786,"lon":-2.50997,"postcode":"LA2 7HF","la":"North Yorkshire","era":"trad","nn":35,"risk":35,"cat":"amber"},{"name":"The Coach House","lat":54.11816,"lon":-2.50985,"postcode":"LA2 7HE","la":"North Yorkshire","era":"trad","nn":35,"risk":35,"cat":"amber"},{"name":"The Gamecock Inn","lat":54.11189,"lon":-2.35741,"postcode":"LA2 8BB","la":"North Yorkshire","era":"trad","nn":5559,"risk":72,"cat":"red"},{"name":"The Marton Arms","lat":54.15704,"lon":-2.48502,"postcode":"LA6 3PB","la":"North Yorkshire","era":"trad","nn":1126,"risk":45,"cat":"amber"},{"name":"The OPO Bar - The Old Post Office","lat":54.15405,"lon":-2.46678,"postcode":"LA6 3AA","la":"North Yorkshire","era":"mod","nn":79,"risk":32,"cat":"amber"},{"name":"The Station Inn","lat":54.21484,"lon":-2.33957,"postcode":"LA6 3AS","la":"North Yorkshire","era":"trad","nn":6454,"risk":72,"cat":"red"},{"name":"Three Horse Shoes Hotel","lat":54.15335,"lon":-2.46891,"postcode":"LA6 3EH","la":"North Yorkshire","era":"trad","nn":160,"risk":33,"cat":"amber"},{"name":"Wheatsheaf","lat":54.15357,"lon":-2.46588,"postcode":"LA6 3AD","la":"North Yorkshire","era":"trad","nn":79,"risk":32,"cat":"amber"},{"name":"19 The Wine Bar","lat":54.32684,"lon":-2.74638,"postcode":"LA9 4DH","la":"Westmorland and Furness","era":"other","nn":0,"risk":17,"cat":"green"},{"name":"Albion Hotel","lat":54.11048,"lon":-3.2263,"postcode":"LA14 2EX","la":"Westmorland and Furness","era":"other","nn":77,"risk":18,"cat":"green"},{"name":"Alexander's","lat":54.32279,"lon":-2.72203,"postcode":"LA9 6RG","la":"Westmorland and Furness","era":"other","nn":727,"risk":40,"cat":"amber"},{"name":"Ambrose Hotel","lat":54.11577,"lon":-3.23461,"postcode":"LA14 1XT","la":"Westmorland and Furness","era":"trad","nn":31,"risk":18,"cat":"green"},{"name":"Anglers Arms Pub","lat":54.24819,"lon":-3.00264,"postcode":"LA12 8AJ","la":"Westmorland and Furness","era":"trad","nn":2438,"risk":57,"cat":"amber"},{"name":"Asda Cafe","lat":54.31155,"lon":-2.73582,"postcode":"LA9 7JA","la":"Westmorland and Furness","era":"other","nn":541,"risk":39,"cat":"amber"},{"name":"Askam Rugby League Club","lat":54.18836,"lon":-3.20725,"postcode":"LA16 7BD","la":"Westmorland and Furness","era":"other","nn":242,"risk":24,"cat":"green"},{"name":"Barbon Inn","lat":54.23642,"lon":-2.57056,"postcode":"LA6 2LJ","la":"Westmorland and Furness","era":"trad","nn":2941,"risk":60,"cat":"amber"},{"name":"Barrow Cricket Club","lat":54.13269,"lon":-3.20987,"postcode":"LA13 9JS","la":"Westmorland and Furness","era":"other","nn":166,"risk":18,"cat":"green"},{"name":"Barrow Football Supporters Club","lat":54.12327,"lon":-3.23754,"postcode":"LA14 5UQ","la":"Westmorland and Furness","era":"other","nn":0,"risk":17,"cat":"green"},{"name":"Barrow Golf Club","lat":54.14119,"lon":-3.21981,"postcode":"LA14 4QB","la":"Westmorland and Furness","era":"other","nn":0,"risk":22,"cat":"green"},{"name":"Barrow Island Rugby Club","lat":54.60366,"lon":-2.93555,"postcode":"LA13 9LR","la":"Westmorland and Furness","era":"other","nn":2060,"risk":54,"cat":"amber"},{"name":"Barrow Nautical Club","lat":54.11155,"lon":-3.24755,"postcode":"LA14 3QF","la":"Westmorland and Furness","era":"other","nn":358,"risk":20,"cat":"green"},{"name":"Barrow Rugby League Football Club","lat":54.11564,"lon":-3.23503,"postcode":"LA14 1XP","la":"Westmorland and Furness","era":"other","nn":31,"risk":18,"cat":"green"},{"name":"Barrow Underground Music Society","lat":54.11645,"lon":-3.22552,"postcode":"LA14 1QT","la":"Westmorland and Furness","era":"mod","nn":150,"risk":18,"cat":"green"},{"name":"Bay Horse","lat":54.13593,"lon":-3.21932,"postcode":"LA14 4HS","la":"Westmorland and Furness","era":"trad","nn":213,"risk":19,"cat":"green"},{"name":"Black Bull Hotel","lat":54.36969,"lon":-3.0756,"postcode":"LA21 8DU","la":"Westmorland and Furness","era":"trad","nn":102,"risk":21,"cat":"green"},{"name":"Black Dog Inn","lat":54.17504,"lon":-3.17734,"postcode":"LA15 8JP","la":"Westmorland and Furness","era":"trad","nn":1587,"risk":51,"cat":"amber"},{"name":"Blacksmiths Arms","lat":54.30387,"lon":-3.19759,"postcode":"LA20 6AX","la":"Westmorland and Furness","era":"trad","nn":3035,"risk":61,"cat":"red"},{"name":"Boaters Bar","lat":54.361,"lon":-2.92835,"postcode":"LA23 3HE","la":"Westmorland and Furness","era":"other","nn":93,"risk":18,"cat":"green"},{"name":"Brewers Fayre","lat":54.112,"lon":-3.24026,"postcode":"LA14 2PW","la":"Westmorland and Furness","era":"other","nn":331,"risk":20,"cat":"green"},{"name":"Bridge Inn","lat":54.16083,"lon":-3.17504,"postcode":"LA15 8HY","la":"Westmorland and Furness","era":"trad","nn":346,"risk":20,"cat":"green"},{"name":"Britannia Inn","lat":54.11076,"lon":-3.22487,"postcode":"LA14 2HW","la":"Westmorland and Furness","era":"trad","nn":58,"risk":18,"cat":"green"},{"name":"Britannia Inn","lat":54.43448,"lon":-3.03786,"postcode":"LA22 9HP","la":"Westmorland and Furness","era":"trad","nn":269,"risk":39,"cat":"amber"},{"name":"Broadway Square Sports Bar","lat":54.1136,"lon":-3.22741,"postcode":"LA14 1QD","la":"Westmorland and Furness","era":"other","nn":51,"risk":18,"cat":"green"},{"name":"Brown Cow Inn","lat":54.15411,"lon":-3.18675,"postcode":"LA15 8LQ","la":"Westmorland and Furness","era":"trad","nn":198,"risk":19,"cat":"green"},{"name":"Brown Horse Inn","lat":54.33441,"lon":-2.89639,"postcode":"LA23 3NR","la":"Westmorland and Furness","era":"trad","nn":2511,"risk":57,"cat":"amber"},{"name":"Burneside Cricket Club","lat":54.35242,"lon":-2.76382,"postcode":"LA9 6QL","la":"Westmorland and Furness","era":"other","nn":183,"risk":39,"cat":"amber"},{"name":"Casterton Golf Course Ltd","lat":54.2088,"lon":-2.58482,"postcode":"LA6 2LA","la":"Westmorland and Furness","era":"other","nn":435,"risk":40,"cat":"amber"},{"name":"Castle House Hotel","lat":54.09498,"lon":-3.25574,"postcode":"LA14 3YF","la":"Westmorland and Furness","era":"mod","nn":0,"risk":37,"cat":"amber"},{"name":"Castle Inn (Kendal) Ltd","lat":54.33034,"lon":-2.73929,"postcode":"LA9 7AA","la":"Westmorland and Furness","era":"trad","nn":412,"risk":20,"cat":"green"},{"name":"Central Workingmens Club","lat":54.11366,"lon":-3.22615,"postcode":"LA14 1JZ","la":"Westmorland and Furness","era":"trad","nn":0,"risk":17,"cat":"green"},{"name":"Chandlers","lat":54.10187,"lon":-3.23034,"postcode":"LA14 2TN","la":"Westmorland and Furness","era":"other","nn":0,"risk":17,"cat":"green"},{"name":"Church House Inn","lat":54.33823,"lon":-3.10207,"postcode":"LA21 8AZ","la":"Westmorland and Furness","era":"other","nn":79,"risk":38,"cat":"amber"},{"name":"Churchills Wine Bar","lat":54.36471,"lon":-2.92113,"postcode":"LA23 3DQ","la":"Westmorland and Furness","era":"other","nn":17,"risk":17,"cat":"green"},{"name":"Clock Tower","lat":54.32691,"lon":-2.74872,"postcode":"LA9 4JH","la":"Westmorland and Furness","era":"other","nn":72,"risk":18,"cat":"green"},{"name":"Coach & Horses Hotel","lat":54.22769,"lon":-2.77116,"postcode":"LA7 7PS","la":"Westmorland and Furness","era":"trad","nn":131,"risk":18,"cat":"green"},{"name":"Concle Inn","lat":54.08409,"lon":-3.17209,"postcode":"LA13 0PU","la":"Westmorland and Furness","era":"trad","nn":1149,"risk":48,"cat":"amber"},{"name":"Coniston Sailing Club","lat":54.36013,"lon":-3.07743,"postcode":"LA21 8AS","la":"Westmorland and Furness","era":"other","nn":276,"risk":39,"cat":"amber"},{"name":"Coniston Sports & Social Centre","lat":54.37008,"lon":-3.07113,"postcode":"LA21 8AL","la":"Westmorland and Furness","era":"mod","nn":215,"risk":21,"cat":"green"},{"name":"Co-Op Sports and Social Club","lat":54.1323,"lon":-3.21233,"postcode":"LA14 4JS","la":"Westmorland and Furness","era":"mod","nn":166,"risk":18,"cat":"green"},{"name":"Corinthians FC Social Club","lat":54.22538,"lon":-2.77688,"postcode":"LA7 7AE","la":"Westmorland and Furness","era":"mod","nn":176,"risk":19,"cat":"green"},{"name":"Cortillo Lounge","lat":54.32801,"lon":-2.74753,"postcode":"LA9 4ND","la":"Westmorland and Furness","era":"mod","nn":35,"risk":18,"cat":"green"},{"name":"Costellos","lat":54.11017,"lon":-3.22275,"postcode":"LA14 2HH","la":"Westmorland and Furness","era":"other","nn":136,"risk":18,"cat":"green"},{"name":"Crofters","lat":54.12178,"lon":-3.18527,"postcode":"LA13 0RE","la":"Westmorland and Furness","era":"other","nn":618,"risk":27,"cat":"green"},{"name":"Crooklands Casuals FC","lat":54.14816,"lon":-3.16421,"postcode":"LA15 8JF","la":"Westmorland and Furness","era":"other","nn":1244,"risk":49,"cat":"amber"},{"name":"Cross Keys Hotel","lat":54.11366,"lon":-3.22615,"postcode":"LA14 1JZ","la":"Westmorland and Furness","era":"trad","nn":0,"risk":17,"cat":"green"},{"name":"Cross Keys Hotel","lat":54.22686,"lon":-2.7759,"postcode":"LA7 7AD","la":"Westmorland and Furness","era":"trad","nn":0,"risk":17,"cat":"green"},{"name":"Crows Nest Hotel","lat":54.10882,"lon":-3.23897,"postcode":"LA14 2PR","la":"Westmorland and Furness","era":"other","nn":363,"risk":20,"cat":"green"},{"name":"Cunningham's","lat":54.11612,"lon":-3.23135,"postcode":"LA14 1NE","la":"Westmorland and Furness","era":"other","nn":186,"risk":19,"cat":"green"},{"name":"Dalton Cricket Club","lat":54.1578,"lon":-3.1739,"postcode":"LA15 8EY","la":"Westmorland and Furness","era":"other","nn":200,"risk":19,"cat":"green"},{"name":"Dalton RLFC, Crooklands Brow","lat":54.16144,"lon":-3.16773,"postcode":"LA15 8HB","la":"Westmorland and Furness","era":"other","nn":480,"risk":21,"cat":"green"},{"name":"Derby Arms","lat":54.23927,"lon":-2.8582,"postcode":"LA11 6RH","la":"Westmorland and Furness","era":"trad","nn":3669,"risk":65,"cat":"red"},{"name":"Devonshire Arms","lat":54.1917,"lon":-3.09318,"postcode":"LA12 0DH","la":"Westmorland and Furness","era":"trad","nn":407,"risk":20,"cat":"green"},{"name":"Drunken Duck Inn","lat":54.40278,"lon":-3.00186,"postcode":"LA22 0NG","la":"Westmorland and Furness","era":"trad","nn":1544,"risk":51,"cat":"amber"},{"name":"Duddon Sports and Social Club","lat":54.19084,"lon":-3.20774,"postcode":"LA16 7AH","la":"Westmorland and Furness","era":"mod","nn":64,"risk":23,"cat":"green"},{"name":"Duke of Cumberland","lat":54.33388,"lon":-2.73736,"postcode":"LA9 6ES","la":"Westmorland and Furness","era":"trad","nn":91,"risk":18,"cat":"green"},{"name":"Dunnerholm Golf Club","lat":54.19484,"lon":-3.21141,"postcode":"LA16 7AW","la":"Westmorland and Furness","era":"other","nn":506,"risk":26,"cat":"green"},{"name":"Eagle and Child","lat":54.37334,"lon":-2.81311,"postcode":"LA8 9LP","la":"Westmorland and Furness","era":"trad","nn":1578,"risk":51,"cat":"amber"},{"name":"Elsewhere Bar","lat":54.3282,"lon":-2.74808,"postcode":"LA9 4DP","la":"Westmorland and Furness","era":"other","nn":12,"risk":17,"cat":"green"},{"name":"Engine Inn","lat":54.18001,"lon":-2.97762,"postcode":"LA11 7NZ","la":"Westmorland and Furness","era":"trad","nn":748,"risk":43,"cat":"amber"},{"name":"Farmers Arms","lat":54.19574,"lon":-3.09637,"postcode":"LA12 7BA","la":"Westmorland and Furness","era":"trad","nn":49,"risk":18,"cat":"green"},{"name":"Farmers Arms","lat":54.14232,"lon":-3.09357,"postcode":"LA12 9RP","la":"Westmorland and Furness","era":"trad","nn":178,"risk":39,"cat":"amber"},{"name":"Farmers Arms","lat":54.25511,"lon":-3.07369,"postcode":"LA12 8DT","la":"Westmorland and Furness","era":"trad","nn":1842,"risk":53,"cat":"amber"},{"name":"Farmers Arms","lat":54.13562,"lon":-3.17889,"postcode":"LA13 0NB","la":"Westmorland and Furness","era":"trad","nn":174,"risk":39,"cat":"amber"},{"name":"Farmers Arms","lat":54.12495,"lon":-3.20988,"postcode":"LA13 9NG","la":"Westmorland and Furness","era":"trad","nn":339,"risk":20,"cat":"green"},{"name":"Fell Bar","lat":54.32684,"lon":-2.74638,"postcode":"LA9 4DH","la":"Westmorland and Furness","era":"other","nn":0,"risk":17,"cat":"green"},{"name":"Fell End Caravan Park Restaurant","lat":54.19374,"lon":-2.76833,"postcode":"LA7 7BS","la":"Westmorland and Furness","era":"other","nn":972,"risk":44,"cat":"amber"},{"name":"Fishermans Arms","lat":54.14119,"lon":-3.09164,"postcode":"LA12 9RJ","la":"Westmorland and Furness","era":"trad","nn":178,"risk":39,"cat":"amber"},{"name":"Food At The Brit","lat":54.23831,"lon":-3.05985,"postcode":"LA12 7RJ","la":"Westmorland and Furness","era":"other","nn":2074,"risk":54,"cat":"amber"},{"name":"Furness Cricket Club","lat":54.12798,"lon":-3.21676,"postcode":"LA14 5PR","la":"Westmorland and Furness","era":"other","nn":224,"risk":19,"cat":"green"},{"name":"Furness Golf Club","lat":54.10656,"lon":-3.25751,"postcode":"LA14 3LN","la":"Westmorland and Furness","era":"other","nn":181,"risk":19,"cat":"green"},{"name":"Furness Railway","lat":54.11573,"lon":-3.22786,"postcode":"LA14 5UB","la":"Westmorland and Furness","era":"trad","nn":0,"risk":17,"cat":"green"},{"name":"Furness Rugby Club","lat":54.12951,"lon":-3.2082,"postcode":"LA13 9NH","la":"Westmorland and Furness","era":"other","nn":370,"risk":20,"cat":"green"},{"name":"Gan Yam Brewing Company Ltd","lat":54.34539,"lon":-2.73798,"postcode":"LA9 6NZ","la":"Westmorland and Furness","era":"other","nn":1090,"risk":47,"cat":"amber"},{"name":"Gate Way to the Lakes Pub Company","lat":54.22637,"lon":-2.77265,"postcode":"LA7 7QL","la":"Westmorland and Furness","era":"other","nn":176,"risk":19,"cat":"green"},{"name":"Gather","lat":54.19604,"lon":-3.09569,"postcode":"LA12 7AY","la":"Westmorland and Furness","era":"other","nn":7,"risk":17,"cat":"green"},{"name":"General Burgoyne","lat":54.1607,"lon":-3.12145,"postcode":"LA12 0SZ","la":"Westmorland and Furness","era":"other","nn":2149,"risk":55,"cat":"amber"},{"name":"George and Dragon Hotel","lat":54.27769,"lon":-2.45405,"postcode":"LA10 5QL","la":"Westmorland and Furness","era":"trad","nn":0,"risk":37,"cat":"amber"},{"name":"Golden Ball","lat":54.1576,"lon":-3.17728,"postcode":"LA15 8RJ","la":"Westmorland and Furness","era":"other","nn":49,"risk":18,"cat":"green"},{"name":"Golden Rule Hotel","lat":54.43366,"lon":-2.96273,"postcode":"LA22 9AS","la":"Westmorland and Furness","era":"other","nn":71,"risk":18,"cat":"green"},{"name":"Grange Fell Golf Club","lat":54.19326,"lon":-2.9303,"postcode":"LA11 6HB","la":"Westmorland and Furness","era":"other","nn":1307,"risk":49,"cat":"amber"},{"name":"Grange over Sands Golf Club","lat":54.19916,"lon":-2.88993,"postcode":"LA11 6QX","la":"Westmorland and Furness","era":"other","nn":1497,"risk":50,"cat":"amber"},{"name":"Greengate Working Mens Club","lat":54.11123,"lon":-3.22445,"postcode":"LA14 1HB","la":"Westmorland and Furness","era":"trad","nn":59,"risk":18,"cat":"green"},{"name":"Greyhound Inn","lat":54.25504,"lon":-3.17017,"postcode":"LA17 7XJ","la":"Westmorland and Furness","era":"trad","nn":2728,"risk":59,"cat":"amber"},{"name":"Hall Street Masonic Club","lat":54.15704,"lon":-3.17959,"postcode":"LA15 8RS","la":"Westmorland and Furness","era":"trad","nn":67,"risk":18,"cat":"green"},{"name":"Harbour Hotel","lat":54.10888,"lon":-3.22353,"postcode":"LA14 2HG","la":"Westmorland and Furness","era":"other","nn":152,"risk":18,"cat":"green"},{"name":"Hare and Hounds","lat":54.26374,"lon":-2.79317,"postcode":"LA8 8PN","la":"Westmorland and Furness","era":"trad","nn":2249,"risk":56,"cat":"amber"},{"name":"Hare and Hounds Inn","lat":54.29864,"lon":-2.89596,"postcode":"LA11 6NN","la":"Westmorland and Furness","era":"trad","nn":397,"risk":40,"cat":"amber"},{"name":"Hawcoat Park Sports & Social Club","lat":54.13176,"lon":-3.21589,"postcode":"LA14 4HF","la":"Westmorland and Furness","era":"mod","nn":240,"risk":19,"cat":"green"},{"name":"Heft Inn & Restaurant","lat":54.2388,"lon":-2.91989,"postcode":"LA11 6JH","la":"Westmorland and Furness","era":"trad","nn":2601,"risk":58,"cat":"amber"},{"name":"Holker Old Boys","lat":54.14119,"lon":-3.21981,"postcode":"LA14 4QB","la":"Westmorland and Furness","era":"other","nn":0,"risk":22,"cat":"green"},{"name":"Hope and Anchor","lat":54.19592,"lon":-3.09717,"postcode":"LA12 7BD","la":"Westmorland and Furness","era":"trad","nn":56,"risk":18,"cat":"green"},{"name":"Hope and Anchor","lat":54.17451,"lon":-2.97101,"postcode":"LA11 7JU","la":"Westmorland and Furness","era":"trad","nn":748,"risk":43,"cat":"amber"},{"name":"Horse and Jockey","lat":54.15726,"lon":-3.17682,"postcode":"LA15 8EA","la":"Westmorland and Furness","era":"trad","nn":49,"risk":18,"cat":"green"},{"name":"Horse and Rainbow","lat":54.32738,"lon":-2.74784,"postcode":"LA9 4SX","la":"Westmorland and Furness","era":"trad","nn":0,"risk":17,"cat":"green"},{"name":"Ibis Sports Club","lat":54.33573,"lon":-2.74088,"postcode":"LA9 6DE","la":"Westmorland and Furness","era":"other","nn":222,"risk":19,"cat":"green"},{"name":"Indie Craft Beer","lat":54.32805,"lon":-2.74583,"postcode":"LA9 4AB","la":"Westmorland and Furness","era":"mod","nn":66,"risk":18,"cat":"green"},{"name":"Ivy Leaf Club","lat":54.32778,"lon":-2.7448,"postcode":"LA9 4AT","la":"Westmorland and Furness","era":"other","nn":67,"risk":18,"cat":"green"},{"name":"Jeffersons","lat":54.11269,"lon":-3.22873,"postcode":"LA14 1RX","la":"Westmorland and Furness","era":"other","nn":133,"risk":18,"cat":"green"},{"name":"JJ Crossfields","lat":54.20215,"lon":-2.83462,"postcode":"LA5 0HA","la":"Westmorland and Furness","era":"trad","nn":0,"risk":35,"cat":"amber"},{"name":"Jolly Anglers Inn","lat":54.35394,"lon":-2.76277,"postcode":"LA9 6QS","la":"Westmorland and Furness","era":"trad","nn":183,"risk":39,"cat":"amber"},{"name":"Kendal Cricket Club","lat":54.33423,"lon":-2.73862,"postcode":"LA9 6BZ","la":"Westmorland and Furness","era":"other","nn":91,"risk":18,"cat":"green"},{"name":"KillOne","lat":54.11471,"lon":-3.23288,"postcode":"LA14 1XS","la":"Westmorland and Furness","era":"other","nn":163,"risk":18,"cat":"green"},{"name":"Kings Arms","lat":54.13641,"lon":-3.22249,"postcode":"LA14 4HY","la":"Westmorland and Furness","era":"trad","nn":213,"risk":19,"cat":"green"},{"name":"Kings Arms","lat":54.19673,"lon":-3.09611,"postcode":"LA12 7DZ","la":"Westmorland and Furness","era":"trad","nn":0,"risk":17,"cat":"green"},{"name":"Kings Arms Hotel","lat":54.37478,"lon":-2.99903,"postcode":"LA22 0NZ","la":"Westmorland and Furness","era":"trad","nn":46,"risk":38,"cat":"amber"},{"name":"Kings Arms Hotel","lat":54.11104,"lon":-3.22561,"postcode":"LA14 1HY","la":"Westmorland and Furness","era":"trad","nn":58,"risk":18,"cat":"green"},{"name":"Kings Arms Hotel","lat":54.18091,"lon":-2.72153,"postcode":"LA6 1LR","la":"Westmorland and Furness","era":"trad","nn":2603,"risk":58,"cat":"amber"},{"name":"Kings Arms Hotel","lat":54.2008,"lon":-2.95483,"postcode":"LA11 6QB","la":"Westmorland and Furness","era":"trad","nn":1802,"risk":52,"cat":"amber"},{"name":"Kings Head","lat":54.19502,"lon":-3.09687,"postcode":"LA12 7AF","la":"Westmorland and Furness","era":"trad","nn":87,"risk":18,"cat":"green"},{"name":"Kirkby Lonsdale Brewery Company Limited","lat":54.20215,"lon":-2.59977,"postcode":"LA6 2AB","la":"Westmorland and Furness","era":"other","nn":34,"risk":18,"cat":"green"},{"name":"Kirkby Lonsdale Masonic Lodge","lat":54.2024,"lon":-2.59948,"postcode":"LA6 2BG","la":"Westmorland and Furness","era":"trad","nn":34,"risk":18,"cat":"green"},{"name":"Kirkby Lonsdale Rugby Club","lat":54.20792,"lon":-2.60297,"postcode":"LA6 2DS","la":"Westmorland and Furness","era":"other","nn":489,"risk":21,"cat":"green"},{"name":"Lake District Boat Club Limited","lat":54.36161,"lon":-2.92736,"postcode":"LA23 3HE","la":"Westmorland and Furness","era":"other","nn":0,"risk":17,"cat":"green"},{"name":"Lakeside Bay","lat":54.1578,"lon":-2.9658,"postcode":"LA11 7LT","la":"Westmorland and Furness","era":"other","nn":1889,"risk":53,"cat":"amber"},{"name":"Lindal Bowling Club","lat":54.17307,"lon":-3.14694,"postcode":"LA12 0LH","la":"Westmorland and Furness","era":"other","nn":264,"risk":37,"cat":"amber"},{"name":"Lindal Cricket Club","lat":54.17512,"lon":-3.1449,"postcode":"LA12 0LA","la":"Westmorland and Furness","era":"other","nn":264,"risk":37,"cat":"amber"},{"name":"London House","lat":54.19043,"lon":-3.20843,"postcode":"LA16 7FB","la":"Westmorland and Furness","era":"other","nn":64,"risk":23,"cat":"green"},{"name":"Lord Nelson","lat":54.15722,"lon":-3.18392,"postcode":"LA15 8BY","la":"Westmorland and Furness","era":"trad","nn":131,"risk":18,"cat":"green"},{"name":"Manhattans","lat":54.11389,"lon":-3.2268,"postcode":"LA14 1QD","la":"Westmorland and Furness","era":"other","nn":0,"risk":17,"cat":"green"},{"name":"Manor Arms","lat":54.2777,"lon":-3.21088,"postcode":"LA20 6HY","la":"Westmorland and Furness","era":"trad","nn":177,"risk":39,"cat":"amber"},{"name":"Mason Yard 24","lat":54.32839,"lon":-2.74469,"postcode":"LA9 4BN","la":"Westmorland and Furness","era":"other","nn":67,"risk":18,"cat":"green"},{"name":"Masonic Club","lat":54.228,"lon":-2.77311,"postcode":"LA7 7DX","la":"Westmorland and Furness","era":"trad","nn":131,"risk":18,"cat":"green"},{"name":"Masonic Hall","lat":54.12318,"lon":-3.21569,"postcode":"LA13 9AH","la":"Westmorland and Furness","era":"trad","nn":405,"risk":20,"cat":"green"},{"name":"Milnthorpe Cricket Club","lat":54.22686,"lon":-2.7759,"postcode":"LA7 7AD","la":"Westmorland and Furness","era":"other","nn":0,"risk":17,"cat":"green"},{"name":"Miners' Arms","lat":54.18536,"lon":-3.11625,"postcode":"LA12 0HY","la":"Westmorland and Furness","era":"trad","nn":1235,"risk":48,"cat":"amber"},{"name":"MKS","lat":54.11573,"lon":-3.22786,"postcode":"LA14 5UB","la":"Westmorland and Furness","era":"other","nn":0,"risk":17,"cat":"green"},{"name":"Netherfield Cricket Club","lat":54.32142,"lon":-2.73298,"postcode":"LA9 7BL","la":"Westmorland and Furness","era":"other","nn":0,"risk":20,"cat":"green"},{"name":"New Hall Inn","lat":54.3648,"lon":-2.92135,"postcode":"LA23 3DH","la":"Westmorland and Furness","era":"trad","nn":17,"risk":17,"cat":"green"},{"name":"Oddfellows Arms","lat":54.33301,"lon":-2.74923,"postcode":"LA9 4RL","la":"Westmorland and Furness","era":"trad","nn":257,"risk":19,"cat":"green"},{"name":"Old Friends","lat":54.1988,"lon":-3.0959,"postcode":"LA12 7ES","la":"Westmorland and Furness","era":"other","nn":230,"risk":19,"cat":"green"},{"name":"Opera Bingo","lat":54.11749,"lon":-3.22699,"postcode":"LA14 5RQ","la":"Westmorland and Furness","era":"other","nn":150,"risk":18,"cat":"green"},{"name":"Ormsgill Hotel","lat":54.13656,"lon":-3.2337,"postcode":"LA14 4BG","la":"Westmorland and Furness","era":"other","nn":730,"risk":40,"cat":"amber"},{"name":"Outgate Inn","lat":54.3896,"lon":-2.99438,"postcode":"LA22 0NQ","la":"Westmorland and Furness","era":"trad","nn":1544,"risk":51,"cat":"amber"},{"name":"Pheasant Inn","lat":54.17786,"lon":-2.94198,"postcode":"LA11 7RQ","la":"Westmorland and Furness","era":"trad","nn":1874,"risk":53,"cat":"amber"},{"name":"Quayside Bar & Kitchen and Wheelhouse","lat":54.36162,"lon":-2.92736,"postcode":"LA23 3HE","la":"Westmorland and Furness","era":"mod","nn":0,"risk":17,"cat":"green"},{"name":"Queens","lat":54.37929,"lon":-2.906,"postcode":"LA23 1AB","la":"Westmorland and Furness","era":"trad","nn":38,"risk":35,"cat":"amber"},{"name":"Queens Arms","lat":54.08538,"lon":-3.23699,"postcode":"LA14 3YG","la":"Westmorland and Furness","era":"trad","nn":1623,"risk":51,"cat":"amber"},{"name":"Queens Head Hotel","lat":54.426,"lon":-2.90523,"postcode":"LA23 1PW","la":"Westmorland and Furness","era":"trad","nn":384,"risk":40,"cat":"amber"},{"name":"Railway Inn","lat":54.17068,"lon":-3.14972,"postcode":"LA12 0LL","la":"Westmorland and Furness","era":"trad","nn":322,"risk":37,"cat":"amber"},{"name":"Red Lion Hotel","lat":54.15593,"lon":-3.18496,"postcode":"LA15 8AE","la":"Westmorland and Furness","era":"trad","nn":35,"risk":18,"cat":"green"},{"name":"Red River Club","lat":54.11793,"lon":-3.19756,"postcode":"LA13 0BJ","la":"Westmorland and Furness","era":"other","nn":369,"risk":25,"cat":"green"},{"name":"Rigg Cottage","lat":54.43549,"lon":-2.96443,"postcode":"LA22 9BB","la":"Westmorland and Furness","era":"other","nn":231,"risk":19,"cat":"green"},{"name":"Ring O' Bells","lat":54.32271,"lon":-2.74607,"postcode":"LA9 5AF","la":"Westmorland and Furness","era":"other","nn":322,"risk":20,"cat":"green"},{"name":"Roa Island Boat Club","lat":54.0738,"lon":-3.17377,"postcode":"LA13 0QL","la":"Westmorland and Furness","era":"other","nn":958,"risk":44,"cat":"amber"},{"name":"Robin Hood","lat":54.1136,"lon":-3.22428,"postcode":"LA14 1DU","la":"Westmorland and Furness","era":"other","nn":87,"risk":18,"cat":"green"},{"name":"Romneys","lat":54.3143,"lon":-2.75016,"postcode":"LA9 5HG","la":"Westmorland and Furness","era":"other","nn":972,"risk":42,"cat":"amber"},{"name":"Roose Conservative Club","lat":54.11426,"lon":-3.18968,"postcode":"LA13 0EB","la":"Westmorland and Furness","era":"other","nn":420,"risk":25,"cat":"green"},{"name":"Rose and Crown","lat":54.19673,"lon":-3.09611,"postcode":"LA12 7DZ","la":"Westmorland and Furness","era":"trad","nn":0,"risk":17,"cat":"green"},{"name":"Royal British Legion","lat":54.19539,"lon":-3.09432,"postcode":"LA12 7AH","la":"Westmorland and Furness","era":"trad","nn":64,"risk":18,"cat":"green"},{"name":"Royal Oak","lat":54.43176,"lon":-2.96241,"postcode":"LA22 9BU","la":"Westmorland and Furness","era":"trad","nn":101,"risk":18,"cat":"green"},{"name":"Royal Oak Inn","lat":54.36344,"lon":-2.91947,"postcode":"LA23 3EG","la":"Westmorland and Furness","era":"trad","nn":97,"risk":18,"cat":"green"},{"name":"Ruskins Bar","lat":54.32773,"lon":-2.74816,"postcode":"LA9 4ND","la":"Westmorland and Furness","era":"other","nn":40,"risk":18,"cat":"green"},{"name":"Sedbergh Golf Club","lat":54.31184,"lon":-2.54243,"postcode":"LA10 5SS","la":"Westmorland and Furness","era":"other","nn":1540,"risk":51,"cat":"amber"},{"name":"Ship Inn","lat":54.0652,"lon":-3.17452,"postcode":"LA13 0QN","la":"Westmorland and Furness","era":"trad","nn":958,"risk":44,"cat":"amber"},{"name":"Ship Inn","lat":54.36248,"lon":-3.07882,"postcode":"LA21 8HB","la":"Westmorland and Furness","era":"trad","nn":276,"risk":19,"cat":"green"},{"name":"Smokies Retro Bar","lat":54.32809,"lon":-2.74805,"postcode":"LA9 4ND","la":"Westmorland and Furness","era":"other","nn":12,"risk":17,"cat":"green"},{"name":"Snooty Fox Tavern","lat":54.20263,"lon":-2.59683,"postcode":"LA6 2AH","la":"Westmorland and Furness","era":"trad","nn":0,"risk":17,"cat":"green"},{"name":"South End Holiday Caravan Site","lat":54.04851,"lon":-3.19951,"postcode":"LA14 3YQ","la":"Westmorland and Furness","era":"other","nn":2470,"risk":57,"cat":"amber"},{"name":"Stags Head Hotel","lat":54.36435,"lon":-2.9213,"postcode":"LA23 3DG","la":"Westmorland and Furness","era":"trad","nn":41,"risk":18,"cat":"green"},{"name":"Sticklebarn Tavern","lat":54.4473,"lon":-3.09187,"postcode":"LA22 9JU","la":"Westmorland and Furness","era":"other","nn":3542,"risk":65,"cat":"red"},{"name":"Strawberry Hotel","lat":54.12695,"lon":-3.21381,"postcode":"LA14 5LD","la":"Westmorland and Furness","era":"other","nn":224,"risk":19,"cat":"green"},{"name":"Strickland Arms","lat":54.27862,"lon":-2.76973,"postcode":"LA8 8DZ","la":"Westmorland and Furness","era":"trad","nn":2249,"risk":56,"cat":"amber"},{"name":"Sun Hotel","lat":54.36923,"lon":-3.07969,"postcode":"LA21 8HQ","la":"Westmorland and Furness","era":"other","nn":269,"risk":22,"cat":"green"},{"name":"Sun Inn","lat":54.20321,"lon":-2.59762,"postcode":"LA6 2AU","la":"Westmorland and Furness","era":"trad","nn":0,"risk":17,"cat":"green"},{"name":"Sun Inn","lat":54.27769,"lon":-2.45405,"postcode":"LA10 5QL","la":"Westmorland and Furness","era":"trad","nn":0,"risk":37,"cat":"amber"},{"name":"Sun Inn","lat":54.19602,"lon":-3.09578,"postcode":"LA12 7AY","la":"Westmorland and Furness","era":"trad","nn":7,"risk":17,"cat":"green"},{"name":"Swan","lat":54.19698,"lon":-3.08803,"postcode":"LA12 7JX","la":"Westmorland and Furness","era":"trad","nn":274,"risk":19,"cat":"green"},{"name":"Tailors","lat":54.11462,"lon":-3.22654,"postcode":"LA14 1PP","la":"Westmorland and Furness","era":"other","nn":83,"risk":18,"cat":"green"},{"name":"Tally Ho","lat":54.12518,"lon":-3.2308,"postcode":"LA14 5DN","la":"Westmorland and Furness","era":"other","nn":488,"risk":21,"cat":"green"},{"name":"The Albert Hotel","lat":54.36491,"lon":-2.91992,"postcode":"LA23 3BY","la":"Westmorland and Furness","era":"other","nn":70,"risk":18,"cat":"green"},{"name":"The Albion Hotel","lat":54.20215,"lon":-2.83462,"postcode":"LA5 0HA","la":"Westmorland and Furness","era":"other","nn":0,"risk":35,"cat":"amber"},{"name":"The Ambleside Tavern","lat":54.43237,"lon":-2.96355,"postcode":"LA22 9DR","la":"Westmorland and Furness","era":"other","nn":86,"risk":18,"cat":"green"},{"name":"The Angel Inn","lat":54.36467,"lon":-2.91798,"postcode":"LA23 3BU","la":"Westmorland and Furness","era":"trad","nn":129,"risk":18,"cat":"green"},{"name":"The Black Bull Inn","lat":54.32359,"lon":-2.52775,"postcode":"LA10 5BL","la":"Westmorland and Furness","era":"trad","nn":0,"risk":20,"cat":"green"},{"name":"The Blind Bus Driver Ltd","lat":54.32684,"lon":-2.74638,"postcode":"LA9 4DH","la":"Westmorland and Furness","era":"other","nn":0,"risk":17,"cat":"green"},{"name":"The Blue Lamp","lat":54.11419,"lon":-3.22341,"postcode":"LA14 1DS","la":"Westmorland and Furness","era":"other","nn":87,"risk":18,"cat":"green"},{"name":"The Club Inn at Endmoor","lat":54.25645,"lon":-2.70904,"postcode":"LA8 0EU","la":"Westmorland and Furness","era":"trad","nn":3650,"risk":65,"cat":"red"},{"name":"The Commercial Inn","lat":54.23148,"lon":-3.18188,"postcode":"LA17 7TE","la":"Westmorland and Furness","era":"trad","nn":313,"risk":40,"cat":"amber"},{"name":"The Crafty Baa","lat":54.37963,"lon":-2.90589,"postcode":"LA23 1AB","la":"Westmorland and Furness","era":"mod","nn":38,"risk":35,"cat":"amber"},{"name":"The Cross Bar","lat":54.12327,"lon":-3.23754,"postcode":"LA14 5UQ","la":"Westmorland and Furness","era":"trad","nn":0,"risk":17,"cat":"green"},{"name":"The Cross Keys","lat":54.36538,"lon":-2.46836,"postcode":"LA10 5NE","la":"Westmorland and Furness","era":"trad","nn":6034,"risk":75,"cat":"red"},{"name":"The Crown Hotel","lat":54.11894,"lon":-3.25395,"postcode":"LA14 3RP","la":"Westmorland and Furness","era":"trad","nn":922,"risk":44,"cat":"amber"},{"name":"The Crown Inn, Coniston","lat":54.3693,"lon":-3.07418,"postcode":"LA21 8ED","la":"Westmorland and Furness","era":"trad","nn":102,"risk":21,"cat":"green"},{"name":"The Dalesman Country Inn","lat":54.32354,"lon":-2.5297,"postcode":"LA10 5BN","la":"Westmorland and Furness","era":"trad","nn":0,"risk":20,"cat":"green"},{"name":"The Devonshire Hotel","lat":54.10307,"lon":-3.23192,"postcode":"LA14 2TH","la":"Westmorland and Furness","era":"other","nn":169,"risk":18,"cat":"green"},{"name":"The Eagles Head","lat":54.32215,"lon":-3.01907,"postcode":"LA12 8LN","la":"Westmorland and Furness","era":"trad","nn":5432,"risk":75,"cat":"red"},{"name":"The Ferry","lat":54.10833,"lon":-3.24772,"postcode":"LA14 3PE","la":"Westmorland and Furness","era":"other","nn":0,"risk":17,"cat":"green"},{"name":"The Flying Fleece","lat":54.43313,"lon":-2.96382,"postcode":"LA22 9AN","la":"Westmorland and Furness","era":"trad","nn":0,"risk":17,"cat":"green"},{"name":"The George & Dragon","lat":54.32862,"lon":-2.74607,"postcode":"LA9 4TN","la":"Westmorland and Furness","era":"trad","nn":0,"risk":17,"cat":"green"},{"name":"The Heron","lat":54.3148,"lon":-2.72962,"postcode":"LA9 7PG","la":"Westmorland and Furness","era":"other","nn":541,"risk":26,"cat":"green"},{"name":"The Keg & Kitchen","lat":54.19281,"lon":-2.91023,"postcode":"LA11 6AB","la":"Westmorland and Furness","era":"mod","nn":1307,"risk":49,"cat":"amber"},{"name":"The Kings Arms Hotel","lat":54.20321,"lon":-2.59762,"postcode":"LA6 2AU","la":"Westmorland and Furness","era":"trad","nn":0,"risk":17,"cat":"green"},{"name":"The Knights","lat":54.11442,"lon":-3.22886,"postcode":"LA14 1SP","la":"Westmorland and Furness","era":"other","nn":0,"risk":17,"cat":"green"},{"name":"The Lake View Garden Bar","lat":54.36703,"lon":-2.91649,"postcode":"LA23 3DE","la":"Westmorland and Furness","era":"other","nn":114,"risk":18,"cat":"green"},{"name":"The Lounge Cloud 9","lat":54.11442,"lon":-3.22886,"postcode":"LA14 1SP","la":"Westmorland and Furness","era":"mod","nn":0,"risk":17,"cat":"green"},{"name":"The Manor (Oxen Park) Ltd","lat":54.27641,"lon":-3.04846,"postcode":"LA12 8HG","la":"Westmorland and Furness","era":"other","nn":1969,"risk":54,"cat":"amber"},{"name":"The Masons Arms","lat":54.15646,"lon":-3.1793,"postcode":"LA15 8RE","la":"Westmorland and Furness","era":"trad","nn":67,"risk":18,"cat":"green"},{"name":"The Masons Arms","lat":54.2984,"lon":-2.90207,"postcode":"LA11 6NW","la":"Westmorland and Furness","era":"trad","nn":397,"risk":40,"cat":"amber"},{"name":"The Mortal Man","lat":54.42327,"lon":-2.90885,"postcode":"LA23 1PL","la":"Westmorland and Furness","era":"other","nn":384,"risk":40,"cat":"amber"},{"name":"The Navy Club","lat":54.10187,"lon":-3.23034,"postcode":"LA14 2TN","la":"Westmorland and Furness","era":"other","nn":0,"risk":17,"cat":"green"},{"name":"The New Inn","lat":54.32536,"lon":-2.74808,"postcode":"LA9 4HE","la":"Westmorland and Furness","era":"trad","nn":0,"risk":17,"cat":"green"},{"name":"The New Union Tavern","lat":54.33097,"lon":-2.74739,"postcode":"LA9 4RF","la":"Westmorland and Furness","era":"other","nn":257,"risk":19,"cat":"green"},{"name":"The Newfield Inn","lat":54.35354,"lon":-3.1932,"postcode":"LA20 6ED","la":"Westmorland and Furness","era":"trad","nn":5530,"risk":75,"cat":"red"},{"name":"The Old Farmhouse","lat":54.18651,"lon":-3.08802,"postcode":"LA12 9HR","la":"Westmorland and Furness","era":"other","nn":164,"risk":23,"cat":"green"},{"name":"The Old Kings Head Hotel","lat":54.27723,"lon":-3.21349,"postcode":"LA20 6HJ","la":"Westmorland and Furness","era":"trad","nn":177,"risk":39,"cat":"amber"},{"name":"The Olde Mill Bar and Restaurant","lat":54.1577,"lon":-3.0742,"postcode":"LA12 9RB","la":"Westmorland and Furness","era":"other","nn":1205,"risk":48,"cat":"amber"},{"name":"The Orange Tree Hotel","lat":54.20407,"lon":-2.59931,"postcode":"LA6 2BD","la":"Westmorland and Furness","era":"other","nn":146,"risk":18,"cat":"green"},{"name":"The Owl and Pussycat","lat":54.1148,"lon":-3.23854,"postcode":"LA14 2NA","la":"Westmorland and Furness","era":"other","nn":247,"risk":19,"cat":"green"},{"name":"The Park","lat":54.32142,"lon":-2.73298,"postcode":"LA9 7BL","la":"Westmorland and Furness","era":"other","nn":0,"risk":20,"cat":"green"},{"name":"The Pheasant Inn","lat":54.2104,"lon":-2.57871,"postcode":"LA6 2RX","la":"Westmorland and Furness","era":"trad","nn":435,"risk":40,"cat":"amber"},{"name":"The Piel Castle","lat":54.19587,"lon":-3.09487,"postcode":"LA12 7LR","la":"Westmorland and Furness","era":"other","nn":56,"risk":18,"cat":"green"},{"name":"The Plough Inn","lat":54.22556,"lon":-2.68631,"postcode":"LA6 1PJ","la":"Westmorland and Furness","era":"trad","nn":3739,"risk":66,"cat":"red"},{"name":"The Principal","lat":54.32862,"lon":-2.74607,"postcode":"LA9 4TN","la":"Westmorland and Furness","era":"other","nn":0,"risk":17,"cat":"green"},{"name":"The Punch Bowl Inn","lat":54.31355,"lon":-2.85356,"postcode":"LA8 8HR","la":"Westmorland and Furness","era":"trad","nn":3212,"risk":62,"cat":"red"},{"name":"The Punchbowl Hotel","lat":54.28688,"lon":-2.73011,"postcode":"LA8 0AA","la":"Westmorland and Furness","era":"other","nn":2731,"risk":59,"cat":"amber"},{"name":"The Queens Head Inn and Restaurant","lat":54.37518,"lon":-2.9992,"postcode":"LA22 0NS","la":"Westmorland and Furness","era":"trad","nn":46,"risk":38,"cat":"amber"},{"name":"The Red Dragon Inn","lat":54.20263,"lon":-2.59683,"postcode":"LA6 2AH","la":"Westmorland and Furness","era":"trad","nn":0,"risk":17,"cat":"green"},{"name":"The Red Lion","lat":54.3232,"lon":-2.52798,"postcode":"LA10 5BZ","la":"Westmorland and Furness","era":"trad","nn":46,"risk":20,"cat":"green"},{"name":"The Red Lion","lat":54.26955,"lon":-3.08758,"postcode":"LA12 8EF","la":"Westmorland and Furness","era":"trad","nn":1842,"risk":53,"cat":"amber"},{"name":"The Rifleman's Arms","lat":54.32529,"lon":-2.75349,"postcode":"LA9 4LD","la":"Westmorland and Furness","era":"trad","nn":351,"risk":20,"cat":"green"},{"name":"The Royal British Legion Club","lat":54.1188,"lon":-3.22865,"postcode":"LA14 5RQ","la":"Westmorland and Furness","era":"trad","nn":182,"risk":19,"cat":"green"},{"name":"The Royal Oak","lat":54.21805,"lon":-2.90142,"postcode":"LA11 6LX","la":"Westmorland and Furness","era":"trad","nn":2229,"risk":55,"cat":"amber"},{"name":"The Shakespeare Inn","lat":54.32536,"lon":-2.74808,"postcode":"LA9 4HE","la":"Westmorland and Furness","era":"trad","nn":0,"risk":17,"cat":"green"},{"name":"The Ship Inn","lat":54.1178,"lon":-3.19189,"postcode":"LA13 0EU","la":"Westmorland and Furness","era":"trad","nn":369,"risk":25,"cat":"green"},{"name":"The Ship Inn","lat":54.23214,"lon":-3.18656,"postcode":"LA17 7TE","la":"Westmorland and Furness","era":"trad","nn":313,"risk":40,"cat":"amber"},{"name":"The Ship Inn","lat":54.36162,"lon":-2.92736,"postcode":"LA23 3HE","la":"Westmorland and Furness","era":"trad","nn":0,"risk":17,"cat":"green"},{"name":"The Smithy Inn","lat":54.20329,"lon":-2.73325,"postcode":"LA6 1PS","la":"Westmorland and Furness","era":"trad","nn":1864,"risk":53,"cat":"amber"},{"name":"The Sportsmans Inn","lat":54.2719,"lon":-2.35778,"postcode":"LA10 5RG","la":"Westmorland and Furness","era":"trad","nn":6283,"risk":75,"cat":"red"},{"name":"The Stan Laurel Inn","lat":54.19469,"lon":-3.08958,"postcode":"LA12 0AB","la":"Westmorland and Furness","era":"trad","nn":274,"risk":19,"cat":"green"},{"name":"The Sun Inn","lat":54.34898,"lon":-2.82446,"postcode":"LA8 8LA","la":"Westmorland and Furness","era":"trad","nn":1883,"risk":53,"cat":"amber"},{"name":"The Swan Inn","lat":54.27315,"lon":-2.58082,"postcode":"LA6 2NB","la":"Westmorland and Furness","era":"trad","nn":4138,"risk":69,"cat":"red"},{"name":"The Tap Yard","lat":54.43313,"lon":-2.96382,"postcode":"LA22 9AN","la":"Westmorland and Furness","era":"mod","nn":0,"risk":17,"cat":"green"},{"name":"The Tavern @ Hale","lat":54.20159,"lon":-2.76177,"postcode":"LA7 7BH","la":"Westmorland and Furness","era":"other","nn":972,"risk":44,"cat":"amber"},{"name":"The Thirsty Rambler","lat":54.32354,"lon":-2.5297,"postcode":"LA10 5BN","la":"Westmorland and Furness","era":"trad","nn":0,"risk":20,"cat":"green"},{"name":"The Unicorn","lat":54.43306,"lon":-2.96235,"postcode":"LA22 9DT","la":"Westmorland and Furness","era":"other","nn":71,"risk":18,"cat":"green"},{"name":"The Village Inn","lat":54.13557,"lon":-3.18155,"postcode":"LA13 0LZ","la":"Westmorland and Furness","era":"trad","nn":174,"risk":39,"cat":"amber"},{"name":"The Village Inn","lat":54.36371,"lon":-2.9209,"postcode":"LA23 3DE","la":"Westmorland and Furness","era":"trad","nn":75,"risk":18,"cat":"green"},{"name":"The Waterloo","lat":54.11205,"lon":-3.22098,"postcode":"LA14 2DG","la":"Westmorland and Furness","era":"other","nn":182,"risk":19,"cat":"green"},{"name":"The Wellington Hotel","lat":54.15651,"lon":-3.18233,"postcode":"LA15 8AW","la":"Westmorland and Furness","era":"trad","nn":131,"risk":18,"cat":"green"},{"name":"The Whistling Pig","lat":54.36042,"lon":-2.80304,"postcode":"LA8 9JS","la":"Westmorland and Furness","era":"other","nn":1578,"risk":51,"cat":"amber"},{"name":"The Wilson Arms","lat":54.33812,"lon":-3.10326,"postcode":"LA21 8BB","la":"Westmorland and Furness","era":"trad","nn":79,"risk":38,"cat":"amber"},{"name":"Theatre Bar","lat":54.11389,"lon":-3.2268,"postcode":"LA14 1QD","la":"Westmorland and Furness","era":"other","nn":0,"risk":17,"cat":"green"},{"name":"Three Shires Inn","lat":54.42142,"lon":-3.05473,"postcode":"LA22 9NZ","la":"Westmorland and Furness","era":"trad","nn":1817,"risk":53,"cat":"amber"},{"name":"Town Head Estate","lat":54.28143,"lon":-2.94817,"postcode":"LA12 8NP","la":"Westmorland and Furness","era":"trad","nn":3537,"risk":65,"cat":"red"},{"name":"Traveller's Rest Inn","lat":54.47218,"lon":-3.02342,"postcode":"LA22 9RR","la":"Westmorland and Furness","era":"trad","nn":4127,"risk":69,"cat":"red"},{"name":"Ulverston Golf Club","lat":54.16841,"lon":-3.07134,"postcode":"LA12 9QJ","la":"Westmorland and Furness","era":"other","nn":1205,"risk":48,"cat":"amber"},{"name":"Ulverston Sports & Recreation Assoc","lat":54.1856,"lon":-3.08605,"postcode":"LA12 9HT","la":"Westmorland and Furness","era":"other","nn":164,"risk":36,"cat":"amber"},{"name":"Vickerstown Cricket Club","lat":54.10967,"lon":-3.2611,"postcode":"LA14 3ND","la":"Westmorland and Furness","era":"other","nn":418,"risk":20,"cat":"green"},{"name":"Victoria Tavern","lat":54.12344,"lon":-3.22189,"postcode":"LA14 5QL","la":"Westmorland and Furness","era":"trad","nn":405,"risk":20,"cat":"green"},{"name":"Wainwrights Inn","lat":54.43639,"lon":-3.04041,"postcode":"LA22 9JD","la":"Westmorland and Furness","era":"trad","nn":269,"risk":39,"cat":"amber"},{"name":"Walney Central Rugby Club House","lat":54.10716,"lon":-3.25493,"postcode":"LA14 3HY","la":"Westmorland and Furness","era":"other","nn":181,"risk":19,"cat":"green"},{"name":"Walney Marine Club","lat":54.10833,"lon":-3.24773,"postcode":"LA14 3PE","la":"Westmorland and Furness","era":"other","nn":0,"risk":17,"cat":"green"},{"name":"Wellington Inn","lat":54.18583,"lon":-3.13522,"postcode":"LA12 0JL","la":"Westmorland and Furness","era":"trad","nn":1235,"risk":48,"cat":"amber"},{"name":"West Shore Bowling Club","lat":54.09498,"lon":-3.25574,"postcode":"LA14 3YF","la":"Westmorland and Furness","era":"other","nn":0,"risk":37,"cat":"amber"},{"name":"White Hart Hotel","lat":54.32738,"lon":-2.74784,"postcode":"LA9 4SX","la":"Westmorland and Furness","era":"trad","nn":0,"risk":17,"cat":"green"},{"name":"White Hart Inn","lat":54.26125,"lon":-3.03279,"postcode":"LA12 8JB","la":"Westmorland and Furness","era":"trad","nn":1969,"risk":54,"cat":"amber"},{"name":"White Harts Sports Club","lat":54.32359,"lon":-2.52775,"postcode":"LA10 5BL","la":"Westmorland and Furness","era":"trad","nn":0,"risk":20,"cat":"green"},{"name":"White Horse Inn","lat":54.15566,"lon":-3.18521,"postcode":"LA15 8AT","la":"Westmorland and Furness","era":"trad","nn":35,"risk":18,"cat":"green"},{"name":"White Lion Hotel","lat":54.11132,"lon":-3.22348,"postcode":"LA14 2HP","la":"Westmorland and Furness","era":"trad","nn":64,"risk":18,"cat":"green"},{"name":"Windermere Golf Club","lat":54.35778,"lon":-2.89522,"postcode":"LA23 3NB","la":"Westmorland and Furness","era":"other","nn":1662,"risk":51,"cat":"amber"},{"name":"Windermere Motor Boat Racing Club","lat":54.33131,"lon":-2.93475,"postcode":"LA23 3LJ","la":"Westmorland and Furness","era":"other","nn":2511,"risk":57,"cat":"amber"},{"name":"Windermere Rugby Club","lat":54.36748,"lon":-2.91807,"postcode":"LA23 3AS","la":"Westmorland and Furness","era":"other","nn":114,"risk":18,"cat":"green"},{"name":"Windermere Social Club","lat":54.37504,"lon":-2.90885,"postcode":"LA23 2LA","la":"Westmorland and Furness","era":"mod","nn":508,"risk":38,"cat":"amber"},{"name":"Windsors Eating House @ Newton Arms","lat":54.14975,"lon":-3.18445,"postcode":"LA15 8LS","la":"Westmorland and Furness","era":"other","nn":508,"risk":21,"cat":"green"},{"name":"Ye Olde Fighting Cocks","lat":54.20308,"lon":-2.83357,"postcode":"LA5 0HD","la":"Westmorland and Furness","era":"other","nn":124,"risk":36,"cat":"amber"},{"name":"Ye Olde Fleece Inn","lat":54.32729,"lon":-2.74782,"postcode":"LA9 4SX","la":"Westmorland and Furness","era":"trad","nn":10,"risk":17,"cat":"green"},{"name":"Ye Olde John Peel","lat":54.36554,"lon":-2.91983,"postcode":"LA23 3BZ","la":"Westmorland and Furness","era":"other","nn":70,"risk":18,"cat":"green"},{"name":"Zoes Kitchen","lat":54.36505,"lon":-2.92146,"postcode":"LA23 3DJ","la":"Westmorland and Furness","era":"mod","nn":29,"risk":18,"cat":"green"}]