[{"name":"Galley Hall","lat":51.77938,"lon":-0.01775,"postcode":"SG13 7NY","la":"Broxbourne","era":"other","nn":1282,"risk":60,"cat":"amber"},{"name":"Arlesey Town Football Club","lat":51.99267,"lon":-0.2666,"postcode":"SG15 6SE","la":"Central Bedfordshire","era":"other","nn":1437,"risk":58,"cat":"amber"},{"name":"Biggleswade & District Conservative Club","lat":52.08641,"lon":-0.26677,"postcode":"SG18 8BA","la":"Central Bedfordshire","era":"other","nn":122,"risk":26,"cat":"green"},{"name":"Biggleswade RUF & Associated Clubs","lat":52.06837,"lon":-0.26961,"postcode":"SG18 9RA","la":"Central Bedfordshire","era":"other","nn":896,"risk":52,"cat":"amber"},{"name":"Biggleswade Town Cricket Club","lat":52.09498,"lon":-0.26603,"postcode":"SG18 0AA","la":"Central Bedfordshire","era":"other","nn":751,"risk":31,"cat":"amber"},{"name":"Bird in Hand","lat":52.00688,"lon":-0.30432,"postcode":"SG16 6DZ","la":"Central Bedfordshire","era":"other","nn":2344,"risk":64,"cat":"red"},{"name":"Fairfield Bowls Club","lat":52.00215,"lon":-0.24798,"postcode":"SG5 4FX","la":"Central Bedfordshire","era":"other","nn":1252,"risk":57,"cat":"amber"},{"name":"Flutters Leisure Ltd","lat":52.08505,"lon":-0.26193,"postcode":"SG18 8AL","la":"Central Bedfordshire","era":"other","nn":221,"risk":27,"cat":"green"},{"name":"Ickwell Cricket Club","lat":52.09483,"lon":-0.32103,"postcode":"SG18 9EE","la":"Central Bedfordshire","era":"other","nn":1121,"risk":56,"cat":"amber"},{"name":"John O'Gaunt Golf Club","lat":52.1166,"lon":-0.2232,"postcode":"SG19 2LY","la":"Central Bedfordshire","era":"other","nn":870,"risk":52,"cat":"amber"},{"name":"Langford Football Club","lat":52.0425,"lon":-0.28491,"postcode":"SG16 6AG","la":"Central Bedfordshire","era":"other","nn":682,"risk":50,"cat":"amber"},{"name":"Rising Sun","lat":52.13153,"lon":-0.21566,"postcode":"SG19 2PA","la":"Central Bedfordshire","era":"other","nn":431,"risk":34,"cat":"amber"},{"name":"Roundabout Club","lat":52.12873,"lon":-0.28977,"postcode":"SG19 1EJ","la":"Central Bedfordshire","era":"other","nn":208,"risk":27,"cat":"green"},{"name":"Sir William Peel","lat":52.12803,"lon":-0.28608,"postcode":"SG19 1AG","la":"Central Bedfordshire","era":"other","nn":61,"risk":26,"cat":"green"},{"name":"Spice Lounge","lat":52.05495,"lon":-0.27212,"postcode":"SG18 9NX","la":"Central Bedfordshire","era":"mod","nn":613,"risk":50,"cat":"amber"},{"name":"Stotfold Conservative Club","lat":52.01991,"lon":-0.22713,"postcode":"SG5 4DZ","la":"Central Bedfordshire","era":"other","nn":716,"risk":36,"cat":"amber"},{"name":"The Admiral","lat":52.0358,"lon":-0.30303,"postcode":"SG17 5RJ","la":"Central Bedfordshire","era":"other","nn":83,"risk":46,"cat":"amber"},{"name":"The Bell","lat":52.12521,"lon":-0.28197,"postcode":"SG19 1AW","la":"Central Bedfordshire","era":"other","nn":421,"risk":31,"cat":"amber"},{"name":"The Black Horse","lat":52.06002,"lon":-0.3484,"postcode":"SG17 5QL","la":"Central Bedfordshire","era":"trad","nn":1503,"risk":59,"cat":"amber"},{"name":"The Brewery Tap","lat":52.03961,"lon":-0.33422,"postcode":"SG17 5DH","la":"Central Bedfordshire","era":"mod","nn":93,"risk":31,"cat":"amber"},{"name":"The Bridge","lat":52.03791,"lon":-0.3364,"postcode":"SG17 5DG","la":"Central Bedfordshire","era":"other","nn":133,"risk":32,"cat":"amber"},{"name":"The Chequers","lat":52.01391,"lon":-0.22247,"postcode":"SG5 4NX","la":"Central Bedfordshire","era":"other","nn":591,"risk":47,"cat":"amber"},{"name":"The Chequers","lat":52.11063,"lon":-0.16452,"postcode":"SG19 2EP","la":"Central Bedfordshire","era":"other","nn":3399,"risk":72,"cat":"red"},{"name":"The Coach House","lat":52.1277,"lon":-0.21421,"postcode":"SG19 2NP","la":"Central Bedfordshire","era":"trad","nn":70,"risk":31,"cat":"amber"},{"name":"The Cock Inn (Broom) Ltd","lat":52.07381,"lon":-0.29113,"postcode":"SG18 9NA","la":"Central Bedfordshire","era":"trad","nn":1590,"risk":59,"cat":"amber"},{"name":"The Cornerstone","lat":52.03815,"lon":-0.33449,"postcode":"SG17 5DD","la":"Central Bedfordshire","era":"other","nn":107,"risk":31,"cat":"amber"},{"name":"The Crown","lat":51.99274,"lon":-0.36053,"postcode":"SG5 3LP","la":"Central Bedfordshire","era":"trad","nn":1440,"risk":58,"cat":"amber"},{"name":"The Crown","lat":52.02908,"lon":-0.28588,"postcode":"SG16 6BS","la":"Central Bedfordshire","era":"trad","nn":213,"risk":45,"cat":"amber"},{"name":"The Crown","lat":52.10485,"lon":-0.32281,"postcode":"SG18 9AA","la":"Central Bedfordshire","era":"trad","nn":1121,"risk":56,"cat":"amber"},{"name":"The Crown Hotel","lat":52.08707,"lon":-0.26534,"postcode":"SG18 0JE","la":"Central Bedfordshire","era":"trad","nn":107,"risk":26,"cat":"green"},{"name":"The Engineers Arms","lat":52.03099,"lon":-0.28603,"postcode":"SG16 6AA","la":"Central Bedfordshire","era":"trad","nn":213,"risk":45,"cat":"amber"},{"name":"The Five Bells","lat":52.03642,"lon":-0.28625,"postcode":"SG16 6AE","la":"Central Bedfordshire","era":"other","nn":605,"risk":35,"cat":"amber"},{"name":"The Four Horsemen","lat":52.12837,"lon":-0.28679,"postcode":"SG19 1AG","la":"Central Bedfordshire","era":"trad","nn":61,"risk":26,"cat":"green"},{"name":"The Fox & Duck","lat":52.01812,"lon":-0.23962,"postcode":"SG5 4HE","la":"Central Bedfordshire","era":"trad","nn":744,"risk":48,"cat":"amber"},{"name":"The George & Dragon","lat":52.12794,"lon":-0.21326,"postcode":"SG19 2QT","la":"Central Bedfordshire","era":"trad","nn":70,"risk":31,"cat":"amber"},{"name":"The Golden Lion","lat":52.03649,"lon":-0.30258,"postcode":"SG17 5ES","la":"Central Bedfordshire","era":"trad","nn":83,"risk":46,"cat":"amber"},{"name":"The Golden Pheasant","lat":52.08704,"lon":-0.26317,"postcode":"SG18 0JH","la":"Central Bedfordshire","era":"other","nn":0,"risk":26,"cat":"green"},{"name":"The Green Man","lat":52.05556,"lon":-0.312,"postcode":"SG18 9JD","la":"Central Bedfordshire","era":"other","nn":1316,"risk":57,"cat":"amber"},{"name":"The Hare & Hounds","lat":52.08117,"lon":-0.34178,"postcode":"SG18 9HQ","la":"Central Bedfordshire","era":"trad","nn":2077,"risk":63,"cat":"red"},{"name":"The John O'Gaunt","lat":52.111,"lon":-0.21429,"postcode":"SG19 2NE","la":"Central Bedfordshire","era":"other","nn":870,"risk":52,"cat":"amber"},{"name":"The Kings Arms","lat":52.13058,"lon":-0.29929,"postcode":"SG19 1HA","la":"Central Bedfordshire","era":"trad","nn":681,"risk":33,"cat":"amber"},{"name":"The Kings Reach","lat":52.10046,"lon":-0.24664,"postcode":"SG18 0EL","la":"Central Bedfordshire","era":"trad","nn":1457,"risk":58,"cat":"amber"},{"name":"The March Hare","lat":52.08207,"lon":-0.19716,"postcode":"SG18 8RN","la":"Central Bedfordshire","era":"other","nn":3423,"risk":72,"cat":"red"},{"name":"The Musgrave Arms","lat":51.98082,"lon":-0.36876,"postcode":"SG5 3LX","la":"Central Bedfordshire","era":"trad","nn":1440,"risk":58,"cat":"amber"},{"name":"The Old Oak","lat":52.0245,"lon":-0.26413,"postcode":"SG15 6UX","la":"Central Bedfordshire","era":"trad","nn":911,"risk":52,"cat":"amber"},{"name":"The Pembroke Arms","lat":52.08471,"lon":-0.26564,"postcode":"SG18 8BE","la":"Central Bedfordshire","era":"trad","nn":189,"risk":27,"cat":"green"},{"name":"The Plough","lat":52.06031,"lon":-0.27005,"postcode":"SG18 9QA","la":"Central Bedfordshire","era":"trad","nn":613,"risk":47,"cat":"amber"},{"name":"The Queens Head","lat":52.12916,"lon":-0.2866,"postcode":"SG19 1JE","la":"Central Bedfordshire","era":"trad","nn":89,"risk":26,"cat":"green"},{"name":"The Rose Inn","lat":52.08704,"lon":-0.26317,"postcode":"SG18 0JH","la":"Central Bedfordshire","era":"trad","nn":0,"risk":26,"cat":"green"},{"name":"The Royal Oak","lat":52.12669,"lon":-0.21759,"postcode":"SG19 2LU","la":"Central Bedfordshire","era":"trad","nn":256,"risk":32,"cat":"amber"},{"name":"The Stag","lat":52.01395,"lon":-0.23111,"postcode":"SG5 4LA","la":"Central Bedfordshire","era":"trad","nn":591,"risk":35,"cat":"amber"},{"name":"The Sugar Loaf","lat":52.01698,"lon":-0.33992,"postcode":"SG17 5LX","la":"Central Bedfordshire","era":"other","nn":1577,"risk":59,"cat":"amber"},{"name":"The Thornton Arms","lat":52.14558,"lon":-0.24405,"postcode":"SG19 2LD","la":"Central Bedfordshire","era":"trad","nn":2489,"risk":66,"cat":"red"},{"name":"The True Briton","lat":52.00559,"lon":-0.2667,"postcode":"SG15 6RL","la":"Central Bedfordshire","era":"other","nn":1210,"risk":57,"cat":"amber"},{"name":"The Vanilla Alternative Ltd","lat":52.1725,"lon":-0.30159,"postcode":"SG19 2AS","la":"Central Bedfordshire","era":"other","nn":2988,"risk":69,"cat":"red"},{"name":"The Venue","lat":52.08714,"lon":-0.26277,"postcode":"SG18 0JH","la":"Central Bedfordshire","era":"other","nn":29,"risk":26,"cat":"green"},{"name":"The Wheatsheaf","lat":52.08922,"lon":-0.2603,"postcode":"SG18 0LS","la":"Central Bedfordshire","era":"trad","nn":287,"risk":28,"cat":"green"},{"name":"The White Hart","lat":52.0389,"lon":-0.33351,"postcode":"SG17 5DH","la":"Central Bedfordshire","era":"trad","nn":93,"risk":31,"cat":"amber"},{"name":"The White Hart","lat":52.08626,"lon":-0.2645,"postcode":"SG18 8AS","la":"Central Bedfordshire","era":"trad","nn":107,"risk":26,"cat":"green"},{"name":"The White Hart","lat":52.02841,"lon":-0.35356,"postcode":"SG17 5NX","la":"Central Bedfordshire","era":"trad","nn":1577,"risk":59,"cat":"amber"},{"name":"The White Horse","lat":52.01631,"lon":-0.26361,"postcode":"SG15 6TA","la":"Central Bedfordshire","era":"trad","nn":911,"risk":52,"cat":"amber"},{"name":"The White Horse","lat":52.06301,"lon":-0.32696,"postcode":"SG18 9LD","la":"Central Bedfordshire","era":"trad","nn":1316,"risk":57,"cat":"amber"},{"name":"The Yorkshire Grey","lat":52.08313,"lon":-0.25212,"postcode":"SG18 8EL","la":"Central Bedfordshire","era":"other","nn":703,"risk":31,"cat":"amber"},{"name":"Angel Public House","lat":51.80994,"lon":-0.0236,"postcode":"SG12 7AQ","la":"East Hertfordshire","era":"trad","nn":354,"risk":27,"cat":"green"},{"name":"Ash Valley Golf Club","lat":51.86744,"lon":0.07179,"postcode":"SG10 6HD","la":"East Hertfordshire","era":"other","nn":2616,"risk":65,"cat":"red"},{"name":"Bengeo Working Mens Club","lat":51.80395,"lon":-0.08136,"postcode":"SG14 3ES","la":"East Hertfordshire","era":"trad","nn":132,"risk":25,"cat":"green"},{"name":"Black Bull","lat":51.94647,"lon":-0.01855,"postcode":"SG9 9AG","la":"East Hertfordshire","era":"trad","nn":50,"risk":29,"cat":"green"},{"name":"Blackbirds","lat":51.79545,"lon":-0.0782,"postcode":"SG14 1EX","la":"East Hertfordshire","era":"other","nn":38,"risk":24,"cat":"green"},{"name":"Buntingford And District Social Club","lat":51.94824,"lon":-0.01865,"postcode":"SG9 9AS","la":"East Hertfordshire","era":"mod","nn":196,"risk":30,"cat":"green"},{"name":"Buntingford Bowls Club","lat":51.95073,"lon":-0.01833,"postcode":"SG9 9AT","la":"East Hertfordshire","era":"other","nn":278,"risk":31,"cat":"amber"},{"name":"Buntingford Football Corporation Ltd","lat":51.93636,"lon":-0.00958,"postcode":"SG9 9HZ","la":"East Hertfordshire","era":"other","nn":929,"risk":51,"cat":"amber"},{"name":"Castle Snooker Club","lat":51.79653,"lon":-0.07793,"postcode":"SG14 1DN","la":"East Hertfordshire","era":"other","nn":47,"risk":24,"cat":"green"},{"name":"Chequers Inn","lat":51.82146,"lon":0.02332,"postcode":"SG12 7QY","la":"East Hertfordshire","era":"trad","nn":44,"risk":44,"cat":"amber"},{"name":"Cinnabar Cafe","lat":51.79616,"lon":-0.0756,"postcode":"SG14 1AB","la":"East Hertfordshire","era":"other","nn":0,"risk":24,"cat":"green"},{"name":"Cowper Arms","lat":51.78607,"lon":-0.142,"postcode":"SG14 2NL","la":"East Hertfordshire","era":"trad","nn":2585,"risk":65,"cat":"red"},{"name":"Crown And Falcon Inn","lat":51.89094,"lon":0.01326,"postcode":"SG11 1RN","la":"East Hertfordshire","era":"trad","nn":239,"risk":43,"cat":"amber"},{"name":"Datchworth Sports Club","lat":51.8495,"lon":-0.1616,"postcode":"SG3 6TL","la":"East Hertfordshire","era":"other","nn":0,"risk":42,"cat":"amber"},{"name":"Deco Restaurant & Lounge","lat":51.79548,"lon":-0.07875,"postcode":"SG14 1EZ","la":"East Hertfordshire","era":"mod","nn":0,"risk":24,"cat":"green"},{"name":"Dog & Whistle","lat":51.79616,"lon":-0.0756,"postcode":"SG14 1AB","la":"East Hertfordshire","era":"other","nn":0,"risk":24,"cat":"green"},{"name":"East Herts Golf Club","lat":51.9028,"lon":-0.00236,"postcode":"SG9 9NA","la":"East Hertfordshire","era":"other","nn":1557,"risk":57,"cat":"amber"},{"name":"Enoteca","lat":51.81153,"lon":-0.03218,"postcode":"SG12 9EE","la":"East Hertfordshire","era":"other","nn":3,"risk":24,"cat":"green"},{"name":"Five Horseshoes","lat":51.75333,"lon":-0.12964,"postcode":"SG13 8LY","la":"East Hertfordshire","era":"trad","nn":900,"risk":50,"cat":"amber"},{"name":"Fox And Hounds","lat":51.80739,"lon":0.05362,"postcode":"SG12 8NH","la":"East Hertfordshire","era":"trad","nn":129,"risk":45,"cat":"amber"},{"name":"George And Dragon","lat":51.85737,"lon":-0.11237,"postcode":"SG14 3TA","la":"East Hertfordshire","era":"trad","nn":216,"risk":46,"cat":"amber"},{"name":"George The Fourth","lat":51.79476,"lon":-0.01287,"postcode":"SG12 9SW","la":"East Hertfordshire","era":"trad","nn":993,"risk":51,"cat":"amber"},{"name":"Great Eastern Tavern","lat":51.79916,"lon":-0.06853,"postcode":"SG13 7BS","la":"East Hertfordshire","era":"other","nn":83,"risk":25,"cat":"green"},{"name":"Hale Club","lat":51.8021,"lon":-0.03475,"postcode":"SG12 9NZ","la":"East Hertfordshire","era":"other","nn":572,"risk":28,"cat":"green"},{"name":"Hertford Baptist Church","lat":51.79905,"lon":-0.08248,"postcode":"SG14 1PL","la":"East Hertfordshire","era":"other","nn":257,"risk":26,"cat":"green"},{"name":"Hertford Bell","lat":51.79713,"lon":-0.07607,"postcode":"SG14 1BA","la":"East Hertfordshire","era":"other","nn":68,"risk":25,"cat":"green"},{"name":"High Oak Public House","lat":51.81621,"lon":-0.02899,"postcode":"SG12 7PD","la":"East Hertfordshire","era":"trad","nn":170,"risk":25,"cat":"green"},{"name":"Jolly Fisherman","lat":51.78753,"lon":0.00242,"postcode":"SG12 8DH","la":"East Hertfordshire","era":"other","nn":215,"risk":26,"cat":"green"},{"name":"Jungle Bar","lat":51.7973,"lon":-0.07397,"postcode":"SG14 1AX","la":"East Hertfordshire","era":"other","nn":77,"risk":25,"cat":"green"},{"name":"Kings Mead","lat":51.80494,"lon":-0.04169,"postcode":"SG12 9LE","la":"East Hertfordshire","era":"trad","nn":572,"risk":28,"cat":"green"},{"name":"Kitchen/Clubhouse","lat":51.85625,"lon":0.1053,"postcode":"SG10 6JE","la":"East Hertfordshire","era":"mod","nn":1409,"risk":56,"cat":"amber"},{"name":"Lea Valley Shooting Ground","lat":51.80818,"lon":-0.10696,"postcode":"SG14 2HZ","la":"East Hertfordshire","era":"other","nn":1041,"risk":54,"cat":"amber"},{"name":"Lee & Stort Cruising Club","lat":51.7911,"lon":0.0003,"postcode":"SG12 8DR","la":"East Hertfordshire","era":"other","nn":423,"risk":27,"cat":"green"},{"name":"Lord Haig","lat":51.79724,"lon":-0.07509,"postcode":"SG14 1AZ","la":"East Hertfordshire","era":"other","nn":68,"risk":25,"cat":"green"},{"name":"Lunch Club","lat":51.79633,"lon":-0.08171,"postcode":"SG14 1HZ","la":"East Hertfordshire","era":"other","nn":63,"risk":24,"cat":"green"},{"name":"Old Bulls Head","lat":51.8128,"lon":-0.0343,"postcode":"SG12 9DZ","la":"East Hertfordshire","era":"trad","nn":179,"risk":25,"cat":"green"},{"name":"Old Cross Tavern","lat":51.79673,"lon":-0.08235,"postcode":"SG14 1JA","la":"East Hertfordshire","era":"trad","nn":63,"risk":24,"cat":"green"},{"name":"Popworld","lat":51.79693,"lon":-0.07812,"postcode":"SG14 1DY","la":"East Hertfordshire","era":"other","nn":29,"risk":24,"cat":"green"},{"name":"Prince Of Wales","lat":51.84561,"lon":0.09416,"postcode":"SG10 6JP","la":"East Hertfordshire","era":"trad","nn":1409,"risk":56,"cat":"amber"},{"name":"Punch House","lat":51.81153,"lon":-0.03222,"postcode":"SG12 9EE","la":"East Hertfordshire","era":"other","nn":3,"risk":24,"cat":"green"},{"name":"Rifle Volunteer","lat":51.81472,"lon":-0.02844,"postcode":"SG12 7LY","la":"East Hertfordshire","era":"other","nn":170,"risk":25,"cat":"green"},{"name":"Robin Hood & Little John","lat":51.8377,"lon":-0.0658,"postcode":"SG12 0HN","la":"East Hertfordshire","era":"other","nn":2596,"risk":65,"cat":"red"},{"name":"Rose And Crown","lat":51.81472,"lon":-0.03744,"postcode":"SG12 0AD","la":"East Hertfordshire","era":"trad","nn":0,"risk":24,"cat":"green"},{"name":"Royal British Legion","lat":51.81429,"lon":-0.03528,"postcode":"SG12 0AG","la":"East Hertfordshire","era":"trad","nn":156,"risk":25,"cat":"green"},{"name":"Royal Oak Public House","lat":51.80728,"lon":-0.0292,"postcode":"SG12 9LP","la":"East Hertfordshire","era":"trad","nn":186,"risk":25,"cat":"green"},{"name":"Salisbury Arms Hotel","lat":51.79584,"lon":-0.07779,"postcode":"SG14 1BZ","la":"East Hertfordshire","era":"trad","nn":52,"risk":24,"cat":"green"},{"name":"Saracens Head","lat":51.79841,"lon":-0.06863,"postcode":"SG13 7EB","la":"East Hertfordshire","era":"trad","nn":83,"risk":25,"cat":"green"},{"name":"Shades Snooker Club","lat":51.79548,"lon":-0.07875,"postcode":"SG14 1EZ","la":"East Hertfordshire","era":"other","nn":0,"risk":24,"cat":"green"},{"name":"Spread Eagle","lat":51.80894,"lon":-0.02961,"postcode":"SG12 9HP","la":"East Hertfordshire","era":"trad","nn":37,"risk":24,"cat":"green"},{"name":"St Margaretsbury Sports And Social Club","lat":51.78583,"lon":-0.00231,"postcode":"SG12 8EH","la":"East Hertfordshire","era":"mod","nn":376,"risk":27,"cat":"green"},{"name":"Standon And Puckeridge Community Centre","lat":51.88833,"lon":0.01925,"postcode":"SG11 1TF","la":"East Hertfordshire","era":"other","nn":503,"risk":30,"cat":"green"},{"name":"Stanstead Abbotts And St. Margaret's Village Club","lat":51.78793,"lon":0.00785,"postcode":"SG12 8AB","la":"East Hertfordshire","era":"other","nn":109,"risk":25,"cat":"green"},{"name":"Star Public House","lat":51.88114,"lon":0.02658,"postcode":"SG11 1LB","la":"East Hertfordshire","era":"other","nn":188,"risk":43,"cat":"amber"},{"name":"Thai Garden @ Greyhound","lat":51.80863,"lon":-0.08105,"postcode":"SG14 3EY","la":"East Hertfordshire","era":"trad","nn":0,"risk":29,"cat":"green"},{"name":"The Baker Arms","lat":51.75759,"lon":-0.10574,"postcode":"SG13 8PX","la":"East Hertfordshire","era":"trad","nn":1712,"risk":59,"cat":"amber"},{"name":"The Beehive","lat":51.74596,"lon":-0.12426,"postcode":"SG13 8NB","la":"East Hertfordshire","era":"other","nn":900,"risk":50,"cat":"amber"},{"name":"The Beehive","lat":51.95796,"lon":0.02542,"postcode":"SG9 0DX","la":"East Hertfordshire","era":"other","nn":3104,"risk":68,"cat":"red"},{"name":"The Bell","lat":51.88276,"lon":0.02735,"postcode":"SG11 1LA","la":"East Hertfordshire","era":"other","nn":188,"risk":43,"cat":"amber"},{"name":"The Black Horse PH","lat":51.79305,"lon":-0.08391,"postcode":"SG13 8EZ","la":"East Hertfordshire","era":"trad","nn":133,"risk":25,"cat":"green"},{"name":"The Boot","lat":51.8751,"lon":-0.06466,"postcode":"SG12 0LH","la":"East Hertfordshire","era":"other","nn":2829,"risk":66,"cat":"red"},{"name":"The Brewery Tap","lat":51.81114,"lon":-0.03321,"postcode":"SG12 9AD","la":"East Hertfordshire","era":"mod","nn":81,"risk":25,"cat":"green"},{"name":"The Brewery Tap","lat":51.9291,"lon":0.08704,"postcode":"SG9 0LL","la":"East Hertfordshire","era":"mod","nn":1868,"risk":60,"cat":"amber"},{"name":"The Brown Bear","lat":51.91041,"lon":0.03044,"postcode":"SG11 2QT","la":"East Hertfordshire","era":"other","nn":471,"risk":47,"cat":"amber"},{"name":"The Bull","lat":51.85662,"lon":-0.10947,"postcode":"SG14 3SB","la":"East Hertfordshire","era":"trad","nn":216,"risk":46,"cat":"amber"},{"name":"The Bull Inn","lat":51.94716,"lon":-0.08041,"postcode":"SG9 9QP","la":"East Hertfordshire","era":"trad","nn":2459,"risk":64,"cat":"red"},{"name":"The Catherine Wheel","lat":51.91247,"lon":0.09089,"postcode":"SG11 2LW","la":"East Hertfordshire","era":"other","nn":1868,"risk":60,"cat":"amber"},{"name":"The Crooked Billet","lat":51.81797,"lon":-0.02489,"postcode":"SG12 7NL","la":"East Hertfordshire","era":"other","nn":343,"risk":26,"cat":"green"},{"name":"The Crown","lat":51.9462,"lon":-0.01914,"postcode":"SG9 9AB","la":"East Hertfordshire","era":"trad","nn":50,"risk":29,"cat":"green"},{"name":"The Crown","lat":51.90153,"lon":-0.15105,"postcode":"SG2 7HD","la":"East Hertfordshire","era":"trad","nn":935,"risk":51,"cat":"amber"},{"name":"The Crown","lat":51.80768,"lon":0.05544,"postcode":"SG12 8NZ","la":"East Hertfordshire","era":"trad","nn":129,"risk":45,"cat":"amber"},{"name":"The Feathers Inn","lat":51.83993,"lon":-0.0282,"postcode":"SG12 0TN","la":"East Hertfordshire","era":"trad","nn":2453,"risk":64,"cat":"red"},{"name":"The Fox","lat":51.93583,"lon":-0.02311,"postcode":"SG9 9PD","la":"East Hertfordshire","era":"trad","nn":929,"risk":51,"cat":"amber"},{"name":"The Goat Public House","lat":51.78743,"lon":-0.0443,"postcode":"SG13 7RT","la":"East Hertfordshire","era":"other","nn":611,"risk":48,"cat":"amber"},{"name":"The Golden Fleece","lat":51.90865,"lon":0.0242,"postcode":"SG11 2PG","la":"East Hertfordshire","era":"trad","nn":471,"risk":47,"cat":"amber"},{"name":"The Golden Griffin","lat":51.79939,"lon":-0.10177,"postcode":"SG14 2DQ","la":"East Hertfordshire","era":"trad","nn":1024,"risk":54,"cat":"amber"},{"name":"The Grandison","lat":51.82506,"lon":-0.12925,"postcode":"SG14 2QL","la":"East Hertfordshire","era":"other","nn":2005,"risk":61,"cat":"red"},{"name":"The Green Man","lat":51.82421,"lon":0.05929,"postcode":"SG12 8SR","la":"East Hertfordshire","era":"other","nn":1857,"risk":60,"cat":"amber"},{"name":"The Grey Hound Public House","lat":51.80863,"lon":-0.08105,"postcode":"SG14 3EY","la":"East Hertfordshire","era":"trad","nn":0,"risk":29,"cat":"green"},{"name":"The Hertford Club","lat":51.79713,"lon":-0.07784,"postcode":"SG14 1DT","la":"East Hertfordshire","era":"other","nn":29,"risk":24,"cat":"green"},{"name":"The Hop Box","lat":51.8092,"lon":-0.02993,"postcode":"SG12 9HW","la":"East Hertfordshire","era":"other","nn":37,"risk":24,"cat":"green"},{"name":"The Horns","lat":51.84082,"lon":-0.15641,"postcode":"SG3 6RZ","la":"East Hertfordshire","era":"other","nn":882,"risk":50,"cat":"amber"},{"name":"The Jolly Waggoners","lat":51.92756,"lon":-0.09699,"postcode":"SG2 7AH","la":"East Hertfordshire","era":"other","nn":2459,"risk":64,"cat":"red"},{"name":"The Lordship Arms","lat":51.88836,"lon":-0.09984,"postcode":"SG2 7BX","la":"East Hertfordshire","era":"trad","nn":2829,"risk":66,"cat":"red"},{"name":"The Maltings","lat":51.81472,"lon":-0.03744,"postcode":"SG12 0AD","la":"East Hertfordshire","era":"other","nn":0,"risk":24,"cat":"green"},{"name":"The Millstream","lat":51.80003,"lon":-0.08692,"postcode":"SG14 3AF","la":"East Hertfordshire","era":"trad","nn":324,"risk":26,"cat":"green"},{"name":"The Oak","lat":51.78815,"lon":0.00539,"postcode":"SG12 8AG","la":"East Hertfordshire","era":"trad","nn":171,"risk":25,"cat":"green"},{"name":"The Old Barge","lat":51.79835,"lon":-0.07797,"postcode":"SG14 1QD","la":"East Hertfordshire","era":"other","nn":137,"risk":25,"cat":"green"},{"name":"The Pig And Whistle","lat":51.88867,"lon":-0.14733,"postcode":"SG2 7DY","la":"East Hertfordshire","era":"other","nn":1044,"risk":54,"cat":"amber"},{"name":"The Plough","lat":51.8495,"lon":-0.1616,"postcode":"SG3 6TL","la":"East Hertfordshire","era":"trad","nn":0,"risk":42,"cat":"amber"},{"name":"The Practitioner","lat":51.7961,"lon":-0.0766,"postcode":"SG14 1BY","la":"East Hertfordshire","era":"other","nn":62,"risk":24,"cat":"green"},{"name":"The Red Lion","lat":51.7889,"lon":0.00783,"postcode":"SG12 8AA","la":"East Hertfordshire","era":"trad","nn":109,"risk":25,"cat":"green"},{"name":"The Saracen's Head","lat":51.80992,"lon":-0.02964,"postcode":"SG12 9BS","la":"East Hertfordshire","era":"trad","nn":61,"risk":24,"cat":"green"},{"name":"The Silver Fox","lat":51.78198,"lon":-0.0454,"postcode":"SG13 7RH","la":"East Hertfordshire","era":"trad","nn":611,"risk":48,"cat":"amber"},{"name":"The Six Templars","lat":51.79601,"lon":-0.07913,"postcode":"SG14 1PS","la":"East Hertfordshire","era":"other","nn":65,"risk":24,"cat":"green"},{"name":"The Snug","lat":51.8107,"lon":-0.03015,"postcode":"SG12 9BY","la":"East Hertfordshire","era":"other","nn":93,"risk":25,"cat":"green"},{"name":"The Three Horseshoes P. H.","lat":51.86943,"lon":-0.14321,"postcode":"SG14 3RY","la":"East Hertfordshire","era":"trad","nn":1245,"risk":55,"cat":"amber"},{"name":"The Tilbury","lat":51.84866,"lon":-0.15828,"postcode":"SG3 6TB","la":"East Hertfordshire","era":"other","nn":246,"risk":31,"cat":"amber"},{"name":"The Waterside Inn","lat":51.80995,"lon":-0.02875,"postcode":"SG12 9DW","la":"East Hertfordshire","era":"trad","nn":61,"risk":24,"cat":"green"},{"name":"The White Hart","lat":51.89305,"lon":0.01392,"postcode":"SG11 1RR","la":"East Hertfordshire","era":"trad","nn":239,"risk":43,"cat":"amber"},{"name":"The White Hart","lat":51.79654,"lon":-0.07715,"postcode":"SG14 1BW","la":"East Hertfordshire","era":"trad","nn":54,"risk":24,"cat":"green"},{"name":"The White Horse","lat":51.79449,"lon":-0.08014,"postcode":"SG14 1HH","la":"East Hertfordshire","era":"trad","nn":145,"risk":25,"cat":"green"},{"name":"The White Horse","lat":51.82124,"lon":0.0228,"postcode":"SG12 7QX","la":"East Hertfordshire","era":"trad","nn":44,"risk":44,"cat":"amber"},{"name":"The White Lion","lat":51.80513,"lon":-0.08154,"postcode":"SG14 3ET","la":"East Hertfordshire","era":"trad","nn":132,"risk":25,"cat":"green"},{"name":"The Woolpack","lat":51.79699,"lon":-0.08002,"postcode":"SG14 1PZ","la":"East Hertfordshire","era":"trad","nn":125,"risk":25,"cat":"green"},{"name":"Wallfields Bowls Ltd","lat":51.79302,"lon":-0.08198,"postcode":"SG13 8EG","la":"East Hertfordshire","era":"other","nn":133,"risk":25,"cat":"green"},{"name":"ABC Snooker and Social Club","lat":51.97919,"lon":-0.22641,"postcode":"SG6 3EW","la":"North Hertfordshire","era":"mod","nn":0,"risk":25,"cat":"green"},{"name":"Angel Vaults","lat":51.94644,"lon":-0.27863,"postcode":"SG5 1AE","la":"North Hertfordshire","era":"trad","nn":9,"risk":25,"cat":"green"},{"name":"Angels","lat":51.95713,"lon":-0.28647,"postcode":"SG5 2NG","la":"North Hertfordshire","era":"trad","nn":460,"risk":31,"cat":"amber"},{"name":"Arena Tavern","lat":51.97788,"lon":-0.22943,"postcode":"SG6 3BY","la":"North Hertfordshire","era":"other","nn":166,"risk":26,"cat":"green"},{"name":"Avenue Park Sports Club","lat":51.98909,"lon":-0.19463,"postcode":"SG7 5AY","la":"North Hertfordshire","era":"other","nn":358,"risk":28,"cat":"green"},{"name":"Bar 11","lat":52.04731,"lon":-0.02318,"postcode":"SG8 9BE","la":"North Hertfordshire","era":"mod","nn":121,"risk":26,"cat":"green"},{"name":"Barkway Park Golf Club","lat":51.99213,"lon":0.03055,"postcode":"SG8 8EN","la":"North Hertfordshire","era":"other","nn":1180,"risk":56,"cat":"amber"},{"name":"BB's Bar","lat":51.94557,"lon":-0.2776,"postcode":"SG5 2DE","la":"North Hertfordshire","era":"other","nn":90,"risk":26,"cat":"green"},{"name":"Beer Shop","lat":51.94931,"lon":-0.27491,"postcode":"SG5 1BY","la":"North Hertfordshire","era":"other","nn":145,"risk":26,"cat":"green"},{"name":"Bird in Hand","lat":51.92961,"lon":-0.27386,"postcode":"SG4 7QG","la":"North Hertfordshire","era":"other","nn":1174,"risk":56,"cat":"amber"},{"name":"Bricklayers Arms PH","lat":51.94698,"lon":-0.27551,"postcode":"SG4 9TP","la":"North Hertfordshire","era":"trad","nn":159,"risk":26,"cat":"green"},{"name":"Bridgetown Monroe","lat":51.94664,"lon":-0.27927,"postcode":"SG5 1BB","la":"North Hertfordshire","era":"other","nn":15,"risk":25,"cat":"green"},{"name":"Club 85","lat":51.95238,"lon":-0.2722,"postcode":"SG5 1PZ","la":"North Hertfordshire","era":"other","nn":166,"risk":26,"cat":"green"},{"name":"Conservative Club","lat":52.04879,"lon":-0.02418,"postcode":"SG8 5AA","la":"North Hertfordshire","era":"other","nn":0,"risk":25,"cat":"green"},{"name":"Coopers Arms","lat":51.94694,"lon":-0.28114,"postcode":"SG5 2DY","la":"North Hertfordshire","era":"trad","nn":109,"risk":26,"cat":"green"},{"name":"Crafty's Beer shop","lat":51.9791,"lon":-0.22742,"postcode":"SG6 3EA","la":"North Hertfordshire","era":"mod","nn":70,"risk":26,"cat":"green"},{"name":"Dimples","lat":51.96697,"lon":-0.22305,"postcode":"SG6 2HJ","la":"North Hertfordshire","era":"other","nn":120,"risk":26,"cat":"green"},{"name":"Fox Inn","lat":51.96165,"lon":-0.21971,"postcode":"SG6 2AE","la":"North Hertfordshire","era":"trad","nn":0,"risk":25,"cat":"green"},{"name":"Garden City Brewery","lat":51.97964,"lon":-0.22552,"postcode":"SG6 3EN","la":"North Hertfordshire","era":"other","nn":79,"risk":26,"cat":"green"},{"name":"George and Dragon","lat":51.93439,"lon":-0.21049,"postcode":"SG4 7LE","la":"North Hertfordshire","era":"trad","nn":0,"risk":45,"cat":"amber"},{"name":"Heath Sports Club","lat":52.04788,"lon":-0.02859,"postcode":"SG8 5BG","la":"North Hertfordshire","era":"other","nn":0,"risk":25,"cat":"green"},{"name":"Hen & Chickens","lat":51.98589,"lon":-0.1802,"postcode":"SG7 6BZ","la":"North Hertfordshire","era":"other","nn":420,"risk":28,"cat":"green"},{"name":"Hermit Of Redcoats","lat":51.92472,"lon":-0.23832,"postcode":"SG4 7JR","la":"North Hertfordshire","era":"other","nn":877,"risk":49,"cat":"amber"},{"name":"Hertfordshire FA County Ground","lat":51.97712,"lon":-0.20899,"postcode":"SG6 2EN","la":"North Hertfordshire","era":"other","nn":0,"risk":43,"cat":"amber"},{"name":"Hitchin Rugby Club","lat":51.96021,"lon":-0.2791,"postcode":"SG5 1XL","la":"North Hertfordshire","era":"other","nn":610,"risk":29,"cat":"green"},{"name":"Hitchin Town Football Club Limited","lat":51.95385,"lon":-0.28239,"postcode":"SG5 1NU","la":"North Hertfordshire","era":"other","nn":460,"risk":28,"cat":"green"},{"name":"Holwell Bowls Club","lat":51.98589,"lon":-0.3011,"postcode":"SG5 3SL","la":"North Hertfordshire","era":"other","nn":2102,"risk":62,"cat":"red"},{"name":"Jackmans Community Centre","lat":51.97026,"lon":-0.21114,"postcode":"SG6 2NL","la":"North Hertfordshire","era":"other","nn":776,"risk":30,"cat":"green"},{"name":"Jilar Spa and Bar","lat":51.95032,"lon":-0.27624,"postcode":"SG5 1NB","la":"North Hertfordshire","era":"other","nn":57,"risk":25,"cat":"green"},{"name":"Kimpton Bowls Club","lat":51.85121,"lon":-0.29333,"postcode":"SG4 8RA","la":"North Hertfordshire","era":"other","nn":271,"risk":47,"cat":"amber"},{"name":"King George IV","lat":51.97568,"lon":-0.18807,"postcode":"SG7 6LZ","la":"North Hertfordshire","era":"trad","nn":1256,"risk":56,"cat":"amber"},{"name":"King James Pub","lat":52.04879,"lon":-0.02418,"postcode":"SG8 5AA","la":"North Hertfordshire","era":"trad","nn":0,"risk":25,"cat":"green"},{"name":"Kingdom Hall","lat":51.99344,"lon":-0.23638,"postcode":"SG6 4TG","la":"North Hertfordshire","era":"trad","nn":768,"risk":48,"cat":"amber"},{"name":"Kite at The Red Hart","lat":51.94673,"lon":-0.27959,"postcode":"SG5 1BG","la":"North Hertfordshire","era":"trad","nn":0,"risk":25,"cat":"green"},{"name":"Knebworth Golf Club","lat":51.86988,"lon":-0.19154,"postcode":"SG3 6NL","la":"North Hertfordshire","era":"other","nn":479,"risk":46,"cat":"amber"},{"name":"Lawrence Cloisters Trust Ltd","lat":51.96778,"lon":-0.22421,"postcode":"SG6 3TH","la":"North Hertfordshire","era":"other","nn":0,"risk":25,"cat":"green"},{"name":"Letchworth Conservative Club","lat":51.98125,"lon":-0.22307,"postcode":"SG6 1PH","la":"North Hertfordshire","era":"other","nn":245,"risk":27,"cat":"green"},{"name":"Letchworth Golf Club","lat":51.96379,"lon":-0.23106,"postcode":"SG6 3NQ","la":"North Hertfordshire","era":"other","nn":647,"risk":30,"cat":"green"},{"name":"Letchworth Rugby Club","lat":51.97712,"lon":-0.20899,"postcode":"SG6 2EN","la":"North Hertfordshire","era":"other","nn":0,"risk":43,"cat":"amber"},{"name":"Molly Malones","lat":51.95364,"lon":-0.27089,"postcode":"SG5 1RG","la":"North Hertfordshire","era":"other","nn":166,"risk":26,"cat":"green"},{"name":"Moon & Stars Partnership","lat":51.96923,"lon":-0.1057,"postcode":"SG9 0TA","la":"North Hertfordshire","era":"trad","nn":3004,"risk":69,"cat":"red"},{"name":"Motte and Bailey","lat":51.97053,"lon":-0.33439,"postcode":"SG5 3QD","la":"North Hertfordshire","era":"other","nn":378,"risk":48,"cat":"amber"},{"name":"Odyssey Health Club","lat":51.88149,"lon":-0.19257,"postcode":"SG2 8DU","la":"North Hertfordshire","era":"other","nn":266,"risk":32,"cat":"amber"},{"name":"Offley Recreation Centre","lat":51.92807,"lon":-0.33496,"postcode":"SG5 3DX","la":"North Hertfordshire","era":"other","nn":188,"risk":44,"cat":"amber"},{"name":"PBC Catering Services Ltd","lat":51.96778,"lon":-0.22421,"postcode":"SG6 3TH","la":"North Hertfordshire","era":"other","nn":0,"risk":25,"cat":"green"},{"name":"Pitcher & Piano","lat":51.94752,"lon":-0.27946,"postcode":"SG5 1DY","la":"North Hertfordshire","era":"other","nn":45,"risk":25,"cat":"green"},{"name":"Plume of Feathers","lat":51.93242,"lon":-0.23557,"postcode":"SG4 7HY","la":"North Hertfordshire","era":"other","nn":0,"risk":43,"cat":"amber"},{"name":"Queen Mother Theatre","lat":51.95037,"lon":-0.27196,"postcode":"SG4 9SP","la":"North Hertfordshire","era":"trad","nn":0,"risk":25,"cat":"green"},{"name":"Red Lion","lat":51.95456,"lon":-0.17004,"postcode":"SG4 7DE","la":"North Hertfordshire","era":"trad","nn":302,"risk":47,"cat":"amber"},{"name":"Red Lion","lat":51.90841,"lon":-0.28604,"postcode":"SG4 7UD","la":"North Hertfordshire","era":"trad","nn":1966,"risk":61,"cat":"red"},{"name":"Red Lion","lat":51.88546,"lon":-0.3299,"postcode":"SG4 8NU","la":"North Hertfordshire","era":"trad","nn":2444,"risk":65,"cat":"red"},{"name":"Riverain Bowls Club","lat":51.95752,"lon":-0.25861,"postcode":"SG4 0AT","la":"North Hertfordshire","era":"other","nn":182,"risk":29,"cat":"green"},{"name":"Rose & Crown","lat":51.94736,"lon":-0.27821,"postcode":"SG5 1DS","la":"North Hertfordshire","era":"trad","nn":31,"risk":25,"cat":"green"},{"name":"Royston Bowling Club","lat":52.05146,"lon":-0.0318,"postcode":"SG8 5BX","la":"North Hertfordshire","era":"other","nn":455,"risk":28,"cat":"green"},{"name":"Royston Golf Club","lat":52.04788,"lon":-0.02859,"postcode":"SG8 5BG","la":"North Hertfordshire","era":"other","nn":0,"risk":25,"cat":"green"},{"name":"Royston Manor House","lat":52.04836,"lon":-0.02274,"postcode":"SG8 7BZ","la":"North Hertfordshire","era":"other","nn":109,"risk":26,"cat":"green"},{"name":"Royston Royal British Legion","lat":52.05216,"lon":-0.02384,"postcode":"SG8 7AE","la":"North Hertfordshire","era":"trad","nn":376,"risk":28,"cat":"green"},{"name":"Royston Town F.C.","lat":52.05143,"lon":-0.01745,"postcode":"SG8 7HP","la":"North Hertfordshire","era":"other","nn":444,"risk":28,"cat":"green"},{"name":"Strathmore Arms","lat":51.88569,"lon":-0.26712,"postcode":"SG4 8BT","la":"North Hertfordshire","era":"trad","nn":1366,"risk":57,"cat":"amber"},{"name":"Teller Bar","lat":51.94678,"lon":-0.27926,"postcode":"SG5 1BB","la":"North Hertfordshire","era":"other","nn":15,"risk":25,"cat":"green"},{"name":"The Albert Inn","lat":51.95169,"lon":-0.26833,"postcode":"SG4 9SU","la":"North Hertfordshire","era":"trad","nn":103,"risk":26,"cat":"green"},{"name":"The Anchor","lat":51.95608,"lon":-0.25736,"postcode":"SG4 0JH","la":"North Hertfordshire","era":"trad","nn":89,"risk":26,"cat":"green"},{"name":"The Block","lat":51.9473,"lon":-0.27777,"postcode":"SG5 1DN","la":"North Hertfordshire","era":"other","nn":31,"risk":25,"cat":"green"},{"name":"The Boot","lat":51.85132,"lon":-0.29727,"postcode":"SG4 8PT","la":"North Hertfordshire","era":"other","nn":271,"risk":47,"cat":"amber"},{"name":"The Brickyard","lat":51.95044,"lon":-0.27705,"postcode":"SG5 1JW","la":"North Hertfordshire","era":"mod","nn":57,"risk":25,"cat":"green"},{"name":"The Bucks Head Pub","lat":51.93242,"lon":-0.23557,"postcode":"SG4 7HY","la":"North Hertfordshire","era":"trad","nn":0,"risk":43,"cat":"amber"},{"name":"The Bull Inn","lat":51.87585,"lon":-0.27902,"postcode":"SG4 8AG","la":"North Hertfordshire","era":"trad","nn":1366,"risk":57,"cat":"amber"},{"name":"The Bushel","lat":52.04182,"lon":-0.15492,"postcode":"SG7 5LY","la":"North Hertfordshire","era":"other","nn":171,"risk":44,"cat":"amber"},{"name":"The Cock OBH limited","lat":51.98725,"lon":-0.18591,"postcode":"SG7 6BG","la":"North Hertfordshire","era":"other","nn":85,"risk":26,"cat":"green"},{"name":"The Cricketers PH","lat":51.97458,"lon":-0.27652,"postcode":"SG5 3TH","la":"North Hertfordshire","era":"other","nn":442,"risk":46,"cat":"amber"},{"name":"The Fox","lat":51.97386,"lon":-0.33327,"postcode":"SG5 3PS","la":"North Hertfordshire","era":"trad","nn":378,"risk":48,"cat":"amber"},{"name":"The Fox & Hounds","lat":52.02631,"lon":0.03863,"postcode":"SG8 8HU","la":"North Hertfordshire","era":"trad","nn":3395,"risk":71,"cat":"red"},{"name":"The Fox and Duck Public House","lat":52.01755,"lon":-0.05431,"postcode":"SG8 9PN","la":"North Hertfordshire","era":"trad","nn":3804,"risk":74,"cat":"red"},{"name":"The George","lat":51.94673,"lon":-0.27959,"postcode":"SG5 1BG","la":"North Hertfordshire","era":"trad","nn":0,"risk":25,"cat":"green"},{"name":"The Globe Pub","lat":51.8487,"lon":-0.23388,"postcode":"SG4 8UA","la":"North Hertfordshire","era":"other","nn":96,"risk":46,"cat":"amber"},{"name":"The Goat Inn","lat":51.849,"lon":-0.23519,"postcode":"SG4 8XE","la":"North Hertfordshire","era":"trad","nn":96,"risk":46,"cat":"amber"},{"name":"The Grange Community Centre","lat":51.99173,"lon":-0.22551,"postcode":"SG6 4NG","la":"North Hertfordshire","era":"other","nn":768,"risk":50,"cat":"amber"},{"name":"The Green Man","lat":51.94316,"lon":-0.23636,"postcode":"SG4 7EU","la":"North Hertfordshire","era":"other","nn":1195,"risk":56,"cat":"amber"},{"name":"The Green Man","lat":52.0459,"lon":-0.02142,"postcode":"SG8 9JU","la":"North Hertfordshire","era":"other","nn":197,"risk":26,"cat":"green"},{"name":"The Green Man Public House","lat":51.93045,"lon":-0.33933,"postcode":"SG5 3AR","la":"North Hertfordshire","era":"other","nn":399,"risk":45,"cat":"amber"},{"name":"The Half Moon","lat":51.94501,"lon":-0.27665,"postcode":"SG4 9TZ","la":"North Hertfordshire","era":"other","nn":90,"risk":26,"cat":"green"},{"name":"The Hamm Craft Beer Shop","lat":51.9479,"lon":-0.27927,"postcode":"SG5 1ED","la":"North Hertfordshire","era":"mod","nn":45,"risk":25,"cat":"green"},{"name":"The Highlander","lat":51.9472,"lon":-0.28539,"postcode":"SG5 2EF","la":"North Hertfordshire","era":"other","nn":293,"risk":27,"cat":"green"},{"name":"The Highwayman","lat":51.94637,"lon":-0.20723,"postcode":"SG4 7EH","la":"North Hertfordshire","era":"other","nn":1351,"risk":57,"cat":"amber"},{"name":"The Jolly Postie","lat":52.04832,"lon":-0.02519,"postcode":"SG8 5AY","la":"North Hertfordshire","era":"other","nn":87,"risk":26,"cat":"green"},{"name":"The Lytton Arms","lat":51.86827,"lon":-0.2149,"postcode":"SG3 6QB","la":"North Hertfordshire","era":"trad","nn":1412,"risk":57,"cat":"amber"},{"name":"The Market Theatre","lat":51.94652,"lon":-0.27858,"postcode":"SG5 1AE","la":"North Hertfordshire","era":"other","nn":9,"risk":25,"cat":"green"},{"name":"The Millstream Public House","lat":51.95556,"lon":-0.25835,"postcode":"SG4 0JH","la":"North Hertfordshire","era":"trad","nn":89,"risk":26,"cat":"green"},{"name":"The Old George","lat":51.97012,"lon":-0.28046,"postcode":"SG5 3UX","la":"North Hertfordshire","era":"trad","nn":131,"risk":43,"cat":"amber"},{"name":"The Old White Horse PH","lat":51.99167,"lon":-0.18669,"postcode":"SG7 5BS","la":"North Hertfordshire","era":"trad","nn":234,"risk":27,"cat":"green"},{"name":"The Orange Tree","lat":51.93973,"lon":-0.26899,"postcode":"SG4 9DR","la":"North Hertfordshire","era":"other","nn":600,"risk":29,"cat":"green"},{"name":"The Platform","lat":51.97928,"lon":-0.22862,"postcode":"SG6 3AQ","la":"North Hertfordshire","era":"other","nn":84,"risk":26,"cat":"green"},{"name":"The Plough","lat":51.9052,"lon":-0.31422,"postcode":"SG4 8LA","la":"North Hertfordshire","era":"trad","nn":1966,"risk":61,"cat":"red"},{"name":"The Plume of Feathers","lat":51.97128,"lon":-0.28014,"postcode":"SG5 3YD","la":"North Hertfordshire","era":"other","nn":131,"risk":43,"cat":"amber"},{"name":"The Radcliffe Arms","lat":51.95136,"lon":-0.26973,"postcode":"SG4 9ST","la":"North Hertfordshire","era":"trad","nn":103,"risk":26,"cat":"green"},{"name":"The Raven","lat":51.96417,"lon":-0.39074,"postcode":"SG5 3JB","la":"North Hertfordshire","era":"other","nn":2386,"risk":64,"cat":"red"},{"name":"The Red Lion","lat":51.92639,"lon":-0.33492,"postcode":"SG5 3DZ","la":"North Hertfordshire","era":"trad","nn":188,"risk":44,"cat":"amber"},{"name":"The Rising Sun","lat":51.94302,"lon":-0.14614,"postcode":"SG4 7DR","la":"North Hertfordshire","era":"other","nn":1920,"risk":61,"cat":"red"},{"name":"The Rose & Crown","lat":52.04091,"lon":-0.1529,"postcode":"SG7 5NP","la":"North Hertfordshire","era":"trad","nn":171,"risk":44,"cat":"amber"},{"name":"The Royal British Legion","lat":51.86559,"lon":-0.18716,"postcode":"SG3 6AU","la":"North Hertfordshire","era":"trad","nn":89,"risk":43,"cat":"amber"},{"name":"The Rusty Gun","lat":51.91363,"lon":-0.25838,"postcode":"SG4 7PG","la":"North Hertfordshire","era":"other","nn":1847,"risk":60,"cat":"amber"},{"name":"The Snug","lat":51.94651,"lon":-0.27903,"postcode":"SG5 1AH","la":"North Hertfordshire","era":"other","nn":22,"risk":25,"cat":"green"},{"name":"The Speakeasy Club","lat":51.94685,"lon":-0.27841,"postcode":"SG5 1AE","la":"North Hertfordshire","era":"other","nn":39,"risk":25,"cat":"green"},{"name":"The Station","lat":51.86637,"lon":-0.18748,"postcode":"SG3 6AT","la":"North Hertfordshire","era":"other","nn":89,"risk":43,"cat":"amber"},{"name":"The Tally Ho","lat":51.99538,"lon":0.01415,"postcode":"SG8 8EX","la":"North Hertfordshire","era":"other","nn":1180,"risk":56,"cat":"amber"},{"name":"The Three Horse Shoes also t/a 88th Street, Value Mighty, Sin City Burger, K-Town, Chik Box and Locked and Loaded","lat":51.99296,"lon":-0.21005,"postcode":"SG6 1AG","la":"North Hertfordshire","era":"trad","nn":1067,"risk":55,"cat":"amber"},{"name":"The Three Magnets","lat":51.97919,"lon":-0.22641,"postcode":"SG6 3EW","la":"North Hertfordshire","era":"other","nn":0,"risk":25,"cat":"green"},{"name":"The Three Moorhens","lat":51.94252,"lon":-0.27649,"postcode":"SG4 9AJ","la":"North Hertfordshire","era":"other","nn":277,"risk":27,"cat":"green"},{"name":"The Three Tuns","lat":52.04147,"lon":-0.14965,"postcode":"SG7 5NL","la":"North Hertfordshire","era":"other","nn":230,"risk":44,"cat":"amber"},{"name":"The Victoria","lat":51.99008,"lon":-0.18891,"postcode":"SG7 6QA","la":"North Hertfordshire","era":"trad","nn":104,"risk":26,"cat":"green"},{"name":"The Victoria","lat":51.95438,"lon":-0.27566,"postcode":"SG5 1TJ","la":"North Hertfordshire","era":"trad","nn":325,"risk":27,"cat":"green"},{"name":"The Waggon and Horses","lat":51.93439,"lon":-0.21049,"postcode":"SG4 7LE","la":"North Hertfordshire","era":"trad","nn":0,"risk":45,"cat":"amber"},{"name":"The Wilbury","lat":51.97955,"lon":-0.25285,"postcode":"SG6 4LG","la":"North Hertfordshire","era":"other","nn":985,"risk":52,"cat":"amber"},{"name":"The Windmill","lat":51.93886,"lon":-0.29266,"postcode":"SG5 2AE","la":"North Hertfordshire","era":"trad","nn":1053,"risk":55,"cat":"amber"},{"name":"The Woodman Inn","lat":51.99125,"lon":0.05474,"postcode":"SG8 8NB","la":"North Hertfordshire","era":"trad","nn":1659,"risk":59,"cat":"amber"},{"name":"Three Horseshoes","lat":51.96165,"lon":-0.21971,"postcode":"SG6 2AE","la":"North Hertfordshire","era":"trad","nn":0,"risk":25,"cat":"green"},{"name":"Three Horseshoes","lat":52.0495,"lon":-0.20023,"postcode":"SG7 5HQ","la":"North Hertfordshire","era":"trad","nn":3214,"risk":70,"cat":"red"},{"name":"Two Chimneys","lat":51.98756,"lon":-0.24672,"postcode":"SG6 4JS","la":"Central Bedfordshire","era":"other","nn":964,"risk":50,"cat":"amber"},{"name":"Weston Cricket Club","lat":51.95185,"lon":-0.17021,"postcode":"SG4 7BZ","la":"North Hertfordshire","era":"other","nn":302,"risk":47,"cat":"amber"},{"name":"White Hart","lat":51.98919,"lon":-0.18941,"postcode":"SG7 6AL","la":"North Hertfordshire","era":"trad","nn":104,"risk":26,"cat":"green"},{"name":"White Lion PH","lat":51.98752,"lon":-0.18706,"postcode":"SG7 6BJ","la":"North Hertfordshire","era":"trad","nn":85,"risk":26,"cat":"green"},{"name":"Woodside Hall Bar","lat":51.95037,"lon":-0.27196,"postcode":"SG4 9SP","la":"North Hertfordshire","era":"other","nn":0,"risk":25,"cat":"green"},{"name":"Bowick Enterprises The Wheatsheaf","lat":52.15508,"lon":-0.18771,"postcode":"SG19 3JJ","la":"South Cambridgeshire","era":"trad","nn":256,"risk":46,"cat":"amber"},{"name":"Edward VII Public House","lat":52.0808,"lon":-0.13285,"postcode":"SG8 0JF","la":"South Cambridgeshire","era":"other","nn":524,"risk":50,"cat":"amber"},{"name":"Eternit Uk Ltd","lat":52.10011,"lon":-0.00677,"postcode":"SG8 5RN","la":"South Cambridgeshire","era":"other","nn":1047,"risk":57,"cat":"amber"},{"name":"Haynes American BBQ","lat":52.06672,"lon":0.05282,"postcode":"SG8 7PN","la":"South Cambridgeshire","era":"other","nn":1111,"risk":57,"cat":"amber"},{"name":"Heydon Grange Golf Club","lat":52.06394,"lon":0.06843,"postcode":"SG8 7NS","la":"South Cambridgeshire","era":"other","nn":1111,"risk":57,"cat":"amber"},{"name":"King William IV","lat":52.03728,"lon":0.08494,"postcode":"SG8 8PN","la":"South Cambridgeshire","era":"trad","nn":1536,"risk":60,"cat":"amber"},{"name":"Steeple Morden Bowls Club","lat":52.06737,"lon":-0.12654,"postcode":"SG8 0PD","la":"South Cambridgeshire","era":"other","nn":258,"risk":48,"cat":"amber"},{"name":"The Belle Free House & Restaurant","lat":52.08077,"lon":-0.06095,"postcode":"SG8 5NZ","la":"South Cambridgeshire","era":"mod","nn":675,"risk":51,"cat":"amber"},{"name":"The Black Horse","lat":52.08073,"lon":0.01611,"postcode":"SG8 6BP","la":"South Cambridgeshire","era":"trad","nn":136,"risk":48,"cat":"amber"},{"name":"The British Queen","lat":52.09649,"lon":0.00737,"postcode":"SG8 6LB","la":"South Cambridgeshire","era":"trad","nn":1047,"risk":57,"cat":"amber"},{"name":"The Chequers","lat":52.09305,"lon":0.073,"postcode":"SG8 7SR","la":"South Cambridgeshire","era":"other","nn":1685,"risk":61,"cat":"red"},{"name":"The Chequers (& Son of Sid Brewery)","lat":52.18057,"lon":-0.14015,"postcode":"SG19 3DW","la":"South Cambridgeshire","era":"other","nn":4308,"risk":79,"cat":"red"},{"name":"The Chequers Public House","lat":52.13357,"lon":-0.01299,"postcode":"SG8 5QL","la":"South Cambridgeshire","era":"other","nn":2869,"risk":69,"cat":"red"},{"name":"The Cock Inn","lat":52.15556,"lon":-0.19138,"postcode":"SG19 3JH","la":"South Cambridgeshire","era":"trad","nn":95,"risk":45,"cat":"amber"},{"name":"The Dolphin","lat":52.08134,"lon":0.01437,"postcode":"SG8 6AP","la":"South Cambridgeshire","era":"other","nn":136,"risk":48,"cat":"amber"},{"name":"The Green Man","lat":52.09925,"lon":0.09551,"postcode":"SG8 7RJ","la":"South Cambridgeshire","era":"other","nn":1685,"risk":61,"cat":"red"},{"name":"The Green Man","lat":52.10046,"lon":0.03722,"postcode":"SG8 6RA","la":"South Cambridgeshire","era":"other","nn":1223,"risk":58,"cat":"amber"},{"name":"The Hoops Public House","lat":52.07837,"lon":-0.05189,"postcode":"SG8 5LF","la":"South Cambridgeshire","era":"other","nn":675,"risk":51,"cat":"amber"},{"name":"The Jannah Indian Cuisine","lat":52.15579,"lon":-0.19273,"postcode":"SG19 3JH","la":"South Cambridgeshire","era":"other","nn":95,"risk":45,"cat":"amber"},{"name":"The Pig and Abbott","lat":52.0829,"lon":-0.09419,"postcode":"SG8 0SD","la":"South Cambridgeshire","era":"other","nn":2284,"risk":65,"cat":"red"},{"name":"The Plough Public House","lat":52.11104,"lon":0.03232,"postcode":"SG8 6PP","la":"South Cambridgeshire","era":"trad","nn":1223,"risk":58,"cat":"amber"},{"name":"The three tuns","lat":52.07657,"lon":-0.1362,"postcode":"SG8 0JP","la":"South Cambridgeshire","era":"other","nn":524,"risk":50,"cat":"amber"},{"name":"Traditional Pie and Mash LTD - T/A The Waggon and Horses","lat":52.06516,"lon":-0.12535,"postcode":"SG8 0NJ","la":"South Cambridgeshire","era":"trad","nn":258,"risk":48,"cat":"amber"},{"name":"Wood Grill - Queen Adelaide","lat":52.12713,"lon":-0.08328,"postcode":"SG8 0DN","la":"South Cambridgeshire","era":"trad","nn":4708,"risk":82,"cat":"red"},{"name":"Yuva Fine Fusion","lat":52.08113,"lon":-0.03781,"postcode":"SG8 5JL","la":"South Cambridgeshire","era":"other","nn":1010,"risk":56,"cat":"amber"},{"name":"Cinnabar","lat":51.91273,"lon":-0.2093,"postcode":"SG1 3EF","la":"Stevenage","era":"trad","nn":110,"risk":31,"cat":"amber"},{"name":"Corey's Mill Beefeater","lat":51.92406,"lon":-0.21631,"postcode":"SG1 4AA","la":"Stevenage","era":"trad","nn":632,"risk":52,"cat":"amber"},{"name":"Emperors Head PH","lat":51.91609,"lon":-0.16124,"postcode":"SG2 7QX","la":"Stevenage","era":"trad","nn":1013,"risk":60,"cat":"amber"},{"name":"Glebe Sports","lat":51.90875,"lon":-0.16999,"postcode":"SG2 0DJ","la":"Stevenage","era":"other","nn":557,"risk":54,"cat":"amber"},{"name":"Man In The Moon","lat":51.8817,"lon":-0.17915,"postcode":"SG2 8ET","la":"Stevenage","era":"other","nn":680,"risk":38,"cat":"amber"},{"name":"Mecca Bingo","lat":51.90026,"lon":-0.20337,"postcode":"SG1 1XB","la":"Stevenage","era":"other","nn":103,"risk":34,"cat":"amber"},{"name":"Old Red Lion","lat":51.89103,"lon":-0.17678,"postcode":"SG2 9XR","la":"Stevenage","era":"trad","nn":534,"risk":39,"cat":"amber"},{"name":"Old Town Bar","lat":51.9138,"lon":-0.20859,"postcode":"SG1 3BG","la":"Stevenage","era":"other","nn":2,"risk":30,"cat":"green"},{"name":"Our Mutual Friend","lat":51.88772,"lon":-0.18762,"postcode":"SG2 8RG","la":"Stevenage","era":"other","nn":532,"risk":37,"cat":"amber"},{"name":"Poachers","lat":51.90225,"lon":-0.189,"postcode":"SG1 1NA","la":"Stevenage","era":"other","nn":941,"risk":57,"cat":"amber"},{"name":"Red Lion","lat":51.9101,"lon":-0.20776,"postcode":"SG1 3DW","la":"Stevenage","era":"trad","nn":166,"risk":31,"cat":"amber"},{"name":"Royal Oak PH","lat":51.91401,"lon":-0.20473,"postcode":"SG1 3RA","la":"Stevenage","era":"trad","nn":263,"risk":32,"cat":"amber"},{"name":"Shephall Tavern","lat":51.89254,"lon":-0.1694,"postcode":"SG2 9SD","la":"Stevenage","era":"other","nn":534,"risk":39,"cat":"amber"},{"name":"St. Nicholas PH","lat":51.92445,"lon":-0.18311,"postcode":"SG1 4LJ","la":"Stevenage","era":"other","nn":903,"risk":57,"cat":"amber"},{"name":"Stevenage Club And Institute","lat":51.91211,"lon":-0.20805,"postcode":"SG1 3AU","la":"Stevenage","era":"other","nn":0,"risk":30,"cat":"green"},{"name":"Stevenage Cricket And Hockey Sports Club","lat":51.90597,"lon":-0.20643,"postcode":"SG1 3LJ","la":"Stevenage","era":"other","nn":141,"risk":31,"cat":"amber"},{"name":"Stevenage Post Office Sports & Social Club","lat":51.9138,"lon":-0.20855,"postcode":"SG1 3BG","la":"Stevenage","era":"mod","nn":2,"risk":30,"cat":"green"},{"name":"The Almond Tree","lat":51.91319,"lon":-0.19076,"postcode":"SG1 5DZ","la":"Stevenage","era":"other","nn":760,"risk":41,"cat":"amber"},{"name":"The Broken Seal Taps Room","lat":51.91211,"lon":-0.20805,"postcode":"SG1 3AU","la":"Stevenage","era":"mod","nn":0,"risk":30,"cat":"green"},{"name":"The Chequers","lat":51.90723,"lon":-0.2067,"postcode":"SG1 3LL","la":"Stevenage","era":"other","nn":35,"risk":31,"cat":"amber"},{"name":"The Chequers","lat":51.87522,"lon":-0.15874,"postcode":"SG2 8TH","la":"Stevenage","era":"other","nn":1245,"risk":62,"cat":"red"},{"name":"The Coach & Horses","lat":51.90738,"lon":-0.20626,"postcode":"SG1 3HT","la":"Stevenage","era":"trad","nn":35,"risk":31,"cat":"amber"},{"name":"The Coopers Inn","lat":51.89469,"lon":-0.15899,"postcode":"SG2 9RZ","la":"Stevenage","era":"trad","nn":753,"risk":53,"cat":"amber"},{"name":"The Dun Cow","lat":51.91205,"lon":-0.20238,"postcode":"SG1 3PR","la":"Stevenage","era":"other","nn":271,"risk":32,"cat":"amber"},{"name":"The Fisherman","lat":51.91872,"lon":-0.22195,"postcode":"SG1 2JA","la":"Stevenage","era":"other","nn":638,"risk":40,"cat":"amber"},{"name":"The Lytton Players","lat":51.91643,"lon":-0.181,"postcode":"SG1 5PZ","la":"Stevenage","era":"other","nn":760,"risk":53,"cat":"amber"},{"name":"The Marquis Of Granby","lat":51.92111,"lon":-0.20843,"postcode":"SG1 4BS","la":"Stevenage","era":"other","nn":632,"risk":35,"cat":"amber"},{"name":"The Mulberry Tree","lat":51.91149,"lon":-0.20864,"postcode":"SG1 3EA","la":"Stevenage","era":"other","nn":80,"risk":31,"cat":"amber"},{"name":"The Old Forge","lat":51.88388,"lon":-0.19224,"postcode":"SG2 8DT","la":"Stevenage","era":"trad","nn":266,"risk":37,"cat":"amber"},{"name":"The Old Post Office","lat":51.90105,"lon":-0.20258,"postcode":"SG1 1PF","la":"Stevenage","era":"other","nn":103,"risk":31,"cat":"amber"},{"name":"The Pied Piper","lat":51.8851,"lon":-0.1709,"postcode":"SG2 8LU","la":"Stevenage","era":"other","nn":680,"risk":40,"cat":"amber"},{"name":"The Squirrel","lat":51.90472,"lon":-0.16516,"postcode":"SG2 0NH","la":"Stevenage","era":"other","nn":557,"risk":54,"cat":"amber"},{"name":"Tom Tiddlers Tavern","lat":51.91298,"lon":-0.22156,"postcode":"SG1 2JW","la":"Stevenage","era":"other","nn":494,"risk":34,"cat":"amber"},{"name":"Turtle Events","lat":51.90987,"lon":-0.2267,"postcode":"SG1 2HP","la":"Stevenage","era":"other","nn":494,"risk":54,"cat":"amber"},{"name":"The Red Cow","lat":52.03193,"lon":0.10565,"postcode":"SG8 8RN","la":"Uttlesford","era":"other","nn":1536,"risk":62,"cat":"red"},{"name":"Coach & Horses","lat":51.72985,"lon":-0.11837,"postcode":"SG13 8RA","la":"Welwyn Hatfield","era":"trad","nn":0,"risk":50,"cat":"amber"},{"name":"The Chequers","lat":51.85119,"lon":-0.18078,"postcode":"SG3 6JP","la":"Welwyn Hatfield","era":"other","nn":153,"risk":51,"cat":"amber"},{"name":"The Crown","lat":51.72985,"lon":-0.11837,"postcode":"SG13 8RA","la":"Welwyn Hatfield","era":"trad","nn":0,"risk":50,"cat":"amber"},{"name":"The Red Lion","lat":51.85253,"lon":-0.18132,"postcode":"SG3 6JP","la":"Welwyn Hatfield","era":"trad","nn":153,"risk":51,"cat":"amber"}]