[{"name":"Bar Sport & Premier Suite","lat":52.68941,"lon":-2.03231,"postcode":"WS11 1BN","la":"Cannock Chase","era":"mod","nn":0,"risk":27,"cat":"green"},{"name":"Bell and Bottle","lat":52.71569,"lon":-1.99945,"postcode":"WS12 4DE","la":"Cannock Chase","era":"other","nn":550,"risk":31,"cat":"amber"},{"name":"Belt Road Working Mens Club","lat":52.71012,"lon":-2.01548,"postcode":"WS12 4JJ","la":"Cannock Chase","era":"trad","nn":602,"risk":31,"cat":"amber"},{"name":"Bo Jollys","lat":52.76011,"lon":-1.93449,"postcode":"WS15 2BY","la":"Cannock Chase","era":"other","nn":10,"risk":27,"cat":"green"},{"name":"Brereton Sports & Social Club","lat":52.7436,"lon":-1.91696,"postcode":"WS15 1ED","la":"Cannock Chase","era":"mod","nn":218,"risk":46,"cat":"amber"},{"name":"Bridge Inn","lat":52.70686,"lon":-2.00834,"postcode":"WS11 5TD","la":"Cannock Chase","era":"trad","nn":382,"risk":29,"cat":"green"},{"name":"Bridgtown Social WMC","lat":52.68001,"lon":-2.02692,"postcode":"WS11 0JB","la":"Cannock Chase","era":"mod","nn":294,"risk":29,"cat":"green"},{"name":"Broomhill Albion WMC","lat":52.70194,"lon":-2.02808,"postcode":"WS11 5QG","la":"Cannock Chase","era":"other","nn":673,"risk":31,"cat":"amber"},{"name":"Burns Street Inn","lat":52.70134,"lon":-2.01644,"postcode":"WS11 6DR","la":"Cannock Chase","era":"trad","nn":264,"risk":29,"cat":"green"},{"name":"Cannock Conservative Club","lat":52.69017,"lon":-2.0328,"postcode":"WS11 1BE","la":"Cannock Chase","era":"other","nn":77,"risk":27,"cat":"green"},{"name":"Cannock Social WMC","lat":52.68656,"lon":-2.03244,"postcode":"WS11 1AP","la":"Cannock Chase","era":"mod","nn":28,"risk":27,"cat":"green"},{"name":"Chase Workers Social Club","lat":52.7238,"lon":-2.01883,"postcode":"WS12 4LN","la":"Cannock Chase","era":"mod","nn":500,"risk":50,"cat":"amber"},{"name":"Church Hill Victoria WMC","lat":52.70569,"lon":-1.99378,"postcode":"WS12 1BQ","la":"Cannock Chase","era":"trad","nn":289,"risk":29,"cat":"green"},{"name":"Cross Keys Hotel","lat":52.70048,"lon":-1.99711,"postcode":"WS12 2DN","la":"Cannock Chase","era":"trad","nn":402,"risk":30,"cat":"green"},{"name":"Crystal Fountain","lat":52.68253,"lon":-2.02955,"postcode":"WS11 0AG","la":"Cannock Chase","era":"other","nn":331,"risk":29,"cat":"green"},{"name":"Dulcie's Bar","lat":52.70817,"lon":-1.99818,"postcode":"WS12 1AY","la":"Cannock Chase","era":"other","nn":5,"risk":27,"cat":"green"},{"name":"Etching Hill Tennis Club","lat":52.76237,"lon":-1.96039,"postcode":"WS15 2LU","la":"Cannock Chase","era":"other","nn":416,"risk":47,"cat":"amber"},{"name":"Fever Cannock","lat":52.68773,"lon":-2.03139,"postcode":"WS11 1AP","la":"Cannock Chase","era":"other","nn":105,"risk":28,"cat":"green"},{"name":"Five Ways Inn","lat":52.68881,"lon":-1.98107,"postcode":"WS12 3HL","la":"Cannock Chase","era":"trad","nn":236,"risk":48,"cat":"amber"},{"name":"Greenheath Progressive WMC","lat":52.71488,"lon":-2.0075,"postcode":"WS12 4BE","la":"Cannock Chase","era":"other","nn":550,"risk":31,"cat":"amber"},{"name":"Hazelslade Inn","lat":52.71396,"lon":-1.9681,"postcode":"WS12 0PQ","la":"Cannock Chase","era":"trad","nn":1113,"risk":57,"cat":"amber"},{"name":"Heath Hayes Constitutional Club","lat":52.69028,"lon":-1.9836,"postcode":"WS12 3HN","la":"Cannock Chase","era":"other","nn":236,"risk":48,"cat":"amber"},{"name":"Heddin's Ford","lat":52.70903,"lon":-1.99918,"postcode":"WS12 1AD","la":"Cannock Chase","era":"other","nn":112,"risk":28,"cat":"green"},{"name":"Hedgeford Lodge","lat":52.70896,"lon":-2.00134,"postcode":"WS12 1AB","la":"Cannock Chase","era":"other","nn":146,"risk":28,"cat":"green"},{"name":"Hednesford Town Football & Social Club","lat":52.70282,"lon":-1.97894,"postcode":"WS12 2GW","la":"Cannock Chase","era":"mod","nn":229,"risk":46,"cat":"amber"},{"name":"Horns Inn","lat":52.75256,"lon":-1.95849,"postcode":"WS15 2UW","la":"Cannock Chase","era":"trad","nn":945,"risk":53,"cat":"amber"},{"name":"Jubilee Inn","lat":52.71141,"lon":-2.02478,"postcode":"WS11 5RS","la":"Cannock Chase","era":"trad","nn":642,"risk":51,"cat":"amber"},{"name":"Kraftt Lounge Bar","lat":52.7082,"lon":-1.99825,"postcode":"WS12 1AY","la":"Cannock Chase","era":"mod","nn":5,"risk":27,"cat":"green"},{"name":"Lea Hall Social Club","lat":52.75676,"lon":-1.9371,"postcode":"WS15 2LB","la":"Cannock Chase","era":"mod","nn":0,"risk":27,"cat":"green"},{"name":"Lido WMC","lat":52.67552,"lon":-1.9642,"postcode":"WS11 9SQ","la":"Cannock Chase","era":"other","nn":436,"risk":47,"cat":"amber"},{"name":"Littleworth Victory Working Mens Club","lat":52.70471,"lon":-1.97756,"postcode":"WS12 2HU","la":"Cannock Chase","era":"trad","nn":140,"risk":45,"cat":"amber"},{"name":"Longford House","lat":52.67993,"lon":-2.04927,"postcode":"WS11 1SJ","la":"Cannock Chase","era":"other","nn":448,"risk":47,"cat":"amber"},{"name":"Miller & Carter Cannock","lat":52.6869,"lon":-2.01768,"postcode":"WS11 8EE","la":"Cannock Chase","era":"trad","nn":602,"risk":31,"cat":"amber"},{"name":"Mossley Tavern","lat":52.75488,"lon":-1.92883,"postcode":"WS15 1DQ","la":"Cannock Chase","era":"other","nn":339,"risk":29,"cat":"green"},{"name":"Newhall Arms","lat":52.68949,"lon":-2.03266,"postcode":"WS11 1BN","la":"Cannock Chase","era":"trad","nn":25,"risk":27,"cat":"green"},{"name":"Newhall Farm Inn","lat":52.68706,"lon":-2.00167,"postcode":"WS11 8NL","la":"Cannock Chase","era":"trad","nn":564,"risk":51,"cat":"amber"},{"name":"Park Gate Inn","lat":52.71102,"lon":-1.93426,"postcode":"WS15 4RN","la":"Cannock Chase","era":"trad","nn":1137,"risk":57,"cat":"amber"},{"name":"Pear Tree WMC","lat":52.75171,"lon":-1.93625,"postcode":"WS15 1NT","la":"Cannock Chase","era":"other","nn":564,"risk":31,"cat":"amber"},{"name":"Plough & Harrow","lat":52.70409,"lon":-1.99718,"postcode":"WS12 1DB","la":"Cannock Chase","era":"trad","nn":289,"risk":29,"cat":"green"},{"name":"Podge & Tin Eatery","lat":52.69133,"lon":-2.03142,"postcode":"WS11 4AH","la":"Cannock Chase","era":"other","nn":158,"risk":28,"cat":"green"},{"name":"Railway Tavern","lat":52.6684,"lon":-1.97875,"postcode":"WS11 9PR","la":"Cannock Chase","era":"trad","nn":720,"risk":49,"cat":"amber"},{"name":"Red Lion","lat":52.76141,"lon":-1.93427,"postcode":"WS15 2JH","la":"Cannock Chase","era":"trad","nn":66,"risk":27,"cat":"green"},{"name":"Red Lion","lat":52.74251,"lon":-1.91964,"postcode":"WS15 1EB","la":"Cannock Chase","era":"trad","nn":218,"risk":46,"cat":"amber"},{"name":"Royal Oak","lat":52.68984,"lon":-2.03107,"postcode":"WS11 1BU","la":"Cannock Chase","era":"trad","nn":85,"risk":27,"cat":"green"},{"name":"Rugeley Billiards&Snooker Club","lat":52.75957,"lon":-1.93243,"postcode":"WS15 2DZ","la":"Cannock Chase","era":"other","nn":144,"risk":28,"cat":"green"},{"name":"Rugeley Cricket Club","lat":52.76076,"lon":-1.9548,"postcode":"WS15 2LG","la":"Cannock Chase","era":"other","nn":416,"risk":32,"cat":"amber"},{"name":"Rugeley Progressive WMC","lat":52.76267,"lon":-1.93364,"postcode":"WS15 2JL","la":"Cannock Chase","era":"other","nn":147,"risk":28,"cat":"green"},{"name":"Rugeley Rugby Club","lat":52.76566,"lon":-1.9338,"postcode":"WS15 2HE","la":"Cannock Chase","era":"other","nn":332,"risk":29,"cat":"green"},{"name":"S & K Catering @ Lea Hall Social Club","lat":52.75676,"lon":-1.9371,"postcode":"WS15 2LB","la":"Cannock Chase","era":"mod","nn":0,"risk":27,"cat":"green"},{"name":"Samson Blewitt","lat":52.71953,"lon":-2.01647,"postcode":"WS12 4RT","la":"Cannock Chase","era":"other","nn":500,"risk":48,"cat":"amber"},{"name":"St. Mary's Social Club and Community Centre","lat":52.68707,"lon":-2.02843,"postcode":"WS11 0AA","la":"Cannock Chase","era":"mod","nn":204,"risk":28,"cat":"green"},{"name":"The Albion Inn","lat":52.76003,"lon":-1.93442,"postcode":"WS15 2BY","la":"Cannock Chase","era":"trad","nn":10,"risk":27,"cat":"green"},{"name":"The Arcade","lat":52.68839,"lon":-2.02626,"postcode":"WS11 0DR","la":"Cannock Chase","era":"other","nn":208,"risk":28,"cat":"green"},{"name":"The Castle Inn","lat":52.67738,"lon":-2.02739,"postcode":"WS11 0AZ","la":"Cannock Chase","era":"trad","nn":294,"risk":34,"cat":"amber"},{"name":"The Chase Pub","lat":52.76071,"lon":-1.94343,"postcode":"WS15 2AL","la":"Cannock Chase","era":"other","nn":238,"risk":28,"cat":"green"},{"name":"The Colliers","lat":52.75739,"lon":-1.92598,"postcode":"WS15 1LX","la":"Cannock Chase","era":"other","nn":339,"risk":29,"cat":"green"},{"name":"The Crown","lat":52.75871,"lon":-1.93649,"postcode":"WS15 2DN","la":"Cannock Chase","era":"trad","nn":174,"risk":28,"cat":"green"},{"name":"The 'Duck'","lat":52.70332,"lon":-2.01427,"postcode":"WS11 5DB","la":"Cannock Chase","era":"other","nn":190,"risk":28,"cat":"green"},{"name":"The Hen House","lat":52.7076,"lon":-1.99995,"postcode":"WS12 1AR","la":"Cannock Chase","era":"other","nn":133,"risk":28,"cat":"green"},{"name":"The Jam Inn","lat":52.68931,"lon":-2.03198,"postcode":"WS11 1BN","la":"Cannock Chase","era":"trad","nn":25,"risk":27,"cat":"green"},{"name":"The Linford Arms","lat":52.68941,"lon":-2.03231,"postcode":"WS11 1BN","la":"Cannock Chase","era":"trad","nn":0,"risk":27,"cat":"green"},{"name":"The Liquor Tank","lat":52.68868,"lon":-2.03196,"postcode":"WS11 1GR","la":"Cannock Chase","era":"other","nn":68,"risk":27,"cat":"green"},{"name":"The Loft 89","lat":52.6887,"lon":-2.03095,"postcode":"WS11 1BS","la":"Cannock Chase","era":"other","nn":46,"risk":27,"cat":"green"},{"name":"The Merchant","lat":52.68846,"lon":-2.0304,"postcode":"WS11 1BS","la":"Cannock Chase","era":"other","nn":46,"risk":27,"cat":"green"},{"name":"The Nest","lat":52.70482,"lon":-2.01289,"postcode":"WS11 5HP","la":"Cannock Chase","era":"other","nn":190,"risk":28,"cat":"green"},{"name":"The Orbital","lat":52.67456,"lon":-2.02266,"postcode":"WS11 8XR","la":"Cannock Chase","era":"other","nn":447,"risk":47,"cat":"amber"},{"name":"The Plaza","lat":52.75754,"lon":-1.93477,"postcode":"WS15 2EJ","la":"Cannock Chase","era":"other","nn":174,"risk":28,"cat":"green"},{"name":"The Rag Country Inn","lat":52.70347,"lon":-1.94762,"postcode":"WS12 0QD","la":"Cannock Chase","era":"trad","nn":977,"risk":54,"cat":"amber"},{"name":"The Rusty Barrel","lat":52.76595,"lon":-1.94884,"postcode":"WS15 2PY","la":"Cannock Chase","era":"other","nn":686,"risk":32,"cat":"amber"},{"name":"The Shrew","lat":52.76085,"lon":-1.93463,"postcode":"WS15 2JJ","la":"Cannock Chase","era":"other","nn":43,"risk":27,"cat":"green"},{"name":"The Stags Leap","lat":52.76935,"lon":-1.94033,"postcode":"WS15 2ET","la":"Cannock Chase","era":"trad","nn":602,"risk":31,"cat":"amber"},{"name":"The Station","lat":52.69764,"lon":-2.03511,"postcode":"WS11 4AS","la":"Cannock Chase","era":"other","nn":254,"risk":29,"cat":"green"},{"name":"The Tavern in the Town","lat":52.76106,"lon":-1.93517,"postcode":"WS15 2BB","la":"Cannock Chase","era":"other","nn":43,"risk":27,"cat":"green"},{"name":"The Trafalgar","lat":52.70594,"lon":-1.97799,"postcode":"WS12 1HZ","la":"Cannock Chase","era":"other","nn":140,"risk":45,"cat":"amber"},{"name":"The Vine Inn","lat":52.76058,"lon":-1.9399,"postcode":"WS15 2AT","la":"Cannock Chase","era":"trad","nn":238,"risk":28,"cat":"green"},{"name":"Toby Carvery","lat":52.66107,"lon":-1.97355,"postcode":"WS11 9ND","la":"Cannock Chase","era":"other","nn":888,"risk":53,"cat":"amber"},{"name":"Victoria Working Mens Club","lat":52.67161,"lon":-1.96465,"postcode":"WS11 9RT","la":"Cannock Chase","era":"trad","nn":350,"risk":47,"cat":"amber"},{"name":"Welcome Working Mens Club","lat":52.69788,"lon":-2.01934,"postcode":"WS11 6DY","la":"Cannock Chase","era":"trad","nn":432,"risk":30,"cat":"green"},{"name":"White Hart Inn","lat":52.68678,"lon":-2.03223,"postcode":"WS11 1AP","la":"Cannock Chase","era":"trad","nn":28,"risk":27,"cat":"green"},{"name":"White Lion","lat":52.69557,"lon":-2.0335,"postcode":"WS11 4AH","la":"Cannock Chase","era":"trad","nn":254,"risk":29,"cat":"green"},{"name":"Whitworth and Mason's Lounge Bar","lat":52.76073,"lon":-1.9355,"postcode":"WS15 2BJ","la":"Cannock Chase","era":"other","nn":43,"risk":27,"cat":"green"},{"name":"Winding Wheel","lat":52.69197,"lon":-1.9996,"postcode":"WS12 3XP","la":"Cannock Chase","era":"other","nn":564,"risk":48,"cat":"amber"},{"name":"Yew Tree","lat":52.67195,"lon":-1.96981,"postcode":"WS11 9TL","la":"Cannock Chase","era":"other","nn":350,"risk":34,"cat":"amber"},{"name":"BLITHFIELD SAILING CLUB","lat":52.80738,"lon":-1.88962,"postcode":"WS15 3DU","la":"East Staffordshire","era":"other","nn":1315,"risk":57,"cat":"amber"},{"name":"COACH & HORSES","lat":52.81809,"lon":-1.88014,"postcode":"WS15 3BN","la":"East Staffordshire","era":"trad","nn":134,"risk":44,"cat":"amber"},{"name":"The Crown Inn","lat":52.81882,"lon":-1.88172,"postcode":"WS15 3BS","la":"East Staffordshire","era":"trad","nn":64,"risk":43,"cat":"amber"},{"name":"The Goats Head","lat":52.81832,"lon":-1.88219,"postcode":"WS15 3BP","la":"East Staffordshire","era":"trad","nn":64,"risk":43,"cat":"amber"},{"name":"24 Market Street (The Scales)","lat":52.68312,"lon":-1.82852,"postcode":"WS13 6LH","la":"Lichfield","era":"other","nn":22,"risk":27,"cat":"green"},{"name":"55 Wade Street","lat":52.68219,"lon":-1.82756,"postcode":"WS13 6HL","la":"Lichfield","era":"other","nn":93,"risk":27,"cat":"green"},{"name":"Angel Inn","lat":52.68256,"lon":-1.82931,"postcode":"WS13 6LH","la":"Lichfield","era":"trad","nn":38,"risk":27,"cat":"green"},{"name":"Armitage & District Royal British Legion","lat":52.74177,"lon":-1.87868,"postcode":"WS15 4BN","la":"Lichfield","era":"trad","nn":219,"risk":31,"cat":"amber"},{"name":"Beerbohm","lat":52.68392,"lon":-1.82586,"postcode":"WS13 6JP","la":"Lichfield","era":"other","nn":6,"risk":27,"cat":"green"},{"name":"Bitter-Suite Micropub Ltd","lat":52.67862,"lon":-1.82577,"postcode":"WS14 9DT","la":"Lichfield","era":"other","nn":283,"risk":29,"cat":"green"},{"name":"Boney Hay Working Mens Club","lat":52.68907,"lon":-1.93064,"postcode":"WS7 2PB","la":"Lichfield","era":"trad","nn":558,"risk":30,"cat":"green"},{"name":"Brewhouse & Kitchen","lat":52.68224,"lon":-1.82953,"postcode":"WS13 6PW","la":"Lichfield","era":"mod","nn":38,"risk":27,"cat":"green"},{"name":"Burntwood Rugby Club Inc North Shore Cafe","lat":52.6721,"lon":-1.94301,"postcode":"WS7 3PH","la":"Lichfield","era":"other","nn":518,"risk":30,"cat":"green"},{"name":"Chadwick Arms","lat":52.75776,"lon":-1.8787,"postcode":"WS15 3QN","la":"Lichfield","era":"trad","nn":1547,"risk":60,"cat":"amber"},{"name":"Chase Sailing Club","lat":52.66652,"lon":-1.94,"postcode":"WS7 3QY","la":"Lichfield","era":"other","nn":421,"risk":30,"cat":"green"},{"name":"Chasetown Football Club","lat":52.66964,"lon":-1.93648,"postcode":"WS7 3QL","la":"Lichfield","era":"other","nn":127,"risk":27,"cat":"green"},{"name":"Chetwynd Arms","lat":52.72861,"lon":-1.91162,"postcode":"WS15 1QB","la":"Lichfield","era":"trad","nn":1637,"risk":61,"cat":"red"},{"name":"Cottage Of Content","lat":52.67273,"lon":-1.92933,"postcode":"WS7 4QE","la":"Lichfield","era":"other","nn":367,"risk":29,"cat":"green"},{"name":"Darnford Moors Golf Club & Restaurant","lat":52.67578,"lon":-1.79743,"postcode":"WS14 9JG","la":"Lichfield","era":"other","nn":446,"risk":47,"cat":"amber"},{"name":"DGBG Ltd @ Lichfield Rugby Club Bar","lat":52.67179,"lon":-1.79807,"postcode":"WS14 9RW","la":"Lichfield","era":"other","nn":446,"risk":47,"cat":"amber"},{"name":"Duke Of Wellington","lat":52.6729,"lon":-1.83155,"postcode":"WS14 9BJ","la":"Lichfield","era":"trad","nn":526,"risk":30,"cat":"green"},{"name":"Duke Of York","lat":52.68386,"lon":-1.82271,"postcode":"WS13 6DY","la":"Lichfield","era":"trad","nn":120,"risk":27,"cat":"green"},{"name":"Elias Ashmole Club & Institute","lat":52.66585,"lon":-1.90227,"postcode":"WS7 0LF","la":"Lichfield","era":"other","nn":538,"risk":50,"cat":"amber"},{"name":"Footherley Working Mens Club","lat":52.62306,"lon":-1.84796,"postcode":"WS14 0HQ","la":"Lichfield","era":"trad","nn":1560,"risk":60,"cat":"amber"},{"name":"George & Dragon","lat":52.68614,"lon":-1.83376,"postcode":"WS13 7AJ","la":"Lichfield","era":"trad","nn":326,"risk":29,"cat":"green"},{"name":"George IV","lat":52.6831,"lon":-1.82701,"postcode":"WS13 6LU","la":"Lichfield","era":"trad","nn":16,"risk":27,"cat":"green"},{"name":"Grangemoor Working Mens Club","lat":52.67983,"lon":-1.91816,"postcode":"WS7 0BG","la":"Lichfield","era":"trad","nn":626,"risk":36,"cat":"amber"},{"name":"Greyhound Inn","lat":52.78214,"lon":-1.92646,"postcode":"WS15 3LN","la":"Lichfield","era":"trad","nn":592,"risk":51,"cat":"amber"},{"name":"Hammerwich Cricket Club","lat":52.6705,"lon":-1.90012,"postcode":"WS7 0JQ","la":"Lichfield","era":"other","nn":538,"risk":48,"cat":"amber"},{"name":"Holly Bush","lat":52.62335,"lon":-1.82069,"postcode":"WS14 0QA","la":"Lichfield","era":"trad","nn":1813,"risk":62,"cat":"red"},{"name":"Horse & Jockey","lat":52.68251,"lon":-1.83105,"postcode":"WS13 6QA","la":"Lichfield","era":"trad","nn":52,"risk":27,"cat":"green"},{"name":"Lichfield Arts","lat":52.683,"lon":-1.82716,"postcode":"WS13 6LX","la":"Lichfield","era":"other","nn":16,"risk":27,"cat":"green"},{"name":"Lichfield City Football Club Ltd","lat":52.69138,"lon":-1.81503,"postcode":"WS13 6BX","la":"Lichfield","era":"other","nn":441,"risk":47,"cat":"amber"},{"name":"Lichfield Conservative Club","lat":52.67746,"lon":-1.82952,"postcode":"WS13 6PG","la":"Lichfield","era":"other","nn":283,"risk":29,"cat":"green"},{"name":"Lichfield Golf And Country Club","lat":52.71378,"lon":-1.84517,"postcode":"WS13 8HE","la":"Lichfield","era":"other","nn":2128,"risk":64,"cat":"red"},{"name":"Lichfield Social Club","lat":52.69442,"lon":-1.81923,"postcode":"WS13 6TS","la":"Lichfield","era":"mod","nn":441,"risk":50,"cat":"amber"},{"name":"Lichfield Sports Club","lat":52.69332,"lon":-1.84685,"postcode":"WS13 7SQ","la":"Lichfield","era":"other","nn":219,"risk":33,"cat":"amber"},{"name":"Longdon Club & Institute","lat":52.72618,"lon":-1.88272,"postcode":"WS15 4PA","la":"Lichfield","era":"other","nn":274,"risk":48,"cat":"amber"},{"name":"Miners Rest","lat":52.66901,"lon":-1.93182,"postcode":"WS7 4QS","la":"Lichfield","era":"other","nn":197,"risk":28,"cat":"green"},{"name":"Paradise","lat":52.68205,"lon":-1.83089,"postcode":"WS13 6QA","la":"Lichfield","era":"other","nn":52,"risk":27,"cat":"green"},{"name":"Plum Pudding","lat":52.74522,"lon":-1.88866,"postcode":"WS15 4AZ","la":"Lichfield","era":"other","nn":587,"risk":48,"cat":"amber"},{"name":"Queens Head","lat":52.68176,"lon":-1.83242,"postcode":"WS13 6QD","la":"Lichfield","era":"trad","nn":108,"risk":27,"cat":"green"},{"name":"Ricco & Loren","lat":52.68323,"lon":-1.82825,"postcode":"WS13 6LH","la":"Lichfield","era":"other","nn":22,"risk":27,"cat":"green"},{"name":"Royal Oak","lat":52.63161,"lon":-1.89808,"postcode":"WS9 9DY","la":"Lichfield","era":"trad","nn":261,"risk":48,"cat":"amber"},{"name":"Shoulder Of Mutton","lat":52.76839,"lon":-1.84055,"postcode":"WS15 3RZ","la":"Lichfield","era":"other","nn":2442,"risk":66,"cat":"red"},{"name":"St Matthews Sports & Social Club","lat":52.68097,"lon":-1.89207,"postcode":"WS7 9EP","la":"Lichfield","era":"mod","nn":1063,"risk":57,"cat":"amber"},{"name":"Swan At Stonnall Ltd","lat":52.62949,"lon":-1.89972,"postcode":"WS9 9DX","la":"Lichfield","era":"trad","nn":261,"risk":48,"cat":"amber"},{"name":"The Acorn Inn","lat":52.68355,"lon":-1.8258,"postcode":"WS13 6JJ","la":"Lichfield","era":"trad","nn":9,"risk":27,"cat":"green"},{"name":"The Ash Tree","lat":52.74636,"lon":-1.90993,"postcode":"WS15 1PL","la":"Lichfield","era":"other","nn":563,"risk":48,"cat":"amber"},{"name":"The Beacon","lat":52.68371,"lon":-1.82559,"postcode":"WS13 6JJ","la":"Lichfield","era":"other","nn":15,"risk":27,"cat":"green"},{"name":"The Bell Inn","lat":52.67358,"lon":-1.76208,"postcode":"WS14 9JR","la":"Lichfield","era":"trad","nn":208,"risk":48,"cat":"amber"},{"name":"The Boat Inn","lat":52.65439,"lon":-1.88422,"postcode":"WS14 0BU","la":"Lichfield","era":"trad","nn":1763,"risk":61,"cat":"red"},{"name":"The Bowling Green","lat":52.67915,"lon":-1.83457,"postcode":"WS13 6QJ","la":"Lichfield","era":"other","nn":325,"risk":29,"cat":"green"},{"name":"The Bulls Head","lat":52.63805,"lon":-1.83505,"postcode":"WS14 0JR","la":"Lichfield","era":"trad","nn":309,"risk":34,"cat":"amber"},{"name":"The Crown","lat":52.671,"lon":-1.93398,"postcode":"WS7 3XF","la":"Lichfield","era":"trad","nn":68,"risk":27,"cat":"green"},{"name":"The Crown Inn","lat":52.74349,"lon":-1.86544,"postcode":"WS15 4DT","la":"Lichfield","era":"trad","nn":161,"risk":45,"cat":"amber"},{"name":"The Dog Inn","lat":52.67193,"lon":-1.76353,"postcode":"WS14 9JU","la":"Lichfield","era":"trad","nn":208,"risk":48,"cat":"amber"},{"name":"The Drill Inn","lat":52.68911,"lon":-1.91107,"postcode":"WS7 9HD","la":"Lichfield","era":"trad","nn":412,"risk":47,"cat":"amber"},{"name":"The Earl Of Lichfield Arms","lat":52.68381,"lon":-1.82677,"postcode":"WS13 6JR","la":"Lichfield","era":"trad","nn":63,"risk":27,"cat":"green"},{"name":"The Feathers Inn","lat":52.68806,"lon":-1.83742,"postcode":"WS13 7BA","la":"Lichfield","era":"trad","nn":148,"risk":28,"cat":"green"},{"name":"The Firs Club & Institute","lat":52.68391,"lon":-1.93397,"postcode":"WS7 1AG","la":"Lichfield","era":"other","nn":296,"risk":31,"cat":"amber"},{"name":"The Fountain","lat":52.68848,"lon":-1.83951,"postcode":"WS13 7BG","la":"Lichfield","era":"other","nn":148,"risk":28,"cat":"green"},{"name":"The Fox & Hounds","lat":52.63848,"lon":-1.83957,"postcode":"WS14 0NB","la":"Lichfield","era":"trad","nn":213,"risk":33,"cat":"amber"},{"name":"The Fozzers","lat":52.69085,"lon":-1.9229,"postcode":"WS7 2PH","la":"Lichfield","era":"other","nn":558,"risk":48,"cat":"amber"},{"name":"The Hedgehog","lat":52.69244,"lon":-1.84975,"postcode":"WS13 8JB","la":"Lichfield","era":"other","nn":219,"risk":33,"cat":"amber"},{"name":"The Inkwell","lat":52.67364,"lon":-1.84217,"postcode":"WS13 6RX","la":"Lichfield","era":"other","nn":721,"risk":34,"cat":"amber"},{"name":"The Junction","lat":52.67039,"lon":-1.93398,"postcode":"WS7 4QQ","la":"Lichfield","era":"other","nn":68,"risk":27,"cat":"green"},{"name":"The Kings Head Pub","lat":52.68288,"lon":-1.83055,"postcode":"WS13 6PW","la":"Lichfield","era":"trad","nn":49,"risk":27,"cat":"green"},{"name":"The Malt Shovel","lat":52.69779,"lon":-1.89745,"postcode":"WS13 8DD","la":"Lichfield","era":"other","nn":760,"risk":52,"cat":"amber"},{"name":"The Nags Head","lat":52.68698,"lon":-1.90606,"postcode":"WS7 9HA","la":"Lichfield","era":"trad","nn":412,"risk":47,"cat":"amber"},{"name":"The Nelson Inn","lat":52.69147,"lon":-1.89314,"postcode":"WS7 9HL","la":"Lichfield","era":"trad","nn":760,"risk":52,"cat":"amber"},{"name":"The Olde Peculiar","lat":52.74258,"lon":-1.86729,"postcode":"WS15 4DP","la":"Lichfield","era":"other","nn":161,"risk":33,"cat":"amber"},{"name":"The Owl","lat":52.66833,"lon":-1.81959,"postcode":"WS14 9QH","la":"Lichfield","era":"other","nn":953,"risk":53,"cat":"amber"},{"name":"The Pig","lat":52.6837,"lon":-1.82581,"postcode":"WS13 6JJ","la":"Lichfield","era":"other","nn":15,"risk":27,"cat":"green"},{"name":"The Plough","lat":52.68276,"lon":-1.77351,"postcode":"WS13 8PY","la":"Lichfield","era":"trad","nn":1279,"risk":58,"cat":"amber"},{"name":"The Plough At Shenstone","lat":52.64023,"lon":-1.84087,"postcode":"WS14 0JN","la":"Lichfield","era":"trad","nn":44,"risk":32,"cat":"amber"},{"name":"The Quill & Scholar","lat":52.68351,"lon":-1.82592,"postcode":"WS13 6JJ","la":"Lichfield","era":"other","nn":9,"risk":27,"cat":"green"},{"name":"The Railway Inn","lat":52.64004,"lon":-1.84143,"postcode":"WS14 0LZ","la":"Lichfield","era":"trad","nn":44,"risk":32,"cat":"amber"},{"name":"The Red Lion","lat":52.71761,"lon":-1.87612,"postcode":"WS15 4QF","la":"Lichfield","era":"trad","nn":1051,"risk":56,"cat":"amber"},{"name":"The Redmore Public House","lat":52.7006,"lon":-1.93392,"postcode":"WS15 4RU","la":"Cannock Chase","era":"other","nn":728,"risk":49,"cat":"amber"},{"name":"The Spiritualist","lat":52.68144,"lon":-1.8282,"postcode":"WS13 6NU","la":"Lichfield","era":"other","nn":93,"risk":27,"cat":"green"},{"name":"The Swan Inn","lat":52.74185,"lon":-1.88194,"postcode":"WS15 4AE","la":"Lichfield","era":"trad","nn":219,"risk":33,"cat":"amber"},{"name":"The Swan With Two Necks","lat":52.72863,"lon":-1.88233,"postcode":"WS15 4PN","la":"Lichfield","era":"trad","nn":274,"risk":48,"cat":"amber"},{"name":"The Three Tuns","lat":52.6751,"lon":-1.85491,"postcode":"WS13 8JL","la":"Lichfield","era":"other","nn":874,"risk":53,"cat":"amber"},{"name":"The Trident","lat":52.6743,"lon":-1.91638,"postcode":"WS7 0DX","la":"Lichfield","era":"other","nn":626,"risk":36,"cat":"amber"},{"name":"The Trooper","lat":52.65641,"lon":-1.85722,"postcode":"WS14 0AN","la":"Lichfield","era":"other","nn":1835,"risk":62,"cat":"red"},{"name":"The Turnpike","lat":52.67988,"lon":-1.80537,"postcode":"WS14 9XU","la":"Lichfield","era":"other","nn":703,"risk":51,"cat":"amber"},{"name":"The Uxbridge Arms","lat":52.66956,"lon":-1.93461,"postcode":"WS7 3QL","la":"Lichfield","era":"trad","nn":102,"risk":27,"cat":"green"},{"name":"The Victoria Inn","lat":52.68727,"lon":-1.94082,"postcode":"WS7 1LY","la":"Lichfield","era":"trad","nn":594,"risk":33,"cat":"amber"},{"name":"The Whippet Inn","lat":52.68392,"lon":-1.82577,"postcode":"WS13 6JP","la":"Lichfield","era":"trad","nn":6,"risk":27,"cat":"green"},{"name":"The Wych Elm","lat":52.68145,"lon":-1.93083,"postcode":"WS7 2BU","la":"Lichfield","era":"trad","nn":132,"risk":27,"cat":"green"},{"name":"Toby Carvery","lat":52.61058,"lon":-1.8374,"postcode":"WS14 0PA","la":"Lichfield","era":"other","nn":740,"risk":52,"cat":"amber"},{"name":"Vintage Liquid Taphouse","lat":52.68135,"lon":-1.93278,"postcode":"WS7 2BX","la":"Lichfield","era":"mod","nn":132,"risk":27,"cat":"green"},{"name":"Walkabout","lat":52.68252,"lon":-1.83015,"postcode":"WS13 6PW","la":"Lichfield","era":"other","nn":49,"risk":27,"cat":"green"},{"name":"White Swan","lat":52.67811,"lon":-1.90712,"postcode":"WS7 0BJ","la":"Lichfield","era":"trad","nn":754,"risk":34,"cat":"amber"},{"name":"Whittington Arms","lat":52.66524,"lon":-1.79019,"postcode":"WS14 9PS","la":"Lichfield","era":"trad","nn":841,"risk":50,"cat":"amber"},{"name":"Whittington Heath Golf Club","lat":52.66519,"lon":-1.77771,"postcode":"WS14 9GX","la":"Lichfield","era":"other","nn":841,"risk":52,"cat":"amber"},{"name":"WIP","lat":52.68406,"lon":-1.82445,"postcode":"WS13 6JW","la":"Lichfield","era":"other","nn":86,"risk":27,"cat":"green"},{"name":"Ye Olde Dun Cow","lat":52.78644,"lon":-1.92128,"postcode":"WS15 3LG","la":"Lichfield","era":"other","nn":592,"risk":51,"cat":"amber"},{"name":"Ye Olde Windmill","lat":52.70297,"lon":-1.92385,"postcode":"WS15 4NF","la":"Lichfield","era":"trad","nn":728,"risk":52,"cat":"amber"},{"name":"Cottage Spring","lat":52.56665,"lon":-2.02189,"postcode":"WS10 9RG","la":"Sandwell","era":"other","nn":458,"risk":27,"cat":"green"},{"name":"Crankhall Lane Social Club Ltd","lat":52.54906,"lon":-1.99311,"postcode":"WS10 0EQ","la":"Sandwell","era":"mod","nn":149,"risk":28,"cat":"green"},{"name":"Friar Park","lat":52.55039,"lon":-1.9934,"postcode":"WS10 0EF","la":"Sandwell","era":"other","nn":149,"risk":25,"cat":"green"},{"name":"MJ's Bar","lat":52.54843,"lon":-2.01923,"postcode":"WS10 0AQ","la":"Sandwell","era":"other","nn":341,"risk":27,"cat":"green"},{"name":"Old Blue Ball","lat":52.55701,"lon":-2.02211,"postcode":"WS10 9ED","la":"Sandwell","era":"other","nn":307,"risk":26,"cat":"green"},{"name":"Park Inn Freehouse","lat":52.55381,"lon":-2.01479,"postcode":"WS10 9EN","la":"Sandwell","era":"trad","nn":289,"risk":26,"cat":"green"},{"name":"Rosehill Tavern Bar and Grill","lat":52.55663,"lon":-2.01761,"postcode":"WS10 9DJ","la":"Sandwell","era":"mod","nn":307,"risk":26,"cat":"green"},{"name":"Seven Bar","lat":52.55149,"lon":-2.01901,"postcode":"WS10 7AQ","la":"Sandwell","era":"other","nn":123,"risk":25,"cat":"green"},{"name":"The Bellwether","lat":52.57098,"lon":-2.03503,"postcode":"WS10 9BZ","la":"Sandwell","era":"other","nn":111,"risk":25,"cat":"green"},{"name":"The Brunswick Inn","lat":52.55648,"lon":-2.00268,"postcode":"WS10 0QQ","la":"Sandwell","era":"trad","nn":345,"risk":27,"cat":"green"},{"name":"The Chestnut Tree","lat":52.56835,"lon":-2.0101,"postcode":"WS10 9QY","la":"Sandwell","era":"other","nn":753,"risk":34,"cat":"amber"},{"name":"The Croft","lat":52.55016,"lon":-2.00904,"postcode":"WS10 0DF","la":"Sandwell","era":"other","nn":481,"risk":28,"cat":"green"},{"name":"The Lamp Restaurant & Bar","lat":52.5535,"lon":-2.0215,"postcode":"WS10 7HQ","la":"Sandwell","era":"other","nn":113,"risk":25,"cat":"green"},{"name":"The Old Royal Oak","lat":52.55421,"lon":-2.02401,"postcode":"WS10 7PH","la":"Sandwell","era":"trad","nn":187,"risk":25,"cat":"green"},{"name":"The Pig and Trumpet","lat":52.55256,"lon":-2.01853,"postcode":"WS10 7AY","la":"Sandwell","era":"other","nn":106,"risk":25,"cat":"green"},{"name":"The Roost","lat":52.55594,"lon":-2.02653,"postcode":"WS10 7JB","la":"Sandwell","era":"other","nn":257,"risk":26,"cat":"green"},{"name":"The Village Inn","lat":52.55396,"lon":-2.00563,"postcode":"WS10 0QB","la":"Sandwell","era":"trad","nn":345,"risk":27,"cat":"green"},{"name":"The William Archer","lat":52.55299,"lon":-2.01994,"postcode":"WS10 7HF","la":"Sandwell","era":"other","nn":106,"risk":25,"cat":"green"},{"name":"The Windmill","lat":52.55916,"lon":-1.99594,"postcode":"WS10 0TW","la":"Sandwell","era":"trad","nn":544,"risk":30,"cat":"green"},{"name":"The Woden Inn","lat":52.55432,"lon":-2.0205,"postcode":"WS10 9DF","la":"Sandwell","era":"trad","nn":113,"risk":25,"cat":"green"},{"name":"Wednesbury Cricket Club","lat":52.56158,"lon":-2.00992,"postcode":"WS10 9QL","la":"Sandwell","era":"other","nn":432,"risk":27,"cat":"green"},{"name":"Ye Olde Leathern Bottle","lat":52.55783,"lon":-2.01159,"postcode":"WS10 9DW","la":"Sandwell","era":"other","nn":428,"risk":27,"cat":"green"},{"name":"Andy's Ale House","lat":52.65795,"lon":-2.01787,"postcode":"WS6 6DY","la":"South Staffordshire","era":"other","nn":398,"risk":29,"cat":"green"},{"name":"Cannock Rugby Union F.C","lat":52.71818,"lon":-2.0399,"postcode":"WS12 4PD","la":"South Staffordshire","era":"other","nn":787,"risk":52,"cat":"amber"},{"name":"Chase Gate","lat":52.67435,"lon":-2.04966,"postcode":"WS11 1SY","la":"South Staffordshire","era":"other","nn":621,"risk":51,"cat":"amber"},{"name":"Cheslyn Hay Community & Sports Club","lat":52.66272,"lon":-2.03094,"postcode":"WS6 7ED","la":"South Staffordshire","era":"other","nn":421,"risk":35,"cat":"amber"},{"name":"Colliers Arms","lat":52.66012,"lon":-2.0371,"postcode":"WS6 7AE","la":"South Staffordshire","era":"trad","nn":506,"risk":48,"cat":"amber"},{"name":"Ego @ Tumble Down Farm","lat":52.6834,"lon":-2.06773,"postcode":"WS11 1RU","la":"South Staffordshire","era":"other","nn":1271,"risk":58,"cat":"amber"},{"name":"Fishley Park Golf Range","lat":52.639,"lon":-1.98844,"postcode":"WS3 5AE","la":"Walsall","era":"other","nn":1244,"risk":55,"cat":"amber"},{"name":"Great Wyrley Sports And Social Club","lat":52.6583,"lon":-2.012,"postcode":"WS6 6DP","la":"South Staffordshire","era":"mod","nn":386,"risk":29,"cat":"green"},{"name":"Harrisons Sport And Social Club Ltd","lat":52.65342,"lon":-2.01473,"postcode":"WS6 6EU","la":"South Staffordshire","era":"mod","nn":315,"risk":31,"cat":"amber"},{"name":"Longford Social Club","lat":52.68395,"lon":-2.0489,"postcode":"WS11 1PY","la":"Cannock Chase","era":"mod","nn":448,"risk":47,"cat":"amber"},{"name":"New Inns","lat":52.66585,"lon":-2.02744,"postcode":"WS6 7EQ","la":"South Staffordshire","era":"trad","nn":421,"risk":32,"cat":"amber"},{"name":"Olde Wyrley Hall","lat":52.66462,"lon":-2.02081,"postcode":"WS6 6LL","la":"South Staffordshire","era":"other","nn":467,"risk":30,"cat":"green"},{"name":"Shoal Hill Tavern","lat":52.69261,"lon":-2.04956,"postcode":"WS11 1RF","la":"Cannock Chase","era":"other","nn":964,"risk":54,"cat":"amber"},{"name":"The Barns","lat":52.71336,"lon":-2.04845,"postcode":"WS12 4PB","la":"South Staffordshire","era":"other","nn":787,"risk":52,"cat":"amber"},{"name":"The Ivy House","lat":52.63898,"lon":-2.01127,"postcode":"WS6 6AY","la":"South Staffordshire","era":"other","nn":249,"risk":46,"cat":"amber"},{"name":"The Royal Oak","lat":52.66579,"lon":-2.0136,"postcode":"WS6 6PE","la":"South Staffordshire","era":"trad","nn":204,"risk":28,"cat":"green"},{"name":"The Star Inn Public House","lat":52.66421,"lon":-2.01205,"postcode":"WS6 6NQ","la":"South Staffordshire","era":"trad","nn":204,"risk":28,"cat":"green"},{"name":"Warrens Restaurant And Bar","lat":52.63677,"lon":-2.01068,"postcode":"WS6 6AZ","la":"South Staffordshire","era":"other","nn":249,"risk":33,"cat":"amber"},{"name":"Wheatsheaf","lat":52.6546,"lon":-2.01049,"postcode":"WS6 6HX","la":"South Staffordshire","era":"trad","nn":315,"risk":31,"cat":"amber"},{"name":"Wolverhampton Sporting Community F.C","lat":52.65957,"lon":-2.00668,"postcode":"WS6 6AA","la":"South Staffordshire","era":"other","nn":386,"risk":29,"cat":"green"},{"name":"Aldridge Conservative & Union Club","lat":52.60303,"lon":-1.91755,"postcode":"WS9 8NS","la":"Walsall","era":"other","nn":169,"risk":25,"cat":"green"},{"name":"Aldridge Sailing Club","lat":52.61009,"lon":-1.95426,"postcode":"WS4 1HG","la":"Walsall","era":"other","nn":320,"risk":28,"cat":"green"},{"name":"Aldridge Social Club","lat":52.60433,"lon":-1.91176,"postcode":"WS9 8NH","la":"Walsall","era":"mod","nn":0,"risk":24,"cat":"green"},{"name":"Aldridge Stick And Wicket Club","lat":52.60433,"lon":-1.91176,"postcode":"WS9 8NH","la":"Walsall","era":"other","nn":0,"risk":24,"cat":"green"},{"name":"Anchor Inn","lat":52.64009,"lon":-1.92208,"postcode":"WS8 6DP","la":"Walsall","era":"trad","nn":1082,"risk":54,"cat":"amber"},{"name":"Bar 10","lat":52.58598,"lon":-1.98657,"postcode":"WS2 8LR","la":"Walsall","era":"mod","nn":47,"risk":24,"cat":"green"},{"name":"Bar NV","lat":52.58147,"lon":-1.98492,"postcode":"WS1 3QD","la":"Walsall","era":"mod","nn":179,"risk":25,"cat":"green"},{"name":"Beechdale Social Club","lat":52.60131,"lon":-2.0074,"postcode":"WS2 7DX","la":"Walsall","era":"mod","nn":501,"risk":47,"cat":"amber"},{"name":"Beeches Club","lat":52.60544,"lon":-1.9909,"postcode":"WS3 1HB","la":"Walsall","era":"other","nn":120,"risk":24,"cat":"green"},{"name":"Bell Inn","lat":52.62042,"lon":-2.00461,"postcode":"WS3 2JN","la":"Walsall","era":"trad","nn":200,"risk":25,"cat":"green"},{"name":"Bentley Green Beefeater","lat":52.58204,"lon":-2.02602,"postcode":"WS2 0WB","la":"Walsall","era":"other","nn":699,"risk":34,"cat":"amber"},{"name":"Bentley Moor Club","lat":52.5904,"lon":-2.00154,"postcode":"WS2 8RU","la":"Walsall","era":"other","nn":160,"risk":25,"cat":"green"},{"name":"Birchills Liberal Club","lat":52.59257,"lon":-1.99327,"postcode":"WS2 8QD","la":"Walsall","era":"other","nn":220,"risk":25,"cat":"green"},{"name":"Black Country Arms","lat":52.58331,"lon":-1.97894,"postcode":"WS1 1QW","la":"Walsall","era":"trad","nn":159,"risk":25,"cat":"green"},{"name":"Bloxwich Golf Club","lat":52.62884,"lon":-2.00408,"postcode":"WS3 3PQ","la":"Walsall","era":"other","nn":655,"risk":28,"cat":"green"},{"name":"Bloxwich Memorial Club","lat":52.61656,"lon":-2.00312,"postcode":"WS3 3HP","la":"Walsall","era":"other","nn":109,"risk":24,"cat":"green"},{"name":"Bloxwich Stafford Road Sports Club","lat":52.62221,"lon":-2.00437,"postcode":"WS3 3NJ","la":"Walsall","era":"other","nn":200,"risk":25,"cat":"green"},{"name":"Bradford Arms","lat":52.57685,"lon":-2.00183,"postcode":"WS2 9HE","la":"Walsall","era":"trad","nn":361,"risk":29,"cat":"green"},{"name":"Bradford Arms Public House","lat":52.57381,"lon":-1.98805,"postcode":"WS1 4LA","la":"Walsall","era":"trad","nn":236,"risk":25,"cat":"green"},{"name":"Brewers Fayre","lat":52.58586,"lon":-1.98723,"postcode":"WS2 8LR","la":"Walsall","era":"other","nn":47,"risk":24,"cat":"green"},{"name":"Brickmakers Arms","lat":52.62714,"lon":-1.92455,"postcode":"WS9 9JB","la":"Walsall","era":"trad","nn":188,"risk":30,"cat":"green"},{"name":"Bridge Bar","lat":52.58478,"lon":-1.9809,"postcode":"WS1 1DP","la":"Walsall","era":"other","nn":44,"risk":24,"cat":"green"},{"name":"Broadway Toby Carvery","lat":52.58134,"lon":-1.96102,"postcode":"WS1 2QA","la":"Walsall","era":"other","nn":389,"risk":26,"cat":"green"},{"name":"Brownhills & Walsall Wood Fellowship","lat":52.62823,"lon":-1.92242,"postcode":"WS9 9HZ","la":"Walsall","era":"trad","nn":188,"risk":30,"cat":"green"},{"name":"Butts Tavern","lat":52.59146,"lon":-1.97519,"postcode":"WS4 2BJ","la":"Walsall","era":"other","nn":493,"risk":27,"cat":"green"},{"name":"Calderfields Golf and Country Club Ltd","lat":52.5896,"lon":-1.94298,"postcode":"WS4 2JS","la":"Walsall","era":"other","nn":865,"risk":50,"cat":"amber"},{"name":"Chameleons","lat":52.56788,"lon":-2.03477,"postcode":"WS10 8DE","la":"Walsall","era":"other","nn":88,"risk":24,"cat":"green"},{"name":"Chuckery Club","lat":52.58273,"lon":-1.96631,"postcode":"WS1 2DL","la":"Walsall","era":"other","nn":192,"risk":25,"cat":"green"},{"name":"Colebatch's Club","lat":52.60966,"lon":-1.99718,"postcode":"WS3 2BD","la":"Walsall","era":"other","nn":228,"risk":25,"cat":"green"},{"name":"Colliseum","lat":52.58259,"lon":-1.98301,"postcode":"WS1 1RZ","la":"Walsall","era":"other","nn":179,"risk":25,"cat":"green"},{"name":"Darlaston Community Association  (Sp","lat":52.5717,"lon":-2.04691,"postcode":"WS10 8NW","la":"Walsall","era":"other","nn":402,"risk":26,"cat":"green"},{"name":"Darlaston Conservative Club","lat":52.57149,"lon":-2.03758,"postcode":"WS10 8ET","la":"Walsall","era":"other","nn":182,"risk":25,"cat":"green"},{"name":"Darlaston Sports & Labour Club","lat":52.5695,"lon":-2.03782,"postcode":"WS10 8DP","la":"Walsall","era":"other","nn":145,"risk":25,"cat":"green"},{"name":"Duke Of York","lat":52.58113,"lon":-1.96736,"postcode":"WS1 2LH","la":"Walsall","era":"trad","nn":192,"risk":25,"cat":"green"},{"name":"Farmers Boy","lat":52.6113,"lon":-1.94997,"postcode":"WS4 1HH","la":"Walsall","era":"other","nn":320,"risk":28,"cat":"green"},{"name":"Flan O' Briens","lat":52.58341,"lon":-1.97578,"postcode":"WS1 2EU","la":"Walsall","era":"other","nn":0,"risk":24,"cat":"green"},{"name":"Gillity Wines & Spirits","lat":52.57624,"lon":-1.95825,"postcode":"WS5 3PJ","la":"Walsall","era":"other","nn":598,"risk":28,"cat":"green"},{"name":"Green Dragon","lat":52.56906,"lon":-2.0346,"postcode":"WS10 8DY","la":"Walsall","era":"trad","nn":49,"risk":24,"cat":"green"},{"name":"Green Rock Tavern","lat":52.61855,"lon":-1.98784,"postcode":"WS3 1NG","la":"Walsall","era":"other","nn":337,"risk":31,"cat":"amber"},{"name":"Greenhouse Club","lat":52.57807,"lon":-2.03404,"postcode":"WS10 8JG","la":"Walsall","era":"mod","nn":275,"risk":26,"cat":"green"},{"name":"Gunners Club - Bar","lat":52.61127,"lon":-2.0,"postcode":"WS3 2DD","la":"Walsall","era":"other","nn":68,"risk":24,"cat":"green"},{"name":"Hatherton Arms","lat":52.61321,"lon":-2.00514,"postcode":"WS3 2DQ","la":"Walsall","era":"trad","nn":259,"risk":25,"cat":"green"},{"name":"Horse & Jockey","lat":52.56795,"lon":-2.03101,"postcode":"WS10 9JS","la":"Walsall","era":"trad","nn":210,"risk":25,"cat":"green"},{"name":"Horse and Jockey","lat":52.62251,"lon":-1.93879,"postcode":"WS9 9AJ","la":"Walsall","era":"trad","nn":0,"risk":26,"cat":"green"},{"name":"Hungry Horse (Hussey Arms)","lat":52.65157,"lon":-1.93922,"postcode":"WS8 7JP","la":"Walsall","era":"trad","nn":483,"risk":30,"cat":"green"},{"name":"Jacqueline Jones","lat":52.56828,"lon":-2.045,"postcode":"WS10 8QU","la":"Walsall","era":"other","nn":402,"risk":26,"cat":"green"},{"name":"James Bridge Copper Social Club","lat":52.57695,"lon":-2.00717,"postcode":"WS2 9RX","la":"Walsall","era":"mod","nn":361,"risk":31,"cat":"amber"},{"name":"Jiggers Whistle","lat":52.64829,"lon":-1.93453,"postcode":"WS8 6ED","la":"Walsall","era":"other","nn":159,"risk":25,"cat":"green"},{"name":"Kathmandu Durbar @ The Four Crosses","lat":52.61894,"lon":-1.95006,"postcode":"WS4 1RN","la":"Walsall","era":"other","nn":0,"risk":26,"cat":"green"},{"name":"Kings Head","lat":52.61576,"lon":-1.98981,"postcode":"WS3 1LU","la":"Walsall","era":"trad","nn":337,"risk":26,"cat":"green"},{"name":"London Midland Railway Clubs Association (Walsall Branch) We","lat":52.57405,"lon":-1.99355,"postcode":"WS1 4JG","la":"Walsall","era":"trad","nn":346,"risk":26,"cat":"green"},{"name":"Lyndon House Hotel and Pub","lat":52.58356,"lon":-1.97642,"postcode":"WS1 2HA","la":"Walsall","era":"mod","nn":46,"risk":24,"cat":"green"},{"name":"Magic Lantern","lat":52.59939,"lon":-2.01411,"postcode":"WS2 7JW","la":"Walsall","era":"other","nn":501,"risk":47,"cat":"amber"},{"name":"Makoto Bar","lat":52.58505,"lon":-1.97879,"postcode":"WS1 1JQ","la":"Walsall","era":"other","nn":38,"risk":24,"cat":"green"},{"name":"Manhattans","lat":52.58622,"lon":-1.97824,"postcode":"WS1 1SL","la":"Walsall","era":"other","nn":136,"risk":25,"cat":"green"},{"name":"Manor Arms","lat":52.60204,"lon":-1.95373,"postcode":"WS4 1LG","la":"Walsall","era":"trad","nn":51,"risk":26,"cat":"green"},{"name":"Masters (Home of Snooker)","lat":52.58477,"lon":-1.97783,"postcode":"WS1 1JQ","la":"Walsall","era":"other","nn":53,"risk":24,"cat":"green"},{"name":"Nags Head","lat":52.5756,"lon":-2.03381,"postcode":"WS10 8JP","la":"Walsall","era":"trad","nn":248,"risk":25,"cat":"green"},{"name":"New Inn","lat":52.58823,"lon":-1.98973,"postcode":"WS2 8NU","la":"Walsall","era":"trad","nn":265,"risk":25,"cat":"green"},{"name":"New Navigation Inn","lat":52.59113,"lon":-1.99551,"postcode":"WS2 8QH","la":"Walsall","era":"trad","nn":0,"risk":24,"cat":"green"},{"name":"Old House at Home","lat":52.63273,"lon":-1.96772,"postcode":"WS3 4NT","la":"Walsall","era":"mod","nn":125,"risk":27,"cat":"green"},{"name":"One Man And His Dog","lat":52.63029,"lon":-2.01349,"postcode":"WS3 3UB","la":"Walsall","era":"other","nn":655,"risk":33,"cat":"amber"},{"name":"Pelsall Cricket And Sports Club","lat":52.62219,"lon":-1.96744,"postcode":"WS3 4BP","la":"Walsall","era":"other","nn":440,"risk":44,"cat":"amber"},{"name":"Pelsall Social Club And Institute","lat":52.63385,"lon":-1.96795,"postcode":"WS3 4NX","la":"Walsall","era":"mod","nn":125,"risk":27,"cat":"green"},{"name":"Plough & Harrow","lat":52.61617,"lon":-1.88747,"postcode":"WS9 0LS","la":"Walsall","era":"trad","nn":1402,"risk":56,"cat":"amber"},{"name":"Prince of Wales","lat":52.6163,"lon":-2.00467,"postcode":"WS3 3LE","la":"Walsall","era":"trad","nn":109,"risk":24,"cat":"green"},{"name":"Prince Of Wales","lat":52.65642,"lon":-1.93559,"postcode":"WS8 7NP","la":"Walsall","era":"trad","nn":592,"risk":33,"cat":"amber"},{"name":"Q Bar","lat":52.62251,"lon":-1.93879,"postcode":"WS9 9AJ","la":"Walsall","era":"other","nn":0,"risk":26,"cat":"green"},{"name":"Queens","lat":52.62913,"lon":-1.96658,"postcode":"WS3 4AY","la":"Walsall","era":"trad","nn":363,"risk":29,"cat":"green"},{"name":"Queens Head","lat":52.61515,"lon":-2.00303,"postcode":"WS3 3HE","la":"Walsall","era":"trad","nn":157,"risk":25,"cat":"green"},{"name":"Railway","lat":52.60438,"lon":-1.99121,"postcode":"WS3 2UY","la":"Walsall","era":"trad","nn":120,"risk":24,"cat":"green"},{"name":"Red Lion","lat":52.58549,"lon":-1.9848,"postcode":"WS1 1NW","la":"Walsall","era":"trad","nn":131,"risk":25,"cat":"green"},{"name":"Red Lion","lat":52.56139,"lon":-2.04616,"postcode":"WS10 7RL","la":"Walsall","era":"trad","nn":770,"risk":34,"cat":"amber"},{"name":"Religion","lat":52.58472,"lon":-1.97861,"postcode":"WS1 1HR","la":"Walsall","era":"other","nn":38,"risk":24,"cat":"green"},{"name":"Rock Steady Eddies","lat":52.59238,"lon":-1.98561,"postcode":"WS2 8EA","la":"Walsall","era":"other","nn":98,"risk":24,"cat":"green"},{"name":"Rose & Crown","lat":52.59113,"lon":-1.99551,"postcode":"WS2 8QH","la":"Walsall","era":"trad","nn":0,"risk":24,"cat":"green"},{"name":"Rushall Labour Club","lat":52.60794,"lon":-1.95972,"postcode":"WS4 1HB","la":"Walsall","era":"other","nn":439,"risk":29,"cat":"green"},{"name":"Rushall Olympic Football Club","lat":52.59919,"lon":-1.94084,"postcode":"WS9 0JX","la":"Walsall","era":"other","nn":703,"risk":34,"cat":"amber"},{"name":"Saddlers Arms","lat":52.62826,"lon":-1.9936,"postcode":"WS3 3PS","la":"Walsall","era":"trad","nn":363,"risk":31,"cat":"amber"},{"name":"Samras","lat":52.5762,"lon":-1.983,"postcode":"WS1 3RN","la":"Walsall","era":"other","nn":325,"risk":26,"cat":"green"},{"name":"Sankey Working Mens Club","lat":52.65044,"lon":-1.9245,"postcode":"WS8 6JB","la":"Walsall","era":"trad","nn":499,"risk":32,"cat":"amber"},{"name":"Shoulder Of Mutton","lat":52.6474,"lon":-1.93268,"postcode":"WS8 6AA","la":"Walsall","era":"other","nn":159,"risk":27,"cat":"green"},{"name":"Sir Charles Napier","lat":52.57196,"lon":-1.98976,"postcode":"WS1 4LW","la":"Walsall","era":"other","nn":236,"risk":25,"cat":"green"},{"name":"Slush and Spritz","lat":52.56418,"lon":-1.94545,"postcode":"WS5 3LG","la":"Walsall","era":"other","nn":837,"risk":49,"cat":"amber"},{"name":"Smithys Forge","lat":52.64937,"lon":-1.93168,"postcode":"WS8 6HR","la":"Walsall","era":"trad","nn":227,"risk":25,"cat":"green"},{"name":"Spring Cottage","lat":52.58507,"lon":-1.97399,"postcode":"WS1 2JA","la":"Walsall","era":"other","nn":157,"risk":25,"cat":"green"},{"name":"Swan Inn","lat":52.56863,"lon":-2.03441,"postcode":"WS10 8AA","la":"Walsall","era":"trad","nn":49,"risk":24,"cat":"green"},{"name":"The Alma Inn","lat":52.5913,"lon":-2.00339,"postcode":"WS2 8SP","la":"Walsall","era":"trad","nn":160,"risk":25,"cat":"green"},{"name":"The Avion (Wetherspoon)","lat":52.60411,"lon":-1.91932,"postcode":"WS9 8PT","la":"Walsall","era":"other","nn":0,"risk":24,"cat":"green"},{"name":"The Beacon Way","lat":52.6263,"lon":-1.98931,"postcode":"WS3 3DW","la":"Walsall","era":"other","nn":363,"risk":44,"cat":"amber"},{"name":"The Black Horse","lat":52.56372,"lon":-2.02666,"postcode":"WS10 9JE","la":"Walsall","era":"trad","nn":458,"risk":27,"cat":"green"},{"name":"The Boathouse Rushall","lat":52.60248,"lon":-1.95354,"postcode":"WS4 1LG","la":"Walsall","era":"mod","nn":51,"risk":26,"cat":"green"},{"name":"The Cambridge Pub","lat":52.57364,"lon":-1.98066,"postcode":"WS1 4BZ","la":"Walsall","era":"other","nn":325,"risk":26,"cat":"green"},{"name":"The Crown","lat":52.65638,"lon":-1.95274,"postcode":"WS8 7JU","la":"Walsall","era":"trad","nn":217,"risk":45,"cat":"amber"},{"name":"The Crown","lat":52.60411,"lon":-1.91932,"postcode":"WS9 8PT","la":"Walsall","era":"trad","nn":0,"risk":24,"cat":"green"},{"name":"The Crown Bar & Grill","lat":52.56723,"lon":-2.03814,"postcode":"WS10 8TN","la":"Walsall","era":"other","nn":238,"risk":25,"cat":"green"},{"name":"The Crown Bar & Grill","lat":52.60771,"lon":-1.99615,"postcode":"WS3 2BH","la":"Walsall","era":"other","nn":228,"risk":25,"cat":"green"},{"name":"The Crown Inn","lat":52.59081,"lon":-1.98649,"postcode":"WS2 8HP","la":"Walsall","era":"trad","nn":75,"risk":24,"cat":"green"},{"name":"The Dilke Arms","lat":52.5877,"lon":-1.95539,"postcode":"WS4 2JL","la":"Walsall","era":"trad","nn":802,"risk":34,"cat":"amber"},{"name":"The Drunken Duck","lat":52.62591,"lon":-1.93238,"postcode":"WS9 9LR","la":"Walsall","era":"other","nn":536,"risk":27,"cat":"green"},{"name":"The Fingerpost","lat":52.63819,"lon":-1.96845,"postcode":"WS3 5AU","la":"Walsall","era":"other","nn":484,"risk":45,"cat":"amber"},{"name":"The Fountain Inn","lat":52.58751,"lon":-1.97849,"postcode":"WS1 1XB","la":"Walsall","era":"trad","nn":144,"risk":25,"cat":"green"},{"name":"The Four Crosses","lat":52.61894,"lon":-1.95006,"postcode":"WS4 1RN","la":"Walsall","era":"trad","nn":0,"risk":26,"cat":"green"},{"name":"The Frying Pan","lat":52.57017,"lon":-2.03597,"postcode":"WS10 8EY","la":"Walsall","era":"other","nn":111,"risk":24,"cat":"green"},{"name":"The Lady Diana","lat":52.61795,"lon":-2.00378,"postcode":"WS3 3SW","la":"Walsall","era":"other","nn":151,"risk":25,"cat":"green"},{"name":"The Lamp Tavern","lat":52.61149,"lon":-1.99907,"postcode":"WS3 2DA","la":"Walsall","era":"other","nn":68,"risk":24,"cat":"green"},{"name":"The Lazy Hill Tavern","lat":52.6166,"lon":-1.91617,"postcode":"WS9 8HB","la":"Walsall","era":"other","nn":1301,"risk":55,"cat":"amber"},{"name":"The Lion Bar & Nightclub","lat":52.58844,"lon":-1.99364,"postcode":"WS2 8NG","la":"Walsall","era":"other","nn":265,"risk":25,"cat":"green"},{"name":"The Old Engine Pub","lat":52.56923,"lon":-2.02874,"postcode":"WS10 8AX","la":"Walsall","era":"other","nn":210,"risk":25,"cat":"green"},{"name":"The Old Irish Harp","lat":52.60363,"lon":-1.88969,"postcode":"WS9 0LP","la":"Walsall","era":"other","nn":1402,"risk":56,"cat":"amber"},{"name":"The Parkbrook","lat":52.5875,"lon":-2.00692,"postcode":"WS2 8RJ","la":"Walsall","era":"other","nn":485,"risk":27,"cat":"green"},{"name":"The Pretty Bricks","lat":52.59168,"lon":-1.98474,"postcode":"WS2 8AF","la":"Walsall","era":"other","nn":0,"risk":24,"cat":"green"},{"name":"The Pretty Bricks","lat":52.59168,"lon":-1.98474,"postcode":"WS2 8AF","la":"Walsall","era":"other","nn":0,"risk":24,"cat":"green"},{"name":"The Prince","lat":52.58735,"lon":-1.98494,"postcode":"WS2 8DF","la":"Walsall","era":"trad","nn":188,"risk":25,"cat":"green"},{"name":"The Railway Inn","lat":52.62595,"lon":-1.96542,"postcode":"WS3 4BH","la":"Walsall","era":"trad","nn":363,"risk":29,"cat":"green"},{"name":"The Red Lion","lat":52.60121,"lon":-1.92495,"postcode":"WS9 0BW","la":"Walsall","era":"trad","nn":499,"risk":27,"cat":"green"},{"name":"The Registry also known as 88th Street, valu Mighty, Sin Cit","lat":52.58508,"lon":-1.98047,"postcode":"WS1 1PT","la":"Walsall","era":"other","nn":0,"risk":24,"cat":"green"},{"name":"The Registry/88th Street/Value Mighty/Sin City Burger/Loco L","lat":52.58508,"lon":-1.98047,"postcode":"WS1 1PT","la":"Walsall","era":"other","nn":0,"risk":24,"cat":"green"},{"name":"The Romping Cat","lat":52.61751,"lon":-2.00902,"postcode":"WS3 2HN","la":"Walsall","era":"other","nn":142,"risk":25,"cat":"green"},{"name":"The Royal Exchange","lat":52.62983,"lon":-1.92775,"postcode":"WS9 9NP","la":"Walsall","era":"trad","nn":369,"risk":31,"cat":"amber"},{"name":"The Seven Stars PH","lat":52.59141,"lon":-1.98599,"postcode":"WS2 8DU","la":"Walsall","era":"other","nn":75,"risk":24,"cat":"green"},{"name":"The Spotted Cow","lat":52.61871,"lon":-2.00638,"postcode":"WS3 2EZ","la":"Walsall","era":"other","nn":6,"risk":24,"cat":"green"},{"name":"The Spring Cottage","lat":52.61635,"lon":-2.00814,"postcode":"WS3 2HW","la":"Walsall","era":"other","nn":142,"risk":25,"cat":"green"},{"name":"The Turtles Head","lat":52.60475,"lon":-1.91651,"postcode":"WS9 8LY","la":"Walsall","era":"trad","nn":203,"risk":25,"cat":"green"},{"name":"The Victoria","lat":52.61753,"lon":-2.00165,"postcode":"WS3 3HS","la":"Walsall","era":"trad","nn":146,"risk":25,"cat":"green"},{"name":"The Victoria","lat":52.5851,"lon":-1.97631,"postcode":"WS1 2AA","la":"Walsall","era":"trad","nn":109,"risk":24,"cat":"green"},{"name":"The Walsall Arms","lat":52.58258,"lon":-1.97274,"postcode":"WS1 2EP","la":"Walsall","era":"trad","nn":225,"risk":25,"cat":"green"},{"name":"The Watering Trough","lat":52.58341,"lon":-1.97578,"postcode":"WS1 2EU","la":"Walsall","era":"other","nn":0,"risk":24,"cat":"green"},{"name":"The White House","lat":52.59585,"lon":-1.932,"postcode":"WS9 0QE","la":"Walsall","era":"other","nn":703,"risk":46,"cat":"amber"},{"name":"Turf Tavern","lat":52.61866,"lon":-2.00637,"postcode":"WS3 2EZ","la":"Walsall","era":"other","nn":6,"risk":24,"cat":"green"},{"name":"Veseyans Rugby Club","lat":52.58737,"lon":-1.90251,"postcode":"WS9 0SQ","la":"Walsall","era":"other","nn":614,"risk":48,"cat":"amber"},{"name":"Walsall Cricket Club","lat":52.57393,"lon":-1.97167,"postcode":"WS1 3BE","la":"Walsall","era":"other","nn":324,"risk":26,"cat":"green"},{"name":"Walsall Golf Club","lat":52.56991,"lon":-1.96465,"postcode":"WS1 3EY","la":"Walsall","era":"other","nn":567,"risk":33,"cat":"amber"},{"name":"Walsall Rugby Club","lat":52.5711,"lon":-1.97281,"postcode":"WS1 3JY","la":"Walsall","era":"other","nn":324,"risk":28,"cat":"green"},{"name":"Waterside Pub","lat":52.65775,"lon":-1.95045,"postcode":"WS8 7LX","la":"Walsall","era":"other","nn":217,"risk":45,"cat":"amber"},{"name":"Wetherspoons","lat":52.58542,"lon":-1.98016,"postcode":"WS1 1SX","la":"Walsall","era":"other","nn":43,"risk":24,"cat":"green"},{"name":"Wheatsheaf","lat":52.61324,"lon":-1.99987,"postcode":"WS3 3JL","la":"Walsall","era":"trad","nn":201,"risk":25,"cat":"green"},{"name":"Why Not Inn","lat":52.57343,"lon":-2.03465,"postcode":"WS10 8LF","la":"Walsall","era":"trad","nn":248,"risk":25,"cat":"green"},{"name":"XO Wines","lat":52.59035,"lon":-1.98516,"postcode":"WS2 8ED","la":"Walsall","era":"other","nn":103,"risk":24,"cat":"green"}]