[{"name":"Barleylands Social Club","lat":51.58617,"lon":0.44431,"postcode":"SS15 4BJ","la":"Basildon","era":"mod","nn":463,"risk":51,"cat":"amber"},{"name":"Basildon & Pitsea Cricket Club","lat":51.57266,"lon":0.48723,"postcode":"SS14 1PF","la":"Basildon","era":"other","nn":634,"risk":38,"cat":"amber"},{"name":"Basildon Rugby Football Club","lat":51.58608,"lon":0.47679,"postcode":"SS14 3AW","la":"Basildon","era":"other","nn":1,"risk":28,"cat":"green"},{"name":"Basildon Sports & Leisure Club","lat":51.58984,"lon":0.48404,"postcode":"SS14 3AP","la":"Basildon","era":"other","nn":0,"risk":28,"cat":"green"},{"name":"Basildon United Football Club","lat":51.58607,"lon":0.4768,"postcode":"SS14 3AW","la":"Basildon","era":"other","nn":1,"risk":28,"cat":"green"},{"name":"Beehive","lat":51.56884,"lon":0.45666,"postcode":"SS14 1DQ","la":"Basildon","era":"other","nn":245,"risk":30,"cat":"green"},{"name":"Benbow Club","lat":51.56876,"lon":0.53053,"postcode":"SS13 2HL","la":"Basildon","era":"other","nn":1068,"risk":58,"cat":"amber"},{"name":"Bowers and Pitsea FC Ltd","lat":51.57262,"lon":0.51637,"postcode":"SS13 2BE","la":"Basildon","era":"other","nn":459,"risk":51,"cat":"amber"},{"name":"British Rail Social Association","lat":51.61436,"lon":0.51876,"postcode":"SS12 0AD","la":"Basildon","era":"mod","nn":73,"risk":29,"cat":"green"},{"name":"Castle Mayne","lat":51.56395,"lon":0.44458,"postcode":"SS16 5RZ","la":"Basildon","era":"other","nn":0,"risk":28,"cat":"green"},{"name":"Club Kingswood","lat":51.55903,"lon":0.4589,"postcode":"SS16 5JP","la":"Basildon","era":"trad","nn":594,"risk":50,"cat":"amber"},{"name":"Cromwell Manor / Grand Events","lat":51.55982,"lon":0.50423,"postcode":"SS16 4UH","la":"Basildon","era":"other","nn":798,"risk":54,"cat":"amber"},{"name":"Culpepper Club","lat":51.58608,"lon":0.48112,"postcode":"SS14 3AP","la":"Basildon","era":"other","nn":298,"risk":30,"cat":"green"},{"name":"David Lloyd Club","lat":51.58362,"lon":0.46066,"postcode":"SS14 3DG","la":"Basildon","era":"other","nn":206,"risk":47,"cat":"amber"},{"name":"DB Shack","lat":51.56395,"lon":0.44458,"postcode":"SS16 5RZ","la":"Basildon","era":"other","nn":0,"risk":28,"cat":"green"},{"name":"Downham Arms","lat":51.61158,"lon":0.50823,"postcode":"SS12 0AR","la":"Basildon","era":"trad","nn":787,"risk":36,"cat":"amber"},{"name":"Fryerns Community Centre","lat":51.57863,"lon":0.4768,"postcode":"SS14 2NN","la":"Basildon","era":"other","nn":0,"risk":28,"cat":"green"},{"name":"Fryerns Social Club","lat":51.57863,"lon":0.4768,"postcode":"SS14 2NN","la":"Basildon","era":"mod","nn":0,"risk":28,"cat":"green"},{"name":"Great Berry Residents Club","lat":51.56414,"lon":0.40721,"postcode":"SS16 6SA","la":"Basildon","era":"other","nn":1005,"risk":58,"cat":"amber"},{"name":"Great Chalvedon Hall","lat":51.57497,"lon":0.51092,"postcode":"SS13 2AN","la":"Basildon","era":"other","nn":459,"risk":51,"cat":"amber"},{"name":"Harvester Darby Digger","lat":51.6007,"lon":0.51985,"postcode":"SS12 9PT","la":"Basildon","era":"trad","nn":1082,"risk":58,"cat":"amber"},{"name":"Jolly Friar Public House","lat":51.58234,"lon":0.4867,"postcode":"SS14 3JT","la":"Basildon","era":"other","nn":385,"risk":31,"cat":"amber"},{"name":"Katz","lat":51.56843,"lon":0.45301,"postcode":"SS14 1DJ","la":"Basildon","era":"other","nn":15,"risk":28,"cat":"green"},{"name":"Miller & Carter","lat":51.5528,"lon":0.42127,"postcode":"SS16 6HU","la":"Basildon","era":"trad","nn":1592,"risk":62,"cat":"red"},{"name":"Owl & Pussycat","lat":51.56362,"lon":0.4633,"postcode":"SS16 5DF","la":"Basildon","era":"other","nn":343,"risk":31,"cat":"amber"},{"name":"Posh Boys Brewery","lat":51.61369,"lon":0.5238,"postcode":"SS11 8BB","la":"Basildon","era":"other","nn":0,"risk":28,"cat":"green"},{"name":"Post Office Sports Club","lat":51.58984,"lon":0.48404,"postcode":"SS14 3AP","la":"Basildon","era":"other","nn":0,"risk":28,"cat":"green"},{"name":"Q Ball Snooker and Sports Bar","lat":51.56853,"lon":0.45315,"postcode":"SS14 1DJ","la":"Basildon","era":"other","nn":15,"risk":28,"cat":"green"},{"name":"Royal British Legion Club","lat":51.61781,"lon":0.52808,"postcode":"SS11 7HL","la":"Basildon","era":"trad","nn":545,"risk":32,"cat":"amber"},{"name":"The Crane","lat":51.58235,"lon":0.49228,"postcode":"SS14 3LP","la":"Basildon","era":"other","nn":349,"risk":36,"cat":"amber"},{"name":"The Duke Public House","lat":51.6117,"lon":0.52035,"postcode":"SS12 9AT","la":"Basildon","era":"trad","nn":148,"risk":29,"cat":"green"},{"name":"The Four Seasons Public House","lat":51.57559,"lon":0.41084,"postcode":"SS15 6AW","la":"Basildon","era":"other","nn":1154,"risk":59,"cat":"amber"},{"name":"The Honey Pot","lat":51.58273,"lon":0.46327,"postcode":"SS14 3TJ","la":"Basildon","era":"other","nn":206,"risk":47,"cat":"amber"},{"name":"The Noak Bridge","lat":51.58844,"lon":0.43869,"postcode":"SS15 4BS","la":"Basildon","era":"trad","nn":463,"risk":51,"cat":"amber"},{"name":"The Plough and Tractor","lat":51.57251,"lon":0.44105,"postcode":"SS15 5HG","la":"Basildon","era":"trad","nn":943,"risk":37,"cat":"amber"},{"name":"The Posh Boys Brewery","lat":51.61369,"lon":0.5238,"postcode":"SS11 8BB","la":"Basildon","era":"other","nn":0,"risk":28,"cat":"green"},{"name":"The Quays","lat":51.58514,"lon":0.46246,"postcode":"SS14 3WB","la":"Basildon","era":"other","nn":210,"risk":32,"cat":"amber"},{"name":"The Watermill","lat":51.58117,"lon":0.49696,"postcode":"SS13 1BW","la":"Basildon","era":"trad","nn":349,"risk":48,"cat":"amber"},{"name":"The Woodlands Club","lat":51.56517,"lon":0.46758,"postcode":"SS16 5UP","la":"Basildon","era":"other","nn":343,"risk":36,"cat":"amber"},{"name":"Vange & Pitsea Social Club Ltd","lat":51.56188,"lon":0.49316,"postcode":"SS16 4TG","la":"Basildon","era":"mod","nn":689,"risk":50,"cat":"amber"},{"name":"Wick Bar","lat":51.60181,"lon":0.53583,"postcode":"SS12 9NR","la":"Basildon","era":"other","nn":1110,"risk":58,"cat":"amber"},{"name":"Wickford Community Association","lat":51.61043,"lon":0.51971,"postcode":"SS12 0QG","la":"Basildon","era":"other","nn":148,"risk":29,"cat":"green"},{"name":"Wickford Railway Club","lat":51.61494,"lon":0.51827,"postcode":"SS12 0AB","la":"Basildon","era":"trad","nn":73,"risk":29,"cat":"green"},{"name":"Winged Horse","lat":51.56807,"lon":0.49268,"postcode":"SS14 1SB","la":"Basildon","era":"trad","nn":634,"risk":50,"cat":"amber"},{"name":"Winston Social Club","lat":51.56892,"lon":0.42363,"postcode":"SS15 6NL","la":"Basildon","era":"mod","nn":1154,"risk":59,"cat":"amber"},{"name":"AJSUKLTD","lat":51.51962,"lon":0.59258,"postcode":"SS8 7AL","la":"Castle Point","era":"other","nn":51,"risk":29,"cat":"green"},{"name":"Anchor Inn","lat":51.54574,"lon":0.56622,"postcode":"SS7 1LS","la":"Castle Point","era":"trad","nn":273,"risk":30,"cat":"green"},{"name":"Benfleet Conservative Club","lat":51.5453,"lon":0.56232,"postcode":"SS7 1NA","la":"Castle Point","era":"other","nn":0,"risk":28,"cat":"green"},{"name":"Benfleet Tavern","lat":51.55402,"lon":0.5549,"postcode":"SS7 5HF","la":"Castle Point","era":"other","nn":923,"risk":55,"cat":"amber"},{"name":"Benfleet Yacht Club","lat":51.54059,"lon":0.56649,"postcode":"SS8 0QT","la":"Castle Point","era":"other","nn":572,"risk":32,"cat":"amber"},{"name":"Boyce Hill Golf & Country Club","lat":51.54971,"lon":0.56878,"postcode":"SS7 1PD","la":"Castle Point","era":"other","nn":275,"risk":30,"cat":"green"},{"name":"Bread And Cheese","lat":51.56241,"lon":0.57578,"postcode":"SS7 1AA","la":"Castle Point","era":"other","nn":838,"risk":54,"cat":"amber"},{"name":"Canvey Club","lat":51.52215,"lon":0.60296,"postcode":"SS8 7SS","la":"Castle Point","era":"other","nn":586,"risk":33,"cat":"amber"},{"name":"Canvey Island Conservative Club","lat":51.51996,"lon":0.58894,"postcode":"SS8 0JA","la":"Castle Point","era":"other","nn":214,"risk":30,"cat":"green"},{"name":"Canvey Island Football Club","lat":51.51776,"lon":0.6157,"postcode":"SS8 7PX","la":"Castle Point","era":"other","nn":696,"risk":53,"cat":"amber"},{"name":"Canvey Island Rugby Union FC","lat":51.52679,"lon":0.59894,"postcode":"SS8 8DY","la":"Castle Point","era":"other","nn":586,"risk":33,"cat":"amber"},{"name":"Canvey Island Social Club","lat":51.52144,"lon":0.59093,"postcode":"SS8 9DE","la":"Castle Point","era":"mod","nn":94,"risk":29,"cat":"green"},{"name":"Castle Hotel Public House","lat":51.55342,"lon":0.6072,"postcode":"SS7 2PB","la":"Castle Point","era":"other","nn":0,"risk":31,"cat":"amber"},{"name":"Castle Point Golf Club","lat":51.53164,"lon":0.58013,"postcode":"SS8 9QB","la":"Castle Point","era":"other","nn":1062,"risk":58,"cat":"amber"},{"name":"Fatty's Bar","lat":51.55342,"lon":0.6072,"postcode":"SS7 2PB","la":"Castle Point","era":"other","nn":0,"risk":31,"cat":"amber"},{"name":"Hadleigh & Thundersley Cricket Club","lat":51.55533,"lon":0.61054,"postcode":"SS7 2NA","la":"Castle Point","era":"other","nn":314,"risk":33,"cat":"amber"},{"name":"Hadleigh Conservative Club","lat":51.55342,"lon":0.6072,"postcode":"SS7 2PB","la":"Castle Point","era":"other","nn":0,"risk":31,"cat":"amber"},{"name":"Half Crown Public House","lat":51.5453,"lon":0.56232,"postcode":"SS7 1NA","la":"Castle Point","era":"trad","nn":0,"risk":28,"cat":"green"},{"name":"Haystack","lat":51.52124,"lon":0.59224,"postcode":"SS8 7AJ","la":"Castle Point","era":"other","nn":94,"risk":29,"cat":"green"},{"name":"Hoy And Helmet","lat":51.5453,"lon":0.56232,"postcode":"SS7 1NA","la":"Castle Point","era":"trad","nn":0,"risk":28,"cat":"green"},{"name":"Lobster Smack","lat":51.51106,"lon":0.55369,"postcode":"SS8 0NR","la":"Castle Point","era":"other","nn":1905,"risk":64,"cat":"red"},{"name":"Motowns Lounge Bar","lat":51.57219,"lon":0.55915,"postcode":"SS7 4EW","la":"Castle Point","era":"mod","nn":264,"risk":35,"cat":"amber"},{"name":"Oyster Bay Sports & Wine Bar","lat":51.51267,"lon":0.59672,"postcode":"SS8 7FJ","la":"Castle Point","era":"other","nn":71,"risk":29,"cat":"green"},{"name":"Rileys Sports Bar","lat":51.56636,"lon":0.55018,"postcode":"SS7 5SF","la":"Castle Point","era":"other","nn":896,"risk":55,"cat":"amber"},{"name":"Royal British Legion","lat":51.5221,"lon":0.58034,"postcode":"SS8 9HB","la":"Castle Point","era":"trad","nn":641,"risk":33,"cat":"amber"},{"name":"Saks Cafe Bar","lat":51.51987,"lon":0.5932,"postcode":"SS8 7AT","la":"Castle Point","era":"other","nn":51,"risk":29,"cat":"green"},{"name":"South Benfleet Social Club","lat":51.5487,"lon":0.56514,"postcode":"SS7 1PA","la":"Castle Point","era":"mod","nn":275,"risk":30,"cat":"green"},{"name":"The Galley Dining Room","lat":51.5199,"lon":0.62515,"postcode":"SS8 7TX","la":"Castle Point","era":"other","nn":696,"risk":53,"cat":"amber"},{"name":"The Monico","lat":51.51284,"lon":0.5977,"postcode":"SS8 7DN","la":"Castle Point","era":"other","nn":71,"risk":29,"cat":"green"},{"name":"The Warehouse Bar","lat":51.5749,"lon":0.56485,"postcode":"SS7 4PS","la":"Castle Point","era":"mod","nn":415,"risk":49,"cat":"amber"},{"name":"The Woodmans Arms","lat":51.57046,"lon":0.5949,"postcode":"SS7 3TA","la":"Castle Point","era":"trad","nn":911,"risk":55,"cat":"amber"},{"name":"Thorney Bay Bar & Restaurant","lat":51.51436,"lon":0.58069,"postcode":"SS8 0DB","la":"Castle Point","era":"mod","nn":845,"risk":52,"cat":"amber"},{"name":"Western Dance Centre","lat":51.55342,"lon":0.6072,"postcode":"SS7 2PB","la":"Castle Point","era":"other","nn":0,"risk":31,"cat":"amber"},{"name":"White Hart Public House","lat":51.56889,"lon":0.58196,"postcode":"SS7 3PF","la":"Castle Point","era":"trad","nn":838,"risk":52,"cat":"amber"},{"name":"Windjammer's Upper Deck","lat":51.51324,"lon":0.60142,"postcode":"SS8 7HG","la":"Castle Point","era":"other","nn":261,"risk":30,"cat":"green"},{"name":"Zach Willsher","lat":51.57141,"lon":0.56275,"postcode":"SS7 4PL","la":"Castle Point","era":"other","nn":264,"risk":48,"cat":"amber"},{"name":"Baresito","lat":51.62499,"lon":0.53956,"postcode":"SS11 7PS","la":"Chelmsford","era":"other","nn":436,"risk":49,"cat":"amber"},{"name":"One Green Bottle","lat":51.62496,"lon":0.57633,"postcode":"SS11 7RH","la":"Chelmsford","era":"other","nn":999,"risk":53,"cat":"amber"},{"name":"Quart Pot","lat":51.62275,"lon":0.53437,"postcode":"SS11 7PN","la":"Chelmsford","era":"other","nn":436,"risk":47,"cat":"amber"},{"name":"The Hawk","lat":51.62115,"lon":0.56323,"postcode":"SS11 7RJ","la":"Rochford","era":"other","nn":999,"risk":56,"cat":"amber"},{"name":"Anchor Inn","lat":51.61749,"lon":0.74273,"postcode":"SS4 3QA","la":"Rochford","era":"trad","nn":1801,"risk":64,"cat":"red"},{"name":"Ballards Gore Golf Club","lat":51.60162,"lon":0.74797,"postcode":"SS4 2DA","la":"Rochford","era":"other","nn":1089,"risk":59,"cat":"amber"},{"name":"Carpenters Arms Wickford Ltd","lat":51.59868,"lon":0.5728,"postcode":"SS11 8TZ","la":"Rochford","era":"trad","nn":935,"risk":55,"cat":"amber"},{"name":"Cherry Tree","lat":51.5841,"lon":0.72998,"postcode":"SS4 2AF","la":"Rochford","era":"other","nn":564,"risk":53,"cat":"amber"},{"name":"Essex Marina Yacht Club","lat":51.62174,"lon":0.79623,"postcode":"SS4 2HF","la":"Rochford","era":"other","nn":1481,"risk":62,"cat":"red"},{"name":"Exhibition Inn","lat":51.55347,"lon":0.79302,"postcode":"SS3 0HZ","la":"Rochford","era":"trad","nn":488,"risk":37,"cat":"amber"},{"name":"Golden Lion","lat":51.58309,"lon":0.7068,"postcode":"SS4 1AB","la":"Rochford","era":"trad","nn":184,"risk":35,"cat":"amber"},{"name":"Grange Community Centre","lat":51.59475,"lon":0.58476,"postcode":"SS6 9EH","la":"Rochford","era":"other","nn":371,"risk":49,"cat":"amber"},{"name":"Great Wakering Community Centre","lat":51.55306,"lon":0.80534,"postcode":"SS3 0EJ","la":"Rochford","era":"other","nn":365,"risk":36,"cat":"amber"},{"name":"Great Wakering Rovers Football Club","lat":51.55974,"lon":0.79828,"postcode":"SS3 0HH","la":"Rochford","era":"other","nn":720,"risk":36,"cat":"amber"},{"name":"Gt. Wakering Royal British Legion","lat":51.55337,"lon":0.80008,"postcode":"SS3 0HF","la":"Rochford","era":"trad","nn":365,"risk":36,"cat":"amber"},{"name":"Hockley Bowling Club","lat":51.60052,"lon":0.66219,"postcode":"SS5 4DG","la":"Rochford","era":"other","nn":109,"risk":35,"cat":"amber"},{"name":"Hockley Community Centre","lat":51.6045,"lon":0.64913,"postcode":"SS5 4XD","la":"Rochford","era":"other","nn":667,"risk":54,"cat":"amber"},{"name":"Horse And Groom","lat":51.57891,"lon":0.70759,"postcode":"SS4 1HA","la":"Rochford","era":"trad","nn":285,"risk":33,"cat":"amber"},{"name":"Hullbridge Community Centre (Bar)","lat":51.62818,"lon":0.61599,"postcode":"SS5 6PA","la":"Rochford","era":"other","nn":0,"risk":31,"cat":"amber"},{"name":"Hullbridge Sports Association","lat":51.61697,"lon":0.61965,"postcode":"SS5 6BJ","la":"Rochford","era":"other","nn":1247,"risk":60,"cat":"amber"},{"name":"Masonic Lodge","lat":51.58143,"lon":0.70689,"postcode":"SS4 1BQ","la":"Rochford","era":"trad","nn":184,"risk":33,"cat":"amber"},{"name":"Paul Pry","lat":51.58277,"lon":0.6003,"postcode":"SS6 7AA","la":"Rochford","era":"other","nn":327,"risk":31,"cat":"amber"},{"name":"Plough & Sail","lat":51.59579,"lon":0.80416,"postcode":"SS4 2EQ","la":"Rochford","era":"trad","nn":2938,"risk":72,"cat":"red"},{"name":"Rankins Cricket Club","lat":51.58043,"lon":0.72434,"postcode":"SS4 2AQ","la":"Rochford","era":"other","nn":564,"risk":50,"cat":"amber"},{"name":"Rayleigh Conservative Club - Bar","lat":51.58921,"lon":0.60604,"postcode":"SS6 7HW","la":"Rochford","era":"other","nn":49,"risk":29,"cat":"green"},{"name":"Rayleigh Lanes Snooker","lat":51.58587,"lon":0.60569,"postcode":"SS6 7EJ","la":"Rochford","era":"other","nn":0,"risk":29,"cat":"green"},{"name":"Rayleigh Lodge","lat":51.5836,"lon":0.62241,"postcode":"SS6 8RW","la":"Rochford","era":"other","nn":856,"risk":55,"cat":"amber"},{"name":"Rayleigh Town Sports And Social Club","lat":51.59546,"lon":0.59001,"postcode":"SS6 9DT","la":"Rochford","era":"mod","nn":371,"risk":51,"cat":"amber"},{"name":"Rochford 100 Rugby Club","lat":51.59667,"lon":0.68565,"postcode":"SS4 3AD","la":"Rochford","era":"other","nn":1103,"risk":59,"cat":"amber"},{"name":"Rollacity","lat":51.57679,"lon":0.71854,"postcode":"SS4 1NE","la":"Rochford","era":"other","nn":569,"risk":38,"cat":"amber"},{"name":"Royal British Legion (Bar)","lat":51.58951,"lon":0.60657,"postcode":"SS6 7HP","la":"Rochford","era":"trad","nn":49,"risk":29,"cat":"green"},{"name":"Royal Oak","lat":51.59292,"lon":0.74071,"postcode":"SS4 2AX","la":"Rochford","era":"trad","nn":1089,"risk":59,"cat":"amber"},{"name":"Smugglers Den Bar \\\\& Grill","lat":51.62789,"lon":0.61354,"postcode":"SS5 6NA","la":"Rochford","era":"mod","nn":53,"risk":32,"cat":"amber"},{"name":"Spa Public House","lat":51.6007,"lon":0.65661,"postcode":"SS5 4QH","la":"Rochford","era":"other","nn":334,"risk":34,"cat":"amber"},{"name":"Spread Eagle","lat":51.58587,"lon":0.60569,"postcode":"SS6 7EJ","la":"Rochford","era":"trad","nn":0,"risk":29,"cat":"green"},{"name":"The  Half Moon","lat":51.58757,"lon":0.60801,"postcode":"SS6 7EW","la":"Rochford","era":"other","nn":0,"risk":29,"cat":"green"},{"name":"The Anchor","lat":51.62767,"lon":0.61422,"postcode":"SS5 6ND","la":"Rochford","era":"trad","nn":53,"risk":32,"cat":"amber"},{"name":"The Castle Inn","lat":51.56205,"lon":0.7867,"postcode":"SS3 0JW","la":"Rochford","era":"trad","nn":840,"risk":55,"cat":"amber"},{"name":"The Cock Inn","lat":51.58309,"lon":0.67825,"postcode":"SS4 1PD","la":"Rochford","era":"trad","nn":1337,"risk":61,"cat":"red"},{"name":"The Half Moon","lat":51.58757,"lon":0.60801,"postcode":"SS6 7EW","la":"Rochford","era":"other","nn":0,"risk":29,"cat":"green"},{"name":"The Marlborough Head","lat":51.5822,"lon":0.70389,"postcode":"SS4 1AX","la":"Rochford","era":"trad","nn":224,"risk":35,"cat":"amber"},{"name":"The Pink Toothbrush","lat":51.58707,"lon":0.60713,"postcode":"SS6 7EW","la":"Rochford","era":"other","nn":83,"risk":29,"cat":"green"},{"name":"The Rayleigh Cricket Club","lat":51.60523,"lon":0.59658,"postcode":"SS6 9RN","la":"Rochford","era":"other","nn":1178,"risk":60,"cat":"amber"},{"name":"The Roebuck","lat":51.58501,"lon":0.60339,"postcode":"SS6 7BU","la":"Rochford","era":"other","nn":186,"risk":30,"cat":"green"},{"name":"The Royal British Legion","lat":51.59957,"lon":0.66258,"postcode":"SS5 4DQ","la":"Rochford","era":"trad","nn":109,"risk":35,"cat":"amber"},{"name":"The Yacht Club @ Brandy Hole Ltd","lat":51.63097,"lon":0.63113,"postcode":"SS5 6QB","la":"Rochford","era":"other","nn":1089,"risk":59,"cat":"amber"},{"name":"Tinks Tipsy Tavern","lat":51.58705,"lon":0.63348,"postcode":"SS6 8NW","la":"Rochford","era":"other","nn":856,"risk":55,"cat":"amber"},{"name":"Up River Yacht Club","lat":51.62818,"lon":0.61599,"postcode":"SS5 6PA","la":"Rochford","era":"other","nn":0,"risk":31,"cat":"amber"},{"name":"Victory Inn","lat":51.6058,"lon":0.6919,"postcode":"SS4 3EU","la":"Rochford","era":"trad","nn":1103,"risk":59,"cat":"amber"},{"name":"Westcliff Rugby & Football Club","lat":51.57202,"lon":0.6858,"postcode":"SS2 6UN","la":"Rochford","era":"other","nn":1090,"risk":59,"cat":"amber"},{"name":"White Hart Inn Hockley Ltd","lat":51.59886,"lon":0.66043,"postcode":"SS5 4NS","la":"Rochford","era":"trad","nn":168,"risk":35,"cat":"amber"},{"name":"Alex Public House","lat":51.535,"lon":0.71174,"postcode":"SS1 1BW","la":"Southend-on-Sea","era":"other","nn":79,"risk":27,"cat":"green"},{"name":"Angel Inn","lat":51.54492,"lon":0.7782,"postcode":"SS3 8UD","la":"Southend-on-Sea","era":"trad","nn":530,"risk":48,"cat":"amber"},{"name":"Barts Bar","lat":51.53984,"lon":0.71337,"postcode":"SS1 2NE","la":"Southend-on-Sea","era":"other","nn":0,"risk":27,"cat":"green"},{"name":"Big George Entertainment Ltd","lat":51.53328,"lon":0.71916,"postcode":"SS1 2EJ","la":"Southend-on-Sea","era":"trad","nn":0,"risk":27,"cat":"green"},{"name":"Brookside Tavern","lat":51.56985,"lon":0.6485,"postcode":"SS9 5PS","la":"Southend-on-Sea","era":"other","nn":252,"risk":46,"cat":"amber"},{"name":"Cafe Vino","lat":51.54238,"lon":0.65471,"postcode":"SS9 1SN","la":"Southend-on-Sea","era":"other","nn":147,"risk":28,"cat":"green"},{"name":"Cellar Wine Bar Ltd","lat":51.54301,"lon":0.665,"postcode":"SS9 1BS","la":"Southend-on-Sea","era":"mod","nn":231,"risk":28,"cat":"green"},{"name":"Chinnerys","lat":51.53328,"lon":0.71916,"postcode":"SS1 2EJ","la":"Southend-on-Sea","era":"trad","nn":0,"risk":27,"cat":"green"},{"name":"Cow & Telescope","lat":51.54035,"lon":0.71478,"postcode":"SS1 2NL","la":"Southend-on-Sea","era":"other","nn":87,"risk":27,"cat":"green"},{"name":"Craftwerk Beers","lat":51.53538,"lon":0.71269,"postcode":"SS1 1BU","la":"Southend-on-Sea","era":"mod","nn":3,"risk":27,"cat":"green"},{"name":"Crooked Billet","lat":51.54047,"lon":0.64935,"postcode":"SS9 2EP","la":"Southend-on-Sea","era":"other","nn":63,"risk":27,"cat":"green"},{"name":"Entice","lat":51.53994,"lon":0.71592,"postcode":"SS1 2LZ","la":"Southend-on-Sea","era":"other","nn":91,"risk":27,"cat":"green"},{"name":"Essex County Bowling Club","lat":51.54362,"lon":0.68626,"postcode":"SS0 8NE","la":"Southend-on-Sea","era":"other","nn":137,"risk":28,"cat":"green"},{"name":"Essex Yacht Club","lat":51.53874,"lon":0.65919,"postcode":"SS9 1BD","la":"Southend-on-Sea","era":"other","nn":333,"risk":29,"cat":"green"},{"name":"Estuary Club","lat":51.54775,"lon":0.63607,"postcode":"SS9 2UJ","la":"Southend-on-Sea","era":"other","nn":365,"risk":49,"cat":"amber"},{"name":"Falcon","lat":51.5331,"lon":0.72166,"postcode":"SS1 2EN","la":"Southend-on-Sea","era":"other","nn":52,"risk":27,"cat":"green"},{"name":"Guildford","lat":51.54276,"lon":0.71821,"postcode":"SS2 5PB","la":"Southend-on-Sea","era":"other","nn":273,"risk":29,"cat":"green"},{"name":"Halfway House Toby Carvery (Thorpe Bay)","lat":51.53049,"lon":0.74367,"postcode":"SS1 3AD","la":"Southend-on-Sea","era":"mod","nn":652,"risk":49,"cat":"amber"},{"name":"Hero's","lat":51.5399,"lon":0.71376,"postcode":"SS1 2NE","la":"Southend-on-Sea","era":"other","nn":28,"risk":27,"cat":"green"},{"name":"Hope Hotel","lat":51.53328,"lon":0.71916,"postcode":"SS1 2EJ","la":"Southend-on-Sea","era":"other","nn":0,"risk":27,"cat":"green"},{"name":"Hush","lat":51.53614,"lon":0.71166,"postcode":"SS1 1AN","la":"Southend-on-Sea","era":"other","nn":70,"risk":27,"cat":"green"},{"name":"Infinity Showbar","lat":51.53537,"lon":0.71274,"postcode":"SS1 1BU","la":"Southend-on-Sea","era":"other","nn":3,"risk":27,"cat":"green"},{"name":"Iveagh Conservative Club","lat":51.54372,"lon":0.66965,"postcode":"SS9 1JW","la":"Southend-on-Sea","era":"other","nn":331,"risk":29,"cat":"green"},{"name":"Mariners Court","lat":51.54174,"lon":0.65928,"postcode":"SS9 1PG","la":"Southend-on-Sea","era":"other","nn":228,"risk":28,"cat":"green"},{"name":"Mawson's Micro Pub","lat":51.5415,"lon":0.7366,"postcode":"SS1 2PP","la":"Southend-on-Sea","era":"other","nn":241,"risk":46,"cat":"amber"},{"name":"Mecca Bingo","lat":51.54476,"lon":0.71594,"postcode":"SS2 5PY","la":"Southend-on-Sea","era":"other","nn":273,"risk":29,"cat":"green"},{"name":"Mile And A Third","lat":51.53899,"lon":0.69314,"postcode":"SS0 7EU","la":"Southend-on-Sea","era":"other","nn":53,"risk":27,"cat":"green"},{"name":"MooMoo Clubrooms Southend","lat":51.5394,"lon":0.71362,"postcode":"SS1 2JY","la":"Southend-on-Sea","era":"mod","nn":52,"risk":27,"cat":"green"},{"name":"Old Walnut Tree","lat":51.5419,"lon":0.74186,"postcode":"SS2 4XA","la":"Southend-on-Sea","era":"other","nn":367,"risk":47,"cat":"amber"},{"name":"Park Tavern","lat":51.54019,"lon":0.70519,"postcode":"SS1 1PQ","la":"Southend-on-Sea","era":"other","nn":365,"risk":29,"cat":"green"},{"name":"Parsons Barn","lat":51.54221,"lon":0.78451,"postcode":"SS3 8UT","la":"Southend-on-Sea","era":"other","nn":495,"risk":48,"cat":"amber"},{"name":"Peggy Sue's Piano Bar","lat":51.54771,"lon":0.6631,"postcode":"SS9 3JP","la":"Southend-on-Sea","era":"other","nn":261,"risk":28,"cat":"green"},{"name":"Popworld","lat":51.53881,"lon":0.71382,"postcode":"SS1 2JE","la":"Southend-on-Sea","era":"other","nn":67,"risk":27,"cat":"green"},{"name":"Porters Pub","lat":51.54763,"lon":0.68302,"postcode":"SS0 9TS","la":"Southend-on-Sea","era":"other","nn":404,"risk":29,"cat":"green"},{"name":"Railway Tavern","lat":51.54912,"lon":0.70845,"postcode":"SS2 6LH","la":"Southend-on-Sea","era":"trad","nn":285,"risk":29,"cat":"green"},{"name":"Rose Inn","lat":51.55185,"lon":0.75996,"postcode":"SS3 0PY","la":"Southend-on-Sea","era":"trad","nn":1478,"risk":59,"cat":"amber"},{"name":"Saks Sports Bar","lat":51.53685,"lon":0.71223,"postcode":"SS1 1AB","la":"Southend-on-Sea","era":"other","nn":41,"risk":27,"cat":"green"},{"name":"Sevens Trike And Motorcycle Club","lat":51.5322,"lon":0.72569,"postcode":"SS1 2ER","la":"Southend-on-Sea","era":"other","nn":252,"risk":28,"cat":"green"},{"name":"Shoebury Conservative Club","lat":51.53074,"lon":0.78253,"postcode":"SS3 9DH","la":"Southend-on-Sea","era":"other","nn":355,"risk":34,"cat":"amber"},{"name":"Shoeburyness Hotel","lat":51.52945,"lon":0.79449,"postcode":"SS3 9AJ","la":"Southend-on-Sea","era":"other","nn":487,"risk":48,"cat":"amber"},{"name":"Southend Brewers Fayre","lat":51.53048,"lon":0.73209,"postcode":"SS1 2YT","la":"Southend-on-Sea","era":"other","nn":152,"risk":28,"cat":"green"},{"name":"Southend Rugby Football Club","lat":51.56359,"lon":0.70837,"postcode":"SS2 5RR","la":"Southend-on-Sea","era":"other","nn":870,"risk":53,"cat":"amber"},{"name":"Strawberry Fields Public House","lat":51.56254,"lon":0.68176,"postcode":"SS2 6GB","la":"Southend-on-Sea","era":"other","nn":1090,"risk":57,"cat":"amber"},{"name":"Sunset","lat":51.53342,"lon":0.71855,"postcode":"SS1 2AU","la":"Southend-on-Sea","era":"other","nn":45,"risk":27,"cat":"green"},{"name":"Switch","lat":51.53939,"lon":0.71058,"postcode":"SS1 1LT","la":"Southend-on-Sea","era":"other","nn":199,"risk":28,"cat":"green"},{"name":"The Bellhouse","lat":51.5693,"lon":0.65204,"postcode":"SS9 5PX","la":"Southend-on-Sea","era":"other","nn":252,"risk":46,"cat":"amber"},{"name":"The Blue Boar","lat":51.54681,"lon":0.70582,"postcode":"SS2 6EL","la":"Southend-on-Sea","era":"other","nn":241,"risk":28,"cat":"green"},{"name":"The Broadway","lat":51.54129,"lon":0.65592,"postcode":"SS9 1AW","la":"Southend-on-Sea","era":"other","nn":147,"risk":28,"cat":"green"},{"name":"The Broker Public House","lat":51.54315,"lon":0.66167,"postcode":"SS9 1JA","la":"Southend-on-Sea","era":"other","nn":228,"risk":28,"cat":"green"},{"name":"The Castle","lat":51.53022,"lon":0.73425,"postcode":"SS1 2YP","la":"Southend-on-Sea","era":"other","nn":152,"risk":28,"cat":"green"},{"name":"The Cliff Hotel","lat":51.53692,"lon":0.70569,"postcode":"SS1 1HH","la":"Southend-on-Sea","era":"other","nn":28,"risk":27,"cat":"green"},{"name":"The Cork Dork","lat":51.53904,"lon":0.67425,"postcode":"SS0 8NU","la":"Southend-on-Sea","era":"other","nn":610,"risk":33,"cat":"amber"},{"name":"The Cornucopia Public House","lat":51.53318,"lon":0.7224,"postcode":"SS1 2EN","la":"Southend-on-Sea","era":"other","nn":52,"risk":27,"cat":"green"},{"name":"The Craftsman","lat":51.54052,"lon":0.69468,"postcode":"SS0 7EW","la":"Southend-on-Sea","era":"mod","nn":135,"risk":28,"cat":"green"},{"name":"The Dickens","lat":51.53801,"lon":0.71287,"postcode":"SS1 1LH","la":"Southend-on-Sea","era":"other","nn":111,"risk":27,"cat":"green"},{"name":"The Elms","lat":51.54763,"lon":0.65736,"postcode":"SS9 3ND","la":"Southend-on-Sea","era":"trad","nn":138,"risk":28,"cat":"green"},{"name":"The Exchange","lat":51.54089,"lon":0.73326,"postcode":"SS1 2PW","la":"Southend-on-Sea","era":"other","nn":241,"risk":46,"cat":"amber"},{"name":"The Hamlet Court","lat":51.53859,"lon":0.69355,"postcode":"SS0 7LP","la":"Southend-on-Sea","era":"other","nn":53,"risk":27,"cat":"green"},{"name":"The Harry","lat":51.54869,"lon":0.64113,"postcode":"SS9 2SF","la":"Southend-on-Sea","era":"other","nn":365,"risk":49,"cat":"amber"},{"name":"The Lamb And Lion Grill","lat":51.53758,"lon":0.68893,"postcode":"SS0 7SD","la":"Southend-on-Sea","era":"trad","nn":331,"risk":29,"cat":"green"},{"name":"The Last Post Public House","lat":51.53651,"lon":0.71247,"postcode":"SS1 1AS","la":"Southend-on-Sea","era":"other","nn":41,"risk":27,"cat":"green"},{"name":"The Mayflower","lat":51.54009,"lon":0.65004,"postcode":"SS9 2EN","la":"Southend-on-Sea","era":"other","nn":0,"risk":27,"cat":"green"},{"name":"The Meadowlark","lat":51.53813,"lon":0.78167,"postcode":"SS3 8EE","la":"Southend-on-Sea","era":"other","nn":495,"risk":35,"cat":"amber"},{"name":"The Melrose","lat":51.54124,"lon":0.69624,"postcode":"SS0 7LJ","la":"Southend-on-Sea","era":"other","nn":135,"risk":28,"cat":"green"},{"name":"The Oakleigh","lat":51.54749,"lon":0.65934,"postcode":"SS9 3NE","la":"Southend-on-Sea","era":"trad","nn":138,"risk":28,"cat":"green"},{"name":"The Oakwood / Chik Box And K-Town / Locked And Loaded","lat":51.57313,"lon":0.63926,"postcode":"SS9 5HX","la":"Southend-on-Sea","era":"trad","nn":736,"risk":49,"cat":"amber"},{"name":"The Old Garrison","lat":51.52989,"lon":0.78748,"postcode":"SS3 9BX","la":"Southend-on-Sea","era":"other","nn":355,"risk":47,"cat":"amber"},{"name":"The Peter Boat Inn","lat":51.54009,"lon":0.65004,"postcode":"SS9 2EN","la":"Southend-on-Sea","era":"trad","nn":0,"risk":27,"cat":"green"},{"name":"The Plough","lat":51.54387,"lon":0.69136,"postcode":"SS0 9LA","la":"Southend-on-Sea","era":"trad","nn":195,"risk":28,"cat":"green"},{"name":"The Sarah Moore Pub","lat":51.54408,"lon":0.654,"postcode":"SS9 1SP","la":"Southend-on-Sea","era":"other","nn":195,"risk":28,"cat":"green"},{"name":"The Saxon King","lat":51.55577,"lon":0.70806,"postcode":"SS2 6QN","la":"Southend-on-Sea","era":"trad","nn":740,"risk":37,"cat":"amber"},{"name":"The Slug And Lettuce","lat":51.53984,"lon":0.71337,"postcode":"SS1 2NE","la":"Southend-on-Sea","era":"other","nn":0,"risk":27,"cat":"green"},{"name":"The Spread Eagle Public House","lat":51.54877,"lon":0.70436,"postcode":"SS2 6NE","la":"Southend-on-Sea","era":"trad","nn":241,"risk":28,"cat":"green"},{"name":"The Trading Rooms","lat":51.54482,"lon":0.68675,"postcode":"SS0 9HS","la":"Southend-on-Sea","era":"mod","nn":137,"risk":28,"cat":"green"},{"name":"The Woodcutters Arms","lat":51.55917,"lon":0.64821,"postcode":"SS9 4LT","la":"Southend-on-Sea","era":"trad","nn":1157,"risk":57,"cat":"amber"},{"name":"West Road Tap","lat":51.54402,"lon":0.69417,"postcode":"SS0 9DA","la":"Southend-on-Sea","era":"mod","nn":195,"risk":28,"cat":"green"},{"name":"Westcliff Drinks Company Ltd","lat":51.53695,"lon":0.70609,"postcode":"SS0 7LN","la":"Southend-on-Sea","era":"other","nn":28,"risk":27,"cat":"green"},{"name":"Westcliff Royal British Legion","lat":51.54602,"lon":0.68826,"postcode":"SS0 9NG","la":"Southend-on-Sea","era":"trad","nn":170,"risk":28,"cat":"green"},{"name":"Ye Olde Smack","lat":51.54009,"lon":0.65004,"postcode":"SS9 2EN","la":"Southend-on-Sea","era":"other","nn":0,"risk":27,"cat":"green"},{"name":"Constitutional Club","lat":51.51576,"lon":0.42419,"postcode":"SS17 0JD","la":"Thurrock","era":"other","nn":78,"risk":30,"cat":"green"},{"name":"Corringham Social Club","lat":51.52661,"lon":0.45962,"postcode":"SS17 9AA","la":"Thurrock","era":"mod","nn":488,"risk":38,"cat":"amber"},{"name":"East Thurrock Community Association","lat":51.51557,"lon":0.4343,"postcode":"SS17 0NU","la":"Thurrock","era":"other","nn":504,"risk":33,"cat":"amber"},{"name":"George & Dragon","lat":51.48789,"lon":0.41143,"postcode":"SS17 0QT","la":"Thurrock","era":"trad","nn":2412,"risk":69,"cat":"red"},{"name":"Inn On The Green","lat":51.5143,"lon":0.42731,"postcode":"SS17 0ER","la":"Thurrock","era":"trad","nn":100,"risk":30,"cat":"green"},{"name":"Railway Tavern","lat":51.51521,"lon":0.42553,"postcode":"SS17 0HL","la":"Thurrock","era":"trad","nn":75,"risk":30,"cat":"green"},{"name":"The Bell And Ostlers","lat":51.52421,"lon":0.40594,"postcode":"SS17 8LD","la":"Thurrock","era":"other","nn":0,"risk":49,"cat":"amber"},{"name":"The Bull Inn","lat":51.52294,"lon":0.46347,"postcode":"SS17 9AT","la":"Thurrock","era":"trad","nn":488,"risk":38,"cat":"amber"},{"name":"The New Courthouse","lat":51.51637,"lon":0.42663,"postcode":"SS17 0HJ","la":"Thurrock","era":"other","nn":150,"risk":30,"cat":"green"},{"name":"The Rising Sun","lat":51.51458,"lon":0.42595,"postcode":"SS17 0EU","la":"Thurrock","era":"other","nn":75,"risk":30,"cat":"green"},{"name":"The Springhouse","lat":51.52439,"lon":0.45014,"postcode":"SS17 7QT","la":"Thurrock","era":"other","nn":701,"risk":52,"cat":"amber"},{"name":"The Swan","lat":51.52421,"lon":0.40594,"postcode":"SS17 8LD","la":"Thurrock","era":"trad","nn":0,"risk":49,"cat":"amber"},{"name":"The Welcome Club","lat":51.51506,"lon":0.42408,"postcode":"SS17 0JF","la":"Thurrock","era":"other","nn":78,"risk":30,"cat":"green"},{"name":"The White Lion","lat":51.5278,"lon":0.47269,"postcode":"SS17 9JR","la":"Thurrock","era":"trad","nn":836,"risk":53,"cat":"amber"}]