[{"name":"Albert and the Lion","lat":53.81461,"lon":-3.05383,"postcode":"FY1 4TQ","la":"Blackpool","era":"trad","nn":97,"risk":27,"cat":"green"},{"name":"Albion","lat":53.85216,"lon":-3.0403,"postcode":"FY2 0HJ","la":"Blackpool","era":"other","nn":969,"risk":53,"cat":"amber"},{"name":"Ardwick","lat":53.8103,"lon":-3.05462,"postcode":"FY1 5AD","la":"Blackpool","era":"other","nn":129,"risk":27,"cat":"green"},{"name":"Bees Knees","lat":53.82026,"lon":-3.05505,"postcode":"FY1 1RE","la":"Blackpool","era":"other","nn":22,"risk":26,"cat":"green"},{"name":"Belle Vue Hotel","lat":53.81635,"lon":-3.0366,"postcode":"FY3 9DQ","la":"Blackpool","era":"other","nn":159,"risk":27,"cat":"green"},{"name":"Bloomfield Brewhouse","lat":53.80425,"lon":-3.03982,"postcode":"FY1 6PW","la":"Blackpool","era":"other","nn":645,"risk":30,"cat":"green"},{"name":"Boars Head","lat":53.80641,"lon":-3.02729,"postcode":"FY3 9PL","la":"Blackpool","era":"trad","nn":199,"risk":27,"cat":"green"},{"name":"Bootleg Social","lat":53.81932,"lon":-3.04987,"postcode":"FY1 3AQ","la":"Blackpool","era":"mod","nn":38,"risk":26,"cat":"green"},{"name":"Buckinghams","lat":53.81994,"lon":-3.05369,"postcode":"FY1 1NL","la":"Blackpool","era":"trad","nn":0,"risk":26,"cat":"green"},{"name":"Castle Hotel","lat":53.81398,"lon":-3.05281,"postcode":"FY1 5PZ","la":"Blackpool","era":"other","nn":97,"risk":27,"cat":"green"},{"name":"Clarence Hotel","lat":53.80416,"lon":-3.02124,"postcode":"FY4 4HG","la":"Blackpool","era":"other","nn":453,"risk":32,"cat":"amber"},{"name":"Corner House","lat":53.82733,"lon":-3.04851,"postcode":"FY1 2PQ","la":"Blackpool","era":"other","nn":428,"risk":29,"cat":"green"},{"name":"Counting House","lat":53.81921,"lon":-3.05539,"postcode":"FY1 1NG","la":"Blackpool","era":"other","nn":33,"risk":26,"cat":"green"},{"name":"Cowboy & Co","lat":53.81994,"lon":-3.05367,"postcode":"FY1 1NL","la":"Blackpool","era":"other","nn":1,"risk":26,"cat":"green"},{"name":"Cuban Bar","lat":53.82208,"lon":-3.05233,"postcode":"FY1 2AT","la":"Blackpool","era":"other","nn":73,"risk":26,"cat":"green"},{"name":"Devonshire Arms Hotel","lat":53.83159,"lon":-3.04108,"postcode":"FY2 0TL","la":"Blackpool","era":"trad","nn":122,"risk":32,"cat":"amber"},{"name":"Dog & Partridge","lat":53.79915,"lon":-3.05103,"postcode":"FY1 6ET","la":"Blackpool","era":"other","nn":61,"risk":26,"cat":"green"},{"name":"Duke of York","lat":53.82243,"lon":-3.05328,"postcode":"FY1 2AW","la":"Blackpool","era":"trad","nn":73,"risk":26,"cat":"green"},{"name":"Dutton Arms","lat":53.79787,"lon":-3.05534,"postcode":"FY4 1AR","la":"Blackpool","era":"trad","nn":177,"risk":27,"cat":"green"},{"name":"Farmers Arms","lat":53.78571,"lon":-3.04571,"postcode":"FY4 2JA","la":"Blackpool","era":"trad","nn":65,"risk":26,"cat":"green"},{"name":"Funny Girls","lat":53.82112,"lon":-3.05152,"postcode":"FY1 2AX","la":"Blackpool","era":"other","nn":9,"risk":26,"cat":"green"},{"name":"Garlands","lat":53.82015,"lon":-3.05153,"postcode":"FY1 1LL","la":"Blackpool","era":"other","nn":32,"risk":26,"cat":"green"},{"name":"Golden Eagle","lat":53.86546,"lon":-3.02974,"postcode":"FY5 3TG","la":"Blackpool","era":"trad","nn":1301,"risk":58,"cat":"amber"},{"name":"Gynn Pub","lat":53.83264,"lon":-3.05388,"postcode":"FY1 2JL","la":"Blackpool","era":"other","nn":521,"risk":30,"cat":"green"},{"name":"Halfway House","lat":53.78152,"lon":-3.0347,"postcode":"FY4 2QL","la":"Blackpool","era":"other","nn":762,"risk":31,"cat":"amber"},{"name":"Hampton Road Social Club","lat":53.79472,"lon":-3.04636,"postcode":"FY4 1JB","la":"Blackpool","era":"mod","nn":531,"risk":30,"cat":"green"},{"name":"Highfield Hotel","lat":53.7889,"lon":-3.02678,"postcode":"FY4 3LA","la":"Blackpool","era":"other","nn":972,"risk":53,"cat":"amber"},{"name":"Highfield Social Club","lat":53.78574,"lon":-3.04383,"postcode":"FY4 2JE","la":"Blackpool","era":"mod","nn":16,"risk":26,"cat":"green"},{"name":"Hotel & Apartments Social Club","lat":53.81312,"lon":-3.04945,"postcode":"FY1 4QQ","la":"Blackpool","era":"mod","nn":241,"risk":28,"cat":"green"},{"name":"JD Drinkwaters Ale House","lat":53.78571,"lon":-3.04407,"postcode":"FY4 2JE","la":"Blackpool","era":"other","nn":16,"risk":26,"cat":"green"},{"name":"Lane Ends Hotel","lat":53.79888,"lon":-3.03166,"postcode":"FY4 4AP","la":"Blackpool","era":"other","nn":687,"risk":31,"cat":"amber"},{"name":"Lateo","lat":53.78547,"lon":-3.04774,"postcode":"FY4 1TE","la":"Blackpool","era":"other","nn":136,"risk":27,"cat":"green"},{"name":"Layton Rakes","lat":53.81764,"lon":-3.05514,"postcode":"FY1 1EX","la":"Blackpool","era":"other","nn":21,"risk":26,"cat":"green"},{"name":"Ma Kellys","lat":53.82007,"lon":-3.05201,"postcode":"FY1 1LL","la":"Blackpool","era":"other","nn":32,"risk":26,"cat":"green"},{"name":"Ma Kelly's Showboat (Uncle Toms Cabin)","lat":53.83732,"lon":-3.05422,"postcode":"FY2 9RW","la":"Blackpool","era":"other","nn":521,"risk":50,"cat":"amber"},{"name":"Ma Kelly's South","lat":53.79981,"lon":-3.05125,"postcode":"FY1 6ES","la":"Blackpool","era":"other","nn":60,"risk":26,"cat":"green"},{"name":"Mama L's","lat":53.81776,"lon":-3.04848,"postcode":"FY1 3NU","la":"Blackpool","era":"other","nn":29,"risk":26,"cat":"green"},{"name":"Mere Park","lat":53.80598,"lon":-3.0145,"postcode":"FY3 9SP","la":"Blackpool","era":"other","nn":487,"risk":34,"cat":"amber"},{"name":"New Flamingos","lat":53.82104,"lon":-3.05145,"postcode":"FY1 2AX","la":"Blackpool","era":"other","nn":9,"risk":26,"cat":"green"},{"name":"New Mount Pleasant","lat":53.8239,"lon":-3.05146,"postcode":"FY1 2DW","la":"Blackpool","era":"other","nn":202,"risk":27,"cat":"green"},{"name":"New Philly Family Bar","lat":53.80914,"lon":-3.05445,"postcode":"FY1 5BL","la":"Blackpool","era":"other","nn":129,"risk":27,"cat":"green"},{"name":"No 13 Bonny Street","lat":53.8122,"lon":-3.05457,"postcode":"FY1 5AR","la":"Blackpool","era":"other","nn":212,"risk":27,"cat":"green"},{"name":"No 4 Pub","lat":53.81974,"lon":-3.03044,"postcode":"FY3 8ER","la":"Blackpool","era":"other","nn":553,"risk":32,"cat":"amber"},{"name":"papaz pizza","lat":53.81963,"lon":-3.05375,"postcode":"FY1 1LB","la":"Blackpool","era":"other","nn":28,"risk":26,"cat":"green"},{"name":"Players Sports Bar","lat":53.79542,"lon":-3.05723,"postcode":"FY4 1BB","la":"Blackpool","era":"other","nn":103,"risk":27,"cat":"green"},{"name":"Popworld","lat":53.8195,"lon":-3.05535,"postcode":"FY1 1RA","la":"Blackpool","era":"other","nn":33,"risk":26,"cat":"green"},{"name":"Q's Snooker Club","lat":53.80035,"lon":-3.05123,"postcode":"FY1 6ET","la":"Blackpool","era":"other","nn":60,"risk":26,"cat":"green"},{"name":"Raikes Hall","lat":53.81814,"lon":-3.04042,"postcode":"FY1 4HE","la":"Blackpool","era":"other","nn":256,"risk":28,"cat":"green"},{"name":"Ramsden Arms","lat":53.82202,"lon":-3.04756,"postcode":"FY1 3AZ","la":"Blackpool","era":"trad","nn":278,"risk":28,"cat":"green"},{"name":"Revolution","lat":53.81773,"lon":-3.05541,"postcode":"FY1 1EZ","la":"Blackpool","era":"other","nn":21,"risk":26,"cat":"green"},{"name":"Rhythm and Brew Room","lat":53.8177,"lon":-3.04806,"postcode":"FY1 3NX","la":"Blackpool","era":"other","nn":29,"risk":26,"cat":"green"},{"name":"Rose & Crown","lat":53.81772,"lon":-3.05368,"postcode":"FY1 1EJ","la":"Blackpool","era":"trad","nn":80,"risk":27,"cat":"green"},{"name":"Royal British Legion Club","lat":53.81911,"lon":-3.0489,"postcode":"FY1 3EJ","la":"Blackpool","era":"trad","nn":68,"risk":26,"cat":"green"},{"name":"Royal Oak Hotel","lat":53.79957,"lon":-3.05043,"postcode":"FY1 6EY","la":"Blackpool","era":"trad","nn":60,"risk":26,"cat":"green"},{"name":"Saddle Inn","lat":53.80469,"lon":-3.02809,"postcode":"FY3 9PH","la":"Blackpool","era":"trad","nn":199,"risk":27,"cat":"green"},{"name":"Sherlocks","lat":53.81985,"lon":-3.05391,"postcode":"FY1 1NL","la":"Blackpool","era":"other","nn":17,"risk":26,"cat":"green"},{"name":"Shickers Tavern","lat":53.81801,"lon":-3.05226,"postcode":"FY1 1EG","la":"Blackpool","era":"other","nn":99,"risk":27,"cat":"green"},{"name":"Shovels","lat":53.77979,"lon":-3.01774,"postcode":"FY4 5DH","la":"Blackpool","era":"other","nn":1131,"risk":56,"cat":"amber"},{"name":"Soul Suite","lat":53.82044,"lon":-3.05493,"postcode":"FY1 1RE","la":"Blackpool","era":"other","nn":22,"risk":26,"cat":"green"},{"name":"South Shore Bowling Club","lat":53.78608,"lon":-3.04494,"postcode":"FY4 2JJ","la":"Blackpool","era":"other","nn":65,"risk":26,"cat":"green"},{"name":"Squirrel Public House","lat":53.84408,"lon":-3.03481,"postcode":"FY2 0LB","la":"Blackpool","era":"other","nn":969,"risk":53,"cat":"amber"},{"name":"Subscription Bowling Club","lat":53.81019,"lon":-3.03465,"postcode":"FY1 5QU","la":"Blackpool","era":"other","nn":640,"risk":30,"cat":"green"},{"name":"Sullivan's Bar","lat":53.83266,"lon":-3.0407,"postcode":"FY2 0TN","la":"Blackpool","era":"other","nn":122,"risk":32,"cat":"amber"},{"name":"Sun Inn","lat":53.79933,"lon":-3.05424,"postcode":"FY1 6AA","la":"Blackpool","era":"trad","nn":177,"risk":27,"cat":"green"},{"name":"Talbot Club","lat":53.82031,"lon":-3.04419,"postcode":"FY1 3LL","la":"Blackpool","era":"trad","nn":292,"risk":28,"cat":"green"},{"name":"The Bridge","lat":53.80452,"lon":-3.05176,"postcode":"FY1 6DZ","la":"Blackpool","era":"other","nn":309,"risk":28,"cat":"green"},{"name":"The Fizzy Plum","lat":53.81973,"lon":-3.05423,"postcode":"FY1 1NL","la":"Blackpool","era":"other","nn":25,"risk":26,"cat":"green"},{"name":"The Manchester","lat":53.80662,"lon":-3.05483,"postcode":"FY1 6AH","la":"Blackpool","era":"other","nn":280,"risk":28,"cat":"green"},{"name":"The Slug and Lettuce (Loco Loco, El Rodeo Mexicano, Burrito Bandits)","lat":53.82021,"lon":-3.05409,"postcode":"FY1 1PD","la":"Blackpool","era":"other","nn":40,"risk":26,"cat":"green"},{"name":"The Velvet Coaster","lat":53.79502,"lon":-3.05581,"postcode":"FY4 1BA","la":"Blackpool","era":"other","nn":103,"risk":27,"cat":"green"},{"name":"The Wainwright Club","lat":53.81601,"lon":-3.03895,"postcode":"FY1 4JA","la":"Blackpool","era":"other","nn":159,"risk":27,"cat":"green"},{"name":"Viva Vegas Showroom","lat":53.81711,"lon":-3.05432,"postcode":"FY1 1HJ","la":"Blackpool","era":"other","nn":79,"risk":27,"cat":"green"},{"name":"Walkabout","lat":53.81994,"lon":-3.05369,"postcode":"FY1 1NL","la":"Blackpool","era":"other","nn":0,"risk":26,"cat":"green"},{"name":"Washington Hotel","lat":53.81912,"lon":-3.05035,"postcode":"FY1 3AF","la":"Blackpool","era":"other","nn":38,"risk":26,"cat":"green"},{"name":"Waterloo Hotel","lat":53.79946,"lon":-3.04537,"postcode":"FY4 2AF","la":"Blackpool","era":"other","nn":332,"risk":28,"cat":"green"},{"name":"Yates","lat":53.81844,"lon":-3.05528,"postcode":"FY1 1ET","la":"Blackpool","era":"other","nn":80,"risk":27,"cat":"green"},{"name":"1909 Cafe and Bar","lat":53.74217,"lon":-2.99179,"postcode":"FY8 4BX","la":"Fylde","era":"other","nn":12,"risk":27,"cat":"green"},{"name":"Amexicana Kitchen and Bar","lat":53.73626,"lon":-2.96467,"postcode":"FY8 5LE","la":"Fylde","era":"mod","nn":0,"risk":27,"cat":"green"},{"name":"Ansdell Institute & Social Club","lat":53.74105,"lon":-2.9929,"postcode":"FY8 4BX","la":"Fylde","era":"mod","nn":132,"risk":28,"cat":"green"},{"name":"County Hotel","lat":53.73687,"lon":-2.96609,"postcode":"FY8 5LH","la":"Fylde","era":"other","nn":89,"risk":27,"cat":"green"},{"name":"Fairhaven Golf Club Ltd","lat":53.74279,"lon":-2.98321,"postcode":"FY8 4JU","la":"Fylde","era":"other","nn":547,"risk":31,"cat":"amber"},{"name":"Fairhaven, 88th Street, Value Mighty, Sin City Burger, K-Town,","lat":53.73901,"lon":-2.99319,"postcode":"FY8 1AU","la":"Fylde","era":"other","nn":146,"risk":28,"cat":"green"},{"name":"Keg n Cask","lat":53.75212,"lon":-3.02794,"postcode":"FY8 1SX","la":"Fylde","era":"other","nn":135,"risk":28,"cat":"green"},{"name":"Lowther Pavilion","lat":53.73549,"lon":-2.97162,"postcode":"FY8 5QQ","la":"Fylde","era":"trad","nn":318,"risk":29,"cat":"green"},{"name":"Lytham Bridge Club","lat":53.74005,"lon":-2.99183,"postcode":"FY8 1AN","la":"Fylde","era":"other","nn":132,"risk":28,"cat":"green"},{"name":"Lytham Catholic Club","lat":53.73774,"lon":-2.95803,"postcode":"FY8 5HR","la":"Fylde","era":"other","nn":94,"risk":27,"cat":"green"},{"name":"Lytham Cricket Club","lat":53.73781,"lon":-2.97445,"postcode":"FY8 5QD","la":"Fylde","era":"other","nn":318,"risk":29,"cat":"green"},{"name":"Lytham ex-service and social club","lat":53.73772,"lon":-2.96405,"postcode":"FY8 5ND","la":"Fylde","era":"mod","nn":105,"risk":27,"cat":"green"},{"name":"Lytham Green Drive Golf Club","lat":53.74604,"lon":-2.95895,"postcode":"FY8 4LE","la":"Fylde","era":"other","nn":903,"risk":36,"cat":"amber"},{"name":"Marvin's","lat":53.73657,"lon":-2.96484,"postcode":"FY8 5LJ","la":"Fylde","era":"other","nn":36,"risk":27,"cat":"green"},{"name":"Newton Hall Country Club","lat":53.82293,"lon":-2.99836,"postcode":"FY3 0AY","la":"Fylde","era":"other","nn":695,"risk":49,"cat":"amber"},{"name":"Queens Hotel","lat":53.73617,"lon":-2.96125,"postcode":"FY8 5LB","la":"Fylde","era":"trad","nn":150,"risk":28,"cat":"green"},{"name":"Railway Hotel","lat":53.73792,"lon":-2.95663,"postcode":"FY8 5DH","la":"Fylde","era":"trad","nn":94,"risk":27,"cat":"green"},{"name":"Ribble Cruising Club","lat":53.73487,"lon":-2.96054,"postcode":"FY8 5LD","la":"Fylde","era":"other","nn":153,"risk":28,"cat":"green"},{"name":"Sodexo @ Royal Lytham Golf Club","lat":53.74965,"lon":-3.01772,"postcode":"FY8 3LQ","la":"Fylde","era":"trad","nn":525,"risk":30,"cat":"green"},{"name":"St Annes Cricket Club (Bar)","lat":53.76384,"lon":-3.0324,"postcode":"FY8 2RQ","la":"Fylde","era":"other","nn":249,"risk":33,"cat":"amber"},{"name":"St Annes District Club","lat":53.74793,"lon":-3.02887,"postcode":"FY8 1NE","la":"Fylde","era":"other","nn":356,"risk":29,"cat":"green"},{"name":"St Annes Ex Serviceman's Club","lat":53.75432,"lon":-3.01885,"postcode":"FY8 1YE","la":"Fylde","era":"other","nn":228,"risk":28,"cat":"green"},{"name":"St Annes Old Links Golf Club","lat":53.76293,"lon":-3.0384,"postcode":"FY8 2LD","la":"Fylde","era":"other","nn":407,"risk":35,"cat":"amber"},{"name":"Station Pub and Grill","lat":53.73888,"lon":-2.96541,"postcode":"FY8 5PA","la":"Fylde","era":"other","nn":157,"risk":28,"cat":"green"},{"name":"Tempo Wine Cocktail Bar","lat":53.75172,"lon":-3.0316,"postcode":"FY8 1SB","la":"Fylde","era":"other","nn":1,"risk":27,"cat":"green"},{"name":"The Blossoms","lat":53.74443,"lon":-2.99104,"postcode":"FY8 4EP","la":"Fylde","era":"other","nn":256,"risk":28,"cat":"green"},{"name":"The Ducks Nuts","lat":53.75136,"lon":-3.02954,"postcode":"FY8 1QX","la":"Fylde","era":"other","nn":39,"risk":27,"cat":"green"},{"name":"The Greedy Badger at The Miller Arms","lat":53.82643,"lon":-2.93489,"postcode":"FY6 8LL","la":"Fylde","era":"trad","nn":3224,"risk":72,"cat":"red"},{"name":"The Links Pub","lat":53.76179,"lon":-3.03091,"postcode":"FY8 2HS","la":"Fylde","era":"other","nn":249,"risk":31,"cat":"amber"},{"name":"The Lord Derby","lat":53.75067,"lon":-3.03379,"postcode":"FY8 1RG","la":"Fylde","era":"other","nn":114,"risk":27,"cat":"green"},{"name":"The Mayfield","lat":53.75883,"lon":-3.02675,"postcode":"FY8 2DR","la":"Fylde","era":"other","nn":427,"risk":30,"cat":"green"},{"name":"The Office","lat":53.75133,"lon":-3.03076,"postcode":"FY8 1RF","la":"Fylde","era":"other","nn":65,"risk":27,"cat":"green"},{"name":"The Pier Inn","lat":53.7507,"lon":-3.03206,"postcode":"FY8 1RF","la":"Fylde","era":"trad","nn":111,"risk":27,"cat":"green"},{"name":"The Plough","lat":53.81765,"lon":-2.99052,"postcode":"FY3 0BX","la":"Fylde","era":"trad","nn":781,"risk":52,"cat":"amber"},{"name":"The Prickly Pear","lat":53.74207,"lon":-2.99186,"postcode":"FY8 4BX","la":"Fylde","era":"other","nn":12,"risk":27,"cat":"green"},{"name":"The Ship and Royal (Lytham St Annes)","lat":53.73721,"lon":-2.9627,"postcode":"FY8 5EH","la":"Fylde","era":"trad","nn":105,"risk":27,"cat":"green"},{"name":"The Taps","lat":53.73626,"lon":-2.96467,"postcode":"FY8 5LE","la":"Fylde","era":"mod","nn":0,"risk":27,"cat":"green"},{"name":"The Townhouse","lat":53.75171,"lon":-3.03161,"postcode":"FY8 1SB","la":"Fylde","era":"other","nn":1,"risk":27,"cat":"green"},{"name":"The Trawl Boat Inn","lat":53.75107,"lon":-3.02987,"postcode":"FY8 1QR","la":"Fylde","era":"trad","nn":39,"risk":27,"cat":"green"},{"name":"The Victoria Hotel","lat":53.75611,"lon":-3.02054,"postcode":"FY8 3NE","la":"Fylde","era":"trad","nn":228,"risk":28,"cat":"green"},{"name":"Windy Harbour Yacht Club","lat":53.85531,"lon":-2.93046,"postcode":"FY6 8NA","la":"Fylde","era":"other","nn":2504,"risk":67,"cat":"red"},{"name":"Additions Cafe Bar","lat":53.92652,"lon":-3.01175,"postcode":"FY7 6HL","la":"Wyre","era":"other","nn":100,"risk":27,"cat":"green"},{"name":"Bar 1","lat":53.87862,"lon":-3.04581,"postcode":"FY5 1DA","la":"Wyre","era":"mod","nn":97,"risk":27,"cat":"green"},{"name":"Black Bull Preesall","lat":53.91861,"lon":-2.96674,"postcode":"FY6 0NW","la":"Wyre","era":"trad","nn":1646,"risk":60,"cat":"amber"},{"name":"Blackpool And Fleetwood Yacht Club","lat":53.8608,"lon":-2.97947,"postcode":"FY5 5LF","la":"Wyre","era":"other","nn":333,"risk":33,"cat":"amber"},{"name":"Boca Cafe Bar","lat":53.84797,"lon":-2.99154,"postcode":"FY6 7AA","la":"Wyre","era":"other","nn":0,"risk":26,"cat":"green"},{"name":"Brew And Bones","lat":53.84672,"lon":-2.99271,"postcode":"FY6 7AS","la":"Wyre","era":"other","nn":57,"risk":26,"cat":"green"},{"name":"Broadwater Caravan Park","lat":53.90121,"lon":-3.02481,"postcode":"FY7 8JX","la":"Wyre","era":"other","nn":667,"risk":48,"cat":"amber"},{"name":"Bull Hotel","lat":53.846,"lon":-2.99397,"postcode":"FY6 7DH","la":"Wyre","era":"trad","nn":116,"risk":27,"cat":"green"},{"name":"Cleveleys Ex Servicemans Club","lat":53.87743,"lon":-3.04508,"postcode":"FY5 1BU","la":"Wyre","era":"other","nn":97,"risk":27,"cat":"green"},{"name":"CLEVELEYS PARK CLUB","lat":53.88029,"lon":-3.0356,"postcode":"FY5 2BJ","la":"Wyre","era":"other","nn":188,"risk":27,"cat":"green"},{"name":"CLEVELEYS WORKING MENS CLUB","lat":53.87905,"lon":-3.0431,"postcode":"FY5 1BN","la":"Wyre","era":"trad","nn":129,"risk":27,"cat":"green"},{"name":"Denzels Burgers","lat":53.91805,"lon":-3.03518,"postcode":"FY7 8PR","la":"Wyre","era":"other","nn":0,"risk":31,"cat":"amber"},{"name":"Dickens Inn Thornton","lat":53.87823,"lon":-3.04449,"postcode":"FY5 1BP","la":"Wyre","era":"trad","nn":97,"risk":27,"cat":"green"},{"name":"Dockers Bar","lat":53.92162,"lon":-3.01189,"postcode":"FY7 6JA","la":"Wyre","era":"other","nn":31,"risk":26,"cat":"green"},{"name":"FLEETWOOD CRICKET AND SPORTS CLUB","lat":53.90554,"lon":-3.03186,"postcode":"FY7 8AS","la":"Wyre","era":"other","nn":243,"risk":33,"cat":"amber"},{"name":"Fleetwood Masonic Hall","lat":53.92718,"lon":-3.01279,"postcode":"FY7 6HF","la":"Wyre","era":"trad","nn":0,"risk":26,"cat":"green"},{"name":"Fleetwood RUFC Bar","lat":53.90429,"lon":-3.0349,"postcode":"FY7 8AY","la":"Wyre","era":"other","nn":243,"risk":33,"cat":"amber"},{"name":"FLEETWOOD WORKING MENS CLUB","lat":53.92237,"lon":-3.01047,"postcode":"FY7 6JX","la":"Wyre","era":"trad","nn":80,"risk":26,"cat":"green"},{"name":"Fylde Cricket Club","lat":53.84962,"lon":-2.98325,"postcode":"FY6 7EU","la":"Wyre","era":"other","nn":446,"risk":29,"cat":"green"},{"name":"Gardeners Arms","lat":53.87756,"lon":-3.0108,"postcode":"FY5 4BL","la":"Wyre","era":"trad","nn":296,"risk":33,"cat":"amber"},{"name":"Glasshouse","lat":53.87641,"lon":-3.04329,"postcode":"FY5 1DG","la":"Wyre","era":"other","nn":127,"risk":27,"cat":"green"},{"name":"Golden Ball Hotel","lat":53.84762,"lon":-2.99188,"postcode":"FY6 7BA","la":"Wyre","era":"other","nn":34,"risk":26,"cat":"green"},{"name":"Hambleton Sports And Social Club","lat":53.87444,"lon":-2.95058,"postcode":"FY6 9BZ","la":"Wyre","era":"mod","nn":572,"risk":50,"cat":"amber"},{"name":"Hickorys Smokehouse","lat":53.88964,"lon":-3.01514,"postcode":"FY5 4LH","la":"Wyre","era":"other","nn":367,"risk":48,"cat":"amber"},{"name":"HIGHBURY SPORTS AND SOCIAL CLUB","lat":53.91653,"lon":-3.02621,"postcode":"FY7 7DR","la":"Wyre","era":"mod","nn":611,"risk":30,"cat":"green"},{"name":"J D WETHERSPOON PLC","lat":53.87628,"lon":-3.03731,"postcode":"FY5 3NE","la":"Wyre","era":"other","nn":48,"risk":26,"cat":"green"},{"name":"J D WETHERSPOON PLC (Poulton Elk)","lat":53.8451,"lon":-2.99246,"postcode":"FY6 7SR","la":"Wyre","era":"other","nn":140,"risk":27,"cat":"green"},{"name":"KINGS ARMS HOTEL","lat":53.92194,"lon":-3.01349,"postcode":"FY7 6LB","la":"Wyre","era":"trad","nn":110,"risk":27,"cat":"green"},{"name":"Kings Own Comrades Club","lat":53.92398,"lon":-3.00773,"postcode":"FY7 6AB","la":"Wyre","era":"trad","nn":205,"risk":27,"cat":"green"},{"name":"Knott End Working Mens Club (Wet Sales Only)","lat":53.92767,"lon":-2.99035,"postcode":"FY6 0BP","la":"Wyre","era":"trad","nn":275,"risk":48,"cat":"amber"},{"name":"Lune Deep","lat":53.92182,"lon":-3.01156,"postcode":"FY7 6JE","la":"Wyre","era":"other","nn":31,"risk":26,"cat":"green"},{"name":"Marine Hall","lat":53.92718,"lon":-3.01279,"postcode":"FY7 6HF","la":"Wyre","era":"other","nn":0,"risk":26,"cat":"green"},{"name":"Marvins","lat":53.84779,"lon":-2.99144,"postcode":"FY6 7AA","la":"Wyre","era":"other","nn":21,"risk":26,"cat":"green"},{"name":"Masonic Hall/Park Club","lat":53.88057,"lon":-3.03844,"postcode":"FY5 2BL","la":"Wyre","era":"trad","nn":188,"risk":27,"cat":"green"},{"name":"Miller And Carter","lat":53.83139,"lon":-2.99048,"postcode":"FY6 8DF","la":"Wyre","era":"trad","nn":1074,"risk":56,"cat":"amber"},{"name":"Newton Arms","lat":53.82747,"lon":-3.00564,"postcode":"FY3 0AJ","la":"Wyre","era":"trad","nn":695,"risk":51,"cat":"amber"},{"name":"O'CONNORS BAR","lat":53.87627,"lon":-3.0397,"postcode":"FY5 3LT","la":"Wyre","era":"other","nn":157,"risk":27,"cat":"green"},{"name":"Poulton And Fylde Golf Club","lat":53.85331,"lon":-2.98591,"postcode":"FY6 7HJ","la":"Wyre","era":"other","nn":446,"risk":29,"cat":"green"},{"name":"Queens Hotel Fleetwood","lat":53.91805,"lon":-3.03518,"postcode":"FY7 8PR","la":"Wyre","era":"trad","nn":0,"risk":31,"cat":"amber"},{"name":"RIVER WYRE HOTEL","lat":53.85665,"lon":-2.98186,"postcode":"FY6 7JZ","la":"Wyre","era":"other","nn":242,"risk":28,"cat":"green"},{"name":"Rossall Tavern","lat":53.90756,"lon":-3.04439,"postcode":"FY7 8RP","la":"Wyre","era":"other","nn":720,"risk":48,"cat":"amber"},{"name":"ROYAL OAK HOTEL","lat":53.92079,"lon":-3.01528,"postcode":"FY7 6SR","la":"Wyre","era":"trad","nn":138,"risk":27,"cat":"green"},{"name":"Rumba","lat":53.84797,"lon":-2.99154,"postcode":"FY6 7AA","la":"Wyre","era":"other","nn":0,"risk":26,"cat":"green"},{"name":"SANDYFORTH ARMS","lat":53.87919,"lon":-3.00722,"postcode":"FY5 4HF","la":"Wyre","era":"trad","nn":296,"risk":30,"cat":"green"},{"name":"Savoy Hotel","lat":53.92697,"lon":-3.01334,"postcode":"FY7 6HF","la":"Wyre","era":"other","nn":43,"risk":26,"cat":"green"},{"name":"Shovels Inn","lat":53.87308,"lon":-2.95899,"postcode":"FY6 9AL","la":"Wyre","era":"trad","nn":572,"risk":50,"cat":"amber"},{"name":"Strawberry Gardens Hotel","lat":53.92101,"lon":-3.0194,"postcode":"FY7 6TF","la":"Wyre","era":"other","nn":261,"risk":28,"cat":"green"},{"name":"Tavern At The Mill","lat":53.87466,"lon":-3.01233,"postcode":"FY5 4JZ","la":"Wyre","era":"trad","nn":337,"risk":31,"cat":"amber"},{"name":"THATCHED HOUSE AND CHAPEL STREET BREWHOUSE","lat":53.84739,"lon":-2.9913,"postcode":"FY6 7BG","la":"Wyre","era":"mod","nn":45,"risk":26,"cat":"green"},{"name":"THE ASHLEY CLUB","lat":53.87112,"lon":-3.00716,"postcode":"FY5 5HQ","la":"Wyre","era":"other","nn":427,"risk":29,"cat":"green"},{"name":"The Bay Horse","lat":53.87112,"lon":-2.99799,"postcode":"FY5 5HY","la":"Wyre","era":"trad","nn":192,"risk":45,"cat":"amber"},{"name":"The Beer Shed #1","lat":53.922,"lon":-3.01579,"postcode":"FY7 6LP","la":"Wyre","era":"other","nn":138,"risk":27,"cat":"green"},{"name":"The Bug Bar","lat":53.92301,"lon":-3.01101,"postcode":"FY7 6DT","la":"Wyre","era":"other","nn":80,"risk":26,"cat":"green"},{"name":"The Club","lat":53.84956,"lon":-2.99117,"postcode":"FY6 7AE","la":"Wyre","era":"other","nn":153,"risk":27,"cat":"green"},{"name":"The Lounge","lat":53.87051,"lon":-3.00073,"postcode":"FY5 5DX","la":"Wyre","era":"mod","nn":192,"risk":32,"cat":"amber"},{"name":"The Old Town Hall","lat":53.84723,"lon":-2.99282,"postcode":"FY6 7AP","la":"Wyre","era":"other","nn":57,"risk":26,"cat":"green"},{"name":"The Puddled Duck","lat":53.88627,"lon":-2.94939,"postcode":"FY6 9EQ","la":"Wyre","era":"other","nn":1318,"risk":58,"cat":"amber"},{"name":"The Shipwreck Brewhouse","lat":53.87749,"lon":-3.04266,"postcode":"FY5 1AJ","la":"Wyre","era":"trad","nn":127,"risk":27,"cat":"green"},{"name":"THE SQUASH","lat":53.928,"lon":-2.98619,"postcode":"FY6 0AU","la":"Wyre","era":"other","nn":275,"risk":48,"cat":"amber"},{"name":"The Steamer","lat":53.9256,"lon":-3.00625,"postcode":"FY7 6BT","la":"Wyre","era":"other","nn":205,"risk":27,"cat":"green"},{"name":"The Three Lights","lat":53.91313,"lon":-3.01682,"postcode":"FY7 6NB","la":"Wyre","era":"other","nn":722,"risk":31,"cat":"amber"},{"name":"The Tipsy Cow","lat":53.84818,"lon":-2.99107,"postcode":"FY6 7AA","la":"Wyre","era":"other","nn":39,"risk":26,"cat":"green"},{"name":"Thornton Cleveleys Football Club","lat":53.88681,"lon":-3.01225,"postcode":"FY5 4JH","la":"Wyre","era":"other","nn":367,"risk":46,"cat":"amber"},{"name":"Thornton Lodge","lat":53.85871,"lon":-2.98308,"postcode":"FY5 5LD","la":"Wyre","era":"other","nn":242,"risk":33,"cat":"amber"},{"name":"TRAVELLERS REST","lat":53.88057,"lon":-3.04527,"postcode":"FY5 1EH","la":"Wyre","era":"other","nn":219,"risk":27,"cat":"green"},{"name":"West End Social Club","lat":53.92246,"lon":-3.02579,"postcode":"FY7 7BP","la":"Wyre","era":"mod","nn":448,"risk":29,"cat":"green"},{"name":"Wings Club","lat":53.87669,"lon":-3.03709,"postcode":"FY5 3LA","la":"Wyre","era":"other","nn":48,"risk":26,"cat":"green"},{"name":"Wyre Villa","lat":53.90268,"lon":-2.95422,"postcode":"FY6 0LD","la":"Wyre","era":"other","nn":1852,"risk":61,"cat":"red"}]