[{"name":"Auchinleck Indoor Bowling Club","lat":55.47111,"lon":-4.29331,"postcode":"KA18 2LA","la":"East Ayrshire","era":"other","nn":4155,"risk":82,"cat":"red"},{"name":"Bellfield Bowling Club","lat":55.5936,"lon":-4.48178,"postcode":"KA1 3XG","la":"East Ayrshire","era":"other","nn":833,"risk":53,"cat":"amber"},{"name":"Black's Bar","lat":55.61469,"lon":-4.49364,"postcode":"KA3 1DS","la":"East Ayrshire","era":"other","nn":444,"risk":33,"cat":"amber"},{"name":"Boswells Coach House","lat":55.47478,"lon":-4.35893,"postcode":"KA18 2LR","la":"East Ayrshire","era":"trad","nn":3733,"risk":79,"cat":"red"},{"name":"Brewery Bar","lat":55.50402,"lon":-4.32981,"postcode":"KA5 6RQ","la":"East Ayrshire","era":"other","nn":522,"risk":54,"cat":"amber"},{"name":"Bridgend Inn","lat":55.39364,"lon":-4.18357,"postcode":"KA18 4AU","la":"East Ayrshire","era":"trad","nn":585,"risk":54,"cat":"amber"},{"name":"Burns Inn","lat":55.59935,"lon":-4.49719,"postcode":"KA1 4DQ","la":"East Ayrshire","era":"trad","nn":162,"risk":31,"cat":"amber"},{"name":"Catrine Bowling Club","lat":55.50626,"lon":-4.32253,"postcode":"KA5 6SW","la":"East Ayrshire","era":"other","nn":522,"risk":54,"cat":"amber"},{"name":"Club House","lat":55.58643,"lon":-4.50916,"postcode":"KA1 4UW","la":"East Ayrshire","era":"other","nn":872,"risk":54,"cat":"amber"},{"name":"CookHouse And Pub","lat":55.60678,"lon":-4.53187,"postcode":"KA1 2RS","la":"East Ayrshire","era":"mod","nn":1560,"risk":64,"cat":"red"},{"name":"Crosshouse Bowling Club","lat":55.60989,"lon":-4.5566,"postcode":"KA2 0HT","la":"East Ayrshire","era":"other","nn":1592,"risk":64,"cat":"red"},{"name":"Dalmellington Inn","lat":55.32321,"lon":-4.39629,"postcode":"KA6 7QU","la":"East Ayrshire","era":"trad","nn":12757,"risk":88,"cat":"red"},{"name":"Fanny By Gas Light","lat":55.61154,"lon":-4.49827,"postcode":"KA1 1DG","la":"East Ayrshire","era":"other","nn":119,"risk":31,"cat":"amber"},{"name":"Galleon Leisure Centre","lat":55.60496,"lon":-4.4979,"postcode":"KA1 1QY","la":"East Ayrshire","era":"other","nn":188,"risk":31,"cat":"amber"},{"name":"Glencairn Suite","lat":55.60076,"lon":-4.49657,"postcode":"KA1 4AH","la":"East Ayrshire","era":"other","nn":0,"risk":30,"cat":"green"},{"name":"Glenfield Bowling Club","lat":55.60069,"lon":-4.4861,"postcode":"KA1 3XF","la":"East Ayrshire","era":"other","nn":658,"risk":35,"cat":"amber"},{"name":"Lodge Thistle No 127","lat":55.68172,"lon":-4.51151,"postcode":"KA3 5DD","la":"East Ayrshire","era":"other","nn":212,"risk":49,"cat":"amber"},{"name":"Loudoun Arms","lat":55.60978,"lon":-4.49687,"postcode":"KA1 1HX","la":"East Ayrshire","era":"trad","nn":144,"risk":31,"cat":"amber"},{"name":"Maggie's Bar & Kitchen","lat":55.60076,"lon":-4.49657,"postcode":"KA1 4AH","la":"East Ayrshire","era":"mod","nn":0,"risk":30,"cat":"green"},{"name":"Mason's Arms","lat":55.60059,"lon":-4.37864,"postcode":"KA4 8HQ","la":"East Ayrshire","era":"trad","nn":128,"risk":51,"cat":"amber"},{"name":"Mauchline Bowling Club","lat":55.51405,"lon":-4.37396,"postcode":"KA5 6BP","la":"East Ayrshire","era":"other","nn":380,"risk":53,"cat":"amber"},{"name":"Merito/Community Hub","lat":55.71208,"lon":-4.53477,"postcode":"KA3 4AA","la":"East Ayrshire","era":"mod","nn":3512,"risk":77,"cat":"red"},{"name":"Muirkirk Bowling Club","lat":55.52283,"lon":-4.06704,"postcode":"KA18 3RQ","la":"East Ayrshire","era":"other","nn":13480,"risk":88,"cat":"red"},{"name":"Munros of New Cumnock","lat":55.39889,"lon":-4.18331,"postcode":"KA18 4AB","la":"East Ayrshire","era":"other","nn":585,"risk":54,"cat":"amber"},{"name":"Oceans 11","lat":55.60648,"lon":-4.4966,"postcode":"KA1 3DG","la":"East Ayrshire","era":"other","nn":188,"risk":31,"cat":"amber"},{"name":"Poosie Nansies","lat":55.51553,"lon":-4.37941,"postcode":"KA5 5BA","la":"East Ayrshire","era":"other","nn":380,"risk":53,"cat":"amber"},{"name":"Riccarton Bowling Club.","lat":55.59161,"lon":-4.49646,"postcode":"KA1 4ED","la":"East Ayrshire","era":"other","nn":716,"risk":38,"cat":"amber"},{"name":"RYAN MCCUBBIN","lat":55.43229,"lon":-4.45882,"postcode":"KA6 7BY","la":"East Ayrshire","era":"other","nn":2582,"risk":71,"cat":"red"},{"name":"Shooters Pool & Sports Bar","lat":55.61106,"lon":-4.49658,"postcode":"KA1 1HZ","la":"East Ayrshire","era":"other","nn":119,"risk":31,"cat":"amber"},{"name":"Springhill Bowling Club","lat":55.60929,"lon":-4.50743,"postcode":"KA1 2JL","la":"East Ayrshire","era":"other","nn":509,"risk":34,"cat":"amber"},{"name":"Stewarton Arms","lat":55.68102,"lon":-4.51482,"postcode":"KA3 5AB","la":"East Ayrshire","era":"trad","nn":181,"risk":49,"cat":"amber"},{"name":"Stewarton Bowling Club","lat":55.68264,"lon":-4.51446,"postcode":"KA3 5AS","la":"East Ayrshire","era":"other","nn":181,"risk":49,"cat":"amber"},{"name":"Thack Inn","lat":55.60126,"lon":-4.4532,"postcode":"KA1 5HG","la":"East Ayrshire","era":"trad","nn":1987,"risk":67,"cat":"red"},{"name":"The Bucks Head","lat":55.60025,"lon":-4.38058,"postcode":"KA4 8AE","la":"East Ayrshire","era":"trad","nn":128,"risk":51,"cat":"amber"},{"name":"The Clansman","lat":55.60946,"lon":-4.49912,"postcode":"KA1 1BS","la":"East Ayrshire","era":"other","nn":107,"risk":31,"cat":"amber"},{"name":"The Club","lat":55.61039,"lon":-4.49956,"postcode":"KA1 2AW","la":"East Ayrshire","era":"other","nn":107,"risk":31,"cat":"amber"},{"name":"The Crown Inn","lat":55.60234,"lon":-4.49737,"postcode":"KA1 4AE","la":"East Ayrshire","era":"trad","nn":183,"risk":31,"cat":"amber"},{"name":"The New Murray Bar","lat":55.5852,"lon":-4.49545,"postcode":"KA1 4PS","la":"East Ayrshire","era":"other","nn":716,"risk":53,"cat":"amber"},{"name":"Weston Tavern","lat":55.63814,"lon":-4.52677,"postcode":"KA3 2RQ","la":"East Ayrshire","era":"other","nn":3335,"risk":76,"cat":"red"},{"name":"169 Masonic Social Club","lat":55.64004,"lon":-4.75459,"postcode":"KA20 3HA","la":"North Ayrshire","era":"other","nn":133,"risk":25,"cat":"green"},{"name":"173 Masonic Club","lat":55.79388,"lon":-4.86532,"postcode":"KA30 9HP","la":"North Ayrshire","era":"trad","nn":135,"risk":25,"cat":"green"},{"name":"290 Social Club","lat":55.7085,"lon":-4.71894,"postcode":"KA24 5AG","la":"North Ayrshire","era":"mod","nn":56,"risk":25,"cat":"green"},{"name":"48 Social Club","lat":55.65216,"lon":-4.69982,"postcode":"KA13 6BJ","la":"North Ayrshire","era":"mod","nn":167,"risk":26,"cat":"green"},{"name":"Abbey Gates Bar","lat":55.65407,"lon":-4.69794,"postcode":"KA13 6AG","la":"North Ayrshire","era":"trad","nn":28,"risk":25,"cat":"green"},{"name":"Alfie's Bar & Lounge","lat":55.64046,"lon":-4.81376,"postcode":"KA22 8HB","la":"North Ayrshire","era":"mod","nn":32,"risk":25,"cat":"green"},{"name":"Ardeer Golf Club","lat":55.64767,"lon":-4.74728,"postcode":"KA20 4EE","la":"North Ayrshire","era":"other","nn":591,"risk":31,"cat":"amber"},{"name":"Ardrossan Indoor Bowling Club","lat":55.64339,"lon":-4.81124,"postcode":"KA22 8EU","la":"North Ayrshire","era":"other","nn":362,"risk":27,"cat":"green"},{"name":"Ardrossan Outdoor Bowling Club","lat":55.64158,"lon":-4.80475,"postcode":"KA22 8DX","la":"North Ayrshire","era":"other","nn":454,"risk":28,"cat":"green"},{"name":"Auld Brig","lat":55.61244,"lon":-4.67282,"postcode":"KA12 8EJ","la":"North Ayrshire","era":"other","nn":254,"risk":26,"cat":"green"},{"name":"Bar One","lat":55.63341,"lon":-4.78421,"postcode":"KA21 5HN","la":"North Ayrshire","era":"mod","nn":42,"risk":25,"cat":"green"},{"name":"Basebowl","lat":55.63441,"lon":-4.79096,"postcode":"KA21 5DS","la":"North Ayrshire","era":"other","nn":56,"risk":25,"cat":"green"},{"name":"Beith Bowling Club","lat":55.74923,"lon":-4.63372,"postcode":"KA15 1DZ","la":"North Ayrshire","era":"other","nn":122,"risk":30,"cat":"green"},{"name":"Beith Masonic Club","lat":55.7503,"lon":-4.63286,"postcode":"KA15 1AD","la":"North Ayrshire","era":"trad","nn":131,"risk":30,"cat":"green"},{"name":"Black Bull Inn","lat":55.70806,"lon":-4.72181,"postcode":"KA24 4AF","la":"North Ayrshire","era":"trad","nn":39,"risk":25,"cat":"green"},{"name":"Blacklands Bowling Club","lat":55.65001,"lon":-4.70249,"postcode":"KA13 6BZ","la":"North Ayrshire","era":"other","nn":292,"risk":27,"cat":"green"},{"name":"Bobby's Bar","lat":55.63321,"lon":-4.78477,"postcode":"KA21 5HP","la":"North Ayrshire","era":"other","nn":42,"risk":25,"cat":"green"},{"name":"British Legion Social Club","lat":55.75308,"lon":-4.92921,"postcode":"KA28 0AD","la":"North Ayrshire","era":"mod","nn":224,"risk":26,"cat":"green"},{"name":"British Legion Social Club","lat":55.61472,"lon":-4.66956,"postcode":"KA12 8RD","la":"North Ayrshire","era":"mod","nn":61,"risk":25,"cat":"green"},{"name":"Bunkers, Auchenharvie Golf Club","lat":55.63557,"lon":-4.75751,"postcode":"KA20 3HU","la":"North Ayrshire","era":"other","nn":352,"risk":27,"cat":"green"},{"name":"Buzz Bingo","lat":55.61328,"lon":-4.6627,"postcode":"KA12 0BH","la":"North Ayrshire","era":"other","nn":122,"risk":25,"cat":"green"},{"name":"Celtic Sports Club","lat":55.61457,"lon":-4.66863,"postcode":"KA12 8BQ","la":"North Ayrshire","era":"other","nn":61,"risk":25,"cat":"green"},{"name":"Champion Shell","lat":55.64151,"lon":-4.75747,"postcode":"KA20 3DL","la":"North Ayrshire","era":"other","nn":103,"risk":25,"cat":"green"},{"name":"Charlie's Bar","lat":55.64042,"lon":-4.81426,"postcode":"KA22 8EL","la":"North Ayrshire","era":"other","nn":32,"risk":25,"cat":"green"},{"name":"Coach & Horses","lat":55.62909,"lon":-4.66579,"postcode":"KA12 9HD","la":"North Ayrshire","era":"trad","nn":782,"risk":47,"cat":"amber"},{"name":"Corsehill Bowling Club","lat":55.65291,"lon":-4.68515,"postcode":"KA13 7LD","la":"North Ayrshire","era":"other","nn":738,"risk":30,"cat":"green"},{"name":"Crown Inn","lat":55.6338,"lon":-4.78812,"postcode":"KA21 5EB","la":"North Ayrshire","era":"trad","nn":149,"risk":26,"cat":"green"},{"name":"Crown Inn","lat":55.60995,"lon":-4.61601,"postcode":"KA11 4AH","la":"North Ayrshire","era":"trad","nn":36,"risk":30,"cat":"green"},{"name":"Cunninghame North CLP Social Club","lat":55.6323,"lon":-4.78429,"postcode":"KA21 5ES","la":"North Ayrshire","era":"mod","nn":63,"risk":25,"cat":"green"},{"name":"Dalry Bowling Club","lat":55.71155,"lon":-4.72156,"postcode":"KA24 5EX","la":"North Ayrshire","era":"other","nn":265,"risk":26,"cat":"green"},{"name":"Delta Bar","lat":55.61439,"lon":-4.66764,"postcode":"KA12 8BJ","la":"North Ayrshire","era":"other","nn":66,"risk":25,"cat":"green"},{"name":"Douglas Park Pavilion","lat":55.78828,"lon":-4.85942,"postcode":"KA30 8HT","la":"North Ayrshire","era":"trad","nn":526,"risk":28,"cat":"green"},{"name":"Dreghorn Bowling Club","lat":55.61047,"lon":-4.61435,"postcode":"KA11 4AA","la":"North Ayrshire","era":"other","nn":120,"risk":30,"cat":"green"},{"name":"Dreghorn Inn","lat":55.61018,"lon":-4.61641,"postcode":"KA11 4AQ","la":"North Ayrshire","era":"trad","nn":20,"risk":30,"cat":"green"},{"name":"Drouthy Neebors","lat":55.79386,"lon":-4.86877,"postcode":"KA30 8AL","la":"North Ayrshire","era":"other","nn":82,"risk":25,"cat":"green"},{"name":"Eglinton Arms","lat":55.61007,"lon":-4.61666,"postcode":"KA11 4AQ","la":"North Ayrshire","era":"trad","nn":20,"risk":30,"cat":"green"},{"name":"Eglinton Inn","lat":55.75006,"lon":-4.63501,"postcode":"KA15 1AQ","la":"North Ayrshire","era":"trad","nn":122,"risk":30,"cat":"green"},{"name":"Fraser's Bar","lat":55.75101,"lon":-4.93385,"postcode":"KA28 0AS","la":"North Ayrshire","era":"other","nn":147,"risk":26,"cat":"green"},{"name":"Garnock Community Social Club","lat":55.74192,"lon":-4.69114,"postcode":"KA25 6JY","la":"North Ayrshire","era":"mod","nn":961,"risk":51,"cat":"amber"},{"name":"Girdle Toll Bowling Club","lat":55.6268,"lon":-4.63367,"postcode":"KA11 1AR","la":"North Ayrshire","era":"other","nn":863,"risk":51,"cat":"amber"},{"name":"Glaxosmithkline Sports and Social Club","lat":55.59626,"lon":-4.62826,"postcode":"KA11 5AP","la":"North Ayrshire","era":"mod","nn":1700,"risk":59,"cat":"amber"},{"name":"Glengarnock Ironworks Bowling Club","lat":55.74296,"lon":-4.67589,"postcode":"KA14 3AW","la":"North Ayrshire","era":"mod","nn":464,"risk":45,"cat":"amber"},{"name":"Halkshill Bowling Club","lat":55.79533,"lon":-4.86442,"postcode":"KA30 9AQ","la":"North Ayrshire","era":"other","nn":171,"risk":26,"cat":"green"},{"name":"Harbour Lights","lat":55.60927,"lon":-4.68017,"postcode":"KA12 8PY","la":"North Ayrshire","era":"other","nn":334,"risk":27,"cat":"green"},{"name":"Irvine Golf Club","lat":55.63454,"lon":-4.70264,"postcode":"KA12 8SN","la":"North Ayrshire","era":"other","nn":1519,"risk":58,"cat":"amber"},{"name":"Irvine Park Bowling Club","lat":55.62109,"lon":-4.66147,"postcode":"KA12 0PZ","la":"North Ayrshire","era":"other","nn":583,"risk":29,"cat":"green"},{"name":"Irvine Rangers Supporters Club","lat":55.61521,"lon":-4.66826,"postcode":"KA12 8AA","la":"North Ayrshire","era":"other","nn":75,"risk":25,"cat":"green"},{"name":"Irvine Snooker Club","lat":55.61498,"lon":-4.66464,"postcode":"KA12 0BT","la":"North Ayrshire","era":"other","nn":48,"risk":25,"cat":"green"},{"name":"Irvine Sports Club","lat":55.61433,"lon":-4.67507,"postcode":"KA12 8PE","la":"North Ayrshire","era":"other","nn":254,"risk":26,"cat":"green"},{"name":"J G Sharps","lat":55.79639,"lon":-4.86687,"postcode":"KA30 8LW","la":"North Ayrshire","era":"other","nn":159,"risk":26,"cat":"green"},{"name":"Jack's Corner","lat":55.64731,"lon":-4.81047,"postcode":"KA22 8JZ","la":"North Ayrshire","era":"other","nn":438,"risk":28,"cat":"green"},{"name":"Kilbirnie Golf Club","lat":55.75444,"lon":-4.69176,"postcode":"KA25 7AT","la":"North Ayrshire","era":"other","nn":396,"risk":32,"cat":"amber"},{"name":"Kilwinning Bowling Club","lat":55.65398,"lon":-4.70395,"postcode":"KA13 6EJ","la":"North Ayrshire","era":"trad","nn":0,"risk":24,"cat":"green"},{"name":"Kilwinning Rangers Social Club, The Claire Hub & Pitchside Takeaway","lat":55.64789,"lon":-4.70776,"postcode":"KA13 6LF","la":"North Ayrshire","era":"other","nn":406,"risk":27,"cat":"green"},{"name":"Ladeside Bowling Club","lat":55.75324,"lon":-4.6828,"postcode":"KA25 7DZ","la":"North Ayrshire","era":"other","nn":181,"risk":31,"cat":"amber"},{"name":"Lamlash Golf Club","lat":55.54075,"lon":-5.12545,"postcode":"KA27 8JU","la":"North Ayrshire","era":"other","nn":627,"risk":49,"cat":"amber"},{"name":"Largs Bowling Club","lat":55.80254,"lon":-4.86601,"postcode":"KA30 8PT","la":"North Ayrshire","era":"other","nn":257,"risk":26,"cat":"green"},{"name":"Largs Golf Club","lat":55.7839,"lon":-4.85624,"postcode":"KA30 8EU","la":"North Ayrshire","era":"other","nn":526,"risk":46,"cat":"amber"},{"name":"Largs Sailing Club","lat":55.77596,"lon":-4.85816,"postcode":"KA30 8EZ","la":"North Ayrshire","era":"other","nn":891,"risk":51,"cat":"amber"},{"name":"MacAuleys","lat":55.79377,"lon":-4.86747,"postcode":"KA30 8AJ","la":"North Ayrshire","era":"other","nn":82,"risk":25,"cat":"green"},{"name":"Market Bar","lat":55.65368,"lon":-4.70467,"postcode":"KA13 6EW","la":"North Ayrshire","era":"other","nn":56,"risk":25,"cat":"green"},{"name":"Masonic Club","lat":55.6398,"lon":-4.81499,"postcode":"KA22 8BS","la":"North Ayrshire","era":"trad","nn":82,"risk":25,"cat":"green"},{"name":"Masonic/Volunteer Arms","lat":55.70831,"lon":-4.72136,"postcode":"KA24 5DH","la":"North Ayrshire","era":"trad","nn":39,"risk":25,"cat":"green"},{"name":"Memorial Field Pavilion","lat":55.64408,"lon":-4.7988,"postcode":"KA22 8AP","la":"North Ayrshire","era":"trad","nn":466,"risk":33,"cat":"amber"},{"name":"Millport Bowling Club","lat":55.75266,"lon":-4.93505,"postcode":"KA28 0BD","la":"North Ayrshire","era":"trad","nn":198,"risk":26,"cat":"green"},{"name":"Millport Golf Club","lat":55.75522,"lon":-4.93772,"postcode":"KA28 0HB","la":"North Ayrshire","era":"trad","nn":330,"risk":27,"cat":"green"},{"name":"Neptune Masonic Social Club","lat":55.63259,"lon":-4.78515,"postcode":"KA21 5HR","la":"North Ayrshire","era":"other","nn":48,"risk":25,"cat":"green"},{"name":"Newton Bar","lat":55.75358,"lon":-4.92478,"postcode":"KA28 0DJ","la":"North Ayrshire","era":"other","nn":123,"risk":25,"cat":"green"},{"name":"No. 0 Masonic Social Club","lat":55.65361,"lon":-4.69914,"postcode":"KA13 6AW","la":"North Ayrshire","era":"other","nn":0,"risk":24,"cat":"green"},{"name":"Non Such Snooker Club and Amusements","lat":55.63194,"lon":-4.79199,"postcode":"KA21 5EW","la":"North Ayrshire","era":"other","nn":188,"risk":26,"cat":"green"},{"name":"Oscars/Premier Leisure","lat":55.63302,"lon":-4.79429,"postcode":"KA21 5DA","la":"North Ayrshire","era":"other","nn":188,"risk":26,"cat":"green"},{"name":"Pierhead Tavern","lat":55.53511,"lon":-5.12591,"postcode":"KA27 8JN","la":"North Ayrshire","era":"trad","nn":627,"risk":49,"cat":"amber"},{"name":"Pitchers","lat":55.61509,"lon":-4.66538,"postcode":"KA12 0AD","la":"North Ayrshire","era":"other","nn":0,"risk":24,"cat":"green"},{"name":"Pop Inn","lat":55.63969,"lon":-4.75662,"postcode":"KA20 3HD","la":"North Ayrshire","era":"trad","nn":70,"risk":25,"cat":"green"},{"name":"Porthead Tavern","lat":55.6141,"lon":-4.66399,"postcode":"KA12 0AY","la":"North Ayrshire","era":"trad","nn":106,"risk":25,"cat":"green"},{"name":"Potters","lat":55.79585,"lon":-4.86923,"postcode":"KA30 8LZ","la":"North Ayrshire","era":"other","nn":86,"risk":25,"cat":"green"},{"name":"Ramages Bar","lat":55.75371,"lon":-4.68557,"postcode":"KA25 6HN","la":"North Ayrshire","era":"trad","nn":57,"risk":30,"cat":"green"},{"name":"Ravenspark Golf Club","lat":55.63128,"lon":-4.67762,"postcode":"KA12 8SR","la":"North Ayrshire","era":"other","nn":782,"risk":50,"cat":"amber"},{"name":"Rendezvous","lat":55.63983,"lon":-4.81354,"postcode":"KA22 8DG","la":"North Ayrshire","era":"other","nn":72,"risk":25,"cat":"green"},{"name":"Revels","lat":55.65384,"lon":-4.69776,"postcode":"KA13 6AN","la":"North Ayrshire","era":"other","nn":28,"risk":25,"cat":"green"},{"name":"Room","lat":55.7951,"lon":-4.86962,"postcode":"KA30 8LX","la":"North Ayrshire","era":"other","nn":0,"risk":24,"cat":"green"},{"name":"Routenburn Golf Club","lat":55.80633,"lon":-4.87359,"postcode":"KA30 8QA","la":"North Ayrshire","era":"other","nn":634,"risk":46,"cat":"amber"},{"name":"Sandylands Holiday Park","lat":55.63349,"lon":-4.76184,"postcode":"KA21 5JN","la":"North Ayrshire","era":"other","nn":357,"risk":27,"cat":"green"},{"name":"Shiskine Golf Tee Room","lat":55.50404,"lon":-5.33817,"postcode":"KA27 8HA","la":"North Ayrshire","era":"other","nn":13802,"risk":82,"cat":"red"},{"name":"Springside Bowling Club","lat":55.61494,"lon":-4.59588,"postcode":"KA11 3AU","la":"North Ayrshire","era":"other","nn":1262,"risk":56,"cat":"amber"},{"name":"St Andrew's Masonic 149 Club","lat":55.61509,"lon":-4.66538,"postcode":"KA12 0AD","la":"North Ayrshire","era":"trad","nn":0,"risk":24,"cat":"green"},{"name":"Station Bar","lat":55.63472,"lon":-4.7521,"postcode":"KA20 3NL","la":"North Ayrshire","era":"other","nn":352,"risk":27,"cat":"green"},{"name":"Tait's Tavern","lat":55.64154,"lon":-4.73599,"postcode":"KA20 3DD","la":"North Ayrshire","era":"other","nn":618,"risk":46,"cat":"amber"},{"name":"Tartan Bar","lat":55.70917,"lon":-4.72149,"postcode":"KA24 5DW","la":"North Ayrshire","era":"other","nn":96,"risk":25,"cat":"green"},{"name":"Tavern Bar","lat":55.75373,"lon":-4.92283,"postcode":"KA28 0DL","la":"North Ayrshire","era":"other","nn":123,"risk":25,"cat":"green"},{"name":"The Albion Bar","lat":55.63271,"lon":-4.78589,"postcode":"KA21 5EG","la":"North Ayrshire","era":"other","nn":48,"risk":25,"cat":"green"},{"name":"The Blair","lat":55.68991,"lon":-4.60225,"postcode":"KA13 7RR","la":"North Ayrshire","era":"other","nn":3191,"risk":69,"cat":"red"},{"name":"The Buffs Tavern","lat":55.6541,"lon":-4.69671,"postcode":"KA13 6AQ","la":"North Ayrshire","era":"other","nn":72,"risk":25,"cat":"green"},{"name":"The Carrick","lat":55.61496,"lon":-4.66703,"postcode":"KA12 8AH","la":"North Ayrshire","era":"other","nn":74,"risk":25,"cat":"green"},{"name":"The Commercial Bar","lat":55.75422,"lon":-4.68544,"postcode":"KA25 7AA","la":"North Ayrshire","era":"other","nn":57,"risk":30,"cat":"green"},{"name":"The Cornerhouse","lat":55.65345,"lon":-4.70206,"postcode":"KA13 6EN","la":"North Ayrshire","era":"other","nn":133,"risk":25,"cat":"green"},{"name":"The Cross Keys","lat":55.6406,"lon":-4.7578,"postcode":"KA20 3EH","la":"North Ayrshire","era":"trad","nn":103,"risk":25,"cat":"green"},{"name":"The Elms Bar","lat":55.63499,"lon":-4.78374,"postcode":"KA21 5JX","la":"North Ayrshire","era":"trad","nn":88,"risk":25,"cat":"green"},{"name":"The Four Seasons","lat":55.63314,"lon":-4.78606,"postcode":"KA21 5HQ","la":"North Ayrshire","era":"other","nn":49,"risk":25,"cat":"green"},{"name":"The George","lat":55.79463,"lon":-4.86962,"postcode":"KA30 8AA","la":"North Ayrshire","era":"trad","nn":53,"risk":25,"cat":"green"},{"name":"The Glencairn Bar","lat":55.63915,"lon":-4.75606,"postcode":"KA20 3HD","la":"North Ayrshire","era":"other","nn":70,"risk":25,"cat":"green"},{"name":"The Greenbank Inn","lat":55.7075,"lon":-4.71554,"postcode":"KA24 5BY","la":"North Ayrshire","era":"trad","nn":240,"risk":26,"cat":"green"},{"name":"The Kings Arms","lat":55.69551,"lon":-4.85494,"postcode":"KA23 9AW","la":"North Ayrshire","era":"trad","nn":35,"risk":30,"cat":"green"},{"name":"The Lemon Tree","lat":55.65361,"lon":-4.69914,"postcode":"KA13 6AW","la":"North Ayrshire","era":"other","nn":0,"risk":24,"cat":"green"},{"name":"The Northern Way","lat":55.61466,"lon":-4.66596,"postcode":"KA12 0AL","la":"North Ayrshire","era":"other","nn":61,"risk":25,"cat":"green"},{"name":"The Paddle Steamer","lat":55.7951,"lon":-4.86962,"postcode":"KA30 8LX","la":"North Ayrshire","era":"other","nn":0,"risk":24,"cat":"green"},{"name":"The Red Squirrel","lat":55.64699,"lon":-4.73793,"postcode":"KA20 3DE","la":"North Ayrshire","era":"other","nn":591,"risk":46,"cat":"amber"},{"name":"The Salt Cot","lat":55.63466,"lon":-4.79018,"postcode":"KA21 5DT","la":"North Ayrshire","era":"other","nn":56,"risk":25,"cat":"green"},{"name":"The Smugglers Tavern","lat":55.75173,"lon":-4.63181,"postcode":"KA15 2AD","la":"North Ayrshire","era":"other","nn":173,"risk":31,"cat":"amber"},{"name":"The Station Inn","lat":55.73879,"lon":-4.67613,"postcode":"KA14 3AT","la":"North Ayrshire","era":"trad","nn":464,"risk":48,"cat":"amber"},{"name":"The Three Reasons","lat":55.7951,"lon":-4.86962,"postcode":"KA30 8LX","la":"North Ayrshire","era":"other","nn":0,"risk":24,"cat":"green"},{"name":"The Turf","lat":55.61773,"lon":-4.66859,"postcode":"KA12 8AS","la":"North Ayrshire","era":"other","nn":281,"risk":26,"cat":"green"},{"name":"The Turf Inn","lat":55.70901,"lon":-4.71889,"postcode":"KA24 5BN","la":"North Ayrshire","era":"trad","nn":56,"risk":25,"cat":"green"},{"name":"The Twa Dugs","lat":55.6957,"lon":-4.85537,"postcode":"KA23 9AW","la":"North Ayrshire","era":"other","nn":35,"risk":30,"cat":"green"},{"name":"The Waterside","lat":55.79382,"lon":-4.87049,"postcode":"KA30 8BL","la":"North Ayrshire","era":"other","nn":104,"risk":25,"cat":"green"},{"name":"Torranyard Tandoori","lat":55.66188,"lon":-4.61313,"postcode":"KA13 7RD","la":"North Ayrshire","era":"mod","nn":76,"risk":45,"cat":"amber"},{"name":"Towerlands Sports Club","lat":55.61944,"lon":-4.62929,"postcode":"KA11 1PZ","la":"North Ayrshire","era":"other","nn":863,"risk":51,"cat":"amber"},{"name":"Twa Dugs","lat":55.75188,"lon":-4.93208,"postcode":"KA28 0AJ","la":"North Ayrshire","era":"other","nn":147,"risk":26,"cat":"green"},{"name":"Unionist Club","lat":55.63907,"lon":-4.81275,"postcode":"KA22 8DQ","la":"North Ayrshire","era":"other","nn":97,"risk":25,"cat":"green"},{"name":"Victoria Bar","lat":55.63437,"lon":-4.78463,"postcode":"KA21 5JU","la":"North Ayrshire","era":"trad","nn":88,"risk":25,"cat":"green"},{"name":"Victoria Bar","lat":55.65398,"lon":-4.70395,"postcode":"KA13 6EJ","la":"North Ayrshire","era":"trad","nn":0,"risk":24,"cat":"green"},{"name":"Viewfield Manor Leisure Park","lat":55.66202,"lon":-4.61432,"postcode":"KA13 7RD","la":"North Ayrshire","era":"other","nn":76,"risk":45,"cat":"amber"},{"name":"Vikingar Centre","lat":55.80061,"lon":-4.86828,"postcode":"KA30 8QL","la":"North Ayrshire","era":"trad","nn":257,"risk":26,"cat":"green"},{"name":"Water Sports Club","lat":55.60777,"lon":-4.68476,"postcode":"KA12 8PZ","la":"North Ayrshire","era":"other","nn":334,"risk":32,"cat":"amber"},{"name":"WEST KILBRIDE BOWLING CLUB","lat":55.69199,"lon":-4.86009,"postcode":"KA23 9JX","la":"North Ayrshire","era":"other","nn":273,"risk":29,"cat":"green"},{"name":"West Kilbride Golf Club","lat":55.68949,"lon":-4.86787,"postcode":"KA23 9HT","la":"North Ayrshire","era":"other","nn":561,"risk":46,"cat":"amber"},{"name":"West Kilbride Masonic Club","lat":55.69443,"lon":-4.86048,"postcode":"KA23 9EN","la":"North Ayrshire","era":"trad","nn":273,"risk":29,"cat":"green"},{"name":"Whiting Bay Golf Club","lat":55.48806,"lon":-5.10082,"postcode":"KA27 8QT","la":"North Ayrshire","era":"other","nn":5466,"risk":82,"cat":"red"},{"name":"Ye Olde Anchor Inn","lat":55.7951,"lon":-4.86962,"postcode":"KA30 8LX","la":"North Ayrshire","era":"trad","nn":0,"risk":24,"cat":"green"},{"name":"1060 Club","lat":55.50091,"lon":-4.60245,"postcode":"KA9 2JT","la":"South Ayrshire","era":"other","nn":503,"risk":28,"cat":"green"},{"name":"86 Social Club","lat":55.54657,"lon":-4.6591,"postcode":"KA10 6QN","la":"South Ayrshire","era":"mod","nn":45,"risk":25,"cat":"green"},{"name":"Anchor Bar","lat":55.46491,"lon":-4.63203,"postcode":"KA7 1HZ","la":"South Ayrshire","era":"trad","nn":35,"risk":25,"cat":"green"},{"name":"Annbank Bowling Club","lat":55.47766,"lon":-4.52071,"postcode":"KA6 5ED","la":"South Ayrshire","era":"other","nn":246,"risk":46,"cat":"amber"},{"name":"Arthur Street Kitchen","lat":55.46252,"lon":-4.6314,"postcode":"KA7 1QJ","la":"South Ayrshire","era":"mod","nn":15,"risk":25,"cat":"green"},{"name":"Ayr Bowling Club","lat":55.46213,"lon":-4.63726,"postcode":"KA7 1DN","la":"South Ayrshire","era":"other","nn":152,"risk":26,"cat":"green"},{"name":"Ayr Craigie Bowling Club","lat":55.46228,"lon":-4.62055,"postcode":"KA8 0EY","la":"South Ayrshire","era":"other","nn":132,"risk":26,"cat":"green"},{"name":"Ayr Ex-Services Club","lat":55.46424,"lon":-4.63331,"postcode":"KA7 1HS","la":"South Ayrshire","era":"other","nn":39,"risk":25,"cat":"green"},{"name":"Ayr Railway Welfare Club","lat":55.46501,"lon":-4.62384,"postcode":"KA8 0DH","la":"South Ayrshire","era":"trad","nn":311,"risk":27,"cat":"green"},{"name":"Ayr Rugby Club","lat":55.42582,"lon":-4.63452,"postcode":"KA7 4PJ","la":"South Ayrshire","era":"other","nn":560,"risk":49,"cat":"amber"},{"name":"Ayr Seafield Bowling Club","lat":55.44477,"lon":-4.64409,"postcode":"KA7 4BD","la":"South Ayrshire","era":"other","nn":1650,"risk":59,"cat":"amber"},{"name":"Bannatyne's","lat":55.47612,"lon":-4.5895,"postcode":"KA8 9SH","la":"South Ayrshire","era":"other","nn":335,"risk":32,"cat":"amber"},{"name":"Bar Central","lat":55.49926,"lon":-4.61119,"postcode":"KA9 1NX","la":"South Ayrshire","era":"mod","nn":54,"risk":25,"cat":"green"},{"name":"Barassie Works Club","lat":55.54268,"lon":-4.66535,"postcode":"KA10 6AG","la":"South Ayrshire","era":"mod","nn":26,"risk":25,"cat":"green"},{"name":"Billy Bridges Bar","lat":55.46403,"lon":-4.63281,"postcode":"KA7 1BH","la":"South Ayrshire","era":"other","nn":39,"risk":25,"cat":"green"},{"name":"Black Bull","lat":55.46528,"lon":-4.62875,"postcode":"KA8 0AX","la":"South Ayrshire","era":"trad","nn":94,"risk":25,"cat":"green"},{"name":"Bonga Wonga Show Bar","lat":55.42966,"lon":-4.68498,"postcode":"KA7 4LB","la":"South Ayrshire","era":"other","nn":0,"risk":42,"cat":"amber"},{"name":"Broun's Bistro","lat":55.35212,"lon":-4.68426,"postcode":"KA19 7AW","la":"South Ayrshire","era":"other","nn":82,"risk":25,"cat":"green"},{"name":"Budds Bar","lat":55.45822,"lon":-4.62768,"postcode":"KA7 1SZ","la":"South Ayrshire","era":"other","nn":14,"risk":25,"cat":"green"},{"name":"Cambusdoon Sports Club","lat":55.43085,"lon":-4.63435,"postcode":"KA7 4PY","la":"South Ayrshire","era":"other","nn":560,"risk":49,"cat":"amber"},{"name":"Cameron's Bar","lat":55.47064,"lon":-4.61897,"postcode":"KA8 9NA","la":"South Ayrshire","era":"other","nn":450,"risk":28,"cat":"green"},{"name":"Campbelltown Bar","lat":55.46587,"lon":-4.63032,"postcode":"KA8 8EB","la":"South Ayrshire","era":"other","nn":26,"risk":25,"cat":"green"},{"name":"Central Bar","lat":55.46473,"lon":-4.63158,"postcode":"KA7 1JX","la":"South Ayrshire","era":"other","nn":35,"risk":25,"cat":"green"},{"name":"Central Bar","lat":55.27742,"lon":-4.72648,"postcode":"KA26 9SB","la":"South Ayrshire","era":"other","nn":187,"risk":46,"cat":"amber"},{"name":"Christinas Bistro Ltd","lat":55.46214,"lon":-4.62791,"postcode":"KA7 1TG","la":"South Ayrshire","era":"other","nn":85,"risk":25,"cat":"green"},{"name":"Commercial Inn","lat":55.24044,"lon":-4.85507,"postcode":"KA26 9BS","la":"South Ayrshire","era":"trad","nn":74,"risk":25,"cat":"green"},{"name":"Corner Pocket","lat":55.35205,"lon":-4.67989,"postcode":"KA19 7BA","la":"South Ayrshire","era":"other","nn":117,"risk":25,"cat":"green"},{"name":"Coylton Arms","lat":55.44137,"lon":-4.49649,"postcode":"KA6 6LE","la":"South Ayrshire","era":"trad","nn":1104,"risk":55,"cat":"amber"},{"name":"Coylton Bowling Club","lat":55.44179,"lon":-4.51747,"postcode":"KA6 6JL","la":"South Ayrshire","era":"other","nn":289,"risk":44,"cat":"amber"},{"name":"Crooksmoss Bowling Club","lat":55.47306,"lon":-4.599,"postcode":"KA8 9RN","la":"South Ayrshire","era":"other","nn":272,"risk":32,"cat":"amber"},{"name":"Crosshill Bowling Club","lat":55.32482,"lon":-4.63438,"postcode":"KA19 7RJ","la":"South Ayrshire","era":"trad","nn":2554,"risk":65,"cat":"red"},{"name":"Crumbs & Cocktails","lat":55.45896,"lon":-4.627,"postcode":"KA7 1TF","la":"South Ayrshire","era":"other","nn":20,"risk":25,"cat":"green"},{"name":"Dailly Bowling Club","lat":55.27891,"lon":-4.72509,"postcode":"KA26 9SD","la":"South Ayrshire","era":"other","nn":187,"risk":46,"cat":"amber"},{"name":"Davis Snooker Club","lat":55.47045,"lon":-4.62816,"postcode":"KA8 8DA","la":"South Ayrshire","era":"other","nn":340,"risk":27,"cat":"green"},{"name":"Dicks Building, Lodge Coila St Andrew No 1334","lat":55.44377,"lon":-4.51349,"postcode":"KA6 6JW","la":"South Ayrshire","era":"other","nn":67,"risk":43,"cat":"amber"},{"name":"Drouthy Neebors","lat":55.45814,"lon":-4.6275,"postcode":"KA7 1TF","la":"South Ayrshire","era":"other","nn":14,"risk":25,"cat":"green"},{"name":"Dundonald Bowling Club","lat":55.57789,"lon":-4.59588,"postcode":"KA2 9HA","la":"South Ayrshire","era":"other","nn":2883,"risk":67,"cat":"red"},{"name":"Elvis Bar","lat":55.51246,"lon":-4.61142,"postcode":"KA9 2PL","la":"South Ayrshire","era":"other","nn":0,"risk":45,"cat":"amber"},{"name":"Flix","lat":55.24454,"lon":-4.85547,"postcode":"KA26 9HH","la":"South Ayrshire","era":"other","nn":110,"risk":25,"cat":"green"},{"name":"Flynns Boatyard","lat":55.24356,"lon":-4.8557,"postcode":"KA26 9HH","la":"South Ayrshire","era":"mod","nn":110,"risk":25,"cat":"green"},{"name":"Forehill Bowling Club","lat":55.45405,"lon":-4.62027,"postcode":"KA7 3BS","la":"South Ayrshire","era":"other","nn":400,"risk":27,"cat":"green"},{"name":"Geordies Byre","lat":55.46763,"lon":-4.63025,"postcode":"KA8 8BU","la":"South Ayrshire","era":"other","nn":154,"risk":26,"cat":"green"},{"name":"Girvan Bowling Club","lat":55.24354,"lon":-4.85055,"postcode":"KA26 9DS","la":"South Ayrshire","era":"other","nn":326,"risk":27,"cat":"green"},{"name":"Girvans","lat":55.54472,"lon":-4.66181,"postcode":"KA10 6QU","la":"South Ayrshire","era":"other","nn":138,"risk":26,"cat":"green"},{"name":"Glenburn Social Club","lat":55.49869,"lon":-4.59206,"postcode":"KA9 2NS","la":"South Ayrshire","era":"mod","nn":699,"risk":50,"cat":"amber"},{"name":"Golf Inn","lat":55.49671,"lon":-4.6129,"postcode":"KA9 1PB","la":"South Ayrshire","era":"trad","nn":186,"risk":26,"cat":"green"},{"name":"Harbour Bar","lat":55.5439,"lon":-4.67084,"postcode":"KA10 6BH","la":"South Ayrshire","era":"other","nn":307,"risk":27,"cat":"green"},{"name":"Harvest Bar","lat":55.46624,"lon":-4.63024,"postcode":"KA8 8EB","la":"South Ayrshire","era":"trad","nn":42,"risk":25,"cat":"green"},{"name":"High Society","lat":55.35268,"lon":-4.68139,"postcode":"KA19 7BE","la":"South Ayrshire","era":"mod","nn":117,"risk":25,"cat":"green"},{"name":"Howie Bowling Club","lat":55.49865,"lon":-4.61558,"postcode":"KA9 1PN","la":"South Ayrshire","era":"other","nn":232,"risk":26,"cat":"green"},{"name":"Jel Bar And Restaurant","lat":55.50173,"lon":-4.6108,"postcode":"KA9 1AJ","la":"South Ayrshire","era":"mod","nn":32,"risk":25,"cat":"green"},{"name":"Kincaidston & Belmont Bowling Club","lat":55.44149,"lon":-4.60685,"postcode":"KA7 3XB","la":"South Ayrshire","era":"trad","nn":1246,"risk":56,"cat":"amber"},{"name":"Kirkmichael Arms","lat":55.34579,"lon":-4.61794,"postcode":"KA19 7PH","la":"South Ayrshire","era":"trad","nn":2554,"risk":65,"cat":"red"},{"name":"L A Bowl","lat":55.45785,"lon":-4.63175,"postcode":"KA7 2AX","la":"South Ayrshire","era":"other","nn":0,"risk":25,"cat":"green"},{"name":"Lighthouse Harbour Bar","lat":55.42966,"lon":-4.68498,"postcode":"KA7 4LB","la":"South Ayrshire","era":"mod","nn":0,"risk":42,"cat":"amber"},{"name":"Live Lounge","lat":55.42966,"lon":-4.68498,"postcode":"KA7 4LB","la":"South Ayrshire","era":"mod","nn":0,"risk":42,"cat":"amber"},{"name":"Lonsdale Bar","lat":55.54407,"lon":-4.66369,"postcode":"KA10 6AA","la":"South Ayrshire","era":"other","nn":104,"risk":25,"cat":"green"},{"name":"Madison's","lat":55.46157,"lon":-4.63089,"postcode":"KA7 1NS","la":"South Ayrshire","era":"other","nn":108,"risk":25,"cat":"green"},{"name":"Maidens Bowling Club","lat":55.33254,"lon":-4.82512,"postcode":"KA26 9NR","la":"South Ayrshire","era":"other","nn":3041,"risk":68,"cat":"red"},{"name":"Market Inn","lat":55.4557,"lon":-4.6259,"postcode":"KA7 2HT","la":"South Ayrshire","era":"trad","nn":289,"risk":27,"cat":"green"},{"name":"Masonic Lodge","lat":55.46136,"lon":-4.63355,"postcode":"KA7 1UB","la":"South Ayrshire","era":"trad","nn":61,"risk":25,"cat":"green"},{"name":"Matha Dickies","lat":55.45885,"lon":-4.62725,"postcode":"KA7 1TF","la":"South Ayrshire","era":"other","nn":20,"risk":25,"cat":"green"},{"name":"Maybole Bowling Club","lat":55.35559,"lon":-4.67833,"postcode":"KA19 7HF","la":"South Ayrshire","era":"other","nn":377,"risk":27,"cat":"green"},{"name":"Maybole Memorial Park Bowling Club","lat":55.35149,"lon":-4.6896,"postcode":"KA19 7DX","la":"South Ayrshire","era":"other","nn":265,"risk":27,"cat":"green"},{"name":"McIntyres Bar","lat":55.51246,"lon":-4.61142,"postcode":"KA9 2PL","la":"South Ayrshire","era":"other","nn":0,"risk":45,"cat":"amber"},{"name":"Memorial Club","lat":55.46667,"lon":-4.63346,"postcode":"KA8 8AA","la":"South Ayrshire","era":"other","nn":105,"risk":25,"cat":"green"},{"name":"Mulligans","lat":55.46247,"lon":-4.63162,"postcode":"KA7 1QJ","la":"South Ayrshire","era":"other","nn":15,"risk":25,"cat":"green"},{"name":"No. 47","lat":55.544,"lon":-4.66596,"postcode":"KA10 6BQ","la":"South Ayrshire","era":"other","nn":88,"risk":25,"cat":"green"},{"name":"No. 8 Bar & Grill","lat":55.46164,"lon":-4.63438,"postcode":"KA7 1UB","la":"South Ayrshire","era":"mod","nn":61,"risk":25,"cat":"green"},{"name":"Northfield Bowling Club","lat":55.47439,"lon":-4.61632,"postcode":"KA8 9AW","la":"South Ayrshire","era":"other","nn":450,"risk":33,"cat":"amber"},{"name":"Old Loans Inn","lat":55.55168,"lon":-4.62561,"postcode":"KA10 7EX","la":"South Ayrshire","era":"trad","nn":2026,"risk":61,"cat":"red"},{"name":"One 11","lat":55.49892,"lon":-4.61058,"postcode":"KA9 1JS","la":"South Ayrshire","era":"other","nn":54,"risk":25,"cat":"green"},{"name":"Peter Boyle Bowling Club","lat":55.46119,"lon":-4.6214,"postcode":"KA8 0HB","la":"South Ayrshire","era":"other","nn":132,"risk":26,"cat":"green"},{"name":"Prestwick Bowling Club","lat":55.50039,"lon":-4.61356,"postcode":"KA9 1PJ","la":"South Ayrshire","era":"other","nn":145,"risk":26,"cat":"green"},{"name":"Prestwick Cricket Club","lat":55.49446,"lon":-4.61347,"postcode":"KA9 1SX","la":"South Ayrshire","era":"other","nn":253,"risk":26,"cat":"green"},{"name":"Prestwick Golf Club","lat":55.50136,"lon":-4.6151,"postcode":"KA9 1QG","la":"South Ayrshire","era":"other","nn":145,"risk":26,"cat":"green"},{"name":"Prestwick Sailing Club","lat":55.49379,"lon":-4.62036,"postcode":"KA9 1SN","la":"South Ayrshire","era":"other","nn":68,"risk":25,"cat":"green"},{"name":"Prestwick St. Cuthbert Golf Club","lat":55.48346,"lon":-4.60572,"postcode":"KA9 2SX","la":"South Ayrshire","era":"other","nn":777,"risk":50,"cat":"amber"},{"name":"Prestwick St. Nicholas Golf Club","lat":55.49319,"lon":-4.62048,"postcode":"KA9 1SN","la":"South Ayrshire","era":"other","nn":68,"risk":25,"cat":"green"},{"name":"Printhouse And Harleys Bar","lat":55.46236,"lon":-4.6292,"postcode":"KA7 1PX","la":"South Ayrshire","era":"mod","nn":85,"risk":25,"cat":"green"},{"name":"Rabbies","lat":55.45855,"lon":-4.62805,"postcode":"KA7 1SW","la":"South Ayrshire","era":"other","nn":44,"risk":25,"cat":"green"},{"name":"Red Lion","lat":55.50162,"lon":-4.61033,"postcode":"KA9 1AJ","la":"South Ayrshire","era":"trad","nn":32,"risk":25,"cat":"green"},{"name":"Redstone Inn","lat":55.47359,"lon":-4.59239,"postcode":"KA8 0LJ","la":"South Ayrshire","era":"trad","nn":184,"risk":31,"cat":"amber"},{"name":"Retro Ayr","lat":55.45785,"lon":-4.63175,"postcode":"KA7 2AX","la":"South Ayrshire","era":"other","nn":0,"risk":25,"cat":"green"},{"name":"Royal Airforce Association","lat":55.49987,"lon":-4.61891,"postcode":"KA9 1QL","la":"South Ayrshire","era":"trad","nn":250,"risk":26,"cat":"green"},{"name":"SAUWS (Student Union)","lat":55.45804,"lon":-4.6153,"postcode":"KA8 0SX","la":"South Ayrshire","era":"other","nn":521,"risk":28,"cat":"green"},{"name":"Smiths","lat":55.46013,"lon":-4.6314,"postcode":"KA7 1UF","la":"South Ayrshire","era":"other","nn":163,"risk":26,"cat":"green"},{"name":"Smugglers","lat":55.49821,"lon":-4.6116,"postcode":"KA9 1PA","la":"South Ayrshire","era":"other","nn":101,"risk":25,"cat":"green"},{"name":"Soutars","lat":55.32972,"lon":-4.7773,"postcode":"KA19 8HY","la":"South Ayrshire","era":"other","nn":3041,"risk":68,"cat":"red"},{"name":"Symington Bowling Club","lat":55.54868,"lon":-4.56053,"postcode":"KA1 5PZ","la":"South Ayrshire","era":"other","nn":146,"risk":46,"cat":"amber"},{"name":"Tam O'Shanter Public House","lat":55.46089,"lon":-4.62862,"postcode":"KA7 1RQ","la":"South Ayrshire","era":"other","nn":147,"risk":26,"cat":"green"},{"name":"Tap O' The Brae","lat":55.47962,"lon":-4.51892,"postcode":"KA6 5EA","la":"South Ayrshire","era":"other","nn":246,"risk":46,"cat":"amber"},{"name":"Tarbolton Bowling Club","lat":55.51154,"lon":-4.48537,"postcode":"KA5 5PY","la":"South Ayrshire","era":"other","nn":1023,"risk":54,"cat":"amber"},{"name":"The Athletic Tavern","lat":55.23985,"lon":-4.85557,"postcode":"KA26 9BQ","la":"South Ayrshire","era":"other","nn":74,"risk":25,"cat":"green"},{"name":"The Bell Rock","lat":55.48493,"lon":-4.61778,"postcode":"KA9 1TS","la":"South Ayrshire","era":"other","nn":777,"risk":35,"cat":"amber"},{"name":"The Brig","lat":55.46593,"lon":-4.63083,"postcode":"KA8 8BU","la":"South Ayrshire","era":"other","nn":33,"risk":25,"cat":"green"},{"name":"The Buf","lat":55.4999,"lon":-4.61118,"postcode":"KA9 1NX","la":"South Ayrshire","era":"other","nn":71,"risk":25,"cat":"green"},{"name":"The Burns","lat":55.46568,"lon":-4.63006,"postcode":"KA8 0AX","la":"South Ayrshire","era":"other","nn":26,"risk":25,"cat":"green"},{"name":"The Chase Inn","lat":55.45238,"lon":-4.60216,"postcode":"KA7 3LB","la":"South Ayrshire","era":"trad","nn":1040,"risk":54,"cat":"amber"},{"name":"The Fox","lat":55.54346,"lon":-4.66493,"postcode":"KA10 6AB","la":"South Ayrshire","era":"trad","nn":67,"risk":25,"cat":"green"},{"name":"The Harbour Bar","lat":55.24311,"lon":-4.859,"postcode":"KA26 9AG","la":"South Ayrshire","era":"other","nn":215,"risk":26,"cat":"green"},{"name":"The Heights","lat":55.50527,"lon":-4.47349,"postcode":"KA5 5NR","la":"South Ayrshire","era":"other","nn":1023,"risk":54,"cat":"amber"},{"name":"The King`s Arms","lat":55.10025,"lon":-5.00477,"postcode":"KA26 0NB","la":"South Ayrshire","era":"trad","nn":17752,"risk":82,"cat":"red"},{"name":"The Maybole Arms","lat":55.35213,"lon":-4.68556,"postcode":"KA19 7DS","la":"South Ayrshire","era":"trad","nn":82,"risk":25,"cat":"green"},{"name":"The New Fourways","lat":55.48989,"lon":-4.53181,"postcode":"KA6 5BH","la":"South Ayrshire","era":"other","nn":1401,"risk":57,"cat":"amber"},{"name":"The Ship Inn","lat":55.46732,"lon":-4.63468,"postcode":"KA8 8AH","la":"South Ayrshire","era":"trad","nn":105,"risk":25,"cat":"green"},{"name":"The Thistle Inn","lat":55.47262,"lon":-4.59476,"postcode":"KA8 0LQ","la":"South Ayrshire","era":"trad","nn":184,"risk":31,"cat":"amber"},{"name":"The Twa Dugs","lat":55.45835,"lon":-4.62941,"postcode":"KA7 2EA","la":"South Ayrshire","era":"other","nn":88,"risk":25,"cat":"green"},{"name":"The Vaults (Bar Only)","lat":55.23551,"lon":-4.8563,"postcode":"KA26 0AB","la":"South Ayrshire","era":"mod","nn":484,"risk":28,"cat":"green"},{"name":"The Wallace Free House","lat":55.47314,"lon":-4.62491,"postcode":"KA8 8JQ","la":"South Ayrshire","era":"other","nn":362,"risk":27,"cat":"green"},{"name":"The Wee Windaes","lat":55.46316,"lon":-4.63092,"postcode":"KA7 1LL","la":"South Ayrshire","era":"other","nn":77,"risk":25,"cat":"green"},{"name":"The West Kirk","lat":55.46289,"lon":-4.63429,"postcode":"KA7 1BX","la":"South Ayrshire","era":"other","nn":138,"risk":26,"cat":"green"},{"name":"Troon Bowling Club","lat":55.54089,"lon":-4.65794,"postcode":"KA10 6EL","la":"South Ayrshire","era":"other","nn":336,"risk":27,"cat":"green"},{"name":"Troon Football Club","lat":55.54623,"lon":-4.65949,"postcode":"KA10 6QN","la":"South Ayrshire","era":"other","nn":45,"risk":25,"cat":"green"},{"name":"Troon Ladies Golf Club","lat":55.53047,"lon":-4.64708,"postcode":"KA10 6HE","la":"South Ayrshire","era":"other","nn":218,"risk":46,"cat":"amber"},{"name":"Troon Links Clubhouse","lat":55.54248,"lon":-4.6534,"postcode":"KA10 6NF","la":"South Ayrshire","era":"other","nn":0,"risk":25,"cat":"green"},{"name":"Troon Portland Bowling Club","lat":55.54287,"lon":-4.6651,"postcode":"KA10 6AG","la":"South Ayrshire","era":"other","nn":26,"risk":25,"cat":"green"},{"name":"Troon Portland Golf Club","lat":55.53239,"lon":-4.64771,"postcode":"KA10 6HE","la":"South Ayrshire","era":"other","nn":218,"risk":46,"cat":"amber"},{"name":"Troon Welbeck Golf Club","lat":55.54248,"lon":-4.6534,"postcode":"KA10 6NF","la":"South Ayrshire","era":"other","nn":0,"risk":25,"cat":"green"},{"name":"Trysting Thorn Hotel Ltd","lat":55.44379,"lon":-4.51455,"postcode":"KA6 6JW","la":"South Ayrshire","era":"other","nn":67,"risk":43,"cat":"amber"},{"name":"Victory Inn","lat":55.23763,"lon":-4.84571,"postcode":"KA26 0ER","la":"South Ayrshire","era":"trad","nn":671,"risk":29,"cat":"green"},{"name":"Vinyl","lat":55.46234,"lon":-4.63191,"postcode":"KA7 1QJ","la":"South Ayrshire","era":"other","nn":23,"risk":25,"cat":"green"},{"name":"Wellington House On The Square","lat":55.4607,"lon":-4.63536,"postcode":"KA7 1EZ","la":"South Ayrshire","era":"other","nn":114,"risk":25,"cat":"green"},{"name":"Wellingtons","lat":55.46077,"lon":-4.63717,"postcode":"KA7 1EZ","la":"South Ayrshire","era":"trad","nn":114,"risk":25,"cat":"green"},{"name":"Wheatsheaf Inn","lat":55.54887,"lon":-4.56283,"postcode":"KA1 5QB","la":"South Ayrshire","era":"trad","nn":146,"risk":46,"cat":"amber"},{"name":"Willie Wastles Bar \\\\& Restaurant","lat":55.46463,"lon":-4.63239,"postcode":"KA7 1JX","la":"South Ayrshire","era":"mod","nn":39,"risk":25,"cat":"green"},{"name":"Ye Old Fort Bar","lat":55.46533,"lon":-4.63513,"postcode":"KA7 1JA","la":"South Ayrshire","era":"other","nn":167,"risk":26,"cat":"green"}]