[{"name":"Bull Inn","lat":51.48944,"lon":-2.3857,"postcode":"SN14 8HG","la":"South Gloucestershire","era":"trad","nn":2119,"risk":63,"cat":"red"},{"name":"Crown Inn","lat":51.49084,"lon":-2.35518,"postcode":"SN14 8HZ","la":"South Gloucestershire","era":"trad","nn":2119,"risk":63,"cat":"red"},{"name":"Lord Nelson","lat":51.46204,"lon":-2.31667,"postcode":"SN14 8LP","la":"South Gloucestershire","era":"trad","nn":155,"risk":47,"cat":"amber"},{"name":"Marshfield Cricket Club","lat":51.4408,"lon":-2.30852,"postcode":"SN14 8AJ","la":"South Gloucestershire","era":"other","nn":2428,"risk":66,"cat":"red"},{"name":"The Catherine Wheel","lat":51.46193,"lon":-2.31891,"postcode":"SN14 8LR","la":"South Gloucestershire","era":"other","nn":155,"risk":47,"cat":"amber"},{"name":"147 Snooker Ltd","lat":51.56276,"lon":-1.79043,"postcode":"SN1 5DE","la":"Swindon","era":"other","nn":74,"risk":26,"cat":"green"},{"name":"Ashford Road Working Mens Club","lat":51.55523,"lon":-1.78742,"postcode":"SN1 3NT","la":"Swindon","era":"trad","nn":243,"risk":27,"cat":"green"},{"name":"Beehive Public House","lat":51.55597,"lon":-1.78038,"postcode":"SN1 3JS","la":"Swindon","era":"other","nn":124,"risk":26,"cat":"green"},{"name":"Beni's","lat":51.55777,"lon":-1.78019,"postcode":"SN1 3DQ","la":"Swindon","era":"other","nn":58,"risk":26,"cat":"green"},{"name":"Brookhouse Farm","lat":51.56638,"lon":-1.84656,"postcode":"SN5 5TZ","la":"Swindon","era":"mod","nn":655,"risk":50,"cat":"amber"},{"name":"Calley Arms","lat":51.52291,"lon":-1.75151,"postcode":"SN4 0QG","la":"Swindon","era":"trad","nn":1632,"risk":60,"cat":"amber"},{"name":"Carriers Arms","lat":51.59629,"lon":-1.7261,"postcode":"SN3 4SE","la":"Swindon","era":"trad","nn":435,"risk":49,"cat":"amber"},{"name":"Chiseldon Sports & Social Club Ltd","lat":51.51132,"lon":-1.73539,"postcode":"SN4 0LS","la":"Swindon","era":"mod","nn":375,"risk":48,"cat":"amber"},{"name":"Clifton Hotel","lat":51.55496,"lon":-1.79091,"postcode":"SN1 3PY","la":"Swindon","era":"other","nn":243,"risk":27,"cat":"green"},{"name":"County Ground Hotel","lat":51.56376,"lon":-1.77298,"postcode":"SN1 2EB","la":"Swindon","era":"other","nn":239,"risk":27,"cat":"green"},{"name":"Cuetopia (Swindon) Ltd","lat":51.56207,"lon":-1.78677,"postcode":"SN1 1BL","la":"Swindon","era":"other","nn":40,"risk":26,"cat":"green"},{"name":"Deers Leap","lat":51.59158,"lon":-1.78334,"postcode":"SN2 5DX","la":"Swindon","era":"other","nn":782,"risk":51,"cat":"amber"},{"name":"Dream Lounge","lat":51.55833,"lon":-1.78011,"postcode":"SN1 3AJ","la":"Swindon","era":"mod","nn":17,"risk":26,"cat":"green"},{"name":"Fox And Hound","lat":51.59002,"lon":-1.80766,"postcode":"SN25 1HX","la":"Swindon","era":"trad","nn":121,"risk":26,"cat":"green"},{"name":"Goldfinger Tavern","lat":51.6333,"lon":-1.71422,"postcode":"SN6 7DN","la":"Swindon","era":"other","nn":408,"risk":28,"cat":"green"},{"name":"Hall & Woodhouse At Witchelstowe","lat":51.54547,"lon":-1.80951,"postcode":"SN1 7DA","la":"Swindon","era":"mod","nn":1247,"risk":57,"cat":"amber"},{"name":"Harvester Swindon","lat":51.604,"lon":-1.78416,"postcode":"SN25 4DL","la":"Swindon","era":"trad","nn":0,"risk":28,"cat":"green"},{"name":"Haydon Wick WMC Ltd","lat":51.59057,"lon":-1.80615,"postcode":"SN25 1JD","la":"Swindon","era":"other","nn":121,"risk":26,"cat":"green"},{"name":"Helen Browning's Royal Oak","lat":51.55181,"lon":-1.64811,"postcode":"SN6 8PP","la":"Swindon","era":"trad","nn":3315,"risk":71,"cat":"red"},{"name":"High Street Club Ltd","lat":51.55186,"lon":-1.77437,"postcode":"SN1 3EP","la":"Swindon","era":"other","nn":117,"risk":26,"cat":"green"},{"name":"Highworth Bowls Club","lat":51.62573,"lon":-1.71305,"postcode":"SN6 7SJ","la":"Swindon","era":"other","nn":330,"risk":28,"cat":"green"},{"name":"Hop Kettle Tap & Brew","lat":51.55131,"lon":-1.77756,"postcode":"SN1 4BG","la":"Swindon","era":"mod","nn":65,"risk":26,"cat":"green"},{"name":"Jesters","lat":51.56532,"lon":-1.75302,"postcode":"SN3 3JD","la":"Swindon","era":"other","nn":378,"risk":46,"cat":"amber"},{"name":"Kembrey Park Brewers Fayre","lat":51.57864,"lon":-1.77347,"postcode":"SN2 8YS","la":"Swindon","era":"other","nn":755,"risk":33,"cat":"amber"},{"name":"King & Queen Inn","lat":51.6304,"lon":-1.71061,"postcode":"SN6 7AG","la":"Swindon","era":"trad","nn":0,"risk":26,"cat":"green"},{"name":"Lloyd's No. 1 Dockle Farmhouse","lat":51.57349,"lon":-1.7565,"postcode":"SN3 4PD","la":"Swindon","era":"other","nn":466,"risk":31,"cat":"amber"},{"name":"Longs Bar","lat":51.55476,"lon":-1.77719,"postcode":"SN1 3BB","la":"Swindon","era":"other","nn":0,"risk":26,"cat":"green"},{"name":"Mackenzies","lat":51.55257,"lon":-1.77579,"postcode":"SN1 4AB","la":"Swindon","era":"other","nn":27,"risk":26,"cat":"green"},{"name":"Meca","lat":51.56058,"lon":-1.78039,"postcode":"SN1 1PR","la":"Swindon","era":"other","nn":177,"risk":27,"cat":"green"},{"name":"Moredon Social Club","lat":51.58526,"lon":-1.81176,"postcode":"SN25 3ER","la":"Swindon","era":"mod","nn":600,"risk":32,"cat":"amber"},{"name":"New Century Club","lat":51.57103,"lon":-1.77612,"postcode":"SN2 8BU","la":"Swindon","era":"other","nn":177,"risk":27,"cat":"green"},{"name":"Old Town Laundry Bar","lat":51.55476,"lon":-1.77719,"postcode":"SN1 3BB","la":"Swindon","era":"other","nn":0,"risk":26,"cat":"green"},{"name":"Plough Inn","lat":51.54948,"lon":-1.69591,"postcode":"SN4 0AE","la":"Swindon","era":"trad","nn":0,"risk":31,"cat":"amber"},{"name":"Queenstown Social Club","lat":51.56209,"lon":-1.77038,"postcode":"SN3 1AF","la":"Swindon","era":"other","nn":258,"risk":27,"cat":"green"},{"name":"Robins Farm","lat":51.604,"lon":-1.78416,"postcode":"SN25 4DL","la":"Swindon","era":"other","nn":0,"risk":28,"cat":"green"},{"name":"Rodbourne Cheney Bowls Club","lat":51.58082,"lon":-1.79847,"postcode":"SN2 2PF","la":"Swindon","era":"other","nn":274,"risk":30,"cat":"green"},{"name":"Rodbourne Cheney Working Mens Club","lat":51.58299,"lon":-1.80038,"postcode":"SN25 3DQ","la":"Swindon","era":"trad","nn":274,"risk":28,"cat":"green"},{"name":"Route 66","lat":51.55233,"lon":-1.77588,"postcode":"SN1 4AN","la":"Swindon","era":"other","nn":27,"risk":26,"cat":"green"},{"name":"Saracens Head Hotel","lat":51.6304,"lon":-1.71061,"postcode":"SN6 7AG","la":"Swindon","era":"trad","nn":0,"risk":26,"cat":"green"},{"name":"Shield & Dagger","lat":51.58821,"lon":-1.7981,"postcode":"SN25 3NT","la":"Swindon","era":"other","nn":602,"risk":30,"cat":"green"},{"name":"Spotted Cow","lat":51.54331,"lon":-1.73429,"postcode":"SN3 6AA","la":"Swindon","era":"other","nn":0,"risk":46,"cat":"amber"},{"name":"Stratton Churchway Bowls Club","lat":51.57926,"lon":-1.74576,"postcode":"SN3 4JY","la":"Swindon","era":"other","nn":368,"risk":28,"cat":"green"},{"name":"Stratton St Margaret Royal British Legion Club","lat":51.58629,"lon":-1.7679,"postcode":"SN2 7QP","la":"Swindon","era":"trad","nn":298,"risk":30,"cat":"green"},{"name":"Supermarine Sports & Social Club Ltd","lat":51.60542,"lon":-1.73181,"postcode":"SN3 4BZ","la":"Swindon","era":"mod","nn":1089,"risk":56,"cat":"amber"},{"name":"Swindon Conservative Club","lat":51.55286,"lon":-1.77992,"postcode":"SN1 4BA","la":"Swindon","era":"other","nn":173,"risk":27,"cat":"green"},{"name":"Swindon Cricket Club","lat":51.56479,"lon":-1.76995,"postcode":"SN1 2ED","la":"Swindon","era":"other","nn":239,"risk":27,"cat":"green"},{"name":"Swindon Rugby Football Club","lat":51.56737,"lon":-1.74867,"postcode":"SN3 3LA","la":"Swindon","era":"other","nn":378,"risk":33,"cat":"amber"},{"name":"Tawny Owl","lat":51.59282,"lon":-1.82525,"postcode":"SN25 1WR","la":"Swindon","era":"other","nn":1255,"risk":57,"cat":"amber"},{"name":"The Abbey Meads","lat":51.59877,"lon":-1.79355,"postcode":"SN25 4YX","la":"Swindon","era":"trad","nn":0,"risk":26,"cat":"green"},{"name":"The Bakers Arms","lat":51.58895,"lon":-1.76732,"postcode":"SN2 7RE","la":"Swindon","era":"trad","nn":298,"risk":33,"cat":"amber"},{"name":"The Blunsdon Arms","lat":51.60019,"lon":-1.80157,"postcode":"SN25 2NA","la":"Swindon","era":"trad","nn":576,"risk":32,"cat":"amber"},{"name":"The Brewers Arms","lat":51.54948,"lon":-1.69591,"postcode":"SN4 0AE","la":"Swindon","era":"trad","nn":0,"risk":31,"cat":"amber"},{"name":"The Carpenters Arms","lat":51.58631,"lon":-1.71512,"postcode":"SN3 4ST","la":"Swindon","era":"trad","nn":975,"risk":52,"cat":"amber"},{"name":"The Carters Rest","lat":51.5229,"lon":-1.79691,"postcode":"SN4 9JU","la":"Swindon","era":"other","nn":96,"risk":26,"cat":"green"},{"name":"The Castle Inn","lat":51.55504,"lon":-1.7794,"postcode":"SN1 3LQ","la":"Swindon","era":"trad","nn":124,"risk":26,"cat":"green"},{"name":"The Crown Inn","lat":51.58411,"lon":-1.74892,"postcode":"SN3 4NL","la":"Swindon","era":"trad","nn":242,"risk":32,"cat":"amber"},{"name":"The Dolphin Hotel","lat":51.56466,"lon":-1.80044,"postcode":"SN2 2AF","la":"Swindon","era":"other","nn":80,"risk":26,"cat":"green"},{"name":"The Eternal Optimist","lat":51.55223,"lon":-1.77682,"postcode":"SN1 4BJ","la":"Swindon","era":"other","nn":52,"risk":26,"cat":"green"},{"name":"The Even Swindon Working Mens Club & Institute Ltd","lat":51.56478,"lon":-1.80158,"postcode":"SN2 2AZ","la":"Swindon","era":"trad","nn":80,"risk":26,"cat":"green"},{"name":"The Fox & Hounds","lat":51.52354,"lon":-1.79822,"postcode":"SN4 9JT","la":"Swindon","era":"trad","nn":116,"risk":26,"cat":"green"},{"name":"The Freke Arms","lat":51.62464,"lon":-1.7359,"postcode":"SN6 7RN","la":"Swindon","era":"trad","nn":1582,"risk":59,"cat":"amber"},{"name":"The Glue Pot","lat":51.56214,"lon":-1.79085,"postcode":"SN1 5BP","la":"Swindon","era":"other","nn":74,"risk":26,"cat":"green"},{"name":"The Great Western Hotel","lat":51.5658,"lon":-1.78304,"postcode":"SN1 1DH","la":"Swindon","era":"other","nn":147,"risk":27,"cat":"green"},{"name":"The Greyhound (Swindon) Ltd","lat":51.55867,"lon":-1.79415,"postcode":"SN1 5DL","la":"Swindon","era":"trad","nn":183,"risk":27,"cat":"green"},{"name":"The Harrow Inn","lat":51.54966,"lon":-1.69598,"postcode":"SN4 0AE","la":"Swindon","era":"trad","nn":20,"risk":31,"cat":"amber"},{"name":"The Harvey","lat":51.55915,"lon":-1.82877,"postcode":"SN5 7DL","la":"Swindon","era":"other","nn":800,"risk":51,"cat":"amber"},{"name":"The Heart In Hand","lat":51.61303,"lon":-1.78657,"postcode":"SN26 7AG","la":"Swindon","era":"other","nn":1018,"risk":55,"cat":"amber"},{"name":"The Hop Inn","lat":51.55062,"lon":-1.77681,"postcode":"SN1 4BH","la":"Swindon","era":"trad","nn":86,"risk":26,"cat":"green"},{"name":"The Iron Horse","lat":51.52662,"lon":-1.79662,"postcode":"SN4 9EJ","la":"Swindon","era":"trad","nn":360,"risk":28,"cat":"green"},{"name":"The Jolly Tar Inn","lat":51.6376,"lon":-1.74783,"postcode":"SN6 7RP","la":"Swindon","era":"trad","nn":1659,"risk":60,"cat":"amber"},{"name":"The Jovial Monk","lat":51.60345,"lon":-1.79331,"postcode":"SN25 4YD","la":"Swindon","era":"trad","nn":520,"risk":29,"cat":"green"},{"name":"The Kingsdown Inn","lat":51.59332,"lon":-1.75999,"postcode":"SN2 7PE","la":"Swindon","era":"trad","nn":702,"risk":48,"cat":"amber"},{"name":"The Kop","lat":51.55828,"lon":-1.78035,"postcode":"SN1 3AJ","la":"Swindon","era":"other","nn":17,"risk":26,"cat":"green"},{"name":"The Manor","lat":51.57446,"lon":-1.80173,"postcode":"SN2 2NX","la":"Swindon","era":"other","nn":96,"risk":29,"cat":"green"},{"name":"The Manor Farm","lat":51.5952,"lon":-1.80564,"postcode":"SN25 1JE","la":"Swindon","era":"other","nn":516,"risk":29,"cat":"green"},{"name":"The Merlin","lat":51.55862,"lon":-1.77256,"postcode":"SN1 3AF","la":"Swindon","era":"other","nn":414,"risk":29,"cat":"green"},{"name":"The Messenger","lat":51.56742,"lon":-1.73874,"postcode":"SN3 5AA","la":"Swindon","era":"other","nn":686,"risk":48,"cat":"amber"},{"name":"The Moonrakers","lat":51.5864,"lon":-1.77568,"postcode":"SN2 5AA","la":"Swindon","era":"other","nn":538,"risk":32,"cat":"amber"},{"name":"The New Calley Arms","lat":51.54172,"lon":-1.69805,"postcode":"SN4 0DF","la":"Swindon","era":"trad","nn":876,"risk":37,"cat":"amber"},{"name":"The North Swindon Club","lat":51.57369,"lon":-1.8011,"postcode":"SN2 2NR","la":"Swindon","era":"other","nn":96,"risk":29,"cat":"green"},{"name":"The Patriot Arms / The Smokehouse","lat":51.51419,"lon":-1.73253,"postcode":"SN4 0LU","la":"Swindon","era":"trad","nn":375,"risk":48,"cat":"amber"},{"name":"The Plough Inn","lat":51.54963,"lon":-1.77686,"postcode":"SN1 4BQ","la":"Swindon","era":"trad","nn":33,"risk":26,"cat":"green"},{"name":"The Plough On The Hill Ltd","lat":51.52197,"lon":-1.7246,"postcode":"SN4 0EP","la":"Swindon","era":"trad","nn":1024,"risk":55,"cat":"amber"},{"name":"The Pub Company (New Inn)","lat":51.57707,"lon":-1.75299,"postcode":"SN3 4PN","la":"Swindon","era":"trad","nn":466,"risk":31,"cat":"amber"},{"name":"The Queens Tap / Bull & Bird","lat":51.56501,"lon":-1.78475,"postcode":"SN1 1DG","la":"Swindon","era":"other","nn":147,"risk":27,"cat":"green"},{"name":"The Rat Trap","lat":51.59241,"lon":-1.72524,"postcode":"SN3 4SF","la":"Swindon","era":"other","nn":435,"risk":46,"cat":"amber"},{"name":"The Red Lion Castle Eaton","lat":51.66074,"lon":-1.79098,"postcode":"SN6 6JZ","la":"Swindon","era":"trad","nn":2243,"risk":64,"cat":"red"},{"name":"The Roaring Donkey Ltd","lat":51.55344,"lon":-1.77633,"postcode":"SN1 3HJ","la":"Swindon","era":"other","nn":50,"risk":26,"cat":"green"},{"name":"The Rose & Crown","lat":51.62864,"lon":-1.71212,"postcode":"SN6 7DB","la":"Swindon","era":"trad","nn":222,"risk":27,"cat":"green"},{"name":"The Savoy","lat":51.55997,"lon":-1.78275,"postcode":"SN1 1JL","la":"Swindon","era":"other","nn":177,"risk":27,"cat":"green"},{"name":"The Southbrook Inn","lat":51.57201,"lon":-1.7891,"postcode":"SN2 1HF","la":"Swindon","era":"trad","nn":808,"risk":31,"cat":"amber"},{"name":"The Steam Railway","lat":51.55053,"lon":-1.77465,"postcode":"SN1 3DX","la":"Swindon","era":"trad","nn":102,"risk":26,"cat":"green"},{"name":"The Strawberry Thief","lat":51.60747,"lon":-1.82783,"postcode":"SN25 2RA","la":"Swindon","era":"other","nn":1638,"risk":60,"cat":"amber"},{"name":"The Sun Inn","lat":51.54331,"lon":-1.73429,"postcode":"SN3 6AA","la":"Swindon","era":"trad","nn":0,"risk":46,"cat":"amber"},{"name":"The Swiss Chalet","lat":51.57185,"lon":-1.77394,"postcode":"SN2 8DA","la":"Swindon","era":"other","nn":177,"risk":27,"cat":"green"},{"name":"The Tap And Barrel (Pub - Wet Sales)","lat":51.56572,"lon":-1.77658,"postcode":"SN1 2AJ","la":"Swindon","era":"mod","nn":331,"risk":28,"cat":"green"},{"name":"The Tuppenny","lat":51.55188,"lon":-1.77734,"postcode":"SN1 4BD","la":"Swindon","era":"other","nn":52,"risk":26,"cat":"green"},{"name":"The Vault","lat":51.55316,"lon":-1.77747,"postcode":"SN1 3BL","la":"Swindon","era":"other","nn":34,"risk":26,"cat":"green"},{"name":"The Victoria","lat":51.55328,"lon":-1.77701,"postcode":"SN1 3BD","la":"Swindon","era":"trad","nn":0,"risk":26,"cat":"green"},{"name":"The Village Inn","lat":51.56781,"lon":-1.83736,"postcode":"SN5 5PY","la":"Swindon","era":"trad","nn":655,"risk":50,"cat":"amber"},{"name":"The Village Inn","lat":51.53268,"lon":-1.70304,"postcode":"SN4 0HE","la":"Swindon","era":"trad","nn":1063,"risk":56,"cat":"amber"},{"name":"The Wheatsheaf","lat":51.58253,"lon":-1.7465,"postcode":"SN3 4NH","la":"Swindon","era":"trad","nn":242,"risk":32,"cat":"amber"},{"name":"The Windmill","lat":51.55498,"lon":-1.81934,"postcode":"SN5 8AE","la":"Swindon","era":"trad","nn":800,"risk":51,"cat":"amber"},{"name":"The Wine Bar (Highworth) Ltd","lat":51.63045,"lon":-1.71012,"postcode":"SN6 7AG","la":"Swindon","era":"mod","nn":34,"risk":26,"cat":"green"},{"name":"Timmy's Bar Ltd","lat":51.55328,"lon":-1.77701,"postcode":"SN1 3BD","la":"Swindon","era":"mod","nn":0,"risk":26,"cat":"green"},{"name":"Toby Carvery","lat":51.59877,"lon":-1.79355,"postcode":"SN25 4YX","la":"Swindon","era":"other","nn":0,"risk":26,"cat":"green"},{"name":"Tree Nightclub","lat":51.55113,"lon":-1.77575,"postcode":"SN1 3RA","la":"Swindon","era":"other","nn":92,"risk":26,"cat":"green"},{"name":"Waiting Room","lat":51.56205,"lon":-1.78767,"postcode":"SN1 1RA","la":"Swindon","era":"other","nn":63,"risk":26,"cat":"green"},{"name":"Wessex Squash Club","lat":51.55749,"lon":-1.78438,"postcode":"SN1 5QZ","la":"Swindon","era":"other","nn":291,"risk":28,"cat":"green"},{"name":"West End Bowls Club","lat":51.55516,"lon":-1.80041,"postcode":"SN1 4PH","la":"Swindon","era":"other","nn":402,"risk":31,"cat":"amber"},{"name":"Westcott Place WMC","lat":51.55744,"lon":-1.79591,"postcode":"SN1 5HL","la":"Swindon","era":"other","nn":183,"risk":27,"cat":"green"},{"name":"Wheatsheaf Ale House","lat":51.54986,"lon":-1.77657,"postcode":"SN1 3DP","la":"Swindon","era":"trad","nn":33,"risk":26,"cat":"green"},{"name":"White Hart","lat":51.52246,"lon":-1.79571,"postcode":"SN4 9JX","la":"Swindon","era":"trad","nn":96,"risk":26,"cat":"green"},{"name":"White Hart","lat":51.57587,"lon":-1.73584,"postcode":"SN3 4JD","la":"Swindon","era":"trad","nn":782,"risk":49,"cat":"amber"},{"name":"Wichel Inn (Formerly Known As The Bayberry)","lat":51.54047,"lon":-1.788,"postcode":"SN1 7AP","la":"Swindon","era":"trad","nn":1278,"risk":57,"cat":"amber"},{"name":"Woodlands Edge","lat":51.57749,"lon":-1.83483,"postcode":"SN5 5AN","la":"Swindon","era":"other","nn":1090,"risk":56,"cat":"amber"},{"name":"Wroughton Bowls Club","lat":51.52419,"lon":-1.79158,"postcode":"SN4 9LW","la":"Swindon","era":"other","nn":173,"risk":27,"cat":"green"},{"name":"Wroughton Workmens Club","lat":51.52462,"lon":-1.78917,"postcode":"SN4 0SA","la":"Swindon","era":"other","nn":173,"risk":27,"cat":"green"},{"name":"Wyvern Tavern / K-Town, Chik Box And Locked And Loaded","lat":51.56183,"lon":-1.78633,"postcode":"SN1 1BL","la":"Swindon","era":"other","nn":40,"risk":26,"cat":"green"},{"name":"Bourton Club","lat":51.5815,"lon":-1.66721,"postcode":"SN6 8HZ","la":"Vale of White Horse","era":"other","nn":2148,"risk":66,"cat":"red"},{"name":"Faringdon Bowling Club","lat":51.65734,"lon":-1.58836,"postcode":"SN7 7JN","la":"Vale of White Horse","era":"other","nn":301,"risk":30,"cat":"green"},{"name":"Faringdon Cricket Club","lat":51.65493,"lon":-1.56978,"postcode":"SN7 8BF","la":"Vale of White Horse","era":"other","nn":876,"risk":37,"cat":"amber"},{"name":"Faringdon Town Football Club","lat":51.65219,"lon":-1.58316,"postcode":"SN7 7BP","la":"Vale of White Horse","era":"other","nn":0,"risk":28,"cat":"green"},{"name":"Fox And Hounds","lat":51.60038,"lon":-1.56079,"postcode":"SN7 7RP","la":"Vale of White Horse","era":"trad","nn":532,"risk":52,"cat":"amber"},{"name":"Horse & Jockey","lat":51.63489,"lon":-1.5113,"postcode":"SN7 8NN","la":"Vale of White Horse","era":"trad","nn":571,"risk":50,"cat":"amber"},{"name":"King and Queen","lat":51.61431,"lon":-1.60695,"postcode":"SN7 7TL","la":"Vale of White Horse","era":"trad","nn":2364,"risk":67,"cat":"red"},{"name":"POW Shrivenham Limited","lat":51.59922,"lon":-1.65343,"postcode":"SN6 8AF","la":"Vale of White Horse","era":"other","nn":41,"risk":46,"cat":"amber"},{"name":"Shrivenham Park Golf Club","lat":51.60825,"lon":-1.66359,"postcode":"SN6 8EX","la":"Vale of White Horse","era":"other","nn":1143,"risk":59,"cat":"amber"},{"name":"Stanford In The Vale F C","lat":51.64165,"lon":-1.51215,"postcode":"SN7 8HX","la":"Vale of White Horse","era":"other","nn":754,"risk":51,"cat":"amber"},{"name":"Stanford Social Club","lat":51.63706,"lon":-1.50381,"postcode":"SN7 8LW","la":"Vale of White Horse","era":"mod","nn":571,"risk":50,"cat":"amber"},{"name":"The Barrington Arms","lat":51.59886,"lon":-1.65355,"postcode":"SN6 8AN","la":"Vale of White Horse","era":"trad","nn":0,"risk":46,"cat":"amber"},{"name":"The Crown Inn","lat":51.59886,"lon":-1.65355,"postcode":"SN6 8AN","la":"Vale of White Horse","era":"trad","nn":0,"risk":46,"cat":"amber"},{"name":"The Eagle Inn","lat":51.61234,"lon":-1.6484,"postcode":"SN6 8TF","la":"Vale of White Horse","era":"trad","nn":1143,"risk":59,"cat":"amber"},{"name":"The Eagle Tavern","lat":51.63894,"lon":-1.59546,"postcode":"SN7 7LW","la":"Vale of White Horse","era":"trad","nn":1700,"risk":62,"cat":"red"},{"name":"The Folly Inn Ltd","lat":51.65789,"lon":-1.58154,"postcode":"SN7 7AA","la":"Vale of White Horse","era":"trad","nn":86,"risk":29,"cat":"green"},{"name":"The Narrows of Faringdon","lat":51.65807,"lon":-1.58415,"postcode":"SN7 7HP","la":"Vale of White Horse","era":"other","nn":97,"risk":29,"cat":"green"},{"name":"The Swan","lat":51.65219,"lon":-1.58316,"postcode":"SN7 7BP","la":"Vale of White Horse","era":"trad","nn":0,"risk":28,"cat":"green"},{"name":"The White Horse","lat":51.58878,"lon":-1.57727,"postcode":"SN7 7QL","la":"Vale of White Horse","era":"trad","nn":1720,"risk":63,"cat":"red"},{"name":"The Woodman Inn","lat":51.62542,"lon":-1.57776,"postcode":"SN7 7NX","la":"Vale of White Horse","era":"trad","nn":1938,"risk":64,"cat":"red"},{"name":"Uffington Sports & Social Club","lat":51.60003,"lon":-1.55311,"postcode":"SN7 7SD","la":"Vale of White Horse","era":"mod","nn":532,"risk":52,"cat":"amber"},{"name":"Wheatsheaf Inn","lat":51.65809,"lon":-1.58274,"postcode":"SN7 7AE","la":"Vale of White Horse","era":"trad","nn":86,"risk":29,"cat":"green"},{"name":"Alfreds Wine Bar","lat":51.3392,"lon":-1.76542,"postcode":"SN9 5AA","la":"Wiltshire","era":"other","nn":135,"risk":16,"cat":"green"},{"name":"Avebury Sports & Social Club","lat":51.42645,"lon":-1.85445,"postcode":"SN8 1RD","la":"Wiltshire","era":"mod","nn":261,"risk":37,"cat":"amber"},{"name":"Bassett Down Golf Club","lat":51.52272,"lon":-1.8358,"postcode":"SN4 9QP","la":"Swindon","era":"other","nn":2601,"risk":66,"cat":"red"},{"name":"Bell Inn","lat":51.61405,"lon":-1.86964,"postcode":"SN5 4JG","la":"Wiltshire","era":"trad","nn":2631,"risk":56,"cat":"amber"},{"name":"Black Horse Inn","lat":51.42941,"lon":-1.94988,"postcode":"SN11 8UT","la":"Wiltshire","era":"trad","nn":2131,"risk":53,"cat":"amber"},{"name":"Blacklands Lakes Ltd","lat":51.41967,"lon":-1.99411,"postcode":"SN11 0NQ","la":"Wiltshire","era":"other","nn":1041,"risk":45,"cat":"amber"},{"name":"Blue Boar Inn","lat":51.48037,"lon":-1.62029,"postcode":"SN8 2EN","la":"Wiltshire","era":"trad","nn":118,"risk":36,"cat":"amber"},{"name":"Bolingbroke Arms","lat":51.56531,"lon":-1.89078,"postcode":"SN4 8DZ","la":"Wiltshire","era":"trad","nn":1170,"risk":46,"cat":"amber"},{"name":"Box Bowls Club","lat":51.41609,"lon":-2.25522,"postcode":"SN13 8NT","la":"Wiltshire","era":"other","nn":182,"risk":34,"cat":"amber"},{"name":"Brewery Inn","lat":51.34848,"lon":-2.10136,"postcode":"SN12 6PX","la":"Wiltshire","era":"trad","nn":354,"risk":38,"cat":"amber"},{"name":"Bruce Arms","lat":51.34837,"lon":-1.71726,"postcode":"SN9 5LR","la":"Wiltshire","era":"trad","nn":2345,"risk":54,"cat":"amber"},{"name":"Buds","lat":51.37403,"lon":-2.13653,"postcode":"SN12 7DZ","la":"Wiltshire","era":"other","nn":88,"risk":16,"cat":"green"},{"name":"Calne Liberal Club","lat":51.4401,"lon":-2.00488,"postcode":"SN11 8AB","la":"Wiltshire","era":"other","nn":134,"risk":21,"cat":"green"},{"name":"Chippenham Golf Club","lat":51.47974,"lon":-2.13002,"postcode":"SN15 5LT","la":"Wiltshire","era":"other","nn":224,"risk":37,"cat":"amber"},{"name":"Chippenham Park Bowls Club","lat":51.46422,"lon":-2.12187,"postcode":"SN15 1NZ","la":"Wiltshire","era":"other","nn":359,"risk":18,"cat":"green"},{"name":"Chippenham Rugby Football Club","lat":51.46603,"lon":-2.15042,"postcode":"SN14 0YZ","la":"Wiltshire","era":"other","nn":911,"risk":42,"cat":"amber"},{"name":"Chippenham Sports Club","lat":51.46557,"lon":-2.13447,"postcode":"SN15 1NT","la":"Wiltshire","era":"other","nn":412,"risk":23,"cat":"green"},{"name":"Churchill Arms Inn","lat":51.27943,"lon":-1.99493,"postcode":"SN10 4JB","la":"Wiltshire","era":"trad","nn":1551,"risk":49,"cat":"amber"},{"name":"Colerne Liberal Club","lat":51.43856,"lon":-2.26213,"postcode":"SN14 8DD","la":"Wiltshire","era":"other","nn":0,"risk":20,"cat":"green"},{"name":"Combat Splat Ltd","lat":51.6437,"lon":-1.93411,"postcode":"SN6 6NX","la":"Wiltshire","era":"other","nn":0,"risk":35,"cat":"amber"},{"name":"Conservative Club","lat":51.54318,"lon":-1.90298,"postcode":"SN4 7AQ","la":"Wiltshire","era":"other","nn":0,"risk":15,"cat":"green"},{"name":"Constitutional Club","lat":51.45996,"lon":-2.119,"postcode":"SN15 1HB","la":"Wiltshire","era":"other","nn":64,"risk":16,"cat":"green"},{"name":"Constitutional Club","lat":51.43798,"lon":-2.26403,"postcode":"SN14 8DB","la":"Wiltshire","era":"other","nn":0,"risk":20,"cat":"green"},{"name":"Corsham Bowls Club","lat":51.43046,"lon":-2.18555,"postcode":"SN13 9EU","la":"Wiltshire","era":"other","nn":0,"risk":15,"cat":"green"},{"name":"Corsham Club","lat":51.43255,"lon":-2.1877,"postcode":"SN13 0BH","la":"Wiltshire","era":"other","nn":0,"risk":15,"cat":"green"},{"name":"Corsham Cricket Club","lat":51.43046,"lon":-2.18555,"postcode":"SN13 9EU","la":"Wiltshire","era":"other","nn":0,"risk":15,"cat":"green"},{"name":"Corsham Rugby Football Club","lat":51.43095,"lon":-2.17071,"postcode":"SN13 9QG","la":"Wiltshire","era":"other","nn":837,"risk":39,"cat":"amber"},{"name":"Corsham Town Football Club","lat":51.43056,"lon":-2.18276,"postcode":"SN13 9HS","la":"Wiltshire","era":"other","nn":194,"risk":17,"cat":"green"},{"name":"Cricklade Bowls Club","lat":51.64116,"lon":-1.86024,"postcode":"SN6 6AT","la":"Wiltshire","era":"other","nn":262,"risk":20,"cat":"green"},{"name":"Cross Keys Inn","lat":51.54226,"lon":-1.90356,"postcode":"SN4 7AY","la":"Wiltshire","era":"trad","nn":0,"risk":15,"cat":"green"},{"name":"Crown And Anchor","lat":51.44562,"lon":-1.60042,"postcode":"SN8 2PT","la":"Wiltshire","era":"trad","nn":462,"risk":36,"cat":"amber"},{"name":"Crown and Anchor","lat":51.36418,"lon":-1.52637,"postcode":"SN8 3RB","la":"Wiltshire","era":"trad","nn":5417,"risk":73,"cat":"red"},{"name":"Crown Inn","lat":51.48698,"lon":-1.84949,"postcode":"SN4 9PA","la":"Wiltshire","era":"trad","nn":645,"risk":40,"cat":"amber"},{"name":"Crown Inn","lat":51.37623,"lon":-1.94851,"postcode":"SN10 2JZ","la":"Wiltshire","era":"trad","nn":934,"risk":42,"cat":"amber"},{"name":"Dans at The Crown","lat":51.42111,"lon":-1.72814,"postcode":"SN8 1NE","la":"Wiltshire","era":"trad","nn":81,"risk":16,"cat":"green"},{"name":"Devizes & District Assn For Disabled","lat":51.35025,"lon":-1.98464,"postcode":"SN10 3AF","la":"Wiltshire","era":"other","nn":0,"risk":15,"cat":"green"},{"name":"Devizes & District Conservative Club","lat":51.34907,"lon":-1.99263,"postcode":"SN10 1NW","la":"Wiltshire","era":"other","nn":0,"risk":15,"cat":"green"},{"name":"Devizes Bowls Club","lat":51.34907,"lon":-1.99263,"postcode":"SN10 1NW","la":"Wiltshire","era":"other","nn":0,"risk":15,"cat":"green"},{"name":"Devizes Cricket Club","lat":51.35555,"lon":-1.98629,"postcode":"SN10 2DL","la":"Wiltshire","era":"other","nn":148,"risk":16,"cat":"green"},{"name":"Devizes Literary & Scientific Instit","lat":51.35349,"lon":-1.99732,"postcode":"SN10 1JJ","la":"Wiltshire","era":"other","nn":0,"risk":15,"cat":"green"},{"name":"Devizes Sports Club","lat":51.35507,"lon":-1.98429,"postcode":"SN10 2DL","la":"Wiltshire","era":"other","nn":148,"risk":16,"cat":"green"},{"name":"Devizes Town Football & Social Club","lat":51.3451,"lon":-1.97976,"postcode":"SN10 3DX","la":"Wiltshire","era":"mod","nn":275,"risk":17,"cat":"green"},{"name":"Dog and Partridge Inn","lat":51.44723,"lon":-1.99589,"postcode":"SN11 8AW","la":"Wiltshire","era":"trad","nn":989,"risk":42,"cat":"amber"},{"name":"Dumb Post Inn","lat":51.4515,"lon":-2.03968,"postcode":"SN11 9LJ","la":"Wiltshire","era":"trad","nn":2061,"risk":52,"cat":"amber"},{"name":"E11evn","lat":51.45976,"lon":-2.11785,"postcode":"SN15 1HA","la":"Wiltshire","era":"other","nn":40,"risk":16,"cat":"green"},{"name":"Erlestoke Sands Golf Club","lat":51.26833,"lon":-2.06216,"postcode":"SN10 5UB","la":"Wiltshire","era":"other","nn":2754,"risk":57,"cat":"amber"},{"name":"Fancy B.","lat":51.50054,"lon":-1.59735,"postcode":"SN8 2JP","la":"Wiltshire","era":"other","nn":2749,"risk":57,"cat":"amber"},{"name":"Fortune Inn","lat":51.45876,"lon":-2.13489,"postcode":"SN14 0DA","la":"Wiltshire","era":"trad","nn":507,"risk":24,"cat":"green"},{"name":"Fox And Hounds","lat":51.43798,"lon":-2.26403,"postcode":"SN14 8DB","la":"Wiltshire","era":"trad","nn":0,"risk":20,"cat":"green"},{"name":"Fox And Hounds Inn","lat":51.34059,"lon":-1.97277,"postcode":"SN10 3HJ","la":"Wiltshire","era":"trad","nn":698,"risk":38,"cat":"amber"},{"name":"Foxham Inn","lat":51.4959,"lon":-2.03693,"postcode":"SN15 4NQ","la":"Wiltshire","era":"trad","nn":1559,"risk":49,"cat":"amber"},{"name":"George Inn","lat":51.41282,"lon":-2.05223,"postcode":"SN15 2PY","la":"Wiltshire","era":"trad","nn":2480,"risk":55,"cat":"amber"},{"name":"Goatacre Sports & Social Club","lat":51.49014,"lon":-1.97087,"postcode":"SN11 9HY","la":"Wiltshire","era":"mod","nn":2230,"risk":53,"cat":"amber"},{"name":"Golden Swan","lat":51.34972,"lon":-1.79651,"postcode":"SN9 5NN","la":"Wiltshire","era":"trad","nn":1998,"risk":52,"cat":"amber"},{"name":"Greyhound Inn","lat":51.38752,"lon":-2.05256,"postcode":"SN15 2HA","la":"Wiltshire","era":"trad","nn":950,"risk":42,"cat":"amber"},{"name":"Hare And Hounds & Tasty Trio","lat":51.4343,"lon":-2.19788,"postcode":"SN13 0HY","la":"Wiltshire","era":"trad","nn":571,"risk":19,"cat":"green"},{"name":"Harp And Crown Inn","lat":51.41438,"lon":-2.16833,"postcode":"SN13 9PU","la":"Wiltshire","era":"trad","nn":1818,"risk":51,"cat":"amber"},{"name":"Horse and Groom Inn","lat":51.59944,"lon":-2.05291,"postcode":"SN16 9DL","la":"Wiltshire","era":"trad","nn":2472,"risk":55,"cat":"amber"},{"name":"Ivy Inn","lat":51.39631,"lon":-2.00173,"postcode":"SN11 0PL","la":"Wiltshire","era":"trad","nn":2303,"risk":54,"cat":"amber"},{"name":"Kings Arms","lat":51.35585,"lon":-1.89925,"postcode":"SN10 3PA","la":"Wiltshire","era":"trad","nn":3116,"risk":60,"cat":"amber"},{"name":"Kings Arms Hotel","lat":51.58305,"lon":-2.09812,"postcode":"SN16 9AA","la":"Wiltshire","era":"trad","nn":133,"risk":16,"cat":"green"},{"name":"Kings Arms Hotel","lat":51.37153,"lon":-2.13782,"postcode":"SN12 6EX","la":"Wiltshire","era":"trad","nn":178,"risk":17,"cat":"green"},{"name":"Kington St Michael Club & Institute","lat":51.49481,"lon":-2.13915,"postcode":"SN14 6JB","la":"Wiltshire","era":"trad","nn":0,"risk":35,"cat":"amber"},{"name":"La Strada","lat":51.48677,"lon":-1.84019,"postcode":"SN4 9PF","la":"Wiltshire","era":"other","nn":645,"risk":40,"cat":"amber"},{"name":"Lansdowne Arms","lat":51.43409,"lon":-2.06296,"postcode":"SN11 9NS","la":"Wiltshire","era":"trad","nn":1102,"risk":46,"cat":"amber"},{"name":"London Road Inn","lat":51.43308,"lon":-2.00089,"postcode":"SN11 0AD","la":"Wiltshire","era":"trad","nn":590,"risk":24,"cat":"green"},{"name":"Malmesbury Bowling Club","lat":51.58264,"lon":-2.09285,"postcode":"SN16 9BS","la":"Wiltshire","era":"other","nn":292,"risk":17,"cat":"green"},{"name":"Malmesbury Cricket Club","lat":51.58675,"lon":-2.09733,"postcode":"SN16 9JX","la":"Wiltshire","era":"other","nn":282,"risk":17,"cat":"green"},{"name":"Malmesbury Victoria Football Club","lat":51.58858,"lon":-2.10038,"postcode":"SN16 9JS","la":"Wiltshire","era":"trad","nn":292,"risk":17,"cat":"green"},{"name":"Manor House Hotel Golf Club","lat":51.49377,"lon":-2.2323,"postcode":"SN14 7HR","la":"Wiltshire","era":"mod","nn":263,"risk":37,"cat":"amber"},{"name":"Marlborough Golf Club","lat":51.42831,"lon":-1.73279,"postcode":"SN8 1DU","la":"Wiltshire","era":"other","nn":401,"risk":18,"cat":"green"},{"name":"Marlborough Rugby Football Club Ltd","lat":51.42485,"lon":-1.73111,"postcode":"SN8 1DL","la":"Wiltshire","era":"other","nn":401,"risk":18,"cat":"green"},{"name":"Marlborough Town Football Club","lat":51.42077,"lon":-1.71828,"postcode":"SN8 2BG","la":"Wiltshire","era":"other","nn":252,"risk":17,"cat":"green"},{"name":"Melksham Baptist Church","lat":51.37696,"lon":-2.14253,"postcode":"SN12 8BX","la":"Wiltshire","era":"other","nn":306,"risk":17,"cat":"green"},{"name":"Melksham Conservative Club","lat":51.37423,"lon":-2.13838,"postcode":"SN12 6LE","la":"Wiltshire","era":"other","nn":0,"risk":15,"cat":"green"},{"name":"Melksham Liberal Club","lat":51.37417,"lon":-2.13778,"postcode":"SN12 6LG","la":"Wiltshire","era":"other","nn":42,"risk":16,"cat":"green"},{"name":"Melksham RFC","lat":51.38013,"lon":-2.10529,"postcode":"SN12 7GU","la":"Wiltshire","era":"other","nn":0,"risk":35,"cat":"amber"},{"name":"Melksham Town Football Club","lat":51.38013,"lon":-2.10529,"postcode":"SN12 7GU","la":"Wiltshire","era":"other","nn":0,"risk":35,"cat":"amber"},{"name":"Merlins Pool Hall","lat":51.41989,"lon":-1.73333,"postcode":"SN8 1LT","la":"Wiltshire","era":"other","nn":27,"risk":16,"cat":"green"},{"name":"Minety Playing Fields Association","lat":51.61425,"lon":-1.96745,"postcode":"SN16 9QH","la":"Wiltshire","era":"other","nn":805,"risk":38,"cat":"amber"},{"name":"Moonrakers Bar Grill","lat":51.34871,"lon":-1.98392,"postcode":"SN10 3AJ","la":"Wiltshire","era":"mod","nn":179,"risk":17,"cat":"green"},{"name":"New Inn","lat":51.36078,"lon":-2.14366,"postcode":"SN12 6DT","la":"Wiltshire","era":"trad","nn":744,"risk":38,"cat":"amber"},{"name":"New Inn","lat":51.44708,"lon":-1.85722,"postcode":"SN4 9NW","la":"Wiltshire","era":"trad","nn":2129,"risk":53,"cat":"amber"},{"name":"North Star Club","lat":51.44577,"lon":-2.00996,"postcode":"SN11 9EE","la":"Wiltshire","era":"other","nn":337,"risk":20,"cat":"green"},{"name":"North Wilts Golf Club","lat":51.39963,"lon":-1.96897,"postcode":"SN10 2LP","la":"Wiltshire","era":"other","nn":2303,"risk":54,"cat":"amber"},{"name":"Northey Arms","lat":51.41618,"lon":-2.26652,"postcode":"SN13 8AE","la":"Wiltshire","era":"trad","nn":784,"risk":38,"cat":"amber"},{"name":"Oaksey Park Golf and Leisure","lat":51.6459,"lon":-2.01011,"postcode":"SN16 9SB","la":"Wiltshire","era":"trad","nn":3477,"risk":62,"cat":"red"},{"name":"Ogbourne Downs Golf Club","lat":51.47034,"lon":-1.7087,"postcode":"SN8 1TB","la":"Wiltshire","era":"other","nn":467,"risk":39,"cat":"amber"},{"name":"Old Bear","lat":51.64151,"lon":-1.85576,"postcode":"SN6 6AA","la":"Wiltshire","era":"other","nn":50,"risk":18,"cat":"green"},{"name":"Old Royal Ship","lat":51.5551,"lon":-2.24192,"postcode":"SN14 6PA","la":"Wiltshire","era":"trad","nn":2895,"risk":58,"cat":"amber"},{"name":"Old Spotted Cow","lat":51.67355,"lon":-1.81609,"postcode":"SN6 6LQ","la":"Wiltshire","era":"other","nn":2243,"risk":54,"cat":"amber"},{"name":"Pear Tree Inn","lat":51.39657,"lon":-2.17108,"postcode":"SN12 8QX","la":"Wiltshire","era":"trad","nn":843,"risk":41,"cat":"amber"},{"name":"Peterborough Arms","lat":51.52128,"lon":-2.00842,"postcode":"SN15 4HD","la":"Wiltshire","era":"trad","nn":1021,"risk":45,"cat":"amber"},{"name":"Pewsey Vale Bowls Club","lat":51.34023,"lon":-1.76275,"postcode":"SN9 5AQ","la":"Wiltshire","era":"other","nn":39,"risk":16,"cat":"green"},{"name":"Pheasant Inn","lat":51.44999,"lon":-2.13869,"postcode":"SN14 0AE","la":"Wiltshire","era":"trad","nn":607,"risk":40,"cat":"amber"},{"name":"Phoenix Bar","lat":51.54022,"lon":-1.90701,"postcode":"SN4 7BS","la":"Wiltshire","era":"other","nn":101,"risk":16,"cat":"green"},{"name":"Potterne Cricket Club Catering","lat":51.32454,"lon":-2.00674,"postcode":"SN10 5PH","la":"Wiltshire","era":"other","nn":168,"risk":34,"cat":"amber"},{"name":"Potterne Social Club","lat":51.32777,"lon":-2.01104,"postcode":"SN10 5QY","la":"Wiltshire","era":"mod","nn":375,"risk":35,"cat":"amber"},{"name":"Prince of Wales Micropub","lat":51.46083,"lon":-2.11772,"postcode":"SN15 1EG","la":"Wiltshire","era":"trad","nn":74,"risk":16,"cat":"green"},{"name":"Purton Red House","lat":51.58691,"lon":-1.86515,"postcode":"SN5 4DT","la":"Wiltshire","era":"other","nn":21,"risk":20,"cat":"green"},{"name":"Purton Red House Limited","lat":51.58672,"lon":-1.86513,"postcode":"SN5 4DT","la":"Wiltshire","era":"mod","nn":21,"risk":20,"cat":"green"},{"name":"Purton Working Mens Club","lat":51.59051,"lon":-1.86585,"postcode":"SN5 4AH","la":"Wiltshire","era":"trad","nn":326,"risk":23,"cat":"green"},{"name":"Quarrymans Arms","lat":51.42265,"lon":-2.23948,"postcode":"SN13 8HN","la":"Wiltshire","era":"trad","nn":1243,"risk":47,"cat":"amber"},{"name":"Ramsbury Royal British Legion","lat":51.44192,"lon":-1.6095,"postcode":"SN8 2QN","la":"Wiltshire","era":"trad","nn":331,"risk":35,"cat":"amber"},{"name":"Rattlebone Inn","lat":51.57295,"lon":-2.21142,"postcode":"SN16 0LR","la":"Wiltshire","era":"trad","nn":2895,"risk":58,"cat":"amber"},{"name":"Red Lion","lat":51.2736,"lon":-1.8008,"postcode":"SN9 6AQ","la":"Wiltshire","era":"trad","nn":1458,"risk":48,"cat":"amber"},{"name":"Red Lion","lat":51.42794,"lon":-1.85736,"postcode":"SN8 1RF","la":"Wiltshire","era":"trad","nn":261,"risk":37,"cat":"amber"},{"name":"Red Lion","lat":51.41468,"lon":-2.12224,"postcode":"SN15 2LQ","la":"Wiltshire","era":"trad","nn":96,"risk":33,"cat":"amber"},{"name":"Red Lion","lat":51.64363,"lon":-1.85442,"postcode":"SN6 6DD","la":"Wiltshire","era":"trad","nn":253,"risk":20,"cat":"green"},{"name":"Rivo Lounge","lat":51.45983,"lon":-2.11728,"postcode":"SN15 1EX","la":"Wiltshire","era":"mod","nn":40,"risk":16,"cat":"green"},{"name":"Rose & Crown","lat":51.45735,"lon":-2.11356,"postcode":"SN15 3HW","la":"Wiltshire","era":"trad","nn":117,"risk":16,"cat":"green"},{"name":"Rose And Crown Inn","lat":51.31631,"lon":-2.04101,"postcode":"SN10 5SE","la":"Wiltshire","era":"trad","nn":2399,"risk":55,"cat":"amber"},{"name":"Rowden Arms","lat":51.45193,"lon":-2.1305,"postcode":"SN15 2AW","la":"Wiltshire","era":"trad","nn":607,"risk":37,"cat":"amber"},{"name":"Royal Oak","lat":51.43312,"lon":-2.18481,"postcode":"SN13 0HF","la":"Wiltshire","era":"trad","nn":54,"risk":16,"cat":"green"},{"name":"Royal Wootton Bassett Rugby & Social","lat":51.55732,"lon":-1.90179,"postcode":"SN4 8DS","la":"Wiltshire","era":"other","nn":760,"risk":41,"cat":"amber"},{"name":"Sally Pusseys Inn","lat":51.5457,"lon":-1.86357,"postcode":"SN4 8ET","la":"Wiltshire","era":"trad","nn":0,"risk":33,"cat":"amber"},{"name":"Six Bells Inn","lat":51.43856,"lon":-2.26213,"postcode":"SN14 8DD","la":"Wiltshire","era":"trad","nn":0,"risk":20,"cat":"green"},{"name":"Spencer Sports and Social Club","lat":51.38061,"lon":-2.14293,"postcode":"SN12 8AG","la":"Wiltshire","era":"mod","nn":407,"risk":18,"cat":"green"},{"name":"The Angel Hotel","lat":51.58779,"lon":-1.86762,"postcode":"SN5 4AB","la":"Wiltshire","era":"trad","nn":197,"risk":22,"cat":"green"},{"name":"The Angel Hotel","lat":51.54318,"lon":-1.90298,"postcode":"SN4 7AQ","la":"Wiltshire","era":"trad","nn":0,"risk":15,"cat":"green"},{"name":"The Antelope","lat":51.29484,"lon":-1.80793,"postcode":"SN9 6EA","la":"Wiltshire","era":"other","nn":0,"risk":35,"cat":"amber"},{"name":"The Barge Inn","lat":51.35264,"lon":-1.8533,"postcode":"SN9 5PS","la":"Wiltshire","era":"trad","nn":1729,"risk":50,"cat":"amber"},{"name":"The Barge Inn","lat":51.35139,"lon":-2.09933,"postcode":"SN12 6QB","la":"Wiltshire","era":"trad","nn":354,"risk":38,"cat":"amber"},{"name":"The Barleycorn Inn","lat":51.29951,"lon":-1.65898,"postcode":"SN8 3SD","la":"Wiltshire","era":"trad","nn":1828,"risk":51,"cat":"amber"},{"name":"The Bear","lat":51.37526,"lon":-2.13906,"postcode":"SN12 6LL","la":"Wiltshire","era":"other","nn":124,"risk":16,"cat":"green"},{"name":"The Bell at Ramsbury(Inc Bella Cafe)","lat":51.44248,"lon":-1.60481,"postcode":"SN8 2PE","la":"Wiltshire","era":"trad","nn":331,"risk":35,"cat":"amber"},{"name":"The Bell House Hotel","lat":51.50663,"lon":-2.07984,"postcode":"SN15 4RQ","la":"Wiltshire","era":"mod","nn":362,"risk":38,"cat":"amber"},{"name":"The Bell Inn","lat":51.41156,"lon":-2.10734,"postcode":"SN15 2PJ","la":"Wiltshire","era":"trad","nn":1090,"risk":45,"cat":"amber"},{"name":"The Bell Inn","lat":51.48732,"lon":-2.19287,"postcode":"SN14 7BG","la":"Wiltshire","era":"trad","nn":2563,"risk":56,"cat":"amber"},{"name":"The Bell Inn","lat":51.28674,"lon":-2.02804,"postcode":"SN10 5TH","la":"Wiltshire","era":"trad","nn":2442,"risk":55,"cat":"amber"},{"name":"The Bell on the Common","lat":51.37609,"lon":-2.1806,"postcode":"SN12 8LX","la":"Wiltshire","era":"other","nn":638,"risk":40,"cat":"amber"},{"name":"The Black Horse","lat":51.35321,"lon":-2.00898,"postcode":"SN10 2AU","la":"Wiltshire","era":"trad","nn":810,"risk":21,"cat":"green"},{"name":"The Black Horse","lat":51.4605,"lon":-2.11864,"postcode":"SN15 1ES","la":"Wiltshire","era":"trad","nn":0,"risk":15,"cat":"green"},{"name":"The Bridge House","lat":51.4584,"lon":-2.11695,"postcode":"SN15 3WL","la":"Wiltshire","era":"other","nn":145,"risk":16,"cat":"green"},{"name":"The Bridge Inn","lat":51.36801,"lon":-1.94572,"postcode":"SN10 2JS","la":"Wiltshire","era":"trad","nn":934,"risk":42,"cat":"amber"},{"name":"The British Lion","lat":51.35233,"lon":-1.98888,"postcode":"SN10 1LQ","la":"Wiltshire","era":"trad","nn":220,"risk":17,"cat":"green"},{"name":"The Brunel","lat":51.4605,"lon":-2.11864,"postcode":"SN15 1ES","la":"Wiltshire","era":"other","nn":0,"risk":15,"cat":"green"},{"name":"The Cavalier Pub","lat":51.34746,"lon":-1.97859,"postcode":"SN10 3EG","la":"Wiltshire","era":"other","nn":275,"risk":17,"cat":"green"},{"name":"The Cepen Park","lat":51.47818,"lon":-2.13205,"postcode":"SN14 6UZ","la":"Wiltshire","era":"other","nn":224,"risk":37,"cat":"amber"},{"name":"The Charlton Cat","lat":51.30165,"lon":-1.8378,"postcode":"SN9 6EZ","la":"Wiltshire","era":"other","nn":2211,"risk":53,"cat":"amber"},{"name":"The Churchill","lat":51.5457,"lon":-1.86357,"postcode":"SN4 8ET","la":"Wiltshire","era":"other","nn":0,"risk":33,"cat":"amber"},{"name":"The Cocklebury Club","lat":51.46182,"lon":-2.11515,"postcode":"SN15 3PZ","la":"Wiltshire","era":"other","nn":181,"risk":17,"cat":"green"},{"name":"The Coopers Arms","lat":51.33948,"lon":-1.75897,"postcode":"SN9 5BL","la":"Wiltshire","era":"trad","nn":276,"risk":17,"cat":"green"},{"name":"The Cricklade Club","lat":51.64169,"lon":-1.85654,"postcode":"SN6 6AY","la":"Wiltshire","era":"other","nn":20,"risk":18,"cat":"green"},{"name":"The Cross Keys","lat":51.51308,"lon":-2.00179,"postcode":"SN15 4EL","la":"Wiltshire","era":"trad","nn":1021,"risk":45,"cat":"amber"},{"name":"The Crown","lat":51.35453,"lon":-1.99705,"postcode":"SN10 1EA","la":"Wiltshire","era":"trad","nn":117,"risk":16,"cat":"green"},{"name":"The Crown","lat":51.47932,"lon":-1.62052,"postcode":"SN8 2DU","la":"Wiltshire","era":"trad","nn":118,"risk":36,"cat":"amber"},{"name":"The Crown Hotel","lat":51.54226,"lon":-1.90356,"postcode":"SN4 7AY","la":"Wiltshire","era":"trad","nn":0,"risk":15,"cat":"green"},{"name":"The Crown Inn","lat":51.34137,"lon":-1.77104,"postcode":"SN9 5EL","la":"Wiltshire","era":"trad","nn":316,"risk":18,"cat":"green"},{"name":"The Dolphin Inn","lat":51.35349,"lon":-1.99732,"postcode":"SN10 1JJ","la":"Wiltshire","era":"trad","nn":0,"risk":15,"cat":"green"},{"name":"The Five Bells","lat":51.54233,"lon":-1.90677,"postcode":"SN4 7BD","la":"Wiltshire","era":"other","nn":157,"risk":16,"cat":"green"},{"name":"The Flemish Weaver","lat":51.43358,"lon":-2.18506,"postcode":"SN13 0EZ","la":"Wiltshire","era":"other","nn":54,"risk":16,"cat":"green"},{"name":"The Flying Monk Tavern","lat":51.45791,"lon":-2.11501,"postcode":"SN15 3HD","la":"Wiltshire","era":"trad","nn":117,"risk":16,"cat":"green"},{"name":"The Foresters Arms","lat":51.37714,"lon":-2.1248,"postcode":"SN12 7BN","la":"Wiltshire","era":"trad","nn":552,"risk":19,"cat":"green"},{"name":"The Fox and Hounds","lat":51.3717,"lon":-2.17468,"postcode":"SN12 8PN","la":"Wiltshire","era":"trad","nn":638,"risk":40,"cat":"amber"},{"name":"The George And Dragon","lat":51.36333,"lon":-2.03176,"postcode":"SN10 2PN","la":"Wiltshire","era":"trad","nn":1941,"risk":51,"cat":"amber"},{"name":"The George And Dragon Inn","lat":51.32461,"lon":-2.00915,"postcode":"SN10 5PY","la":"Wiltshire","era":"trad","nn":168,"risk":34,"cat":"amber"},{"name":"The George Inn","lat":51.41536,"lon":-2.1231,"postcode":"SN15 2LH","la":"Wiltshire","era":"trad","nn":96,"risk":33,"cat":"amber"},{"name":"The Gladstone Arms","lat":51.4568,"lon":-2.11544,"postcode":"SN15 3BW","la":"Wiltshire","era":"trad","nn":127,"risk":16,"cat":"green"},{"name":"The Grapes Inn","lat":51.37423,"lon":-2.13838,"postcode":"SN12 6LE","la":"Wiltshire","era":"trad","nn":0,"risk":15,"cat":"green"},{"name":"The Great Western","lat":51.4277,"lon":-2.18354,"postcode":"SN13 9JA","la":"Wiltshire","era":"other","nn":323,"risk":18,"cat":"green"},{"name":"The Green Dragon","lat":51.4208,"lon":-1.73036,"postcode":"SN8 1AA","la":"Wiltshire","era":"trad","nn":92,"risk":16,"cat":"green"},{"name":"The Green Dragon","lat":51.28781,"lon":-1.9771,"postcode":"SN10 4AG","la":"Wiltshire","era":"trad","nn":876,"risk":41,"cat":"amber"},{"name":"The Hiding Place","lat":51.3732,"lon":-2.1383,"postcode":"SN12 6JY","la":"Wiltshire","era":"other","nn":33,"risk":16,"cat":"green"},{"name":"The Horse Shoe","lat":51.42623,"lon":-1.69842,"postcode":"SN8 2LR","la":"Wiltshire","era":"trad","nn":1368,"risk":47,"cat":"amber"},{"name":"The Hourglass Devizes Ltd","lat":51.36158,"lon":-1.96718,"postcode":"SN10 2RH","la":"Wiltshire","era":"other","nn":1391,"risk":48,"cat":"amber"},{"name":"The Inn With The Well","lat":51.46624,"lon":-1.71015,"postcode":"SN8 1SQ","la":"Wiltshire","era":"trad","nn":467,"risk":39,"cat":"amber"},{"name":"The Jenny Wren","lat":51.4488,"lon":-2.01025,"postcode":"SN11 9DF","la":"Wiltshire","era":"other","nn":337,"risk":38,"cat":"amber"},{"name":"The Jolly Huntsman","lat":51.49481,"lon":-2.13915,"postcode":"SN14 6JB","la":"Wiltshire","era":"other","nn":0,"risk":35,"cat":"amber"},{"name":"The Kingfisher","lat":51.46277,"lon":-2.13837,"postcode":"SN14 0JL","la":"Wiltshire","era":"trad","nn":412,"risk":23,"cat":"green"},{"name":"The Lamb","lat":51.35079,"lon":-1.99461,"postcode":"SN10 1BT","la":"Wiltshire","era":"other","nn":144,"risk":16,"cat":"green"},{"name":"The Lamb Hotel","lat":51.42129,"lon":-1.72928,"postcode":"SN8 1NE","la":"Wiltshire","era":"other","nn":81,"risk":16,"cat":"green"},{"name":"The Lamb Inn","lat":51.31327,"lon":-1.94645,"postcode":"SN10 4QU","la":"Wiltshire","era":"trad","nn":2680,"risk":57,"cat":"amber"},{"name":"The Langley Tap","lat":51.47587,"lon":-2.09845,"postcode":"SN15 4LQ","la":"Wiltshire","era":"mod","nn":1944,"risk":51,"cat":"amber"},{"name":"The Lydiard Inn","lat":51.54865,"lon":-1.85369,"postcode":"SN5 8UB","la":"Wiltshire","era":"trad","nn":759,"risk":38,"cat":"amber"},{"name":"The Mallard","lat":51.51013,"lon":-1.96849,"postcode":"SN15 4PL","la":"Wiltshire","era":"other","nn":2230,"risk":53,"cat":"amber"},{"name":"The Marlborough","lat":51.41816,"lon":-1.73446,"postcode":"SN8 1HF","la":"Wiltshire","era":"other","nn":208,"risk":17,"cat":"green"},{"name":"The Milk Churn","lat":51.35479,"lon":-2.1389,"postcode":"SN12 6AD","la":"Wiltshire","era":"other","nn":744,"risk":41,"cat":"amber"},{"name":"The Millstream","lat":51.32073,"lon":-1.87573,"postcode":"SN10 3RH","la":"Wiltshire","era":"trad","nn":2447,"risk":55,"cat":"amber"},{"name":"The Moonrakers Inn","lat":51.34022,"lon":-1.76332,"postcode":"SN9 5AF","la":"Wiltshire","era":"trad","nn":39,"risk":16,"cat":"green"},{"name":"The Muck And Dunder","lat":51.35219,"lon":-1.99378,"postcode":"SN10 1AJ","la":"Wiltshire","era":"other","nn":63,"risk":16,"cat":"green"},{"name":"The Neeld Arms","lat":51.51962,"lon":-2.20192,"postcode":"SN14 6AP","la":"Wiltshire","era":"trad","nn":2486,"risk":55,"cat":"amber"},{"name":"The Neston Country Inn","lat":51.41578,"lon":-2.20006,"postcode":"SN13 9SN","la":"Wiltshire","era":"trad","nn":1752,"risk":50,"cat":"amber"},{"name":"The New Inn","lat":51.35372,"lon":-1.94399,"postcode":"SN10 3LB","la":"Wiltshire","era":"trad","nn":1593,"risk":49,"cat":"amber"},{"name":"The New Inn","lat":51.52512,"lon":-2.08106,"postcode":"SN15 5HA","la":"Wiltshire","era":"trad","nn":2058,"risk":52,"cat":"amber"},{"name":"The Oddfellows","lat":51.41546,"lon":-1.75382,"postcode":"SN8 4HW","la":"Wiltshire","era":"other","nn":1376,"risk":47,"cat":"amber"},{"name":"The Old House at Home","lat":51.5145,"lon":-2.26685,"postcode":"SN14 7LT","la":"Wiltshire","era":"mod","nn":1416,"risk":48,"cat":"amber"},{"name":"The Old Lane","lat":51.44721,"lon":-2.10214,"postcode":"SN15 3SY","la":"Wiltshire","era":"other","nn":547,"risk":39,"cat":"amber"},{"name":"The Old Road Tavern","lat":51.46281,"lon":-2.11722,"postcode":"SN15 1JA","la":"Wiltshire","era":"other","nn":181,"risk":17,"cat":"green"},{"name":"The Pack Horse","lat":51.45189,"lon":-2.10463,"postcode":"SN15 3BA","la":"Wiltshire","era":"trad","nn":547,"risk":19,"cat":"green"},{"name":"The Parsons Nose","lat":51.37313,"lon":-2.13784,"postcode":"SN12 6LA","la":"Wiltshire","era":"other","nn":33,"risk":16,"cat":"green"},{"name":"The Pelican Inn","lat":51.411,"lon":-1.57306,"postcode":"SN8 3JY","la":"Wiltshire","era":"trad","nn":3334,"risk":61,"cat":"red"},{"name":"The Pelican Inn","lat":51.35253,"lon":-1.99649,"postcode":"SN10 1HT","la":"Wiltshire","era":"trad","nn":89,"risk":16,"cat":"green"},{"name":"The Pewsham","lat":51.44012,"lon":-2.07558,"postcode":"SN15 3RU","la":"Wiltshire","era":"other","nn":1102,"risk":46,"cat":"amber"},{"name":"The Pig and Whistle","lat":51.38169,"lon":-2.128,"postcode":"SN12 7AU","la":"Wiltshire","era":"other","nn":552,"risk":39,"cat":"amber"},{"name":"The Pilot","lat":51.35444,"lon":-2.122,"postcode":"SN12 6TA","la":"Wiltshire","era":"other","nn":1175,"risk":46,"cat":"amber"},{"name":"The Queens Head","lat":51.41527,"lon":-2.25294,"postcode":"SN13 8NH","la":"Wiltshire","era":"trad","nn":182,"risk":34,"cat":"amber"},{"name":"The Radnor Arms","lat":51.55531,"lon":-2.11006,"postcode":"SN16 0HD","la":"Wiltshire","era":"trad","nn":3082,"risk":59,"cat":"amber"},{"name":"The Raven Inn","lat":51.34099,"lon":-2.04444,"postcode":"SN10 1RW","la":"Wiltshire","era":"trad","nn":2635,"risk":56,"cat":"amber"},{"name":"The Red Bull","lat":51.58951,"lon":-2.12961,"postcode":"SN16 0RA","la":"Wiltshire","era":"trad","nn":2012,"risk":52,"cat":"amber"},{"name":"The Red Lion","lat":51.54318,"lon":-1.90298,"postcode":"SN4 7AQ","la":"Wiltshire","era":"trad","nn":0,"risk":15,"cat":"green"},{"name":"The Rising Sun","lat":51.50647,"lon":-2.05173,"postcode":"SN15 4BL","la":"Wiltshire","era":"other","nn":1559,"risk":49,"cat":"amber"},{"name":"The Rising Sun","lat":51.40985,"lon":-2.09166,"postcode":"SN15 2PP","la":"Wiltshire","era":"other","nn":1104,"risk":46,"cat":"amber"},{"name":"The Roebuck Inn","lat":51.41966,"lon":-1.71511,"postcode":"SN8 2AJ","la":"Wiltshire","era":"trad","nn":252,"risk":22,"cat":"green"},{"name":"The Rose And Crown","lat":51.57775,"lon":-2.06075,"postcode":"SN16 9PA","la":"Wiltshire","era":"trad","nn":2284,"risk":54,"cat":"amber"},{"name":"The Rose and Crown Inn","lat":51.58178,"lon":-2.09685,"postcode":"SN16 9AT","la":"Wiltshire","era":"trad","nn":5,"risk":15,"cat":"green"},{"name":"The Royal British Legion","lat":51.43255,"lon":-2.1877,"postcode":"SN13 0BH","la":"Wiltshire","era":"trad","nn":0,"risk":15,"cat":"green"},{"name":"The Royal George","lat":51.58692,"lon":-1.88587,"postcode":"SN5 4BZ","la":"Wiltshire","era":"trad","nn":1264,"risk":47,"cat":"amber"},{"name":"The Royal Oak","lat":51.29472,"lon":-1.97106,"postcode":"SN10 4PE","la":"Wiltshire","era":"trad","nn":876,"risk":41,"cat":"amber"},{"name":"The Royal Oak","lat":51.41982,"lon":-1.73295,"postcode":"SN8 1LT","la":"Wiltshire","era":"trad","nn":27,"risk":16,"cat":"green"},{"name":"The Royal Oak","lat":51.34023,"lon":-1.76686,"postcode":"SN9 5ES","la":"Wiltshire","era":"trad","nn":58,"risk":16,"cat":"green"},{"name":"The Royal Oak","lat":51.36946,"lon":-1.71805,"postcode":"SN8 4NQ","la":"Wiltshire","era":"trad","nn":2345,"risk":54,"cat":"amber"},{"name":"The Royal Wootton Bassett","lat":51.55179,"lon":-1.89531,"postcode":"SN4 7HT","la":"Wiltshire","era":"trad","nn":760,"risk":41,"cat":"amber"},{"name":"The Salutation Inn","lat":51.51057,"lon":-2.23478,"postcode":"SN14 7LH","la":"Wiltshire","era":"trad","nn":1876,"risk":51,"cat":"amber"},{"name":"The Seven Stars","lat":51.33055,"lon":-1.84422,"postcode":"SN9 6LW","la":"Wiltshire","era":"other","nn":826,"risk":41,"cat":"amber"},{"name":"The Shears Inn","lat":51.28247,"lon":-1.63651,"postcode":"SN8 3ED","la":"Wiltshire","era":"trad","nn":1060,"risk":45,"cat":"amber"},{"name":"The Shed Alehouse Ltd","lat":51.34035,"lon":-1.76604,"postcode":"SN9 5EX","la":"Wiltshire","era":"mod","nn":58,"risk":16,"cat":"green"},{"name":"The Ship Inn","lat":51.29484,"lon":-1.80793,"postcode":"SN9 6EA","la":"Wiltshire","era":"trad","nn":0,"risk":35,"cat":"amber"},{"name":"The Shooting Club","lat":51.28168,"lon":-1.82422,"postcode":"SN9 6EE","la":"Wiltshire","era":"other","nn":1851,"risk":51,"cat":"amber"},{"name":"The Sign Of The Angel","lat":51.41621,"lon":-2.12186,"postcode":"SN15 2LB","la":"Wiltshire","era":"trad","nn":127,"risk":34,"cat":"amber"},{"name":"The Silk Mercer","lat":51.35188,"lon":-1.99573,"postcode":"SN10 1BL","la":"Wiltshire","era":"other","nn":89,"risk":16,"cat":"green"},{"name":"The Smoking Dog","lat":51.58182,"lon":-2.09689,"postcode":"SN16 9AT","la":"Wiltshire","era":"trad","nn":5,"risk":15,"cat":"green"},{"name":"The Somerford Arms","lat":51.55927,"lon":-2.04472,"postcode":"SN15 5JP","la":"Wiltshire","era":"trad","nn":2000,"risk":52,"cat":"amber"},{"name":"The Southgate Inn","lat":51.3478,"lon":-1.99235,"postcode":"SN10 5BY","la":"Wiltshire","era":"trad","nn":142,"risk":16,"cat":"green"},{"name":"The Sun Inn","lat":51.57069,"lon":-1.8622,"postcode":"SN5 3LU","la":"Wiltshire","era":"trad","nn":1182,"risk":46,"cat":"amber"},{"name":"The Swan","lat":51.26054,"lon":-1.79895,"postcode":"SN9 6DD","la":"Wiltshire","era":"trad","nn":1458,"risk":48,"cat":"amber"},{"name":"The Swan Inn","lat":51.4023,"lon":-2.27425,"postcode":"SN13 8BP","la":"Wiltshire","era":"trad","nn":1634,"risk":49,"cat":"amber"},{"name":"The Swan Inn","lat":51.35225,"lon":-1.61765,"postcode":"SN8 3SS","la":"Wiltshire","era":"trad","nn":3212,"risk":60,"cat":"amber"},{"name":"The Talbot Inn","lat":51.429,"lon":-1.99548,"postcode":"SN11 0AR","la":"Wiltshire","era":"trad","nn":590,"risk":39,"cat":"amber"},{"name":"The Three Crowns","lat":51.35217,"lon":-1.99287,"postcode":"SN10 1AG","la":"Wiltshire","era":"trad","nn":62,"risk":16,"cat":"green"},{"name":"The Three Magpies","lat":51.35735,"lon":-2.07246,"postcode":"SN12 6RN","la":"Wiltshire","era":"other","nn":1980,"risk":52,"cat":"amber"},{"name":"The Tipple Inn","lat":51.28374,"lon":-1.65161,"postcode":"SN8 3EQ","la":"Wiltshire","era":"trad","nn":1060,"risk":45,"cat":"amber"},{"name":"The Vale Hotel","lat":51.64151,"lon":-1.85648,"postcode":"SN6 6AY","la":"Wiltshire","era":"other","nn":20,"risk":18,"cat":"green"},{"name":"The Volunteer Inn","lat":51.54219,"lon":-2.05378,"postcode":"SN15 5EL","la":"Wiltshire","era":"trad","nn":2000,"risk":52,"cat":"amber"},{"name":"The Waggon and Horses","lat":51.54096,"lon":-1.90618,"postcode":"SN4 7AA","la":"Wiltshire","era":"trad","nn":101,"risk":16,"cat":"green"},{"name":"The Water Meadow","lat":51.37185,"lon":-2.11517,"postcode":"SN12 7GS","la":"Wiltshire","era":"other","nn":891,"risk":42,"cat":"amber"},{"name":"The Well Inn","lat":51.32456,"lon":-2.08118,"postcode":"SN10 1SJ","la":"Wiltshire","era":"trad","nn":2926,"risk":58,"cat":"amber"},{"name":"The Westbrook Inn","lat":51.38966,"lon":-2.06581,"postcode":"SN15 2EE","la":"Wiltshire","era":"trad","nn":950,"risk":42,"cat":"amber"},{"name":"The Wheatsheaf","lat":51.43935,"lon":-2.00639,"postcode":"SN11 0DD","la":"Wiltshire","era":"trad","nn":134,"risk":21,"cat":"green"},{"name":"The Wheatsheaf Inn","lat":51.62968,"lon":-2.07388,"postcode":"SN16 9ET","la":"Wiltshire","era":"trad","nn":3661,"risk":63,"cat":"red"},{"name":"The White Hart","lat":51.39256,"lon":-2.19136,"postcode":"SN12 8JR","la":"Wiltshire","era":"trad","nn":1476,"risk":48,"cat":"amber"},{"name":"The White Hart Inn","lat":51.4724,"lon":-2.229,"postcode":"SN14 8RP","la":"Wiltshire","era":"trad","nn":2347,"risk":54,"cat":"amber"},{"name":"The White Hart Inn","lat":51.6437,"lon":-1.93411,"postcode":"SN6 6NX","la":"Wiltshire","era":"trad","nn":0,"risk":35,"cat":"amber"},{"name":"The White Horse","lat":51.46083,"lon":-2.19723,"postcode":"SN14 7DG","la":"Wiltshire","era":"trad","nn":2549,"risk":56,"cat":"amber"},{"name":"The Whole Hog","lat":51.58423,"lon":-2.09775,"postcode":"SN16 9AS","la":"Wiltshire","era":"other","nn":133,"risk":16,"cat":"green"},{"name":"The Winterbourne","lat":51.47477,"lon":-1.85695,"postcode":"SN4 9QB","la":"Wiltshire","era":"other","nn":1453,"risk":48,"cat":"amber"},{"name":"The Wyvern Club","lat":51.35204,"lon":-1.98575,"postcode":"SN10 3AA","la":"Wiltshire","era":"other","nn":213,"risk":17,"cat":"green"},{"name":"Three Brewers","lat":51.43512,"lon":-2.18974,"postcode":"SN13 0AS","la":"Wiltshire","era":"other","nn":319,"risk":18,"cat":"green"},{"name":"Three Crowns (Broadtown Brewery)","lat":51.45576,"lon":-2.11165,"postcode":"SN15 3DB","la":"Wiltshire","era":"trad","nn":222,"risk":17,"cat":"green"},{"name":"Three Crowns Inn","lat":51.55883,"lon":-1.98004,"postcode":"SN15 5AF","la":"Wiltshire","era":"trad","nn":4472,"risk":69,"cat":"red"},{"name":"Three Cups Inn","lat":51.58557,"lon":-2.10118,"postcode":"SN16 0AH","la":"Wiltshire","era":"trad","nn":281,"risk":17,"cat":"green"},{"name":"Three Tuns Inn","lat":51.37957,"lon":-1.60265,"postcode":"SN8 3NU","la":"Wiltshire","era":"trad","nn":3212,"risk":60,"cat":"amber"},{"name":"Turnpike Inn","lat":51.61287,"lon":-1.956,"postcode":"SN16 9QY","la":"Wiltshire","era":"trad","nn":0,"risk":33,"cat":"amber"},{"name":"Vale of the White Horse","lat":51.61287,"lon":-1.956,"postcode":"SN16 9QY","la":"Wiltshire","era":"trad","nn":0,"risk":33,"cat":"amber"},{"name":"Waggon And Horses","lat":51.41817,"lon":-1.87346,"postcode":"SN8 1QJ","la":"Wiltshire","era":"trad","nn":1557,"risk":49,"cat":"amber"},{"name":"Wellesley Arms","lat":51.5059,"lon":-2.08494,"postcode":"SN15 4RD","la":"Wiltshire","era":"trad","nn":362,"risk":38,"cat":"amber"},{"name":"West End Inn","lat":51.36742,"lon":-2.13974,"postcode":"SN12 6DD","la":"Wiltshire","era":"trad","nn":476,"risk":19,"cat":"green"},{"name":"Wharf Theatre","lat":51.3547,"lon":-1.99497,"postcode":"SN10 1EB","la":"Wiltshire","era":"other","nn":146,"risk":16,"cat":"green"},{"name":"White Bear Inn","lat":51.35256,"lon":-1.99222,"postcode":"SN10 1DN","la":"Wiltshire","era":"trad","nn":62,"risk":16,"cat":"green"},{"name":"White Hart Inn","lat":51.4935,"lon":-2.22853,"postcode":"SN14 7HS","la":"Wiltshire","era":"trad","nn":263,"risk":37,"cat":"amber"},{"name":"White Hart Inn","lat":51.35145,"lon":-1.67073,"postcode":"SN8 3AA","la":"Wiltshire","era":"trad","nn":3250,"risk":61,"cat":"red"},{"name":"White Horse Inn","lat":51.44849,"lon":-1.94707,"postcode":"SN11 8RG","la":"Wiltshire","era":"trad","nn":2131,"risk":53,"cat":"amber"},{"name":"Whitefriars Sailing Club","lat":51.6593,"lon":-1.93048,"postcode":"SN6 6FW","la":"Wiltshire","era":"other","nn":1058,"risk":45,"cat":"amber"},{"name":"Whitley Golf Club","lat":51.39242,"lon":-2.1609,"postcode":"SN12 8EQ","la":"Wiltshire","era":"other","nn":843,"risk":41,"cat":"amber"},{"name":"Who'd A Thought It","lat":51.40981,"lon":-1.79029,"postcode":"SN8 4EL","la":"Wiltshire","era":"other","nn":2606,"risk":56,"cat":"amber"},{"name":"Wiltshire Council Respite Centre","lat":51.35025,"lon":-1.98464,"postcode":"SN10 3AF","la":"Wiltshire","era":"other","nn":0,"risk":15,"cat":"green"},{"name":"Woodborough Club","lat":51.33796,"lon":-1.84508,"postcode":"SN9 5PL","la":"Wiltshire","era":"other","nn":826,"risk":41,"cat":"amber"},{"name":"Woodbridge Inn","lat":51.31268,"lon":-1.81124,"postcode":"SN9 6JZ","la":"Wiltshire","era":"trad","nn":1997,"risk":52,"cat":"amber"},{"name":"Woodshaw Inn","lat":51.54203,"lon":-1.88754,"postcode":"SN4 8NE","la":"Wiltshire","era":"trad","nn":1035,"risk":45,"cat":"amber"},{"name":"Wootton Bassett Bowls Club","lat":51.54102,"lon":-1.90242,"postcode":"SN4 8AA","la":"Wiltshire","era":"other","nn":159,"risk":16,"cat":"green"}]