[{"name":"Anvil Club","lat":53.06222,"lon":-1.3522,"postcode":"NG16 5NN","la":"Amber Valley","era":"other","nn":449,"risk":29,"cat":"green"},{"name":"Codnor Park And Ironville Club","lat":53.05829,"lon":-1.35061,"postcode":"NG16 5PJ","la":"Amber Valley","era":"other","nn":449,"risk":44,"cat":"amber"},{"name":"Great Northern Inn","lat":53.02002,"lon":-1.32384,"postcode":"NG16 4AA","la":"Amber Valley","era":"trad","nn":233,"risk":25,"cat":"green"},{"name":"Inn The Middle","lat":53.01833,"lon":-1.33461,"postcode":"NG16 4DU","la":"Amber Valley","era":"trad","nn":227,"risk":27,"cat":"green"},{"name":"Langley Mill United Cricket Club","lat":53.01629,"lon":-1.33482,"postcode":"NG16 4BE","la":"Amber Valley","era":"trad","nn":227,"risk":27,"cat":"green"},{"name":"Miles From Nowhere MFN","lat":53.00307,"lon":-1.31234,"postcode":"NG16 3JE","la":"Amber Valley","era":"other","nn":1628,"risk":57,"cat":"amber"},{"name":"Railway Tavern Micro Bar Ltd","lat":53.01985,"lon":-1.32731,"postcode":"NG16 4AE","la":"Amber Valley","era":"other","nn":94,"risk":27,"cat":"green"},{"name":"The Bunny Hop","lat":53.0206,"lon":-1.32795,"postcode":"NG16 4ED","la":"Amber Valley","era":"other","nn":94,"risk":27,"cat":"green"},{"name":"Annesley Woodhouse W.M.C","lat":53.07664,"lon":-1.25507,"postcode":"NG17 9HW","la":"Ashfield","era":"mod","nn":11,"risk":29,"cat":"green"},{"name":"Badger Box","lat":53.08066,"lon":-1.24296,"postcode":"NG17 9BX","la":"Ashfield","era":"other","nn":696,"risk":36,"cat":"amber"},{"name":"Bainbridge Ballroom","lat":53.12399,"lon":-1.26467,"postcode":"NG17 1AL","la":"Ashfield","era":"other","nn":41,"risk":27,"cat":"green"},{"name":"Bentinck Conservative Club","lat":53.03606,"lon":-1.199,"postcode":"NG15 7SL","la":"Ashfield","era":"other","nn":209,"risk":28,"cat":"green"},{"name":"Bentinck Miners Welfare","lat":53.10191,"lon":-1.26907,"postcode":"NG17 8GS","la":"Ashfield","era":"other","nn":282,"risk":33,"cat":"amber"},{"name":"Brierley Leisure Ltd","lat":53.13176,"lon":-1.3014,"postcode":"NG17 2LG","la":"Ashfield","era":"other","nn":409,"risk":34,"cat":"amber"},{"name":"Broomhill Inn","lat":53.02722,"lon":-1.19879,"postcode":"NG15 6AJ","la":"Ashfield","era":"trad","nn":429,"risk":30,"cat":"green"},{"name":"Bull and Butcher","lat":53.07088,"lon":-1.31679,"postcode":"NG16 6DJ","la":"Ashfield","era":"trad","nn":729,"risk":52,"cat":"amber"},{"name":"Cashino","lat":53.03797,"lon":-1.20312,"postcode":"NG15 7AW","la":"Ashfield","era":"other","nn":49,"risk":27,"cat":"green"},{"name":"Central Social Club","lat":53.03302,"lon":-1.208,"postcode":"NG15 7NG","la":"Ashfield","era":"mod","nn":423,"risk":29,"cat":"green"},{"name":"Coronation Club","lat":53.10204,"lon":-1.25885,"postcode":"NG17 8DW","la":"Ashfield","era":"other","nn":175,"risk":28,"cat":"green"},{"name":"Cricketers arms","lat":53.08264,"lon":-1.25285,"postcode":"NG17 9EH","la":"Ashfield","era":"trad","nn":653,"risk":34,"cat":"amber"},{"name":"Dale Club","lat":53.05542,"lon":-1.33298,"postcode":"NG16 5HR","la":"Ashfield","era":"other","nn":454,"risk":47,"cat":"amber"},{"name":"Dandy Cock","lat":53.10053,"lon":-1.25959,"postcode":"NG17 8AT","la":"Ashfield","era":"other","nn":175,"risk":28,"cat":"green"},{"name":"Diamond Avenue W.M.C","lat":53.09889,"lon":-1.24344,"postcode":"NG17 7GN","la":"Ashfield","era":"other","nn":116,"risk":27,"cat":"green"},{"name":"Dixies Arms","lat":53.05924,"lon":-1.30318,"postcode":"NG16 5HF","la":"Ashfield","era":"trad","nn":0,"risk":32,"cat":"amber"},{"name":"Door 57","lat":53.03256,"lon":-1.22859,"postcode":"NG15 6NT","la":"Ashfield","era":"other","nn":1,"risk":47,"cat":"amber"},{"name":"Duke Of Sussex","lat":53.11386,"lon":-1.28806,"postcode":"NG17 1JN","la":"Ashfield","era":"trad","nn":208,"risk":48,"cat":"amber"},{"name":"Duke of Wellington","lat":53.09937,"lon":-1.2693,"postcode":"NG17 8LA","la":"Ashfield","era":"trad","nn":282,"risk":33,"cat":"amber"},{"name":"East Side Methodist Church","lat":53.03118,"lon":-1.19338,"postcode":"NG15 7PB","la":"Ashfield","era":"other","nn":146,"risk":28,"cat":"green"},{"name":"Forest Tavern","lat":53.13785,"lon":-1.25282,"postcode":"NG17 3BB","la":"Ashfield","era":"other","nn":0,"risk":27,"cat":"green"},{"name":"Fox and Crown","lat":53.13913,"lon":-1.2442,"postcode":"NG17 3AA","la":"Ashfield","era":"trad","nn":592,"risk":33,"cat":"amber"},{"name":"George Street W.M.C","lat":53.04196,"lon":-1.2083,"postcode":"NG15 7DN","la":"Ashfield","era":"trad","nn":301,"risk":29,"cat":"green"},{"name":"Golden Diamond","lat":53.12867,"lon":-1.25337,"postcode":"NG17 4GH","la":"Ashfield","era":"other","nn":234,"risk":28,"cat":"green"},{"name":"Green Dragon","lat":53.03596,"lon":-1.20398,"postcode":"NG15 7JW","la":"Ashfield","era":"trad","nn":149,"risk":28,"cat":"green"},{"name":"Grosvenor Rooms","lat":53.12367,"lon":-1.27015,"postcode":"NG17 1FE","la":"Ashfield","era":"mod","nn":201,"risk":28,"cat":"green"},{"name":"H & A Bars","lat":53.12307,"lon":-1.26731,"postcode":"NG17 1NZ","la":"Ashfield","era":"other","nn":201,"risk":28,"cat":"green"},{"name":"H & A Bars","lat":53.12408,"lon":-1.26407,"postcode":"NG17 1AL","la":"Ashfield","era":"other","nn":37,"risk":27,"cat":"green"},{"name":"Half Moon","lat":53.03836,"lon":-1.20561,"postcode":"NG15 7BS","la":"Ashfield","era":"other","nn":41,"risk":27,"cat":"green"},{"name":"Havana Blue","lat":53.03994,"lon":-1.20532,"postcode":"NG15 7AB","la":"Ashfield","era":"other","nn":177,"risk":28,"cat":"green"},{"name":"Hole in the Wall","lat":53.0507,"lon":-1.30368,"postcode":"NG16 5GQ","la":"Ashfield","era":"other","nn":794,"risk":32,"cat":"amber"},{"name":"Horse and Jockey, Selston","lat":53.07734,"lon":-1.31497,"postcode":"NG16 6FB","la":"Ashfield","era":"trad","nn":729,"risk":49,"cat":"amber"},{"name":"Hucknall Constitutional Club","lat":53.03182,"lon":-1.19529,"postcode":"NG15 7SB","la":"Ashfield","era":"other","nn":146,"risk":28,"cat":"green"},{"name":"Hucknall Liberal Club","lat":53.03809,"lon":-1.20643,"postcode":"NG15 7BW","la":"Ashfield","era":"other","nn":27,"risk":27,"cat":"green"},{"name":"Jacksdale Social Club","lat":53.05889,"lon":-1.33655,"postcode":"NG16 5JW","la":"Ashfield","era":"mod","nn":454,"risk":35,"cat":"amber"},{"name":"Kings Mill Farm","lat":53.13166,"lon":-1.2349,"postcode":"NG17 4JP","la":"Ashfield","era":"trad","nn":519,"risk":35,"cat":"amber"},{"name":"Kirkby Catholic Club","lat":53.09935,"lon":-1.24141,"postcode":"NG17 7BT","la":"Ashfield","era":"other","nn":145,"risk":28,"cat":"green"},{"name":"Kirkby East Children's Centre","lat":53.10477,"lon":-1.24474,"postcode":"NG17 7LL","la":"Ashfield","era":"other","nn":618,"risk":31,"cat":"amber"},{"name":"Mansfield Hosiery Mills  Sports and Social","lat":53.12407,"lon":-1.27404,"postcode":"NG17 2ED","la":"Ashfield","era":"other","nn":264,"risk":28,"cat":"green"},{"name":"Market Inn","lat":53.12825,"lon":-1.3032,"postcode":"NG17 2QW","la":"Ashfield","era":"trad","nn":1,"risk":44,"cat":"amber"},{"name":"Nabb Inn","lat":53.03255,"lon":-1.22857,"postcode":"NG15 6NT","la":"Ashfield","era":"trad","nn":1,"risk":47,"cat":"amber"},{"name":"Nags Head","lat":53.1248,"lon":-1.26164,"postcode":"NG17 1DH","la":"Ashfield","era":"trad","nn":35,"risk":27,"cat":"green"},{"name":"Nags Head","lat":53.09915,"lon":-1.2452,"postcode":"NG17 7AN","la":"Ashfield","era":"trad","nn":36,"risk":27,"cat":"green"},{"name":"New Cross Public House","lat":53.13071,"lon":-1.25417,"postcode":"NG17 4FU","la":"Ashfield","era":"trad","nn":234,"risk":28,"cat":"green"},{"name":"Pilgrim Oak","lat":53.03845,"lon":-1.20376,"postcode":"NG15 7AX","la":"Ashfield","era":"trad","nn":28,"risk":27,"cat":"green"},{"name":"Polly Bowls Club CIC","lat":53.12839,"lon":-1.24044,"postcode":"NG17 4HN","la":"Ashfield","era":"other","nn":180,"risk":28,"cat":"green"},{"name":"red lion pub","lat":53.05701,"lon":-1.29465,"postcode":"NG16 5HD","la":"Ashfield","era":"trad","nn":506,"risk":33,"cat":"amber"},{"name":"Rose & Crown","lat":53.13734,"lon":-1.27123,"postcode":"NG17 2DX","la":"Ashfield","era":"trad","nn":714,"risk":52,"cat":"amber"},{"name":"Royal Oak","lat":53.05835,"lon":-1.32402,"postcode":"NG16 5HY","la":"Ashfield","era":"trad","nn":681,"risk":49,"cat":"amber"},{"name":"Scruffy Dog","lat":53.12053,"lon":-1.24126,"postcode":"NG17 5HF","la":"Ashfield","era":"other","nn":876,"risk":50,"cat":"amber"},{"name":"Selston Working Mens CLub","lat":53.06927,"lon":-1.29133,"postcode":"NG16 6AG","la":"Ashfield","era":"trad","nn":1368,"risk":59,"cat":"amber"},{"name":"Speed The Plough","lat":53.13224,"lon":-1.24543,"postcode":"NG17 4HG","la":"Ashfield","era":"trad","nn":367,"risk":29,"cat":"green"},{"name":"Spot On Leisure Ltd","lat":53.03659,"lon":-1.202,"postcode":"NG15 7HN","la":"Ashfield","era":"other","nn":149,"risk":28,"cat":"green"},{"name":"Station Hotel","lat":53.03901,"lon":-1.19771,"postcode":"NG15 7TQ","la":"Ashfield","era":"other","nn":340,"risk":29,"cat":"green"},{"name":"T8\u2019s Wine Bar","lat":53.03796,"lon":-1.20406,"postcode":"NG15 7HF","la":"Ashfield","era":"other","nn":34,"risk":27,"cat":"green"},{"name":"The Bowman","lat":53.0269,"lon":-1.1924,"postcode":"NG15 7PY","la":"Ashfield","era":"other","nn":429,"risk":35,"cat":"amber"},{"name":"The Carnarvon Country Pub & Kitchen","lat":53.14731,"lon":-1.28992,"postcode":"NG17 3JA","la":"Ashfield","era":"mod","nn":1566,"risk":60,"cat":"amber"},{"name":"The Countryman","lat":53.09127,"lon":-1.27583,"postcode":"NG17 9LE","la":"Ashfield","era":"other","nn":1001,"risk":56,"cat":"amber"},{"name":"The Cow Shed","lat":53.0382,"lon":-1.20374,"postcode":"NG15 7AW","la":"Ashfield","era":"other","nn":28,"risk":27,"cat":"green"},{"name":"The Devonshire Arms","lat":53.12209,"lon":-1.26441,"postcode":"NG17 1BT","la":"Ashfield","era":"trad","nn":211,"risk":28,"cat":"green"},{"name":"The Dixies Arms","lat":53.05924,"lon":-1.30318,"postcode":"NG16 5HF","la":"Ashfield","era":"trad","nn":0,"risk":32,"cat":"amber"},{"name":"The Dog House","lat":53.09882,"lon":-1.24518,"postcode":"NG17 7AP","la":"Ashfield","era":"other","nn":36,"risk":27,"cat":"green"},{"name":"The Engine Rooms","lat":53.02352,"lon":-1.22146,"postcode":"NG15 6EP","la":"Ashfield","era":"mod","nn":1111,"risk":57,"cat":"amber"},{"name":"The Forest Tavern","lat":53.13785,"lon":-1.25282,"postcode":"NG17 3BB","la":"Ashfield","era":"other","nn":0,"risk":27,"cat":"green"},{"name":"The Forest Tavern","lat":53.07771,"lon":-1.25817,"postcode":"NG17 9JD","la":"Ashfield","era":"other","nn":229,"risk":33,"cat":"amber"},{"name":"The Hideout at Hucknall","lat":53.03808,"lon":-1.20603,"postcode":"NG15 7BT","la":"Ashfield","era":"other","nn":27,"risk":27,"cat":"green"},{"name":"The Kingsway","lat":53.08987,"lon":-1.24286,"postcode":"NG17 7FN","la":"Ashfield","era":"trad","nn":1003,"risk":56,"cat":"amber"},{"name":"The Moody Squires","lat":53.07671,"lon":-1.25518,"postcode":"NG17 9HW","la":"Ashfield","era":"other","nn":11,"risk":29,"cat":"green"},{"name":"The Nags Head","lat":53.12503,"lon":-1.26129,"postcode":"NG17 1DH","la":"Ashfield","era":"trad","nn":35,"risk":27,"cat":"green"},{"name":"The Peacock Hotel","lat":53.12824,"lon":-1.30319,"postcode":"NG17 2QW","la":"Ashfield","era":"other","nn":1,"risk":44,"cat":"amber"},{"name":"The Posh Bar and Grill","lat":53.09925,"lon":-1.24583,"postcode":"NG17 7AL","la":"Ashfield","era":"mod","nn":0,"risk":27,"cat":"green"},{"name":"The Railway Inn","lat":53.08413,"lon":-1.30936,"postcode":"NG16 6FH","la":"Ashfield","era":"trad","nn":779,"risk":34,"cat":"amber"},{"name":"The Regency Dance Centre Limited","lat":53.12392,"lon":-1.26358,"postcode":"NG17 1AQ","la":"Ashfield","era":"other","nn":37,"risk":27,"cat":"green"},{"name":"The Rifle Volunteer","lat":53.13912,"lon":-1.2545,"postcode":"NG17 3BL","la":"Ashfield","era":"other","nn":180,"risk":28,"cat":"green"},{"name":"The Snipe","lat":53.11525,"lon":-1.28598,"postcode":"NG17 1JE","la":"Ashfield","era":"other","nn":208,"risk":48,"cat":"amber"},{"name":"The Unwin Club Ltd","lat":53.12948,"lon":-1.24243,"postcode":"NG17 4HN","la":"Ashfield","era":"other","nn":180,"risk":28,"cat":"green"},{"name":"The White Swan","lat":53.12644,"lon":-1.26493,"postcode":"NG17 1AJ","la":"Ashfield","era":"trad","nn":269,"risk":28,"cat":"green"},{"name":"three stooges brewery","lat":53.09925,"lon":-1.24583,"postcode":"NG17 7AL","la":"Ashfield","era":"other","nn":0,"risk":27,"cat":"green"},{"name":"Travellers Rest","lat":53.12636,"lon":-1.28186,"postcode":"NG17 2GX","la":"Ashfield","era":"other","nn":581,"risk":48,"cat":"amber"},{"name":"Triple S Club Ltd","lat":53.14333,"lon":-1.26739,"postcode":"NG17 3ED","la":"Ashfield","era":"other","nn":714,"risk":49,"cat":"amber"},{"name":"Underwood Miners Welfare","lat":53.05269,"lon":-1.29226,"postcode":"NG16 5GA","la":"Ashfield","era":"other","nn":506,"risk":48,"cat":"amber"},{"name":"Urban Social Club","lat":53.09878,"lon":-1.24915,"postcode":"NG17 8AA","la":"Ashfield","era":"mod","nn":228,"risk":28,"cat":"green"},{"name":"Woodend Inn","lat":53.13588,"lon":-1.31402,"postcode":"NG17 2QJ","la":"Ashfield","era":"trad","nn":959,"risk":53,"cat":"amber"},{"name":"Wyvern Club","lat":53.09988,"lon":-1.25273,"postcode":"NG17 8DB","la":"Ashfield","era":"other","nn":268,"risk":28,"cat":"green"},{"name":"Brownlow Arms","lat":53.22278,"lon":-0.78999,"postcode":"NG23 6SG","la":"Bassetlaw","era":"trad","nn":2252,"risk":64,"cat":"red"},{"name":"Duke William","lat":53.2671,"lon":-0.89143,"postcode":"NG22 0RS","la":"Bassetlaw","era":"trad","nn":1781,"risk":61,"cat":"red"},{"name":"Queens Hotel","lat":53.25108,"lon":-0.89085,"postcode":"NG22 0RE","la":"Bassetlaw","era":"trad","nn":1781,"risk":61,"cat":"red"},{"name":"The Crown Inn","lat":53.21019,"lon":-0.81648,"postcode":"NG23 6RQ","la":"Bassetlaw","era":"trad","nn":2252,"risk":64,"cat":"red"},{"name":"The Fountain","lat":53.23363,"lon":-0.88604,"postcode":"NG22 0JQ","la":"Bassetlaw","era":"other","nn":923,"risk":52,"cat":"amber"},{"name":"The Greendale Oak","lat":53.23551,"lon":-1.15443,"postcode":"NG20 9NQ","la":"Bassetlaw","era":"trad","nn":1460,"risk":59,"cat":"amber"},{"name":"The Jug and Glass","lat":53.22813,"lon":-1.20282,"postcode":"NG20 9EW","la":"Bassetlaw","era":"other","nn":444,"risk":46,"cat":"amber"},{"name":"The Sun Inn","lat":53.22912,"lon":-0.89936,"postcode":"NG22 0LN","la":"Bassetlaw","era":"trad","nn":237,"risk":47,"cat":"amber"},{"name":"Tuxford Working Mens Club","lat":53.23125,"lon":-0.89933,"postcode":"NG22 0LB","la":"Bassetlaw","era":"trad","nn":237,"risk":45,"cat":"amber"},{"name":"Welbeck Sailing Club","lat":53.24863,"lon":-1.15538,"postcode":"NG20 9LG","la":"Bassetlaw","era":"other","nn":1460,"risk":59,"cat":"amber"},{"name":"White Swan","lat":53.26136,"lon":-0.78238,"postcode":"NG22 0TY","la":"Bassetlaw","era":"trad","nn":2053,"risk":63,"cat":"red"},{"name":"Carter Lane Working Mens Club","lat":53.20378,"lon":-1.21555,"postcode":"NG20 8PF","la":"Bolsover","era":"trad","nn":77,"risk":28,"cat":"green"},{"name":"Langwith Junction Social Club","lat":53.21067,"lon":-1.21138,"postcode":"NG20 9RN","la":"Bolsover","era":"mod","nn":726,"risk":32,"cat":"amber"},{"name":"Longwillow Sports And Social Club","lat":53.23221,"lon":-1.2042,"postcode":"NG20 9HD","la":"Bolsover","era":"other","nn":463,"risk":48,"cat":"amber"},{"name":"Mansfield And District Rifle And Pistol Club","lat":53.16591,"lon":-1.26125,"postcode":"NG19 7QL","la":"Bolsover","era":"other","nn":1220,"risk":58,"cat":"amber"},{"name":"New Houghton Social Club","lat":53.18483,"lon":-1.25667,"postcode":"NG19 8TE","la":"Bolsover","era":"mod","nn":1537,"risk":61,"cat":"red"},{"name":"Pinxton Welfare Social Club","lat":53.08749,"lon":-1.32155,"postcode":"NG16 6NY","la":"Bolsover","era":"mod","nn":271,"risk":32,"cat":"amber"},{"name":"Shirebrook Ex Serviceman's Club","lat":53.20388,"lon":-1.2167,"postcode":"NG20 8PE","la":"Bolsover","era":"other","nn":77,"risk":28,"cat":"green"},{"name":"Shirebrook Staff Sports And Social Club","lat":53.20503,"lon":-1.2059,"postcode":"NG20 8TF","la":"Bolsover","era":"mod","nn":577,"risk":31,"cat":"amber"},{"name":"The Boat Inn","lat":53.08347,"lon":-1.32639,"postcode":"NG16 6PN","la":"Ashfield","era":"trad","nn":551,"risk":48,"cat":"amber"},{"name":"The Devonshire","lat":53.218,"lon":-1.22714,"postcode":"NG20 9RF","la":"Bolsover","era":"other","nn":1328,"risk":59,"cat":"amber"},{"name":"The Gate Hotel","lat":53.22675,"lon":-1.20908,"postcode":"NG20 9DN","la":"Bolsover","era":"other","nn":444,"risk":48,"cat":"amber"},{"name":"The Gate Inn","lat":53.20248,"lon":-1.21345,"postcode":"NG20 8AU","la":"Bolsover","era":"trad","nn":176,"risk":29,"cat":"green"},{"name":"The Headstocks","lat":53.08877,"lon":-1.3181,"postcode":"NG16 6LH","la":"Bolsover","era":"trad","nn":271,"risk":32,"cat":"amber"},{"name":"The Hop","lat":53.09115,"lon":-1.31723,"postcode":"NG16 6LS","la":"Bolsover","era":"other","nn":271,"risk":34,"cat":"amber"},{"name":"The Nag's Head","lat":53.17242,"lon":-1.2465,"postcode":"NG19 7PA","la":"Bolsover","era":"trad","nn":73,"risk":48,"cat":"amber"},{"name":"The New Victoria Inn","lat":53.19708,"lon":-1.216,"postcode":"NG20 8RL","la":"Bolsover","era":"trad","nn":572,"risk":34,"cat":"amber"},{"name":"The Old Bank","lat":53.20223,"lon":-1.21606,"postcode":"NG20 8DD","la":"Bolsover","era":"other","nn":176,"risk":29,"cat":"green"},{"name":"Beekeeper","lat":52.91425,"lon":-1.22003,"postcode":"NG9 5AJ","la":"Broxtowe","era":"other","nn":719,"risk":36,"cat":"amber"},{"name":"Brinsley Lodge","lat":53.03262,"lon":-1.30935,"postcode":"NG16 5AE","la":"Broxtowe","era":"other","nn":525,"risk":47,"cat":"amber"},{"name":"Broad Oak","lat":52.97143,"lon":-1.24058,"postcode":"NG8 6PD","la":"Broxtowe","era":"trad","nn":982,"risk":53,"cat":"amber"},{"name":"Caught & Bowled","lat":53.00674,"lon":-1.28212,"postcode":"NG16 2GG","la":"Broxtowe","era":"other","nn":287,"risk":46,"cat":"amber"},{"name":"Charlton Arms","lat":52.91427,"lon":-1.23541,"postcode":"NG9 5EA","la":"Broxtowe","era":"trad","nn":97,"risk":29,"cat":"green"},{"name":"Chequers Inn","lat":52.922,"lon":-1.2213,"postcode":"NG9 4AF","la":"Broxtowe","era":"trad","nn":264,"risk":28,"cat":"green"},{"name":"Chilwell Masonic Club","lat":52.91979,"lon":-1.22557,"postcode":"NG9 4AT","la":"Broxtowe","era":"trad","nn":377,"risk":29,"cat":"green"},{"name":"Commercial Inn","lat":52.9283,"lon":-1.21726,"postcode":"NG9 2NG","la":"Broxtowe","era":"trad","nn":101,"risk":27,"cat":"green"},{"name":"Cricketers Rest","lat":52.99805,"lon":-1.25765,"postcode":"NG16 2NP","la":"Broxtowe","era":"other","nn":138,"risk":27,"cat":"green"},{"name":"Crown Inn","lat":52.92534,"lon":-1.21549,"postcode":"NG9 1FY","la":"Broxtowe","era":"trad","nn":69,"risk":27,"cat":"green"},{"name":"Eastwood & District Conservative Club","lat":53.0176,"lon":-1.30813,"postcode":"NG16 3BP","la":"Broxtowe","era":"other","nn":0,"risk":26,"cat":"green"},{"name":"Eastwood Community Football Club","lat":53.01487,"lon":-1.29795,"postcode":"NG16 3HB","la":"Broxtowe","era":"other","nn":255,"risk":28,"cat":"green"},{"name":"Eastwood Town Cricket Club","lat":53.02168,"lon":-1.3013,"postcode":"NG16 3FT","la":"Broxtowe","era":"other","nn":477,"risk":30,"cat":"green"},{"name":"Equalised Working Mens Club","lat":52.929,"lon":-1.27899,"postcode":"NG9 8ET","la":"Broxtowe","era":"trad","nn":149,"risk":27,"cat":"green"},{"name":"Festival Inn","lat":52.95536,"lon":-1.28513,"postcode":"NG9 3PX","la":"Broxtowe","era":"trad","nn":657,"risk":36,"cat":"amber"},{"name":"Foresters Arms","lat":53.01171,"lon":-1.28187,"postcode":"NG16 2DN","la":"Broxtowe","era":"trad","nn":403,"risk":29,"cat":"green"},{"name":"Glass Orchid","lat":52.92568,"lon":-1.21463,"postcode":"NG9 2WJ","la":"Broxtowe","era":"other","nn":0,"risk":26,"cat":"green"},{"name":"Greasley Miners Welfare Social Club","lat":53.01649,"lon":-1.28946,"postcode":"NG16 3QN","la":"Broxtowe","era":"mod","nn":364,"risk":29,"cat":"green"},{"name":"Horse And Groom","lat":53.14606,"lon":-0.99269,"postcode":"NG16 2FE","la":"Broxtowe","era":"trad","nn":0,"risk":44,"cat":"amber"},{"name":"Jolly Anglers","lat":52.91782,"lon":-1.20322,"postcode":"NG9 1JS","la":"Broxtowe","era":"other","nn":290,"risk":31,"cat":"amber"},{"name":"Kimberley Institute Cricket Club","lat":52.99868,"lon":-1.25563,"postcode":"NG16 2NJ","la":"Broxtowe","era":"other","nn":152,"risk":27,"cat":"green"},{"name":"Lady Chatterley","lat":53.01794,"lon":-1.30479,"postcode":"NG16 3AL","la":"Broxtowe","era":"other","nn":126,"risk":27,"cat":"green"},{"name":"Larrys","lat":52.92902,"lon":-1.27543,"postcode":"NG9 7AN","la":"Broxtowe","era":"other","nn":212,"risk":28,"cat":"green"},{"name":"Man Of Iron","lat":52.93928,"lon":-1.27224,"postcode":"NG9 8HZ","la":"Broxtowe","era":"other","nn":688,"risk":49,"cat":"amber"},{"name":"Mellor's Mews","lat":53.01786,"lon":-1.30667,"postcode":"NG16 3NQ","la":"Broxtowe","era":"other","nn":102,"risk":27,"cat":"green"},{"name":"Midland Hotel","lat":52.9242,"lon":-1.28053,"postcode":"NG9 7AZ","la":"Broxtowe","era":"other","nn":1,"risk":26,"cat":"green"},{"name":"Millers Barn","lat":52.9879,"lon":-1.20938,"postcode":"NG8 6AS","la":"Broxtowe","era":"trad","nn":116,"risk":32,"cat":"amber"},{"name":"Miners Return","lat":53.00031,"lon":-1.27159,"postcode":"NG16 2HQ","la":"Broxtowe","era":"other","nn":846,"risk":35,"cat":"amber"},{"name":"Nelson And Railway","lat":52.9989,"lon":-1.25917,"postcode":"NG16 2NR","la":"Broxtowe","era":"trad","nn":138,"risk":27,"cat":"green"},{"name":"New Beeston Conservative Club","lat":52.92372,"lon":-1.21103,"postcode":"NG9 2AY","la":"Broxtowe","era":"other","nn":177,"risk":28,"cat":"green"},{"name":"Old Cross Inn","lat":52.93109,"lon":-1.27357,"postcode":"NG9 8DA","la":"Broxtowe","era":"trad","nn":262,"risk":28,"cat":"green"},{"name":"Old Mill Social Club","lat":52.93335,"lon":-1.27512,"postcode":"NG9 8GD","la":"Broxtowe","era":"other","nn":272,"risk":28,"cat":"green"},{"name":"Old Wine Vaults","lat":53.0176,"lon":-1.30813,"postcode":"NG16 3BP","la":"Broxtowe","era":"other","nn":0,"risk":26,"cat":"green"},{"name":"Phoenix Cue Sports Ltd","lat":53.01872,"lon":-1.30795,"postcode":"NG16 3AQ","la":"Broxtowe","era":"other","nn":124,"risk":27,"cat":"green"},{"name":"Pick And Davy Limited","lat":53.01399,"lon":-1.29295,"postcode":"NG16 3GS","la":"Broxtowe","era":"other","nn":90,"risk":27,"cat":"green"},{"name":"Queens Head","lat":53.00983,"lon":-1.25552,"postcode":"NG16 1HT","la":"Broxtowe","era":"trad","nn":1240,"risk":57,"cat":"amber"},{"name":"Riverside Bar","lat":52.9132,"lon":-1.20484,"postcode":"NG9 1NR","la":"Broxtowe","era":"other","nn":241,"risk":33,"cat":"amber"},{"name":"Roots Emporium","lat":52.99617,"lon":-1.25187,"postcode":"NG16 2NB","la":"Broxtowe","era":"other","nn":0,"risk":26,"cat":"green"},{"name":"Royal British Legion","lat":52.92328,"lon":-1.21799,"postcode":"NG9 1EL","la":"Broxtowe","era":"trad","nn":264,"risk":28,"cat":"green"},{"name":"Sherwin Arms","lat":52.93529,"lon":-1.25486,"postcode":"NG9 3JN","la":"Broxtowe","era":"trad","nn":582,"risk":50,"cat":"amber"},{"name":"Stapleford & Bramcote Conservative Club","lat":52.92783,"lon":-1.27791,"postcode":"NG9 7AR","la":"Broxtowe","era":"trad","nn":149,"risk":27,"cat":"green"},{"name":"Stapleford Cue Club","lat":52.92549,"lon":-1.28074,"postcode":"NG9 7AY","la":"Broxtowe","era":"other","nn":143,"risk":27,"cat":"green"},{"name":"Tap And Growler","lat":53.01456,"lon":-1.29391,"postcode":"NG16 3GS","la":"Broxtowe","era":"other","nn":90,"risk":27,"cat":"green"},{"name":"The Arc Cinema","lat":52.92568,"lon":-1.21463,"postcode":"NG9 2WJ","la":"Broxtowe","era":"other","nn":0,"risk":26,"cat":"green"},{"name":"The Bird Hide","lat":52.90865,"lon":-1.2354,"postcode":"NG9 6AA","la":"Broxtowe","era":"other","nn":138,"risk":32,"cat":"amber"},{"name":"The Blue Bell Inn","lat":52.90743,"lon":-1.23581,"postcode":"NG9 6DN","la":"Broxtowe","era":"trad","nn":138,"risk":30,"cat":"green"},{"name":"The Boat And Horses Public House","lat":52.91522,"lon":-1.20355,"postcode":"NG9 1LP","la":"Broxtowe","era":"trad","nn":241,"risk":33,"cat":"amber"},{"name":"The Cadland Inn","lat":52.91505,"lon":-1.23603,"postcode":"NG9 5EG","la":"Broxtowe","era":"trad","nn":97,"risk":29,"cat":"green"},{"name":"The Corn Mill","lat":52.90879,"lon":-1.25568,"postcode":"NG9 6GX","la":"Broxtowe","era":"trad","nn":694,"risk":51,"cat":"amber"},{"name":"The Cricketers Arms","lat":52.92774,"lon":-1.21608,"postcode":"NG9 2NR","la":"Broxtowe","era":"trad","nn":101,"risk":27,"cat":"green"},{"name":"The Crown","lat":52.99278,"lon":-1.28409,"postcode":"NG16 2QY","la":"Broxtowe","era":"trad","nn":317,"risk":46,"cat":"amber"},{"name":"The Durham Ox","lat":53.04796,"lon":-1.31563,"postcode":"NG16 5BN","la":"Broxtowe","era":"other","nn":855,"risk":50,"cat":"amber"},{"name":"The Gamekeeper's","lat":53.01712,"lon":-1.30225,"postcode":"NG16 3GD","la":"Broxtowe","era":"other","nn":123,"risk":27,"cat":"green"},{"name":"The Gate Inn","lat":52.99714,"lon":-1.25533,"postcode":"NG16 2NG","la":"Broxtowe","era":"trad","nn":172,"risk":28,"cat":"green"},{"name":"The Gate Inn","lat":52.99463,"lon":-1.28049,"postcode":"NG16 2RN","la":"Broxtowe","era":"trad","nn":0,"risk":31,"cat":"amber"},{"name":"The Go Between (Brinsley) Ltd","lat":53.04061,"lon":-1.31128,"postcode":"NG16 5AZ","la":"Broxtowe","era":"other","nn":704,"risk":36,"cat":"amber"},{"name":"The Greasley Castle","lat":53.01339,"lon":-1.29504,"postcode":"NG16 3GW","la":"Broxtowe","era":"other","nn":150,"risk":27,"cat":"green"},{"name":"The Hayloft","lat":53.00863,"lon":-1.28505,"postcode":"NG16 2GB","la":"Broxtowe","era":"other","nn":287,"risk":28,"cat":"green"},{"name":"The Hogs Head Hotel","lat":52.99463,"lon":-1.28049,"postcode":"NG16 2RN","la":"Broxtowe","era":"trad","nn":0,"risk":31,"cat":"amber"},{"name":"The Jesse Boot","lat":52.92844,"lon":-1.21353,"postcode":"NG9 2LE","la":"Broxtowe","era":"other","nn":39,"risk":27,"cat":"green"},{"name":"The Lion By Olivers","lat":53.03499,"lon":-1.31614,"postcode":"NG16 5AH","la":"Broxtowe","era":"trad","nn":525,"risk":47,"cat":"amber"},{"name":"The Maltshovel Inn","lat":52.92777,"lon":-1.21338,"postcode":"NG9 2LU","la":"Broxtowe","era":"trad","nn":76,"risk":27,"cat":"green"},{"name":"The Manor","lat":52.90384,"lon":-1.2494,"postcode":"NG9 6EF","la":"Broxtowe","era":"other","nn":630,"risk":33,"cat":"amber"},{"name":"The Nurseryman","lat":52.93743,"lon":-1.22734,"postcode":"NG9 3AE","la":"Broxtowe","era":"other","nn":760,"risk":52,"cat":"amber"},{"name":"The Nuthall Pub And Kitchen","lat":52.98686,"lon":-1.20918,"postcode":"NG8 6AX","la":"Broxtowe","era":"mod","nn":116,"risk":32,"cat":"amber"},{"name":"The Pottle","lat":52.92844,"lon":-1.21411,"postcode":"NG9 2LA","la":"Broxtowe","era":"other","nn":39,"risk":27,"cat":"green"},{"name":"The Stag Inn","lat":52.99616,"lon":-1.25187,"postcode":"NG16 2NB","la":"Broxtowe","era":"trad","nn":0,"risk":26,"cat":"green"},{"name":"The Star Inn","lat":52.92457,"lon":-1.21325,"postcode":"NG9 1FX","la":"Broxtowe","era":"trad","nn":0,"risk":26,"cat":"green"},{"name":"The Sun Inn","lat":53.01777,"lon":-1.31102,"postcode":"NG16 3NT","la":"Broxtowe","era":"trad","nn":194,"risk":28,"cat":"green"},{"name":"The Three Ponds","lat":52.99447,"lon":-1.23696,"postcode":"NG16 1DA","la":"Broxtowe","era":"other","nn":1016,"risk":56,"cat":"amber"},{"name":"The Victoria Hotel","lat":52.92071,"lon":-1.21029,"postcode":"NG9 1JG","la":"Broxtowe","era":"trad","nn":338,"risk":29,"cat":"green"},{"name":"The White Lion","lat":52.98967,"lon":-1.25417,"postcode":"NG16 2PQ","la":"Broxtowe","era":"trad","nn":738,"risk":34,"cat":"amber"},{"name":"The White Lion","lat":52.92457,"lon":-1.21325,"postcode":"NG9 1FX","la":"Broxtowe","era":"trad","nn":0,"risk":26,"cat":"green"},{"name":"Victory Club","lat":52.92539,"lon":-1.21253,"postcode":"NG9 2AW","la":"Broxtowe","era":"other","nn":103,"risk":27,"cat":"green"},{"name":"Wellington Inn","lat":53.01693,"lon":-1.30044,"postcode":"NG16 3GH","la":"Broxtowe","era":"trad","nn":123,"risk":27,"cat":"green"},{"name":"West End Club","lat":52.92421,"lon":-1.28054,"postcode":"NG9 7AZ","la":"Broxtowe","era":"other","nn":1,"risk":26,"cat":"green"},{"name":"White Lion","lat":52.93437,"lon":-1.24631,"postcode":"NG9 3HH","la":"Broxtowe","era":"trad","nn":582,"risk":50,"cat":"amber"},{"name":"Appletree Caterers","lat":52.90091,"lon":-1.28174,"postcode":"NG10 4LR","la":"Erewash","era":"other","nn":267,"risk":27,"cat":"green"},{"name":"Bell Inn","lat":52.88326,"lon":-1.28849,"postcode":"NG10 3GR","la":"Erewash","era":"trad","nn":255,"risk":27,"cat":"green"},{"name":"Blue Bell","lat":52.92811,"lon":-1.28731,"postcode":"NG10 5DF","la":"Erewash","era":"other","nn":314,"risk":28,"cat":"green"},{"name":"Bridge Inn","lat":52.9154,"lon":-1.28997,"postcode":"NG10 5LW","la":"Erewash","era":"trad","nn":603,"risk":32,"cat":"amber"},{"name":"Chalkies","lat":52.89651,"lon":-1.26761,"postcode":"NG10 1HY","la":"Erewash","era":"other","nn":22,"risk":26,"cat":"green"},{"name":"Cricket Ground","lat":52.92259,"lon":-1.28934,"postcode":"NG10 5JH","la":"Erewash","era":"other","nn":97,"risk":26,"cat":"green"},{"name":"Curzon Club","lat":52.90661,"lon":-1.27991,"postcode":"NG10 4HH","la":"Erewash","era":"other","nn":316,"risk":28,"cat":"green"},{"name":"Eaton Farm","lat":52.89933,"lon":-1.29442,"postcode":"NG10 4AW","la":"Erewash","era":"other","nn":286,"risk":28,"cat":"green"},{"name":"Foenix Lounge Bar & Club","lat":52.89697,"lon":-1.27142,"postcode":"NG10 1JE","la":"Erewash","era":"mod","nn":84,"risk":26,"cat":"green"},{"name":"Harrington Arms","lat":52.87793,"lon":-1.30092,"postcode":"NG10 3AU","la":"Erewash","era":"trad","nn":107,"risk":29,"cat":"green"},{"name":"Long Eaton Boat Club","lat":52.88418,"lon":-1.27734,"postcode":"NG10 1AU","la":"Erewash","era":"other","nn":518,"risk":29,"cat":"green"},{"name":"Long Eaton Bowls Club","lat":52.89908,"lon":-1.25449,"postcode":"NG10 2EP","la":"Erewash","era":"other","nn":313,"risk":28,"cat":"green"},{"name":"Long Eaton Cricket Club","lat":52.88669,"lon":-1.28684,"postcode":"NG10 3JW","la":"Erewash","era":"other","nn":150,"risk":27,"cat":"green"},{"name":"Long Eaton Rugby Football Club, Club House","lat":52.89704,"lon":-1.29248,"postcode":"NG10 4AA","la":"Erewash","era":"other","nn":0,"risk":28,"cat":"green"},{"name":"Long Eaton United Football Club","lat":52.89873,"lon":-1.25912,"postcode":"NG10 2DU","la":"Erewash","era":"other","nn":313,"risk":28,"cat":"green"},{"name":"Moorlands LMRCA Club","lat":52.91006,"lon":-1.29151,"postcode":"NG10 4FL","la":"Erewash","era":"other","nn":603,"risk":35,"cat":"amber"},{"name":"NFD & DS&S Sawley Club","lat":52.88575,"lon":-1.28461,"postcode":"NG10 3JS","la":"Erewash","era":"other","nn":87,"risk":26,"cat":"green"},{"name":"Nottingham Yacht Club","lat":52.87673,"lon":-1.27345,"postcode":"NG10 2FY","la":"Erewash","era":"other","nn":0,"risk":28,"cat":"green"},{"name":"Railway Inn","lat":52.88,"lon":-1.30236,"postcode":"NG10 3AP","la":"Erewash","era":"trad","nn":235,"risk":27,"cat":"green"},{"name":"Red Lion","lat":52.92346,"lon":-1.28958,"postcode":"NG10 5HW","la":"Erewash","era":"trad","nn":0,"risk":26,"cat":"green"},{"name":"Sawley Cricket Club","lat":52.89704,"lon":-1.29248,"postcode":"NG10 4AA","la":"Erewash","era":"other","nn":0,"risk":28,"cat":"green"},{"name":"Sawley Junction","lat":52.88549,"lon":-1.28583,"postcode":"NG10 3JU","la":"Erewash","era":"other","nn":87,"risk":26,"cat":"green"},{"name":"Shaftesbury Social Club","lat":52.88183,"lon":-1.29145,"postcode":"NG10 3FF","la":"Erewash","era":"mod","nn":255,"risk":27,"cat":"green"},{"name":"Shots Wine Bar","lat":52.89626,"lon":-1.26881,"postcode":"NG10 1EE","la":"Erewash","era":"other","nn":67,"risk":26,"cat":"green"},{"name":"Steamboat Inn","lat":52.87673,"lon":-1.27345,"postcode":"NG10 2FY","la":"Erewash","era":"trad","nn":0,"risk":28,"cat":"green"},{"name":"Tappers Harker","lat":52.89466,"lon":-1.26582,"postcode":"NG10 1GR","la":"Erewash","era":"other","nn":202,"risk":27,"cat":"green"},{"name":"The Barge Inn","lat":52.89173,"lon":-1.27712,"postcode":"NG10 1DH","la":"Erewash","era":"trad","nn":613,"risk":30,"cat":"green"},{"name":"The Blue Bell Inn","lat":52.89703,"lon":-1.26998,"postcode":"NG10 1JB","la":"Erewash","era":"trad","nn":97,"risk":26,"cat":"green"},{"name":"The Corner Pin","lat":52.89778,"lon":-1.27126,"postcode":"NG10 1JL","la":"Erewash","era":"other","nn":91,"risk":26,"cat":"green"},{"name":"The Mill and Brook","lat":52.90007,"lon":-1.27538,"postcode":"NG10 4QB","la":"Erewash","era":"trad","nn":303,"risk":28,"cat":"green"},{"name":"The Nags Head Inn Limited","lat":52.87938,"lon":-1.2985,"postcode":"NG10 3AL","la":"Erewash","era":"trad","nn":122,"risk":26,"cat":"green"},{"name":"The Oxford","lat":52.89882,"lon":-1.27113,"postcode":"NG10 1LT","la":"Erewash","era":"other","nn":12,"risk":26,"cat":"green"},{"name":"The Plough Inn","lat":52.92533,"lon":-1.28812,"postcode":"NG10 5DU","la":"Erewash","era":"trad","nn":230,"risk":27,"cat":"green"},{"name":"The Sportsman Public House","lat":52.90214,"lon":-1.27832,"postcode":"NG10 4HA","la":"Erewash","era":"other","nn":267,"risk":27,"cat":"green"},{"name":"The Stumble Inn / The Stumble Inn Rock Cafe","lat":52.8963,"lon":-1.27201,"postcode":"NG10 1JF","la":"Erewash","era":"trad","nn":84,"risk":26,"cat":"green"},{"name":"The Twitchel","lat":52.89636,"lon":-1.26783,"postcode":"NG10 1ED","la":"Erewash","era":"other","nn":22,"risk":26,"cat":"green"},{"name":"The White Lion","lat":52.87859,"lon":-1.29975,"postcode":"NG10 3AT","la":"Erewash","era":"trad","nn":107,"risk":26,"cat":"green"},{"name":"Trent Lock Public House","lat":52.87619,"lon":-1.2735,"postcode":"NG10 2FY","la":"Erewash","era":"other","nn":60,"risk":28,"cat":"green"},{"name":"Trent Valley Sailing Club","lat":52.87673,"lon":-1.27345,"postcode":"NG10 2FY","la":"Erewash","era":"other","nn":0,"risk":28,"cat":"green"},{"name":"Westgate Suites","lat":52.8958,"lon":-1.26817,"postcode":"NG10 1EF","la":"Erewash","era":"other","nn":67,"risk":26,"cat":"green"},{"name":"White Lion Inn","lat":52.92346,"lon":-1.28958,"postcode":"NG10 5HW","la":"Erewash","era":"trad","nn":0,"risk":26,"cat":"green"},{"name":"Wilsthorpe Tavern","lat":52.89099,"lon":-1.29016,"postcode":"NG10 3LJ","la":"Erewash","era":"other","nn":527,"risk":29,"cat":"green"},{"name":"York Chambers","lat":52.89871,"lon":-1.27112,"postcode":"NG10 1LT","la":"Erewash","era":"other","nn":12,"risk":26,"cat":"green"},{"name":"Zingari Club","lat":52.90427,"lon":-1.28259,"postcode":"NG10 4NP","la":"Erewash","era":"other","nn":316,"risk":28,"cat":"green"},{"name":"Arnold & Dist. Leg Vic Club","lat":53.00041,"lon":-1.13383,"postcode":"NG5 6JG","la":"Gedling","era":"other","nn":88,"risk":28,"cat":"green"},{"name":"Arnold & District Liberal Club","lat":53.0024,"lon":-1.13149,"postcode":"NG5 7DB","la":"Gedling","era":"other","nn":173,"risk":28,"cat":"green"},{"name":"Arnold Ex Service Club","lat":53.003,"lon":-1.13425,"postcode":"NG5 6GR","la":"Gedling","era":"other","nn":196,"risk":29,"cat":"green"},{"name":"Arnold Labour Club","lat":53.00503,"lon":-1.12914,"postcode":"NG5 7DQ","la":"Gedling","era":"other","nn":105,"risk":28,"cat":"green"},{"name":"Arrow","lat":52.99698,"lon":-1.11821,"postcode":"NG5 6NY","la":"Gedling","era":"other","nn":440,"risk":30,"cat":"green"},{"name":"Balfour Conservative Club","lat":53.00597,"lon":-1.12912,"postcode":"NG5 7DS","la":"Gedling","era":"other","nn":105,"risk":28,"cat":"green"},{"name":"Bostons","lat":53.00245,"lon":-1.12891,"postcode":"NG5 7EA","la":"Gedling","era":"other","nn":12,"risk":27,"cat":"green"},{"name":"Calverton Working Mens Club","lat":53.03828,"lon":-1.08443,"postcode":"NG14 6JX","la":"Gedling","era":"trad","nn":1882,"risk":63,"cat":"red"},{"name":"Coopers Brook","lat":52.99859,"lon":-1.13815,"postcode":"NG5 6BH","la":"Gedling","era":"trad","nn":0,"risk":27,"cat":"green"},{"name":"Cross Keys","lat":52.98798,"lon":-1.03799,"postcode":"NG14 5DX","la":"Gedling","era":"trad","nn":222,"risk":46,"cat":"amber"},{"name":"Dexters","lat":53.00235,"lon":-1.12885,"postcode":"NG5 7EA","la":"Gedling","era":"other","nn":12,"risk":27,"cat":"green"},{"name":"Ferry Boat Inn","lat":52.9723,"lon":-1.03777,"postcode":"NG14 5HX","la":"Gedling","era":"trad","nn":1604,"risk":61,"cat":"red"},{"name":"Four Bells Inn","lat":53.02331,"lon":-1.06113,"postcode":"NG14 6EA","la":"Gedling","era":"trad","nn":0,"risk":45,"cat":"amber"},{"name":"Fox & Hounds","lat":52.96635,"lon":-1.07955,"postcode":"NG4 3AT","la":"Gedling","era":"trad","nn":0,"risk":27,"cat":"green"},{"name":"Gedling Club & Institute","lat":52.97528,"lon":-1.07811,"postcode":"NG4 3HG","la":"Gedling","era":"other","nn":166,"risk":28,"cat":"green"},{"name":"Gedling Inn And Kitchen","lat":52.97486,"lon":-1.08049,"postcode":"NG4 3HL","la":"Gedling","era":"other","nn":166,"risk":28,"cat":"green"},{"name":"Greyhound Inn","lat":53.00035,"lon":-1.13252,"postcode":"NG5 6LA","la":"Gedling","era":"trad","nn":88,"risk":28,"cat":"green"},{"name":"Inn For A Penny","lat":52.97037,"lon":-1.07673,"postcode":"NG4 3GP","la":"Gedling","era":"trad","nn":429,"risk":30,"cat":"green"},{"name":"Larch Farm Public House","lat":53.09312,"lon":-1.17877,"postcode":"NG15 9HA","la":"Gedling","era":"other","nn":1855,"risk":63,"cat":"red"},{"name":"Major Oak","lat":53.00093,"lon":-1.1188,"postcode":"NG5 7JA","la":"Gedling","era":"trad","nn":440,"risk":30,"cat":"green"},{"name":"Mapperley Plains Rec. & Social Club","lat":52.98976,"lon":-1.11028,"postcode":"NG3 5RH","la":"Gedling","era":"mod","nn":226,"risk":31,"cat":"amber"},{"name":"Nags Head","lat":52.96673,"lon":-1.09533,"postcode":"NG4 1FN","la":"Gedling","era":"trad","nn":574,"risk":36,"cat":"amber"},{"name":"Nags Head","lat":53.02346,"lon":-1.05473,"postcode":"NG14 6DD","la":"Gedling","era":"trad","nn":428,"risk":48,"cat":"amber"},{"name":"Paviors Rugby Football Club","lat":53.04868,"lon":-1.13285,"postcode":"NG5 8PQ","la":"Gedling","era":"other","nn":0,"risk":47,"cat":"amber"},{"name":"Plainsman","lat":52.98422,"lon":-1.12431,"postcode":"NG3 5JL","la":"Gedling","era":"other","nn":0,"risk":27,"cat":"green"},{"name":"Punch Bowl","lat":52.97444,"lon":-1.12072,"postcode":"NG3 6HG","la":"Nottingham","era":"other","nn":1048,"risk":51,"cat":"amber"},{"name":"Robin Hood And Little John","lat":53.00712,"lon":-1.12751,"postcode":"NG5 8FD","la":"Gedling","era":"other","nn":167,"risk":28,"cat":"green"},{"name":"Square Bar","lat":52.96676,"lon":-1.08676,"postcode":"NG4 3BP","la":"Gedling","era":"other","nn":79,"risk":28,"cat":"green"},{"name":"Steves Bar","lat":52.98398,"lon":-1.12164,"postcode":"NG3 5QR","la":"Gedling","era":"other","nn":174,"risk":28,"cat":"green"},{"name":"The Abdication Micro Pub","lat":52.99859,"lon":-1.13815,"postcode":"NG5 6BH","la":"Gedling","era":"other","nn":0,"risk":27,"cat":"green"},{"name":"The Beacon Hill","lat":52.96747,"lon":-1.08673,"postcode":"NG4 3DT","la":"Gedling","era":"other","nn":79,"risk":28,"cat":"green"},{"name":"The Blues Dawg","lat":52.9851,"lon":-1.11984,"postcode":"NG3 5QS","la":"Gedling","era":"other","nn":174,"risk":28,"cat":"green"},{"name":"The Bread And Bitter","lat":52.98422,"lon":-1.1243,"postcode":"NG3 5JL","la":"Gedling","era":"other","nn":0,"risk":27,"cat":"green"},{"name":"The Brickyard","lat":52.96594,"lon":-1.11151,"postcode":"NG4 1JL","la":"Gedling","era":"mod","nn":1087,"risk":57,"cat":"amber"},{"name":"The Burntstump","lat":53.04868,"lon":-1.13284,"postcode":"NG5 8PQ","la":"Gedling","era":"other","nn":0,"risk":47,"cat":"amber"},{"name":"The Crossing Social Club","lat":52.96635,"lon":-1.07955,"postcode":"NG4 3AT","la":"Gedling","era":"other","nn":0,"risk":27,"cat":"green"},{"name":"The Eagles Corner","lat":53.00355,"lon":-1.128,"postcode":"NG5 7EB","la":"Gedling","era":"trad","nn":138,"risk":28,"cat":"green"},{"name":"The Four Bells","lat":53.02331,"lon":-1.06113,"postcode":"NG14 6EA","la":"Gedling","era":"other","nn":0,"risk":45,"cat":"amber"},{"name":"The Griffins Head","lat":53.05403,"lon":-1.18236,"postcode":"NG15 8EN","la":"Gedling","era":"trad","nn":1960,"risk":63,"cat":"red"},{"name":"The Little John Inn","lat":53.09364,"lon":-1.15006,"postcode":"NG15 9GS","la":"Gedling","era":"trad","nn":1134,"risk":58,"cat":"amber"},{"name":"The Longbow","lat":53.01167,"lon":-1.12335,"postcode":"NG5 8FQ","la":"Gedling","era":"other","nn":577,"risk":31,"cat":"amber"},{"name":"The Nelson","lat":52.98667,"lon":-1.0355,"postcode":"NG14 5DN","la":"Gedling","era":"trad","nn":222,"risk":46,"cat":"amber"},{"name":"The Old Volunteer","lat":52.96779,"lon":-1.08475,"postcode":"NG4 3DQ","la":"Gedling","era":"other","nn":138,"risk":28,"cat":"green"},{"name":"The Organ Grinder","lat":53.00529,"lon":-1.12732,"postcode":"NG5 7ED","la":"Gedling","era":"other","nn":126,"risk":28,"cat":"green"},{"name":"The Pit Micro Pub","lat":53.07107,"lon":-1.22416,"postcode":"NG15 0BS","la":"Gedling","era":"other","nn":1648,"risk":61,"cat":"red"},{"name":"The Ram Inn","lat":53.01472,"lon":-1.13186,"postcode":"NG5 8JY","la":"Gedling","era":"trad","nn":663,"risk":37,"cat":"amber"},{"name":"The Sherwood Ranger","lat":53.08398,"lon":-1.15552,"postcode":"NG15 9DH","la":"Gedling","era":"other","nn":1134,"risk":58,"cat":"amber"},{"name":"The Vale Hotel","lat":52.99372,"lon":-1.13852,"postcode":"NG5 3GG","la":"Gedling","era":"other","nn":542,"risk":34,"cat":"amber"},{"name":"The Wheatsheaf","lat":52.98882,"lon":-1.03386,"postcode":"NG14 5GB","la":"Gedling","era":"trad","nn":264,"risk":47,"cat":"amber"},{"name":"The Willowbrook","lat":52.97288,"lon":-1.0816,"postcode":"NG4 3HQ","la":"Gedling","era":"trad","nn":233,"risk":29,"cat":"green"},{"name":"The Woodthorpe Top","lat":52.98422,"lon":-1.12431,"postcode":"NG3 5JL","la":"Gedling","era":"other","nn":0,"risk":27,"cat":"green"},{"name":"Toby Carvery Colwick Park","lat":52.95524,"lon":-1.09527,"postcode":"NG2 4BP","la":"Gedling","era":"other","nn":202,"risk":49,"cat":"amber"},{"name":"Treetops Public House","lat":52.99004,"lon":-1.11362,"postcode":"NG3 5RF","la":"Gedling","era":"other","nn":226,"risk":29,"cat":"green"},{"name":"Andwhynot & Canvas","lat":53.14623,"lon":-1.19438,"postcode":"NG18 1NG","la":"Mansfield","era":"other","nn":24,"risk":26,"cat":"green"},{"name":"Angel Inn","lat":53.16506,"lon":-1.19274,"postcode":"NG19 8AN","la":"Mansfield","era":"trad","nn":0,"risk":26,"cat":"green"},{"name":"Bannatynes Health Club","lat":53.13367,"lon":-1.162,"postcode":"NG18 3HS","la":"Mansfield","era":"other","nn":132,"risk":29,"cat":"green"},{"name":"Black Bull","lat":53.15443,"lon":-1.19328,"postcode":"NG18 2BQ","la":"Mansfield","era":"trad","nn":365,"risk":29,"cat":"green"},{"name":"Blindspot","lat":53.14561,"lon":-1.19442,"postcode":"NG18 1NQ","la":"Mansfield","era":"other","nn":0,"risk":26,"cat":"green"},{"name":"Bold Forester","lat":53.14331,"lon":-1.21188,"postcode":"NG18 5NE","la":"Mansfield","era":"other","nn":44,"risk":26,"cat":"green"},{"name":"Bowl In Hand","lat":53.14618,"lon":-1.19481,"postcode":"NG18 1NB","la":"Mansfield","era":"other","nn":0,"risk":26,"cat":"green"},{"name":"Brown Cow","lat":53.14329,"lon":-1.1898,"postcode":"NG18 2JA","la":"Mansfield","era":"other","nn":80,"risk":27,"cat":"green"},{"name":"Bull Farm Social Club","lat":53.15979,"lon":-1.22305,"postcode":"NG19 7JD","la":"Mansfield","era":"other","nn":645,"risk":48,"cat":"amber"},{"name":"Cavendish Social Club","lat":53.13856,"lon":-1.18889,"postcode":"NG18 2RU","la":"Mansfield","era":"mod","nn":225,"risk":28,"cat":"green"},{"name":"Church Warsop Memorial Club","lat":53.21404,"lon":-1.15245,"postcode":"NG20 0SN","la":"Mansfield","era":"other","nn":681,"risk":48,"cat":"amber"},{"name":"Cohens Corner","lat":53.14407,"lon":-1.19451,"postcode":"NG18 1AF","la":"Mansfield","era":"other","nn":41,"risk":26,"cat":"green"},{"name":"Crates and Grapes","lat":53.20386,"lon":-1.15436,"postcode":"NG20 0AB","la":"Mansfield","era":"other","nn":0,"risk":26,"cat":"green"},{"name":"Cuckoo Birch","lat":53.13503,"lon":-1.15277,"postcode":"NG18 3RT","la":"Mansfield","era":"other","nn":0,"risk":26,"cat":"green"},{"name":"Forest Town Arena","lat":53.15222,"lon":-1.16194,"postcode":"NG19 0EE","la":"Mansfield","era":"other","nn":170,"risk":30,"cat":"green"},{"name":"Foxglove","lat":53.1561,"lon":-1.17354,"postcode":"NG19 0GG","la":"Mansfield","era":"trad","nn":837,"risk":37,"cat":"amber"},{"name":"Green Dragon","lat":53.1451,"lon":-1.19575,"postcode":"NG18 1NA","la":"Mansfield","era":"trad","nn":0,"risk":26,"cat":"green"},{"name":"Greyhound Inn","lat":53.16535,"lon":-1.19027,"postcode":"NG19 8BD","la":"Mansfield","era":"trad","nn":168,"risk":27,"cat":"green"},{"name":"Hare & Hounds","lat":53.20565,"lon":-1.15288,"postcode":"NG20 0AQ","la":"Mansfield","era":"trad","nn":119,"risk":27,"cat":"green"},{"name":"IL Rosso","lat":53.13352,"lon":-1.1978,"postcode":"NG18 4AF","la":"Mansfield","era":"other","nn":96,"risk":27,"cat":"green"},{"name":"Industria","lat":53.14487,"lon":-1.19533,"postcode":"NG18 1NE","la":"Mansfield","era":"other","nn":38,"risk":26,"cat":"green"},{"name":"Jug and Glass","lat":53.1674,"lon":-1.18085,"postcode":"NG19 9DU","la":"Mansfield","era":"other","nn":400,"risk":31,"cat":"amber"},{"name":"Kings Arms","lat":53.1425,"lon":-1.18769,"postcode":"NG18 2JB","la":"Mansfield","era":"trad","nn":88,"risk":27,"cat":"green"},{"name":"Ladybrook Hotel","lat":53.1454,"lon":-1.21824,"postcode":"NG18 5JJ","la":"Mansfield","era":"other","nn":440,"risk":29,"cat":"green"},{"name":"Lexis","lat":53.14543,"lon":-1.19549,"postcode":"NG18 1NU","la":"Mansfield","era":"other","nn":0,"risk":26,"cat":"green"},{"name":"Linden Social Club","lat":53.15557,"lon":-1.21151,"postcode":"NG19 7EJ","la":"Mansfield","era":"mod","nn":282,"risk":28,"cat":"green"},{"name":"Ling Forest Inn","lat":53.14504,"lon":-1.16063,"postcode":"NG18 3ED","la":"Mansfield","era":"trad","nn":781,"risk":31,"cat":"amber"},{"name":"Mansfield Rugby Club","lat":53.14473,"lon":-1.1393,"postcode":"NG18 3EW","la":"Mansfield","era":"other","nn":1403,"risk":58,"cat":"amber"},{"name":"Market Inn","lat":53.14409,"lon":-1.19708,"postcode":"NG18 1HX","la":"Mansfield","era":"trad","nn":0,"risk":26,"cat":"green"},{"name":"Nell Gwyn","lat":53.13721,"lon":-1.216,"postcode":"NG18 5EX","la":"Mansfield","era":"other","nn":264,"risk":28,"cat":"green"},{"name":"New Inn","lat":53.14651,"lon":-1.199,"postcode":"NG18 1RR","la":"Mansfield","era":"trad","nn":178,"risk":27,"cat":"green"},{"name":"Oak Tree Lane Leisure Centre","lat":53.13503,"lon":-1.15277,"postcode":"NG18 3RT","la":"Mansfield","era":"trad","nn":0,"risk":26,"cat":"green"},{"name":"Oakham Suite","lat":53.13425,"lon":-1.19704,"postcode":"NG18 4AE","la":"Mansfield","era":"trad","nn":0,"risk":26,"cat":"green"},{"name":"Odeon Cinema","lat":53.13618,"lon":-1.1995,"postcode":"NG18 1BU","la":"Mansfield","era":"other","nn":270,"risk":28,"cat":"green"},{"name":"Parkhall Tavern","lat":53.17402,"lon":-1.1925,"postcode":"NG19 8PX","la":"Mansfield","era":"other","nn":523,"risk":32,"cat":"amber"},{"name":"Playground","lat":53.14618,"lon":-1.19481,"postcode":"NG18 1NB","la":"Mansfield","era":"other","nn":0,"risk":26,"cat":"green"},{"name":"Prince Charles","lat":53.1535,"lon":-1.16052,"postcode":"NG19 0ED","la":"Mansfield","era":"trad","nn":170,"risk":30,"cat":"green"},{"name":"Priors Well Brewery","lat":53.14606,"lon":-0.99269,"postcode":"NG18 1AH","la":"Mansfield","era":"other","nn":0,"risk":43,"cat":"amber"},{"name":"Railway Inn","lat":53.14202,"lon":-1.19669,"postcode":"NG18 1EF","la":"Mansfield","era":"trad","nn":140,"risk":27,"cat":"green"},{"name":"Ravensdale Hotel","lat":53.14867,"lon":-1.17152,"postcode":"NG18 2DX","la":"Mansfield","era":"other","nn":751,"risk":31,"cat":"amber"},{"name":"Red Gate Inn","lat":53.15055,"lon":-1.21694,"postcode":"NG19 6EH","la":"Mansfield","era":"trad","nn":435,"risk":29,"cat":"green"},{"name":"Reindeer Inn","lat":53.1397,"lon":-1.1797,"postcode":"NG18 4EH","la":"Mansfield","era":"trad","nn":466,"risk":29,"cat":"green"},{"name":"Rush Late Bar","lat":53.14543,"lon":-1.19549,"postcode":"NG18 1NU","la":"Mansfield","era":"other","nn":0,"risk":26,"cat":"green"},{"name":"Sherwood Welfare Centre","lat":53.15375,"lon":-1.19864,"postcode":"NG19 7BZ","la":"Mansfield","era":"other","nn":365,"risk":29,"cat":"green"},{"name":"Sins & Spirits","lat":53.14539,"lon":-1.19481,"postcode":"NG18 1NJ","la":"Mansfield","era":"other","nn":35,"risk":26,"cat":"green"},{"name":"Sir John Cockle","lat":53.13912,"lon":-1.21363,"postcode":"NG18 5EU","la":"Mansfield","era":"other","nn":159,"risk":27,"cat":"green"},{"name":"Smith Street Social Club","lat":53.14157,"lon":-1.17345,"postcode":"NG18 3BG","la":"Mansfield","era":"mod","nn":164,"risk":27,"cat":"green"},{"name":"Spot On Leisure","lat":53.15978,"lon":-1.19767,"postcode":"NG19 9ND","la":"Mansfield","era":"other","nn":662,"risk":31,"cat":"amber"},{"name":"Stella Taps Ltd","lat":53.13529,"lon":-1.19469,"postcode":"NG18 4AN","la":"Mansfield","era":"mod","nn":195,"risk":27,"cat":"green"},{"name":"Sunnydale","lat":53.17062,"lon":-1.19793,"postcode":"NG19 8HH","la":"Mansfield","era":"other","nn":523,"risk":32,"cat":"amber"},{"name":"Swan","lat":53.14371,"lon":-1.19441,"postcode":"NG18 1AE","la":"Mansfield","era":"trad","nn":0,"risk":26,"cat":"green"},{"name":"Talbot","lat":53.20462,"lon":-1.15334,"postcode":"NG20 0AA","la":"Mansfield","era":"trad","nn":109,"risk":27,"cat":"green"},{"name":"Talbot Inn","lat":53.13425,"lon":-1.19704,"postcode":"NG18 4AE","la":"Mansfield","era":"trad","nn":0,"risk":26,"cat":"green"},{"name":"Tap Haus","lat":53.17696,"lon":-1.17636,"postcode":"NG19 9EU","la":"Mansfield","era":"other","nn":1104,"risk":56,"cat":"amber"},{"name":"The Black Market","lat":53.20386,"lon":-1.15436,"postcode":"NG20 0AB","la":"Mansfield","era":"other","nn":0,"risk":26,"cat":"green"},{"name":"The Bridge Tavern","lat":53.14404,"lon":-1.19233,"postcode":"NG18 1AL","la":"Mansfield","era":"other","nn":144,"risk":27,"cat":"green"},{"name":"The Byron","lat":53.14328,"lon":-1.19689,"postcode":"NG18 1JQ","la":"Mansfield","era":"other","nn":91,"risk":27,"cat":"green"},{"name":"The Cheeky Monkey","lat":53.14561,"lon":-1.19442,"postcode":"NG18 1NQ","la":"Mansfield","era":"trad","nn":0,"risk":26,"cat":"green"},{"name":"The Court House","lat":53.14409,"lon":-1.19708,"postcode":"NG18 1HX","la":"Mansfield","era":"other","nn":0,"risk":26,"cat":"green"},{"name":"The Garrison","lat":53.1451,"lon":-1.19575,"postcode":"NG18 1NA","la":"Mansfield","era":"other","nn":0,"risk":26,"cat":"green"},{"name":"The Golden Eagle","lat":53.12648,"lon":-1.14933,"postcode":"NG18 4GH","la":"Mansfield","era":"trad","nn":840,"risk":37,"cat":"amber"},{"name":"The Intake Club","lat":53.14055,"lon":-1.21344,"postcode":"NG18 5QP","la":"Mansfield","era":"other","nn":159,"risk":27,"cat":"green"},{"name":"The Local Inn","lat":53.14655,"lon":-1.22785,"postcode":"NG19 6JR","la":"Mansfield","era":"trad","nn":653,"risk":48,"cat":"amber"},{"name":"The Oak Tree Inn","lat":53.13257,"lon":-1.16275,"postcode":"NG18 4LA","la":"Mansfield","era":"trad","nn":132,"risk":29,"cat":"green"},{"name":"The Palace Theatre","lat":53.14605,"lon":-1.19417,"postcode":"NG18 1NG","la":"Mansfield","era":"other","nn":24,"risk":26,"cat":"green"},{"name":"The Pavilion","lat":53.1418,"lon":-1.17102,"postcode":"NG18 3AL","la":"Mansfield","era":"trad","nn":164,"risk":30,"cat":"green"},{"name":"The Plough Inn","lat":53.208,"lon":-1.15083,"postcode":"NG20 0AR","la":"Mansfield","era":"trad","nn":295,"risk":28,"cat":"green"},{"name":"The Pop Inn","lat":53.14301,"lon":-1.1887,"postcode":"NG18 2LB","la":"Mansfield","era":"trad","nn":80,"risk":27,"cat":"green"},{"name":"The Red","lat":53.14348,"lon":-1.20351,"postcode":"NG18 5LQ","la":"Mansfield","era":"other","nn":230,"risk":28,"cat":"green"},{"name":"The Rufford","lat":53.15606,"lon":-1.21566,"postcode":"NG19 7ES","la":"Mansfield","era":"other","nn":282,"risk":30,"cat":"green"},{"name":"The Rushley","lat":53.12434,"lon":-1.19129,"postcode":"NG18 4SN","la":"Mansfield","era":"other","nn":1109,"risk":56,"cat":"amber"},{"name":"The Stag and Pheasant","lat":53.1462,"lon":-1.19637,"postcode":"NG18 1NY","la":"Mansfield","era":"trad","nn":100,"risk":27,"cat":"green"},{"name":"The Star","lat":53.16534,"lon":-1.18577,"postcode":"NG19 9LE","la":"Mansfield","era":"other","nn":300,"risk":31,"cat":"amber"},{"name":"The Towers Snooker Hall","lat":53.14345,"lon":-1.21251,"postcode":"NG18 5NG","la":"Mansfield","era":"other","nn":44,"risk":26,"cat":"green"},{"name":"The White Swan","lat":53.17232,"lon":-1.24541,"postcode":"NG19 7SQ","la":"Mansfield","era":"trad","nn":73,"risk":46,"cat":"amber"},{"name":"The Widow Frost","lat":53.14583,"lon":-1.19501,"postcode":"NG18 1NB","la":"Mansfield","era":"other","nn":42,"risk":26,"cat":"green"},{"name":"Transylvania Tavern","lat":53.1404,"lon":-1.18751,"postcode":"NG18 2JE","la":"Mansfield","era":"other","nn":225,"risk":28,"cat":"green"},{"name":"Up The Road","lat":53.16506,"lon":-1.19274,"postcode":"NG19 8AN","la":"Mansfield","era":"other","nn":0,"risk":26,"cat":"green"},{"name":"Vale Hotel","lat":53.20518,"lon":-1.18094,"postcode":"NG20 8XE","la":"Mansfield","era":"other","nn":1658,"risk":60,"cat":"amber"},{"name":"Warsop Exservicemens Club Ltd","lat":53.20461,"lon":-1.15607,"postcode":"NG20 0BN","la":"Mansfield","era":"other","nn":141,"risk":27,"cat":"green"},{"name":"West End Social Club","lat":53.14859,"lon":-1.21131,"postcode":"NG19 6SG","la":"Mansfield","era":"mod","nn":435,"risk":29,"cat":"green"},{"name":"Wheatsheaf Hotel","lat":53.14364,"lon":-1.20006,"postcode":"NG18 1LA","la":"Mansfield","era":"trad","nn":205,"risk":27,"cat":"green"},{"name":"White Hart Hotel","lat":53.14371,"lon":-1.19441,"postcode":"NG18 1AE","la":"Mansfield","era":"trad","nn":0,"risk":26,"cat":"green"},{"name":"Whitegates Hotel","lat":53.15848,"lon":-1.14417,"postcode":"NG19 0HS","la":"Mansfield","era":"other","nn":1223,"risk":57,"cat":"amber"},{"name":"Widecombe Fair","lat":53.13196,"lon":-1.158,"postcode":"NG18 4LF","la":"Mansfield","era":"other","nn":324,"risk":28,"cat":"green"},{"name":"William IV","lat":53.14216,"lon":-1.20673,"postcode":"NG18 5QE","la":"Mansfield","era":"other","nn":261,"risk":28,"cat":"green"},{"name":"Ye Olde Ramme Inn","lat":53.14371,"lon":-1.19441,"postcode":"NG18 1AE","la":"Mansfield","era":"trad","nn":0,"risk":26,"cat":"green"},{"name":"Belvoir Cricket Club","lat":52.87209,"lon":-0.77766,"postcode":"NG32 1RJ","la":"Melton","era":"other","nn":1579,"risk":70,"cat":"red"},{"name":"Bottesford Bowls Club","lat":52.93823,"lon":-0.80362,"postcode":"NG13 0BG","la":"Melton","era":"other","nn":343,"risk":56,"cat":"amber"},{"name":"Croxton Kerrial Sports & Social Club","lat":52.85947,"lon":-0.78844,"postcode":"NG32 1RT","la":"Melton","era":"mod","nn":744,"risk":61,"cat":"red"},{"name":"The Anchor Inn","lat":52.89798,"lon":-0.85989,"postcode":"NG13 0JJ","la":"Melton","era":"trad","nn":2909,"risk":79,"cat":"red"},{"name":"The Blue Dog Inn","lat":52.78634,"lon":-0.68386,"postcode":"NG33 5RQ","la":"Melton","era":"trad","nn":1349,"risk":68,"cat":"red"},{"name":"The Bull Inn","lat":52.94169,"lon":-0.8022,"postcode":"NG13 0BW","la":"Melton","era":"trad","nn":77,"risk":54,"cat":"amber"},{"name":"The Rutland Arms","lat":52.9413,"lon":-0.80314,"postcode":"NG13 0AA","la":"Melton","era":"trad","nn":77,"risk":54,"cat":"amber"},{"name":"The Wheel Inn","lat":52.85676,"lon":-0.79857,"postcode":"NG32 1RU","la":"Melton","era":"trad","nn":744,"risk":61,"cat":"red"},{"name":"The Windmill Inn","lat":52.91057,"lon":-0.81558,"postcode":"NG13 0GA","la":"Melton","era":"trad","nn":3178,"risk":81,"cat":"red"},{"name":"Tollemache Arms","lat":52.79612,"lon":-0.69573,"postcode":"NG33 5SA","la":"Melton","era":"trad","nn":1349,"risk":68,"cat":"red"},{"name":"19th Bar Restaurant.","lat":53.0871,"lon":-0.97343,"postcode":"NG25 0PF","la":"Newark and Sherwood","era":"mod","nn":273,"risk":48,"cat":"amber"},{"name":"Admiral Rodney Hotel","lat":53.07901,"lon":-0.95387,"postcode":"NG25 0EH","la":"Newark and Sherwood","era":"other","nn":52,"risk":27,"cat":"green"},{"name":"Balderton Cricket Club","lat":53.0609,"lon":-0.78585,"postcode":"NG24 3BD","la":"Newark and Sherwood","era":"other","nn":150,"risk":30,"cat":"green"},{"name":"Beaumond Cross Hotel","lat":53.07416,"lon":-0.80942,"postcode":"NG24 1TN","la":"Newark and Sherwood","era":"trad","nn":41,"risk":27,"cat":"green"},{"name":"Bilsthorpe Miners Welfare","lat":53.14126,"lon":-1.03864,"postcode":"NG22 8QX","la":"Newark and Sherwood","era":"other","nn":73,"risk":47,"cat":"amber"},{"name":"Black Swan","lat":53.19355,"lon":-1.06365,"postcode":"NG21 9QR","la":"Newark and Sherwood","era":"trad","nn":73,"risk":45,"cat":"amber"},{"name":"Boughton Social Club Ltd","lat":53.21269,"lon":-0.99581,"postcode":"NG22 9TT","la":"Newark and Sherwood","era":"mod","nn":1252,"risk":58,"cat":"amber"},{"name":"Bromley Arms Public House","lat":53.05256,"lon":-0.90104,"postcode":"NG25 0UL","la":"Newark and Sherwood","era":"trad","nn":1822,"risk":62,"cat":"red"},{"name":"Carpenters Arms Public House","lat":53.22754,"lon":-0.98302,"postcode":"NG22 9NJ","la":"Newark and Sherwood","era":"trad","nn":482,"risk":47,"cat":"amber"},{"name":"Castle Barge","lat":53.07897,"lon":-0.81163,"postcode":"NG24 1EU","la":"Newark and Sherwood","era":"other","nn":165,"risk":28,"cat":"green"},{"name":"Cat Asylum Brewery","lat":53.15322,"lon":-0.75669,"postcode":"NG23 7NP","la":"Newark and Sherwood","era":"other","nn":2133,"risk":64,"cat":"red"},{"name":"Chesters Public House","lat":53.05536,"lon":-0.77916,"postcode":"NG24 3LL","la":"Newark and Sherwood","era":"other","nn":35,"risk":32,"cat":"amber"},{"name":"Conservative Club","lat":53.07267,"lon":-0.80607,"postcode":"NG24 1TN","la":"Newark and Sherwood","era":"other","nn":65,"risk":27,"cat":"green"},{"name":"Cross Keys Inn Public House","lat":53.02994,"lon":-1.03177,"postcode":"NG14 6AD","la":"Newark and Sherwood","era":"trad","nn":1697,"risk":61,"cat":"red"},{"name":"Cross Keys Public House","lat":53.0799,"lon":-0.90774,"postcode":"NG23 5SY","la":"Newark and Sherwood","era":"trad","nn":1866,"risk":62,"cat":"red"},{"name":"Crown At Rolleston","lat":53.06958,"lon":-0.88422,"postcode":"NG23 5SG","la":"Newark and Sherwood","era":"trad","nn":417,"risk":49,"cat":"amber"},{"name":"Green Dragon","lat":53.05881,"lon":-1.06175,"postcode":"NG25 0SS","la":"Newark and Sherwood","era":"trad","nn":864,"risk":53,"cat":"amber"},{"name":"Grove Public House","lat":53.06172,"lon":-0.78763,"postcode":"NG24 3AL","la":"Newark and Sherwood","era":"other","nn":150,"risk":30,"cat":"green"},{"name":"Hearty Goodfellow Public House","lat":53.07624,"lon":-0.94774,"postcode":"NG25 0HQ","la":"Newark and Sherwood","era":"other","nn":191,"risk":28,"cat":"green"},{"name":"Just Beer","lat":53.07635,"lon":-0.81357,"postcode":"NG24 1BG","la":"Newark and Sherwood","era":"other","nn":40,"risk":27,"cat":"green"},{"name":"Knots","lat":53.06101,"lon":-0.8533,"postcode":"NG24 3SX","la":"Newark and Sherwood","era":"other","nn":292,"risk":46,"cat":"amber"},{"name":"Koala Kitchen","lat":53.07577,"lon":-0.80683,"postcode":"NG24 1PX","la":"Newark and Sherwood","era":"mod","nn":42,"risk":27,"cat":"green"},{"name":"Leisure Bowl","lat":53.168,"lon":-1.05446,"postcode":"NG22 9DN","la":"Newark and Sherwood","era":"other","nn":148,"risk":48,"cat":"amber"},{"name":"Loose Cannon (Newark) Limited","lat":53.07641,"lon":-0.8116,"postcode":"NG24 1AN","la":"Newark and Sherwood","era":"other","nn":25,"risk":27,"cat":"green"},{"name":"Lord Nelson Inn Public House","lat":53.10343,"lon":-0.78269,"postcode":"NG24 2NN","la":"Newark and Sherwood","era":"trad","nn":302,"risk":49,"cat":"amber"},{"name":"Lord Nelson Public House","lat":53.1718,"lon":-0.76467,"postcode":"NG23 7HR","la":"Newark and Sherwood","era":"trad","nn":2133,"risk":64,"cat":"red"},{"name":"Lord Nelson Public House","lat":53.18163,"lon":-0.80461,"postcode":"NG23 6PF","la":"Newark and Sherwood","era":"trad","nn":2878,"risk":69,"cat":"red"},{"name":"Lord Ted Public House","lat":53.06681,"lon":-0.83046,"postcode":"NG24 4SW","la":"Newark and Sherwood","era":"other","nn":196,"risk":45,"cat":"amber"},{"name":"Muskham Ferry","lat":53.12027,"lon":-0.80998,"postcode":"NG23 6HB","la":"Newark and Sherwood","era":"other","nn":2495,"risk":67,"cat":"red"},{"name":"Newark Cue Club","lat":53.07452,"lon":-0.80928,"postcode":"NG24 1UA","la":"Newark and Sherwood","era":"other","nn":31,"risk":27,"cat":"green"},{"name":"Newark Rowing Club","lat":53.06798,"lon":-0.82827,"postcode":"NG24 4SE","la":"Newark and Sherwood","era":"other","nn":196,"risk":45,"cat":"amber"},{"name":"Newark Rugby Club","lat":53.08338,"lon":-0.82703,"postcode":"NG24 1WN","la":"Newark and Sherwood","era":"other","nn":1139,"risk":57,"cat":"amber"},{"name":"Newark Services Club","lat":53.07457,"lon":-0.80883,"postcode":"NG24 1TN","la":"Newark and Sherwood","era":"other","nn":31,"risk":27,"cat":"green"},{"name":"Newark Town Bowls Club","lat":53.07265,"lon":-0.80705,"postcode":"NG24 1TS","la":"Newark and Sherwood","era":"other","nn":65,"risk":27,"cat":"green"},{"name":"Newcastle Arms Public House","lat":53.08053,"lon":-0.80259,"postcode":"NG24 1LU","la":"Newark and Sherwood","era":"trad","nn":393,"risk":29,"cat":"green"},{"name":"Norwood Park Events","lat":53.08499,"lon":-0.97551,"postcode":"NG25 0PF","la":"Newark and Sherwood","era":"other","nn":273,"risk":48,"cat":"amber"},{"name":"Old Kings Arms Public House","lat":53.07778,"lon":-0.80955,"postcode":"NG24 1AD","la":"Newark and Sherwood","era":"trad","nn":57,"risk":27,"cat":"green"},{"name":"Old Malt Shovel","lat":53.07981,"lon":-0.80836,"postcode":"NG24 1HD","la":"Newark and Sherwood","era":"other","nn":201,"risk":28,"cat":"green"},{"name":"Oscars Inn","lat":53.07259,"lon":-0.80415,"postcode":"NG24 1RY","la":"Newark and Sherwood","era":"trad","nn":129,"risk":27,"cat":"green"},{"name":"Queens Head And Thai Rice Restaurant","lat":53.07661,"lon":-0.8092,"postcode":"NG24 1DU","la":"Newark and Sherwood","era":"trad","nn":79,"risk":27,"cat":"green"},{"name":"R H P Sports And Social","lat":53.06543,"lon":-0.79828,"postcode":"NG24 1SW","la":"Newark and Sherwood","era":"mod","nn":822,"risk":32,"cat":"amber"},{"name":"Rainworth Miners Welfare Club","lat":53.11898,"lon":-1.11287,"postcode":"NG21 0JY","la":"Newark and Sherwood","era":"other","nn":0,"risk":27,"cat":"green"},{"name":"Rajdhaani","lat":53.16976,"lon":-0.94842,"postcode":"NG22 0AD","la":"Newark and Sherwood","era":"other","nn":3505,"risk":74,"cat":"red"},{"name":"Red Lion Inn Public House","lat":53.18693,"lon":-0.99968,"postcode":"NG22 0EG","la":"Newark and Sherwood","era":"trad","nn":397,"risk":49,"cat":"amber"},{"name":"Red Lion Inn Public House","lat":53.22957,"lon":-0.97661,"postcode":"NG22 9NU","la":"Newark and Sherwood","era":"trad","nn":482,"risk":47,"cat":"amber"},{"name":"Rose And Crown","lat":53.0579,"lon":-0.8532,"postcode":"NG24 3SA","la":"Newark and Sherwood","era":"trad","nn":346,"risk":46,"cat":"amber"},{"name":"Rose And Crown Public House","lat":53.05547,"lon":-0.77965,"postcode":"NG24 3LN","la":"Newark and Sherwood","era":"trad","nn":35,"risk":32,"cat":"amber"},{"name":"Royal Oak Inn","lat":53.19414,"lon":-1.06413,"postcode":"NG21 9QP","la":"Newark and Sherwood","era":"trad","nn":73,"risk":45,"cat":"amber"},{"name":"Rufford Park Golf Centre","lat":53.18313,"lon":-1.03264,"postcode":"NG22 9DG","la":"Newark and Sherwood","era":"other","nn":1804,"risk":62,"cat":"red"},{"name":"Social Action Hub","lat":53.11946,"lon":-1.11678,"postcode":"NG21 0JR","la":"Newark and Sherwood","era":"mod","nn":83,"risk":30,"cat":"green"},{"name":"Spring House Public House","lat":53.07068,"lon":-0.82268,"postcode":"NG24 4SA","la":"Newark and Sherwood","era":"mod","nn":478,"risk":30,"cat":"green"},{"name":"St Josephs Catholic Social Club","lat":53.20382,"lon":-1.00739,"postcode":"NG22 9PP","la":"Newark and Sherwood","era":"mod","nn":491,"risk":35,"cat":"amber"},{"name":"St Marys Church Rooms","lat":53.19426,"lon":-1.07309,"postcode":"NG21 9NJ","la":"Newark and Sherwood","era":"mod","nn":597,"risk":48,"cat":"amber"},{"name":"Stanton Arms Public House","lat":53.14183,"lon":-1.03811,"postcode":"NG22 8QB","la":"Newark and Sherwood","era":"trad","nn":73,"risk":47,"cat":"amber"},{"name":"Swan And Salmon","lat":53.0766,"lon":-0.81407,"postcode":"NG24 1BG","la":"Newark and Sherwood","era":"trad","nn":43,"risk":27,"cat":"green"},{"name":"The Alders","lat":53.20134,"lon":-1.0192,"postcode":"NG22 9DR","la":"Newark and Sherwood","era":"other","nn":348,"risk":32,"cat":"amber"},{"name":"The Archer Public House","lat":53.1145,"lon":-1.11951,"postcode":"NG21 0AG","la":"Newark and Sherwood","era":"other","nn":512,"risk":33,"cat":"amber"},{"name":"The Bar At Rolleston Village Hall","lat":53.06733,"lon":-0.88923,"postcode":"NG23 5SG","la":"Newark and Sherwood","era":"mod","nn":417,"risk":49,"cat":"amber"},{"name":"The Beehive Inn","lat":53.13886,"lon":-0.93801,"postcode":"NG22 0BS","la":"Newark and Sherwood","era":"trad","nn":3505,"risk":74,"cat":"red"},{"name":"The Bird In Hand Public House","lat":53.09503,"lon":-1.12488,"postcode":"NG21 0QH","la":"Newark and Sherwood","era":"other","nn":0,"risk":47,"cat":"amber"},{"name":"The Black Bull Bar And Bistro","lat":53.09503,"lon":-1.12488,"postcode":"NG21 0QH","la":"Newark and Sherwood","era":"other","nn":0,"risk":47,"cat":"amber"},{"name":"The Black Horse Public House","lat":53.00266,"lon":-0.97582,"postcode":"NG14 7ED","la":"Newark and Sherwood","era":"trad","nn":1140,"risk":57,"cat":"amber"},{"name":"The Brews Brothers","lat":53.04613,"lon":-0.77019,"postcode":"NG24 3RQ","la":"Newark and Sherwood","era":"other","nn":354,"risk":49,"cat":"amber"},{"name":"The Castle And Falcon Public House","lat":53.07372,"lon":-0.80963,"postcode":"NG24 1TW","la":"Newark and Sherwood","era":"other","nn":51,"risk":27,"cat":"green"},{"name":"The Copper Beech Public House","lat":53.13393,"lon":-1.02723,"postcode":"NG22 8SS","la":"Newark and Sherwood","era":"other","nn":1115,"risk":57,"cat":"amber"},{"name":"The Dog And Duck Public House","lat":53.17758,"lon":-1.09881,"postcode":"NG21 9BT","la":"Newark and Sherwood","era":"other","nn":2515,"risk":67,"cat":"red"},{"name":"The Duck","lat":53.07752,"lon":-0.81111,"postcode":"NG24 1AZ","la":"Newark and Sherwood","era":"other","nn":11,"risk":27,"cat":"green"},{"name":"The Final Whistle","lat":53.08165,"lon":-0.94748,"postcode":"NG25 0ET","la":"Newark and Sherwood","era":"other","nn":468,"risk":30,"cat":"green"},{"name":"The Flying Circus","lat":53.0763,"lon":-0.81298,"postcode":"NG24 1BE","la":"Newark and Sherwood","era":"other","nn":40,"risk":27,"cat":"green"},{"name":"The Fox And Crown","lat":53.07605,"lon":-0.80725,"postcode":"NG24 1JY","la":"Newark and Sherwood","era":"trad","nn":42,"risk":27,"cat":"green"},{"name":"The Fox At Kirton","lat":53.21633,"lon":-0.96744,"postcode":"NG22 9LP","la":"Newark and Sherwood","era":"trad","nn":1593,"risk":60,"cat":"amber"},{"name":"The Fox Inn Public House","lat":53.09347,"lon":-0.84688,"postcode":"NG23 5QP","la":"Newark and Sherwood","era":"trad","nn":1737,"risk":61,"cat":"red"},{"name":"The Inkpot Partnership","lat":53.11898,"lon":-1.11287,"postcode":"NG21 0JY","la":"Newark and Sherwood","era":"trad","nn":0,"risk":27,"cat":"green"},{"name":"The Jolly Roger Club","lat":53.20276,"lon":-1.01455,"postcode":"NG22 9QS","la":"Newark and Sherwood","era":"other","nn":0,"risk":29,"cat":"green"},{"name":"The Lion Public House","lat":53.1027,"lon":-1.03657,"postcode":"NG22 8EY","la":"Newark and Sherwood","era":"trad","nn":357,"risk":49,"cat":"amber"},{"name":"The Lurcher Public House","lat":53.11453,"lon":-1.10355,"postcode":"NG21 0FB","la":"Newark and Sherwood","era":"other","nn":795,"risk":37,"cat":"amber"},{"name":"The Maypole At Wellow Public House","lat":53.18717,"lon":-0.99373,"postcode":"NG22 0EA","la":"Newark and Sherwood","era":"other","nn":397,"risk":49,"cat":"amber"},{"name":"The Old Coach House Public House","lat":53.07586,"lon":-0.94495,"postcode":"NG25 0HZ","la":"Newark and Sherwood","era":"other","nn":191,"risk":28,"cat":"green"},{"name":"The Old Post Office/Chik Box/K-Town Chicken/Locked And Loade","lat":53.07727,"lon":-0.80961,"postcode":"NG24 1AB","la":"Newark and Sherwood","era":"other","nn":57,"risk":27,"cat":"green"},{"name":"The Old Reindeer","lat":53.09709,"lon":-1.00959,"postcode":"NG22 8BE","la":"Newark and Sherwood","era":"other","nn":1551,"risk":60,"cat":"amber"},{"name":"The Old Ship Inn Public House","lat":53.01013,"lon":-1.00225,"postcode":"NG14 7AG","la":"Newark and Sherwood","era":"trad","nn":863,"risk":53,"cat":"amber"},{"name":"The Old Volunteer Public House","lat":53.00872,"lon":-0.98957,"postcode":"NG14 7EB","la":"Newark and Sherwood","era":"other","nn":863,"risk":53,"cat":"amber"},{"name":"The Ollerton House Public House","lat":53.196,"lon":-1.01616,"postcode":"NG22 9AP","la":"Newark and Sherwood","era":"mod","nn":628,"risk":36,"cat":"amber"},{"name":"The Organ Grinder","lat":53.07382,"lon":-0.81137,"postcode":"NG24 4XF","la":"Newark and Sherwood","era":"other","nn":117,"risk":27,"cat":"green"},{"name":"The Phoenix Suite","lat":53.11873,"lon":-1.11647,"postcode":"NG21 0JY","la":"Newark and Sherwood","era":"other","nn":83,"risk":27,"cat":"green"},{"name":"The Plough","lat":53.07993,"lon":-0.75603,"postcode":"NG24 2PN","la":"Newark and Sherwood","era":"trad","nn":2906,"risk":69,"cat":"red"},{"name":"The Plough Inn","lat":53.14754,"lon":-0.84677,"postcode":"NG23 6JN","la":"Newark and Sherwood","era":"trad","nn":3901,"risk":76,"cat":"red"},{"name":"The Plough Inn Public House","lat":53.10187,"lon":-1.0314,"postcode":"NG22 8EA","la":"Newark and Sherwood","era":"trad","nn":357,"risk":49,"cat":"amber"},{"name":"The Plough Public House","lat":53.20276,"lon":-1.01455,"postcode":"NG22 9QS","la":"Newark and Sherwood","era":"trad","nn":0,"risk":29,"cat":"green"},{"name":"The Prince Rupert","lat":53.07618,"lon":-0.81161,"postcode":"NG24 1AW","la":"Newark and Sherwood","era":"trad","nn":25,"risk":27,"cat":"green"},{"name":"The Ram","lat":53.07742,"lon":-0.81115,"postcode":"NG24 1AZ","la":"Newark and Sherwood","era":"trad","nn":11,"risk":27,"cat":"green"},{"name":"The Reindeer Public House","lat":53.07584,"lon":-0.95787,"postcode":"NG25 0JH","la":"Newark and Sherwood","era":"other","nn":442,"risk":30,"cat":"green"},{"name":"The Riverside Pub And Kitchen","lat":53.06334,"lon":-0.85132,"postcode":"NG24 3SX","la":"Newark and Sherwood","era":"mod","nn":292,"risk":46,"cat":"amber"},{"name":"The Roaring Meg","lat":53.07382,"lon":-0.80017,"postcode":"NG24 1QZ","la":"Newark and Sherwood","era":"other","nn":300,"risk":29,"cat":"green"},{"name":"The Spread Eagle Public House","lat":53.10608,"lon":-0.92701,"postcode":"NG25 0PL","la":"Newark and Sherwood","era":"trad","nn":3042,"risk":70,"cat":"red"},{"name":"The Tawny Owl Public House","lat":53.0451,"lon":-0.7752,"postcode":"NG24 3NG","la":"Newark and Sherwood","era":"other","nn":354,"risk":49,"cat":"amber"},{"name":"The Top Club","lat":53.16029,"lon":-1.12315,"postcode":"NG21 9AA","la":"Newark and Sherwood","era":"other","nn":1416,"risk":59,"cat":"amber"},{"name":"The Venue","lat":53.16692,"lon":-1.05576,"postcode":"NG22 9DN","la":"Newark and Sherwood","era":"other","nn":148,"risk":48,"cat":"amber"},{"name":"The Wheatsheaf Inn Public House","lat":53.07918,"lon":-0.95315,"postcode":"NG25 0EH","la":"Newark and Sherwood","era":"trad","nn":52,"risk":27,"cat":"green"},{"name":"The White Hart","lat":53.07568,"lon":-0.80861,"postcode":"NG24 1DX","la":"Newark and Sherwood","era":"trad","nn":100,"risk":27,"cat":"green"},{"name":"The White Post Inn Public House","lat":53.10693,"lon":-1.06308,"postcode":"NG22 8HN","la":"Newark and Sherwood","era":"trad","nn":1831,"risk":62,"cat":"red"},{"name":"Waggon And Horses","lat":53.03986,"lon":-0.92953,"postcode":"NG14 7GG","la":"Newark and Sherwood","era":"trad","nn":2371,"risk":66,"cat":"red"},{"name":"Walesby Village Sports Association","lat":53.23351,"lon":-0.98668,"postcode":"NG22 9PF","la":"Newark and Sherwood","era":"other","nn":707,"risk":49,"cat":"amber"},{"name":"Wheatsheaf","lat":53.07802,"lon":-0.80874,"postcode":"NG24 1ER","la":"Newark and Sherwood","era":"trad","nn":60,"risk":27,"cat":"green"},{"name":"Winthorpe Cricket Club","lat":53.10258,"lon":-0.78698,"postcode":"NG24 2NU","la":"Newark and Sherwood","era":"other","nn":302,"risk":49,"cat":"amber"},{"name":"Ye Olde Bridge Inn Public House","lat":53.05198,"lon":-1.06791,"postcode":"NG25 0SE","la":"Newark and Sherwood","era":"trad","nn":864,"risk":53,"cat":"amber"},{"name":"Bristol Bowls Club","lat":52.99695,"lon":-0.40627,"postcode":"NG34 7EZ","la":"North Kesteven","era":"other","nn":85,"risk":28,"cat":"green"},{"name":"Electra Club","lat":52.99907,"lon":-0.41968,"postcode":"NG34 7QJ","la":"North Kesteven","era":"other","nn":545,"risk":31,"cat":"amber"},{"name":"Girlguiding Lincolnshire South","lat":52.9611,"lon":-0.29689,"postcode":"NG34 9BA","la":"North Kesteven","era":"other","nn":1141,"risk":58,"cat":"amber"},{"name":"Hale Magna Village Hall","lat":52.97103,"lon":-0.29255,"postcode":"NG34 9LH","la":"North Kesteven","era":"other","nn":1065,"risk":57,"cat":"amber"},{"name":"Marquis of Granby","lat":53.00122,"lon":-0.41024,"postcode":"NG34 7DA","la":"North Kesteven","era":"other","nn":156,"risk":28,"cat":"green"},{"name":"Nags Head","lat":52.98056,"lon":-0.29729,"postcode":"NG34 9QZ","la":"North Kesteven","era":"trad","nn":500,"risk":51,"cat":"amber"},{"name":"Queens Head","lat":52.99677,"lon":-0.36517,"postcode":"NG34 9NU","la":"North Kesteven","era":"trad","nn":1741,"risk":62,"cat":"red"},{"name":"Rewind Bar","lat":52.99586,"lon":-0.40796,"postcode":"NG34 7RQ","la":"North Kesteven","era":"other","nn":80,"risk":28,"cat":"green"},{"name":"Sleaford & District Legionnaires Club","lat":52.99886,"lon":-0.41057,"postcode":"NG34 7RZ","la":"North Kesteven","era":"other","nn":69,"risk":28,"cat":"green"},{"name":"Sleaford Golf Club","lat":52.98248,"lon":-0.45647,"postcode":"NG34 8PL","la":"North Kesteven","era":"other","nn":1974,"risk":63,"cat":"red"},{"name":"Sleaford Indoor Bowls Club","lat":52.99912,"lon":-0.40287,"postcode":"NG34 7HL","la":"North Kesteven","era":"other","nn":289,"risk":29,"cat":"green"},{"name":"Sleaford Rugby Club Ltd","lat":53.01439,"lon":-0.39236,"postcode":"NG34 8SP","la":"North Kesteven","era":"other","nn":1592,"risk":61,"cat":"red"},{"name":"Sleaford Sports Association","lat":53.00011,"lon":-0.3906,"postcode":"NG34 9GH","la":"North Kesteven","era":"other","nn":828,"risk":53,"cat":"amber"},{"name":"The Barge and Bottle","lat":52.99806,"lon":-0.40797,"postcode":"NG34 7TW","la":"North Kesteven","era":"other","nn":80,"risk":28,"cat":"green"},{"name":"The Black Bull/Bombay Club","lat":53.04486,"lon":-0.3869,"postcode":"NG34 9AB","la":"North Kesteven","era":"trad","nn":90,"risk":45,"cat":"amber"},{"name":"The Brass Windmill","lat":52.95189,"lon":-0.30556,"postcode":"NG34 0RJ","la":"North Kesteven","era":"trad","nn":1178,"risk":58,"cat":"amber"},{"name":"The Bull & Dog","lat":52.99719,"lon":-0.40972,"postcode":"NG34 7RR","la":"North Kesteven","era":"trad","nn":78,"risk":28,"cat":"green"},{"name":"The Bustard Inn","lat":52.99764,"lon":-0.47179,"postcode":"NG34 8QG","la":"North Kesteven","era":"trad","nn":1974,"risk":63,"cat":"red"},{"name":"The Duke of Wellington","lat":53.02514,"lon":-0.4285,"postcode":"NG34 8JS","la":"North Kesteven","era":"trad","nn":1429,"risk":60,"cat":"amber"},{"name":"The Finch Hatton Arms","lat":53.00993,"lon":-0.33167,"postcode":"NG34 9PH","la":"North Kesteven","era":"trad","nn":2677,"risk":68,"cat":"red"},{"name":"The Grapes","lat":52.99778,"lon":-0.40908,"postcode":"NG34 7SY","la":"North Kesteven","era":"other","nn":78,"risk":28,"cat":"green"},{"name":"The Horseshoes Inn","lat":52.97301,"lon":-0.42799,"postcode":"NG34 8NZ","la":"North Kesteven","era":"trad","nn":2178,"risk":65,"cat":"red"},{"name":"The Ivy","lat":52.99626,"lon":-0.40896,"postcode":"NG34 7RL","la":"North Kesteven","era":"other","nn":80,"risk":28,"cat":"green"},{"name":"The Jolly Scotchman","lat":53.01265,"lon":-0.42349,"postcode":"NG34 8NP","la":"North Kesteven","era":"other","nn":1429,"risk":60,"cat":"amber"},{"name":"The Packhorse Inn","lat":52.99985,"lon":-0.41072,"postcode":"NG34 7BH","la":"North Kesteven","era":"trad","nn":52,"risk":28,"cat":"green"},{"name":"The Plough Inn","lat":52.97527,"lon":-0.50453,"postcode":"NG32 3NS","la":"North Kesteven","era":"trad","nn":2288,"risk":66,"cat":"red"},{"name":"The Red Lion","lat":52.91218,"lon":-0.44803,"postcode":"NG34 0EE","la":"North Kesteven","era":"trad","nn":3277,"risk":73,"cat":"red"},{"name":"The Red Lion","lat":53.04543,"lon":-0.38193,"postcode":"NG34 9DZ","la":"North Kesteven","era":"trad","nn":275,"risk":47,"cat":"amber"},{"name":"The Royal Oak","lat":52.98047,"lon":-0.28981,"postcode":"NG34 9JD","la":"North Kesteven","era":"trad","nn":500,"risk":51,"cat":"amber"},{"name":"The Shoulder of Mutton","lat":53.04549,"lon":-0.38604,"postcode":"NG34 9DU","la":"North Kesteven","era":"other","nn":90,"risk":45,"cat":"amber"},{"name":"The Solo Bar Bistro Hotel","lat":52.9998,"lon":-0.40991,"postcode":"NG34 7SF","la":"North Kesteven","era":"mod","nn":3,"risk":27,"cat":"green"},{"name":"The Tally Ho Inn","lat":52.9435,"lon":-0.42313,"postcode":"NG34 8SA","la":"North Kesteven","era":"trad","nn":1569,"risk":61,"cat":"red"},{"name":"The Whichcote Arms","lat":52.93142,"lon":-0.41101,"postcode":"NG34 0DG","la":"North Kesteven","era":"trad","nn":1569,"risk":61,"cat":"red"},{"name":"The White Horse","lat":52.9977,"lon":-0.40648,"postcode":"NG34 7HD","la":"North Kesteven","era":"trad","nn":85,"risk":28,"cat":"green"},{"name":"THE YARD VENUE","lat":52.99979,"lon":-0.40995,"postcode":"NG34 7SF","la":"North Kesteven","era":"mod","nn":3,"risk":27,"cat":"green"},{"name":"Watergate Yard","lat":52.99908,"lon":-0.41153,"postcode":"NG34 7PG","la":"North Kesteven","era":"mod","nn":69,"risk":28,"cat":"green"},{"name":"31K Bar and Yolk","lat":52.95386,"lon":-1.14247,"postcode":"NG1 1FE","la":"Nottingham","era":"mod","nn":19,"risk":21,"cat":"green"},{"name":"400 Rabbits","lat":52.95434,"lon":-1.15254,"postcode":"NG1 6JD","la":"Nottingham","era":"other","nn":0,"risk":21,"cat":"green"},{"name":"Admiral Rodney","lat":52.95322,"lon":-1.2197,"postcode":"NG8 2AF","la":"Nottingham","era":"other","nn":199,"risk":27,"cat":"green"},{"name":"All Bar One","lat":52.9516,"lon":-1.14577,"postcode":"NG1 2GB","la":"Nottingham","era":"mod","nn":7,"risk":21,"cat":"green"},{"name":"Anatolian Social Club","lat":52.95719,"lon":-1.16388,"postcode":"NG7 3NN","la":"Nottingham","era":"mod","nn":89,"risk":21,"cat":"green"},{"name":"Angel Microbrewery","lat":52.95345,"lon":-1.1438,"postcode":"NG1 1LG","la":"Nottingham","era":"trad","nn":31,"risk":21,"cat":"green"},{"name":"Another?","lat":52.95563,"lon":-1.14892,"postcode":"NG1 4AF","la":"Nottingham","era":"other","nn":12,"risk":21,"cat":"green"},{"name":"Baa Bar","lat":52.95389,"lon":-1.14275,"postcode":"NG1 1FE","la":"Nottingham","era":"other","nn":0,"risk":21,"cat":"green"},{"name":"Bagel and Beer Co","lat":52.96036,"lon":-1.15036,"postcode":"NG1 3FN","la":"Nottingham","era":"other","nn":5,"risk":21,"cat":"green"},{"name":"Bar Gigi","lat":52.9531,"lon":-1.14861,"postcode":"NG1 2HN","la":"Nottingham","era":"mod","nn":52,"risk":21,"cat":"green"},{"name":"Basford Hall Miners Welfare","lat":52.98559,"lon":-1.19857,"postcode":"NG6 8PT","la":"Nottingham","era":"other","nn":326,"risk":23,"cat":"green"},{"name":"Be At One","lat":52.95312,"lon":-1.14648,"postcode":"NG1 2EX","la":"Nottingham","era":"other","nn":23,"risk":21,"cat":"green"},{"name":"Beacon Hotel","lat":52.97293,"lon":-1.2101,"postcode":"NG8 5RX","la":"Nottingham","era":"other","nn":1089,"risk":51,"cat":"amber"},{"name":"Beechdale Pub","lat":52.96293,"lon":-1.20287,"postcode":"NG8 3FE","la":"Nottingham","era":"other","nn":1044,"risk":51,"cat":"amber"},{"name":"BeerHeadZ","lat":52.94716,"lon":-1.14654,"postcode":"NG2 3AQ","la":"Nottingham","era":"trad","nn":105,"risk":22,"cat":"green"},{"name":"Bell Inn","lat":52.95355,"lon":-1.15257,"postcode":"NG1 6HL","la":"Nottingham","era":"trad","nn":0,"risk":21,"cat":"green"},{"name":"Bestwood Road Sports And Social Club","lat":53.00662,"lon":-1.18902,"postcode":"NG6 8UA","la":"Nottingham","era":"mod","nn":221,"risk":22,"cat":"green"},{"name":"Box","lat":52.95568,"lon":-1.15346,"postcode":"NG1 5RH","la":"Nottingham","era":"other","nn":50,"risk":21,"cat":"green"},{"name":"Box Nottingham","lat":52.95385,"lon":-1.14684,"postcode":"NG1 3DR","la":"Nottingham","era":"other","nn":11,"risk":21,"cat":"green"},{"name":"Brass Monkey","lat":52.95124,"lon":-1.14515,"postcode":"NG1 1HF","la":"Nottingham","era":"trad","nn":53,"risk":21,"cat":"green"},{"name":"Brewdog","lat":52.95449,"lon":-1.14406,"postcode":"NG1 3AL","la":"Nottingham","era":"other","nn":17,"risk":21,"cat":"green"},{"name":"Building Trades Social Club","lat":52.95064,"lon":-1.12667,"postcode":"NG2 4AG","la":"Nottingham","era":"mod","nn":74,"risk":21,"cat":"green"},{"name":"Bunk","lat":52.95294,"lon":-1.14315,"postcode":"NG1 1LP","la":"Nottingham","era":"other","nn":71,"risk":21,"cat":"green"},{"name":"Bunkers Hill","lat":52.95353,"lon":-1.1404,"postcode":"NG1 1FP","la":"Nottingham","era":"other","nn":105,"risk":22,"cat":"green"},{"name":"Butchers Pencil","lat":52.99801,"lon":-1.15987,"postcode":"NG5 5LD","la":"Nottingham","era":"other","nn":681,"risk":46,"cat":"amber"},{"name":"Calluna Bar","lat":52.95541,"lon":-1.14982,"postcode":"NG1 4AA","la":"Nottingham","era":"other","nn":0,"risk":21,"cat":"green"},{"name":"Canalhouse Bar and Restaurant","lat":52.94811,"lon":-1.14941,"postcode":"NG1 7EH","la":"Nottingham","era":"mod","nn":0,"risk":21,"cat":"green"},{"name":"Clifton All Whites Football Club","lat":52.90123,"lon":-1.17216,"postcode":"NG11 9AZ","la":"Nottingham","era":"other","nn":256,"risk":28,"cat":"green"},{"name":"Clifton Village Cricket Club","lat":52.9121,"lon":-1.18527,"postcode":"NG11 8NS","la":"Nottingham","era":"other","nn":0,"risk":26,"cat":"green"},{"name":"Coach & Horses (Nottingham) Ltd","lat":52.95496,"lon":-1.14885,"postcode":"NG1 2AP","la":"Nottingham","era":"trad","nn":63,"risk":21,"cat":"green"},{"name":"Copper (City)","lat":52.95473,"lon":-1.15156,"postcode":"NG1 6HX","la":"Nottingham","era":"other","nn":43,"risk":21,"cat":"green"},{"name":"Cosy Club Nottingham","lat":52.95312,"lon":-1.14614,"postcode":"NG1 2EX","la":"Nottingham","era":"other","nn":23,"risk":21,"cat":"green"},{"name":"Crafty Crow","lat":52.95132,"lon":-1.15368,"postcode":"NG1 6EB","la":"Nottingham","era":"mod","nn":10,"risk":21,"cat":"green"},{"name":"Cross Keys","lat":52.95196,"lon":-1.14672,"postcode":"NG1 2GJ","la":"Nottingham","era":"trad","nn":10,"risk":21,"cat":"green"},{"name":"Cucamara","lat":52.95434,"lon":-1.15254,"postcode":"NG1 6JD","la":"Nottingham","era":"other","nn":0,"risk":21,"cat":"green"},{"name":"Curious Tavern","lat":52.9541,"lon":-1.14461,"postcode":"NG1 3BE","la":"Nottingham","era":"other","nn":17,"risk":21,"cat":"green"},{"name":"Das Kino","lat":52.95249,"lon":-1.1461,"postcode":"NG1 2FZ","la":"Nottingham","era":"other","nn":0,"risk":21,"cat":"green"},{"name":"Doctor's Orders","lat":52.97256,"lon":-1.1526,"postcode":"NG5 2DA","la":"Nottingham","era":"other","nn":24,"risk":21,"cat":"green"},{"name":"Duke of Cambridge","lat":52.97816,"lon":-1.13511,"postcode":"NG3 5FH","la":"Nottingham","era":"trad","nn":810,"risk":26,"cat":"green"},{"name":"Eleven","lat":52.95389,"lon":-1.14275,"postcode":"NG1 1FE","la":"Nottingham","era":"other","nn":0,"risk":21,"cat":"green"},{"name":"Excelsior Suites Limited International Banqueting Centre","lat":52.97918,"lon":-1.16968,"postcode":"NG5 1EL","la":"Nottingham","era":"other","nn":127,"risk":22,"cat":"green"},{"name":"Fairham Hotel","lat":52.90136,"lon":-1.16835,"postcode":"NG11 8LT","la":"Nottingham","era":"other","nn":256,"risk":28,"cat":"green"},{"name":"Faradays Nottingham","lat":52.95351,"lon":-1.14649,"postcode":"NG1 2EW","la":"Nottingham","era":"other","nn":0,"risk":21,"cat":"green"},{"name":"Federation House Social Club","lat":52.97344,"lon":-1.15636,"postcode":"NG5 1BB","la":"Nottingham","era":"mod","nn":267,"risk":23,"cat":"green"},{"name":"Fellows Morton & Clayton","lat":52.94811,"lon":-1.14941,"postcode":"NG1 7EH","la":"Nottingham","era":"other","nn":0,"risk":21,"cat":"green"},{"name":"Ferry Inn","lat":52.93385,"lon":-1.15718,"postcode":"NG11 7AA","la":"Nottingham","era":"trad","nn":914,"risk":45,"cat":"amber"},{"name":"Fletcher's Bar & Restaurant","lat":52.94951,"lon":-1.14373,"postcode":"NG1 7HB","la":"Nottingham","era":"mod","nn":1,"risk":21,"cat":"green"},{"name":"Flirtz","lat":52.95239,"lon":-1.15207,"postcode":"NG1 6DQ","la":"Nottingham","era":"other","nn":0,"risk":21,"cat":"green"},{"name":"Foremans Bar","lat":52.95541,"lon":-1.14982,"postcode":"NG1 4AA","la":"Nottingham","era":"other","nn":0,"risk":21,"cat":"green"},{"name":"Forest Fields Social Club","lat":52.97172,"lon":-1.16293,"postcode":"NG7 7LR","la":"Nottingham","era":"mod","nn":479,"risk":24,"cat":"green"},{"name":"Forest Tavern The Maze","lat":52.96431,"lon":-1.15265,"postcode":"NG1 3FT","la":"Nottingham","era":"other","nn":249,"risk":23,"cat":"green"},{"name":"Fothergills","lat":52.95069,"lon":-1.15311,"postcode":"NG1 6AA","la":"Nottingham","era":"other","nn":0,"risk":21,"cat":"green"},{"name":"Fox & Crown","lat":52.98044,"lon":-1.17874,"postcode":"NG6 0GA","la":"Nottingham","era":"trad","nn":509,"risk":24,"cat":"green"},{"name":"Fox & Grapes","lat":52.9532,"lon":-1.13784,"postcode":"NG1 1DL","la":"Nottingham","era":"trad","nn":63,"risk":21,"cat":"green"},{"name":"French 75","lat":52.95134,"lon":-1.15353,"postcode":"NG1 6EB","la":"Nottingham","era":"other","nn":10,"risk":21,"cat":"green"},{"name":"Fusion Sports Bar","lat":52.95319,"lon":-1.15235,"postcode":"NG1 6FG","la":"Nottingham","era":"other","nn":0,"risk":21,"cat":"green"},{"name":"Ghost","lat":52.95598,"lon":-1.15292,"postcode":"NG1 5JT","la":"Nottingham","era":"other","nn":21,"risk":21,"cat":"green"},{"name":"Ginsecco","lat":52.95583,"lon":-1.15021,"postcode":"NG1 4DB","la":"Nottingham","era":"other","nn":0,"risk":21,"cat":"green"},{"name":"Gladstone Liberal Club","lat":52.96573,"lon":-1.14228,"postcode":"NG3 4PX","la":"Nottingham","era":"other","nn":528,"risk":24,"cat":"green"},{"name":"Golden Fleece","lat":52.96032,"lon":-1.15033,"postcode":"NG1 3FN","la":"Nottingham","era":"trad","nn":5,"risk":21,"cat":"green"},{"name":"Greyfriars Social Club","lat":52.96259,"lon":-1.12846,"postcode":"NG3 2LG","la":"Nottingham","era":"mod","nn":509,"risk":27,"cat":"green"},{"name":"Grosvenor","lat":52.97069,"lon":-1.15378,"postcode":"NG5 2BY","la":"Nottingham","era":"other","nn":198,"risk":22,"cat":"green"},{"name":"Hand & Heart","lat":52.95541,"lon":-1.16025,"postcode":"NG1 5BA","la":"Nottingham","era":"other","nn":0,"risk":21,"cat":"green"},{"name":"Headstocks","lat":52.98794,"lon":-1.19567,"postcode":"NG6 8SF","la":"Nottingham","era":"trad","nn":326,"risk":23,"cat":"green"},{"name":"Hemlock Stone","lat":52.94775,"lon":-1.23008,"postcode":"NG8 2QQ","la":"Nottingham","era":"other","nn":754,"risk":44,"cat":"amber"},{"name":"Hidden Warehouse & Rooftop","lat":52.95398,"lon":-1.14904,"postcode":"NG1 2DH","la":"Nottingham","era":"mod","nn":95,"risk":21,"cat":"green"},{"name":"Hockley Arts Club","lat":52.95333,"lon":-1.14422,"postcode":"NG1 1NU","la":"Nottingham","era":"other","nn":29,"risk":21,"cat":"green"},{"name":"Holly Tree Farm","lat":52.9818,"lon":-1.23967,"postcode":"NG8 6PZ","la":"Nottingham","era":"trad","nn":884,"risk":47,"cat":"amber"},{"name":"Huddl LocoLoco ElRodeo BurritoBandits KTown ChikBox Locked&Loaded","lat":52.95301,"lon":-1.14786,"postcode":"NG1 2HW","la":"Nottingham","era":"other","nn":52,"risk":21,"cat":"green"},{"name":"Icon Bar","lat":52.95277,"lon":-1.15225,"postcode":"NG1 6FH","la":"Nottingham","era":"other","nn":0,"risk":21,"cat":"green"},{"name":"Ink","lat":52.95449,"lon":-1.15031,"postcode":"NG1 2BL","la":"Nottingham","era":"other","nn":45,"risk":21,"cat":"green"},{"name":"Jenkins","lat":52.98315,"lon":-1.1446,"postcode":"NG5 2GA","la":"Nottingham","era":"other","nn":41,"risk":21,"cat":"green"},{"name":"Junkyard Bottle Shop and Pour House","lat":52.95254,"lon":-1.14635,"postcode":"NG1 2HB","la":"Nottingham","era":"mod","nn":18,"risk":21,"cat":"green"},{"name":"Kean's Head","lat":52.95129,"lon":-1.1441,"postcode":"NG1 1QA","la":"Nottingham","era":"trad","nn":63,"risk":21,"cat":"green"},{"name":"Kraft Werks","lat":52.98074,"lon":-1.14712,"postcode":"NG5 2JL","la":"Nottingham","era":"other","nn":74,"risk":21,"cat":"green"},{"name":"Lenton Liberal Club","lat":52.9477,"lon":-1.17317,"postcode":"NG7 1SD","la":"Nottingham","era":"other","nn":140,"risk":22,"cat":"green"},{"name":"Lillie Langtrys","lat":52.95526,"lon":-1.15061,"postcode":"NG1 4BY","la":"Nottingham","era":"other","nn":48,"risk":21,"cat":"green"},{"name":"Limekiln","lat":53.00523,"lon":-1.20836,"postcode":"NG6 8GE","la":"Nottingham","era":"other","nn":138,"risk":22,"cat":"green"},{"name":"Lincolnshire Poacher","lat":52.96221,"lon":-1.15135,"postcode":"NG1 3FR","la":"Nottingham","era":"other","nn":216,"risk":22,"cat":"green"},{"name":"Lion Inn","lat":52.97213,"lon":-1.17412,"postcode":"NG7 7FQ","la":"Nottingham","era":"trad","nn":512,"risk":24,"cat":"green"},{"name":"Lion Revived Pub","lat":53.0027,"lon":-1.19725,"postcode":"NG6 8FL","la":"Nottingham","era":"trad","nn":93,"risk":21,"cat":"green"},{"name":"Lloyds No1","lat":52.95376,"lon":-1.14518,"postcode":"NG1 1NL","la":"Nottingham","era":"other","nn":47,"risk":21,"cat":"green"},{"name":"Malt Cross","lat":52.95319,"lon":-1.15235,"postcode":"NG1 6FG","la":"Nottingham","era":"trad","nn":0,"risk":21,"cat":"green"},{"name":"Marcus Garvey West Indian Cavaliers Sports & Social Club","lat":52.95316,"lon":-1.17651,"postcode":"NG7 2BY","la":"Nottingham","era":"mod","nn":509,"risk":24,"cat":"green"},{"name":"Miller & Carter","lat":52.94053,"lon":-1.21722,"postcode":"NG8 2NR","la":"Nottingham","era":"trad","nn":760,"risk":46,"cat":"amber"},{"name":"Mist Rolling Inn","lat":52.95543,"lon":-1.15833,"postcode":"NG1 5FD","la":"Nottingham","era":"trad","nn":78,"risk":21,"cat":"green"},{"name":"Mojo","lat":52.95393,"lon":-1.14637,"postcode":"NG1 3DR","la":"Nottingham","era":"other","nn":0,"risk":21,"cat":"green"},{"name":"Moon & Stars","lat":52.99939,"lon":-1.19737,"postcode":"NG6 8QF","la":"Nottingham","era":"other","nn":103,"risk":22,"cat":"green"},{"name":"Nags Head","lat":52.96811,"lon":-1.18364,"postcode":"NG8 5AZ","la":"Nottingham","era":"trad","nn":378,"risk":26,"cat":"green"},{"name":"Navigation Inn","lat":52.94797,"lon":-1.15178,"postcode":"NG2 1AA","la":"Nottingham","era":"trad","nn":159,"risk":22,"cat":"green"},{"name":"New Foresters","lat":52.95754,"lon":-1.14625,"postcode":"NG1 3LX","la":"Nottingham","era":"other","nn":75,"risk":21,"cat":"green"},{"name":"Newark Hall","lat":52.9527,"lon":-1.18565,"postcode":"NG8 1BB","la":"Nottingham","era":"other","nn":503,"risk":24,"cat":"green"},{"name":"NG One","lat":52.95443,"lon":-1.14088,"postcode":"NG1 1EH","la":"Nottingham","era":"other","nn":0,"risk":21,"cat":"green"},{"name":"Nottingham Playhouse","lat":52.95371,"lon":-1.15765,"postcode":"NG1 5AL","la":"Nottingham","era":"other","nn":197,"risk":22,"cat":"green"},{"name":"Nottingham Royal Navy Association Club Ltd","lat":52.94893,"lon":-1.17363,"postcode":"NG7 1SJ","la":"Nottingham","era":"trad","nn":140,"risk":22,"cat":"green"},{"name":"Nottinghamshire Fire & Rescue Service","lat":52.98341,"lon":-1.19098,"postcode":"NG6 0LG","la":"Nottingham","era":"other","nn":161,"risk":22,"cat":"green"},{"name":"Nottm & Notts United Services","lat":52.95083,"lon":-1.15241,"postcode":"NG1 6AF","la":"Nottingham","era":"other","nn":50,"risk":21,"cat":"green"},{"name":"Oakleigh Lodge Social Club","lat":52.99143,"lon":-1.18682,"postcode":"NG6 9DD","la":"Nottingham","era":"other","nn":586,"risk":25,"cat":"green"},{"name":"Ocean Nightclub","lat":52.94903,"lon":-1.14981,"postcode":"NG1 7EF","la":"Nottingham","era":"other","nn":106,"risk":22,"cat":"green"},{"name":"Old Dog & Partridge (Nottingham)","lat":52.95492,"lon":-1.14617,"postcode":"NG1 3DA","la":"Nottingham","era":"other","nn":80,"risk":21,"cat":"green"},{"name":"O'Neills","lat":52.95315,"lon":-1.15146,"postcode":"NG1 6FB","la":"Nottingham","era":"other","nn":60,"risk":21,"cat":"green"},{"name":"Oxford Hotel","lat":52.99572,"lon":-1.19192,"postcode":"NG6 9BU","la":"Nottingham","era":"other","nn":453,"risk":24,"cat":"green"},{"name":"Oz Bar","lat":52.95277,"lon":-1.15225,"postcode":"NG1 6FH","la":"Nottingham","era":"other","nn":0,"risk":21,"cat":"green"},{"name":"Partizan Taverns Ltd","lat":52.95341,"lon":-1.13697,"postcode":"NG2 4PB","la":"Nottingham","era":"other","nn":24,"risk":21,"cat":"green"},{"name":"Percy Picklebackers","lat":52.95154,"lon":-1.14577,"postcode":"NG1 2GB","la":"Nottingham","era":"other","nn":7,"risk":21,"cat":"green"},{"name":"Pit and Pendulum","lat":52.95351,"lon":-1.14649,"postcode":"NG1 2EW","la":"Nottingham","era":"other","nn":0,"risk":21,"cat":"green"},{"name":"Pitcher And Piano","lat":52.96667,"lon":-1.15,"postcode":"NG1 1HN","la":"Nottingham","era":"other","nn":317,"risk":23,"cat":"green"},{"name":"Playwright","lat":52.95777,"lon":-1.15077,"postcode":"NG1 4FQ","la":"Nottingham","era":"other","nn":102,"risk":22,"cat":"green"},{"name":"Poets Corner","lat":52.94312,"lon":-1.14636,"postcode":"NG2 2JD","la":"Nottingham","era":"other","nn":251,"risk":23,"cat":"green"},{"name":"Poison Inc","lat":52.95337,"lon":-1.14465,"postcode":"NG1 1NN","la":"Nottingham","era":"other","nn":0,"risk":21,"cat":"green"},{"name":"Propaganda","lat":52.95182,"lon":-1.14376,"postcode":"NG1 1PS","la":"Nottingham","era":"other","nn":60,"risk":21,"cat":"green"},{"name":"Raglan Road PH","lat":52.95541,"lon":-1.16025,"postcode":"NG1 5BA","la":"Nottingham","era":"other","nn":0,"risk":21,"cat":"green"},{"name":"Rescue Rooms","lat":52.95617,"lon":-1.15298,"postcode":"NG1 5JT","la":"Nottingham","era":"mod","nn":0,"risk":21,"cat":"green"},{"name":"Revolucion de Cuba","lat":52.95467,"lon":-1.15092,"postcode":"NG1 6HW","la":"Nottingham","era":"other","nn":43,"risk":21,"cat":"green"},{"name":"Revolution Hockley","lat":52.95405,"lon":-1.14423,"postcode":"NG1 3AJ","la":"Nottingham","era":"other","nn":16,"risk":21,"cat":"green"},{"name":"Revolution Nottingham","lat":52.95583,"lon":-1.15021,"postcode":"NG1 4DB","la":"Nottingham","era":"other","nn":0,"risk":21,"cat":"green"},{"name":"Robin Hood Public House","lat":52.98009,"lon":-1.14685,"postcode":"NG5 2FR","la":"Nottingham","era":"other","nn":0,"risk":21,"cat":"green"},{"name":"Rock City","lat":52.95612,"lon":-1.15531,"postcode":"NG1 5GG","la":"Nottingham","era":"other","nn":133,"risk":22,"cat":"green"},{"name":"Rose & Crown (Lenton)","lat":52.94763,"lon":-1.18361,"postcode":"NG7 2GW","la":"Nottingham","era":"trad","nn":249,"risk":23,"cat":"green"},{"name":"Rose Inn","lat":52.97354,"lon":-1.22633,"postcode":"NG8 6NH","la":"Nottingham","era":"trad","nn":477,"risk":42,"cat":"amber"},{"name":"Rose Of England","lat":52.95882,"lon":-1.14908,"postcode":"NG1 3GY","la":"Nottingham","era":"trad","nn":72,"risk":21,"cat":"green"},{"name":"Roxy","lat":52.95393,"lon":-1.14637,"postcode":"NG1 3DR","la":"Nottingham","era":"other","nn":0,"risk":21,"cat":"green"},{"name":"Royal British Legion","lat":52.90445,"lon":-1.17749,"postcode":"NG11 8BJ","la":"Nottingham","era":"trad","nn":412,"risk":24,"cat":"green"},{"name":"Royal Children","lat":52.95111,"lon":-1.15124,"postcode":"NG1 7AT","la":"Nottingham","era":"trad","nn":84,"risk":21,"cat":"green"},{"name":"Running Horse","lat":52.95666,"lon":-1.16284,"postcode":"NG7 3NG","la":"Nottingham","era":"trad","nn":32,"risk":21,"cat":"green"},{"name":"Sample Restaurant and Tilt Bar","lat":52.9538,"lon":-1.14698,"postcode":"NG1 2EH","la":"Nottingham","era":"other","nn":11,"risk":21,"cat":"green"},{"name":"Sheriff Social Club","lat":52.94271,"lon":-1.15004,"postcode":"NG2 2DF","la":"Nottingham","era":"mod","nn":251,"risk":23,"cat":"green"},{"name":"Sherwood Manor","lat":52.98349,"lon":-1.14498,"postcode":"NG5 2FX","la":"Nottingham","era":"other","nn":6,"risk":21,"cat":"green"},{"name":"Sir John Borlase Warren","lat":52.95582,"lon":-1.16284,"postcode":"NG7 3GD","la":"Nottingham","era":"other","nn":60,"risk":21,"cat":"green"},{"name":"Six Barrel Drafthouse","lat":52.95337,"lon":-1.14465,"postcode":"NG1 1NN","la":"Nottingham","era":"other","nn":0,"risk":21,"cat":"green"},{"name":"Six Barrel Drafthouse Victoria","lat":52.95761,"lon":-1.14847,"postcode":"NG1 3GX","la":"Nottingham","era":"other","nn":74,"risk":21,"cat":"green"},{"name":"Sky Bar","lat":52.95583,"lon":-1.15021,"postcode":"NG1 4DB","la":"Nottingham","era":"other","nn":0,"risk":21,"cat":"green"},{"name":"Slug and Lettuce","lat":52.95403,"lon":-1.15162,"postcode":"NG1 6JB","la":"Nottingham","era":"other","nn":64,"risk":21,"cat":"green"},{"name":"Slug And Lettuce","lat":52.95583,"lon":-1.15021,"postcode":"NG1 4DB","la":"Nottingham","era":"other","nn":0,"risk":21,"cat":"green"},{"name":"Sobar","lat":52.95239,"lon":-1.15207,"postcode":"NG1 6DQ","la":"Nottingham","era":"other","nn":0,"risk":21,"cat":"green"},{"name":"Son Of Steak","lat":52.95564,"lon":-1.14874,"postcode":"NG1 4AF","la":"Nottingham","era":"other","nn":12,"risk":21,"cat":"green"},{"name":"Southbank City","lat":52.95239,"lon":-1.15207,"postcode":"NG1 6DQ","la":"Nottingham","era":"other","nn":0,"risk":21,"cat":"green"},{"name":"Spankies Ltd","lat":52.95617,"lon":-1.15298,"postcode":"NG1 5JT","la":"Nottingham","era":"other","nn":0,"risk":21,"cat":"green"},{"name":"Spot On Leisure Ltd","lat":53.00027,"lon":-1.19783,"postcode":"NG6 8NU","la":"Nottingham","era":"other","nn":103,"risk":22,"cat":"green"},{"name":"Starting Gate","lat":52.95342,"lon":-1.09536,"postcode":"NG2 4DX","la":"Nottingham","era":"other","nn":202,"risk":42,"cat":"amber"},{"name":"Stealth","lat":52.95617,"lon":-1.15298,"postcode":"NG1 5JT","la":"Nottingham","era":"other","nn":0,"risk":21,"cat":"green"},{"name":"Stick And Pitcher","lat":52.94126,"lon":-1.1865,"postcode":"NG7 2RD","la":"Nottingham","era":"other","nn":463,"risk":24,"cat":"green"},{"name":"Strelley Social Club","lat":52.97764,"lon":-1.22842,"postcode":"NG8 6JZ","la":"Nottingham","era":"mod","nn":477,"risk":42,"cat":"amber"},{"name":"Students Union Venue","lat":52.95871,"lon":-1.15516,"postcode":"NG1 4GH","la":"Nottingham","era":"other","nn":211,"risk":22,"cat":"green"},{"name":"Suede","lat":52.95459,"lon":-1.14297,"postcode":"NG1 3AA","la":"Nottingham","era":"other","nn":74,"risk":21,"cat":"green"},{"name":"Tap & Tumbler","lat":52.95503,"lon":-1.15355,"postcode":"NG1 5FW","la":"Nottingham","era":"other","nn":0,"risk":21,"cat":"green"},{"name":"The Barley Twist","lat":52.94797,"lon":-1.14735,"postcode":"NG1 7FE","la":"Nottingham","era":"other","nn":105,"risk":22,"cat":"green"},{"name":"The Barrel Drop","lat":52.95434,"lon":-1.15254,"postcode":"NG1 6JD","la":"Nottingham","era":"other","nn":0,"risk":21,"cat":"green"},{"name":"The Bath Inn","lat":52.95539,"lon":-1.1356,"postcode":"NG3 1JE","la":"Nottingham","era":"trad","nn":0,"risk":21,"cat":"green"},{"name":"The Blue Bell Inn","lat":52.95527,"lon":-1.1499,"postcode":"NG1 2AG","la":"Nottingham","era":"trad","nn":0,"risk":21,"cat":"green"},{"name":"The Boat Inn","lat":52.94303,"lon":-1.17908,"postcode":"NG7 2NX","la":"Nottingham","era":"trad","nn":73,"risk":21,"cat":"green"},{"name":"The Bodega","lat":52.95371,"lon":-1.14588,"postcode":"NG1 2ED","la":"Nottingham","era":"other","nn":41,"risk":21,"cat":"green"},{"name":"The Brickworks","lat":52.95095,"lon":-1.13486,"postcode":"NG2 4PL","la":"Nottingham","era":"mod","nn":267,"risk":23,"cat":"green"},{"name":"The Bull's Well Micro Pub","lat":52.99813,"lon":-1.19738,"postcode":"NG6 8QH","la":"Nottingham","era":"trad","nn":139,"risk":22,"cat":"green"},{"name":"The Castle","lat":52.95069,"lon":-1.15311,"postcode":"NG1 6AA","la":"Nottingham","era":"other","nn":0,"risk":21,"cat":"green"},{"name":"The Cell","lat":52.95249,"lon":-1.1461,"postcode":"NG1 2FZ","la":"Nottingham","era":"other","nn":0,"risk":21,"cat":"green"},{"name":"The Chameleon Arts Cafe","lat":52.95355,"lon":-1.15257,"postcode":"NG1 6HL","la":"Nottingham","era":"other","nn":0,"risk":21,"cat":"green"},{"name":"The Clock Restaurant & Bar","lat":52.96757,"lon":-1.17521,"postcode":"NG7 5GD","la":"Nottingham","era":"other","nn":512,"risk":24,"cat":"green"},{"name":"The Crafty Teller","lat":52.98002,"lon":-1.14692,"postcode":"NG5 2FR","la":"Nottingham","era":"mod","nn":8,"risk":21,"cat":"green"},{"name":"The Crafty Warehouse","lat":52.94192,"lon":-1.13779,"postcode":"NG2 3JA","la":"Nottingham","era":"mod","nn":84,"risk":21,"cat":"green"},{"name":"The Crimson Tree","lat":52.98343,"lon":-1.14498,"postcode":"NG5 2FX","la":"Nottingham","era":"other","nn":6,"risk":21,"cat":"green"},{"name":"The Crown Inn","lat":52.9564,"lon":-1.19166,"postcode":"NG8 1PE","la":"Nottingham","era":"trad","nn":575,"risk":42,"cat":"amber"},{"name":"The Crusader","lat":52.9053,"lon":-1.19407,"postcode":"NG11 8SG","la":"Nottingham","era":"other","nn":959,"risk":45,"cat":"amber"},{"name":"The Dragon","lat":52.95416,"lon":-1.15288,"postcode":"NG1 6JE","la":"Nottingham","era":"trad","nn":30,"risk":21,"cat":"green"},{"name":"The Drinkery Bar & Kitchen","lat":52.9797,"lon":-1.15277,"postcode":"NG5 2LA","la":"Nottingham","era":"mod","nn":393,"risk":24,"cat":"green"},{"name":"The Duke of St Albans","lat":53.0141,"lon":-1.16254,"postcode":"NG5 9PJ","la":"Gedling","era":"trad","nn":1189,"risk":58,"cat":"amber"},{"name":"The Embankment Club Trent Bridge","lat":52.93917,"lon":-1.13867,"postcode":"NG2 2GR","la":"Nottingham","era":"other","nn":231,"risk":22,"cat":"green"},{"name":"The Emerald Nottingham","lat":52.92537,"lon":-1.15727,"postcode":"NG11 7AX","la":"Nottingham","era":"other","nn":224,"risk":27,"cat":"green"},{"name":"The Falcon Inn","lat":52.95649,"lon":-1.16323,"postcode":"NG7 3JE","la":"Nottingham","era":"trad","nn":0,"risk":21,"cat":"green"},{"name":"The Foresters Inn","lat":52.9577,"lon":-1.14516,"postcode":"NG1 3NL","la":"Nottingham","era":"trad","nn":75,"risk":21,"cat":"green"},{"name":"The Fox Hotel","lat":52.98353,"lon":-1.17313,"postcode":"NG5 1HY","la":"Nottingham","era":"trad","nn":509,"risk":27,"cat":"green"},{"name":"The Gladstone Hotel","lat":52.97438,"lon":-1.15269,"postcode":"NG5 2AW","la":"Nottingham","era":"other","nn":203,"risk":22,"cat":"green"},{"name":"The Goat","lat":52.95416,"lon":-1.14438,"postcode":"NG1 3AJ","la":"Nottingham","era":"other","nn":16,"risk":21,"cat":"green"},{"name":"The Good Fellow George/Cove","lat":52.95649,"lon":-1.16323,"postcode":"NG7 3JE","la":"Nottingham","era":"trad","nn":0,"risk":21,"cat":"green"},{"name":"The Gooseberry Bush","lat":52.96043,"lon":-1.15382,"postcode":"NG1 4GL","la":"Nottingham","era":"other","nn":211,"risk":22,"cat":"green"},{"name":"The Hop Merchant","lat":52.95527,"lon":-1.1499,"postcode":"NG1 2AG","la":"Nottingham","era":"other","nn":0,"risk":21,"cat":"green"},{"name":"The Horseshoe Inn","lat":53.00001,"lon":-1.19565,"postcode":"NG6 9AA","la":"Nottingham","era":"trad","nn":134,"risk":22,"cat":"green"},{"name":"The Johnson Arms","lat":52.94268,"lon":-1.17999,"postcode":"NG7 2NZ","la":"Nottingham","era":"trad","nn":73,"risk":21,"cat":"green"},{"name":"The Joseph Else","lat":52.9528,"lon":-1.15032,"postcode":"NG1 2JS","la":"Nottingham","era":"other","nn":86,"risk":21,"cat":"green"},{"name":"The King Billy","lat":52.95307,"lon":-1.13672,"postcode":"NG2 4RG","la":"Nottingham","era":"trad","nn":22,"risk":21,"cat":"green"},{"name":"The Lacehouse","lat":52.95176,"lon":-1.14286,"postcode":"NG1 1LL","la":"Nottingham","era":"other","nn":60,"risk":21,"cat":"green"},{"name":"The Lord Nelson","lat":52.95131,"lon":-1.12674,"postcode":"NG2 4FA","la":"Nottingham","era":"trad","nn":74,"risk":21,"cat":"green"},{"name":"The Lord Roberts","lat":52.95463,"lon":-1.14418,"postcode":"NG1 3AN","la":"Nottingham","era":"other","nn":17,"risk":21,"cat":"green"},{"name":"The Loxley","lat":52.95347,"lon":-1.14646,"postcode":"NG1 2EG","la":"Nottingham","era":"other","nn":5,"risk":21,"cat":"green"},{"name":"The Magic Garden","lat":52.95136,"lon":-1.14722,"postcode":"NG1 7DL","la":"Nottingham","era":"other","nn":74,"risk":21,"cat":"green"},{"name":"The March Hare","lat":52.95811,"lon":-1.12693,"postcode":"NG3 2NB","la":"Nottingham","era":"other","nn":509,"risk":24,"cat":"green"},{"name":"The Mill","lat":52.98425,"lon":-1.18901,"postcode":"NG6 0JY","la":"Nottingham","era":"trad","nn":161,"risk":22,"cat":"green"},{"name":"The Mixologist","lat":52.95583,"lon":-1.15021,"postcode":"NG1 4DB","la":"Nottingham","era":"other","nn":0,"risk":21,"cat":"green"},{"name":"The Monkey","lat":53.00337,"lon":-1.19582,"postcode":"NG6 8ED","la":"Nottingham","era":"trad","nn":121,"risk":22,"cat":"green"},{"name":"The Ned Ludd","lat":52.95222,"lon":-1.15152,"postcode":"NG1 6DA","la":"Nottingham","era":"other","nn":41,"risk":21,"cat":"green"},{"name":"The Nest Notts County Football Club","lat":52.94325,"lon":-1.1391,"postcode":"NG2 3HU","la":"Nottingham","era":"other","nn":171,"risk":22,"cat":"green"},{"name":"The New Castle","lat":52.95327,"lon":-1.1367,"postcode":"NG2 4PA","la":"Nottingham","era":"other","nn":22,"risk":21,"cat":"green"},{"name":"The Newmarket","lat":52.95513,"lon":-1.14438,"postcode":"NG1 3BA","la":"Nottingham","era":"other","nn":56,"risk":21,"cat":"green"},{"name":"The Newshouse","lat":52.94952,"lon":-1.14374,"postcode":"NG1 7HB","la":"Nottingham","era":"other","nn":1,"risk":21,"cat":"green"},{"name":"The Newstead Abbey","lat":53.00471,"lon":-1.18992,"postcode":"NG6 9JS","la":"Nottingham","era":"trad","nn":221,"risk":22,"cat":"green"},{"name":"The Organ Grinder","lat":52.95636,"lon":-1.16291,"postcode":"NG7 3JE","la":"Nottingham","era":"other","nn":25,"risk":21,"cat":"green"},{"name":"The Park Tavern","lat":52.98804,"lon":-1.178,"postcode":"NG6 0DZ","la":"Nottingham","era":"other","nn":598,"risk":27,"cat":"green"},{"name":"The Peacock","lat":52.90082,"lon":-1.17873,"postcode":"NG11 9FB","la":"Nottingham","era":"other","nn":412,"risk":29,"cat":"green"},{"name":"The Peacock Hotel","lat":52.95821,"lon":-1.14944,"postcode":"NG1 3FB","la":"Nottingham","era":"other","nn":72,"risk":21,"cat":"green"},{"name":"The Pelican","lat":52.96398,"lon":-1.23106,"postcode":"NG8 4PN","la":"Nottingham","era":"other","nn":1046,"risk":51,"cat":"amber"},{"name":"The Pheasant Inn","lat":52.96248,"lon":-1.17804,"postcode":"NG7 5QE","la":"Nottingham","era":"trad","nn":553,"risk":27,"cat":"green"},{"name":"The Plough Inn","lat":52.95774,"lon":-1.18056,"postcode":"NG7 3EN","la":"Nottingham","era":"trad","nn":553,"risk":25,"cat":"green"},{"name":"The Point Bar & Diner","lat":52.9121,"lon":-1.18527,"postcode":"NG11 8NS","la":"Nottingham","era":"mod","nn":0,"risk":26,"cat":"green"},{"name":"The Roebuck Inn","lat":52.95277,"lon":-1.15225,"postcode":"NG1 6FH","la":"Nottingham","era":"trad","nn":0,"risk":21,"cat":"green"},{"name":"The Roundhouse Bar & Kitchen","lat":52.95175,"lon":-1.15589,"postcode":"NG1 6FS","la":"Nottingham","era":"mod","nn":156,"risk":22,"cat":"green"},{"name":"The Royal Oak","lat":53.00154,"lon":-1.19621,"postcode":"NG6 8EW","la":"Nottingham","era":"trad","nn":55,"risk":21,"cat":"green"},{"name":"The Samuel Hall","lat":52.98176,"lon":-1.14637,"postcode":"NG5 2JN","la":"Nottingham","era":"other","nn":87,"risk":21,"cat":"green"},{"name":"The Sherwood","lat":52.98009,"lon":-1.14685,"postcode":"NG5 2FR","la":"Nottingham","era":"other","nn":0,"risk":21,"cat":"green"},{"name":"The Stage","lat":52.95504,"lon":-1.15355,"postcode":"NG1 5FW","la":"Nottingham","era":"trad","nn":0,"risk":21,"cat":"green"},{"name":"The Tap House","lat":52.95191,"lon":-1.14658,"postcode":"NG1 2GJ","la":"Nottingham","era":"mod","nn":10,"risk":21,"cat":"green"},{"name":"The Three Crowns","lat":52.95462,"lon":-1.15265,"postcode":"NG1 6LD","la":"Nottingham","era":"trad","nn":16,"risk":21,"cat":"green"},{"name":"The Three Wheatsheaves","lat":52.94919,"lon":-1.18093,"postcode":"NG7 2GQ","la":"Nottingham","era":"other","nn":249,"risk":23,"cat":"green"},{"name":"The Vat & Fiddle","lat":52.94561,"lon":-1.14851,"postcode":"NG2 1NB","la":"Nottingham","era":"other","nn":218,"risk":22,"cat":"green"},{"name":"The Walrus","lat":52.95473,"lon":-1.14971,"postcode":"NG1 2AY","la":"Nottingham","era":"other","nn":48,"risk":21,"cat":"green"},{"name":"The Wheelhouse","lat":52.95504,"lon":-1.21433,"postcode":"NG8 2BH","la":"Nottingham","era":"other","nn":413,"risk":41,"cat":"amber"},{"name":"The Whistle & Flute","lat":52.95534,"lon":-1.15949,"postcode":"NG1 5FB","la":"Nottingham","era":"other","nn":51,"risk":21,"cat":"green"},{"name":"The Whitemoor Public House","lat":52.97138,"lon":-1.18517,"postcode":"NG8 5BN","la":"Nottingham","era":"other","nn":378,"risk":28,"cat":"green"},{"name":"The William Peverel","lat":53.002,"lon":-1.19651,"postcode":"NG6 8EZ","la":"Nottingham","era":"other","nn":55,"risk":21,"cat":"green"},{"name":"The Willow Tree Inn","lat":52.97804,"lon":-1.1696,"postcode":"NG7 7DB","la":"Nottingham","era":"trad","nn":127,"risk":22,"cat":"green"},{"name":"The Winchester","lat":52.98214,"lon":-1.14524,"postcode":"NG5 4AH","la":"Nottingham","era":"other","nn":87,"risk":21,"cat":"green"},{"name":"Top House","lat":53.00602,"lon":-1.20677,"postcode":"NG6 8JY","la":"Nottingham","era":"other","nn":138,"risk":22,"cat":"green"},{"name":"Top Valley Social Club","lat":53.00347,"lon":-1.16448,"postcode":"NG5 9JZ","la":"Nottingham","era":"mod","nn":681,"risk":43,"cat":"amber"},{"name":"Trent Navigation","lat":52.94123,"lon":-1.13831,"postcode":"NG2 3HS","la":"Nottingham","era":"other","nn":84,"risk":21,"cat":"green"},{"name":"Tropichol","lat":52.95428,"lon":-1.15247,"postcode":"NG1 6JD","la":"Nottingham","era":"other","nn":7,"risk":21,"cat":"green"},{"name":"Tuck and Tanner","lat":53.00222,"lon":-1.1783,"postcode":"NG5 9DD","la":"Nottingham","era":"other","nn":825,"risk":32,"cat":"amber"},{"name":"Turners Inn","lat":52.97235,"lon":-1.15272,"postcode":"NG5 2DA","la":"Nottingham","era":"trad","nn":24,"risk":21,"cat":"green"},{"name":"V Plus KTV","lat":52.95443,"lon":-1.14088,"postcode":"NG1 1EH","la":"Nottingham","era":"other","nn":0,"risk":21,"cat":"green"},{"name":"Via Fossa","lat":52.94811,"lon":-1.14941,"postcode":"NG1 7EH","la":"Nottingham","era":"other","nn":0,"risk":21,"cat":"green"},{"name":"Vibes","lat":52.95467,"lon":-1.15242,"postcode":"NG1 6LD","la":"Nottingham","era":"other","nn":16,"risk":21,"cat":"green"},{"name":"Vine Inn","lat":52.95539,"lon":-1.1356,"postcode":"NG3 1JE","la":"Nottingham","era":"trad","nn":0,"risk":21,"cat":"green"},{"name":"Waters Edge","lat":52.94465,"lon":-1.16348,"postcode":"NG7 1GX","la":"Nottingham","era":"other","nn":733,"risk":26,"cat":"green"},{"name":"Wave Bar","lat":52.95709,"lon":-1.14778,"postcode":"NG1 3QF","la":"Nottingham","era":"other","nn":74,"risk":21,"cat":"green"},{"name":"Wax Bar","lat":52.95479,"lon":-1.14499,"postcode":"NG1 3AP","la":"Nottingham","era":"other","nn":56,"risk":21,"cat":"green"},{"name":"West Notts Unionist Club","lat":52.96487,"lon":-1.16747,"postcode":"NG7 6AQ","la":"Nottingham","era":"other","nn":599,"risk":25,"cat":"green"},{"name":"White Hart","lat":52.94569,"lon":-1.17903,"postcode":"NG7 2LT","la":"Nottingham","era":"trad","nn":296,"risk":23,"cat":"green"},{"name":"Wilford Farm Inn","lat":52.92589,"lon":-1.1605,"postcode":"NG11 7AT","la":"Nottingham","era":"trad","nn":224,"risk":27,"cat":"green"},{"name":"Wollaton Royal British Legion Club","lat":52.95282,"lon":-1.2226,"postcode":"NG8 2ND","la":"Nottingham","era":"trad","nn":199,"risk":27,"cat":"green"},{"name":"Ye Olde Trip To Jerusalem","lat":52.94933,"lon":-1.15266,"postcode":"NG1 6AD","la":"Nottingham","era":"other","nn":154,"risk":22,"cat":"green"},{"name":"Yokocho","lat":52.95434,"lon":-1.15254,"postcode":"NG1 6JD","la":"Nottingham","era":"other","nn":0,"risk":21,"cat":"green"},{"name":"Apple Tree","lat":52.92306,"lon":-1.15463,"postcode":"NG2 7PA","la":"Rushcliffe","era":"other","nn":312,"risk":48,"cat":"amber"},{"name":"Chequers Inn","lat":52.91421,"lon":-0.98236,"postcode":"NG12 3DB","la":"Rushcliffe","era":"trad","nn":1341,"risk":61,"cat":"red"},{"name":"Country Club Caterers (Earl Of Chesterfield)","lat":52.97617,"lon":-1.01267,"postcode":"NG12 1EQ","la":"Rushcliffe","era":"other","nn":1735,"risk":63,"cat":"red"},{"name":"Durham Ox","lat":52.96295,"lon":-0.85456,"postcode":"NG13 9NS","la":"Rushcliffe","era":"other","nn":2967,"risk":72,"cat":"red"},{"name":"Frame Breakers","lat":52.89182,"lon":-1.14908,"postcode":"NG11 6DT","la":"Rushcliffe","era":"trad","nn":59,"risk":29,"cat":"green"},{"name":"Gamston Lock","lat":52.93206,"lon":-1.0999,"postcode":"NG2 6NP","la":"Rushcliffe","era":"other","nn":605,"risk":53,"cat":"amber"},{"name":"Gilt Cafe Bar","lat":52.95269,"lon":-0.95213,"postcode":"NG13 8AP","la":"Rushcliffe","era":"other","nn":31,"risk":31,"cat":"amber"},{"name":"Horse And Plough","lat":52.95141,"lon":-0.95441,"postcode":"NG13 8AF","la":"Rushcliffe","era":"trad","nn":21,"risk":31,"cat":"amber"},{"name":"Keyworth Rugby Football Club Limited","lat":52.8426,"lon":-1.05944,"postcode":"NG12 5PU","la":"Rushcliffe","era":"other","nn":2960,"risk":72,"cat":"red"},{"name":"Keyworth Tavern","lat":53.14606,"lon":-0.99269,"postcode":"NG12 5DW","la":"Rushcliffe","era":"other","nn":0,"risk":46,"cat":"amber"},{"name":"Lady Bay","lat":52.93865,"lon":-1.12211,"postcode":"NG2 5BE","la":"Rushcliffe","era":"other","nn":306,"risk":31,"cat":"amber"},{"name":"Larwood & Voce","lat":52.9372,"lon":-1.13028,"postcode":"NG2 6AJ","la":"Rushcliffe","era":"other","nn":234,"risk":30,"cat":"green"},{"name":"Martins Arms","lat":52.89148,"lon":-0.96356,"postcode":"NG12 3FD","la":"Rushcliffe","era":"trad","nn":2735,"risk":70,"cat":"red"},{"name":"Nottingham Knight","lat":52.90807,"lon":-1.14569,"postcode":"NG11 6LS","la":"Rushcliffe","era":"other","nn":1241,"risk":60,"cat":"amber"},{"name":"Plough Inn","lat":52.92626,"lon":-0.98303,"postcode":"NG12 3AB","la":"Rushcliffe","era":"trad","nn":1341,"risk":61,"cat":"red"},{"name":"Poppy And Pint","lat":52.93651,"lon":-1.11924,"postcode":"NG2 5DX","la":"Rushcliffe","era":"other","nn":306,"risk":31,"cat":"amber"},{"name":"Purple Mamba Club","lat":52.9379,"lon":-1.13357,"postcode":"NG2 5FF","la":"Rushcliffe","era":"other","nn":88,"risk":29,"cat":"green"},{"name":"Rancliffe Arms","lat":52.86068,"lon":-1.1337,"postcode":"NG11 6QT","la":"Rushcliffe","era":"trad","nn":2896,"risk":71,"cat":"red"},{"name":"Royal Oak","lat":52.98025,"lon":-0.96954,"postcode":"NG13 8PA","la":"Rushcliffe","era":"trad","nn":2526,"risk":69,"cat":"red"},{"name":"Ruddington Conservative Club","lat":52.89131,"lon":-1.14881,"postcode":"NG11 6DX","la":"Rushcliffe","era":"other","nn":59,"risk":29,"cat":"green"},{"name":"Ruddington Estates Social Club","lat":52.89692,"lon":-1.14485,"postcode":"NG11 6FX","la":"Rushcliffe","era":"mod","nn":403,"risk":32,"cat":"amber"},{"name":"Shepherds Restaurant","lat":52.93155,"lon":-1.05549,"postcode":"NG12 2JZ","la":"Rushcliffe","era":"other","nn":1820,"risk":64,"cat":"red"},{"name":"The Botanist","lat":52.93357,"lon":-1.12925,"postcode":"NG2 6AP","la":"Rushcliffe","era":"other","nn":8,"risk":29,"cat":"green"},{"name":"The Butter Cross","lat":52.95266,"lon":-0.95167,"postcode":"NG13 8AP","la":"Rushcliffe","era":"trad","nn":31,"risk":31,"cat":"amber"},{"name":"The Chestnut","lat":52.94647,"lon":-1.04431,"postcode":"NG12 2BE","la":"Rushcliffe","era":"other","nn":314,"risk":48,"cat":"amber"},{"name":"The Cranmer Arms","lat":52.95417,"lon":-0.89638,"postcode":"NG13 9AL","la":"Rushcliffe","era":"trad","nn":2967,"risk":72,"cat":"red"},{"name":"The Goose","lat":52.92714,"lon":-1.10375,"postcode":"NG2 6NA","la":"Rushcliffe","era":"other","nn":605,"risk":53,"cat":"amber"},{"name":"The Manvers Arms","lat":52.91208,"lon":-1.04222,"postcode":"NG12 3HS","la":"Rushcliffe","era":"trad","nn":2341,"risk":68,"cat":"red"},{"name":"The Marquis Of Granby","lat":52.91876,"lon":-0.88663,"postcode":"NG13 9PN","la":"Rushcliffe","era":"other","nn":2925,"risk":72,"cat":"red"},{"name":"The Meadow Covert","lat":52.91483,"lon":-1.1082,"postcode":"NG12 4AT","la":"Rushcliffe","era":"other","nn":1401,"risk":61,"cat":"red"},{"name":"The Nevile Arms \\\\& The Lazy Chef","lat":52.87342,"lon":-0.99123,"postcode":"NG12 3EH","la":"Rushcliffe","era":"trad","nn":2735,"risk":70,"cat":"red"},{"name":"The Parlour","lat":52.93364,"lon":-1.12931,"postcode":"NG2 6AP","la":"Rushcliffe","era":"mod","nn":8,"risk":29,"cat":"green"},{"name":"The Plough Inn","lat":52.84208,"lon":-1.1035,"postcode":"NG12 5QQ","la":"Rushcliffe","era":"trad","nn":2896,"risk":71,"cat":"red"},{"name":"The Royal Oak","lat":52.94625,"lon":-1.03965,"postcode":"NG12 2FD","la":"Rushcliffe","era":"trad","nn":127,"risk":47,"cat":"amber"},{"name":"The Royal Oak","lat":52.97773,"lon":-0.93072,"postcode":"NG13 8JE","la":"Rushcliffe","era":"trad","nn":2615,"risk":69,"cat":"red"},{"name":"The Ruddington Arms","lat":52.89484,"lon":-1.14977,"postcode":"NG11 6EQ","la":"Rushcliffe","era":"trad","nn":0,"risk":29,"cat":"green"},{"name":"The Salutation","lat":52.86964,"lon":-1.09032,"postcode":"NG12 5AD","la":"Rushcliffe","era":"other","nn":866,"risk":55,"cat":"amber"},{"name":"The Star  Gotham Ltd","lat":52.86943,"lon":-1.20423,"postcode":"NG11 0HG","la":"Rushcliffe","era":"other","nn":376,"risk":51,"cat":"amber"},{"name":"The Stratford Haven","lat":52.93124,"lon":-1.13022,"postcode":"NG2 6BA","la":"Rushcliffe","era":"other","nn":184,"risk":30,"cat":"green"},{"name":"The Sun Inn","lat":52.86605,"lon":-1.20417,"postcode":"NG11 0HX","la":"Rushcliffe","era":"trad","nn":376,"risk":51,"cat":"amber"},{"name":"The Test Match","lat":52.92877,"lon":-1.12532,"postcode":"NG2 5LP","la":"Rushcliffe","era":"other","nn":325,"risk":31,"cat":"amber"},{"name":"The Wheatsheaf","lat":52.95124,"lon":-0.95429,"postcode":"NG13 8BG","la":"Rushcliffe","era":"trad","nn":21,"risk":31,"cat":"amber"},{"name":"The White Horse Inn","lat":52.8916,"lon":-1.15138,"postcode":"NG11 6HD","la":"Rushcliffe","era":"trad","nn":156,"risk":30,"cat":"green"},{"name":"The White Lion","lat":52.95041,"lon":-0.96025,"postcode":"NG13 8AT","la":"Rushcliffe","era":"trad","nn":407,"risk":34,"cat":"amber"},{"name":"The Windmill","lat":52.87722,"lon":-1.08732,"postcode":"NG12 5GW","la":"Rushcliffe","era":"trad","nn":866,"risk":55,"cat":"amber"},{"name":"The Wolds","lat":52.92491,"lon":-1.13797,"postcode":"NG2 7HZ","la":"Rushcliffe","era":"other","nn":658,"risk":36,"cat":"amber"},{"name":"Trent Bridge Inn","lat":52.9372,"lon":-1.13418,"postcode":"NG2 6AA","la":"Rushcliffe","era":"trad","nn":88,"risk":29,"cat":"green"},{"name":"Victoria Tavern","lat":52.89484,"lon":-1.14977,"postcode":"NG11 6EQ","la":"Rushcliffe","era":"trad","nn":0,"risk":29,"cat":"green"},{"name":"West Bridgford Conservative Club","lat":52.92959,"lon":-1.12997,"postcode":"NG2 6BG","la":"Rushcliffe","era":"other","nn":184,"risk":30,"cat":"green"},{"name":"West Bridgford Lawn Tennis Club","lat":52.9308,"lon":-1.13889,"postcode":"NG2 7QA","la":"Rushcliffe","era":"other","nn":583,"risk":33,"cat":"amber"},{"name":"Yard Of Ale","lat":52.94645,"lon":-1.03778,"postcode":"NG12 2FF","la":"Rushcliffe","era":"mod","nn":127,"risk":47,"cat":"amber"},{"name":"Ancaster Sports & Social Club","lat":52.98357,"lon":-0.53579,"postcode":"NG32 3QJ","la":"South Kesteven","era":"mod","nn":679,"risk":51,"cat":"amber"},{"name":"Black Dog","lat":52.91383,"lon":-0.64362,"postcode":"NG31 6NS","la":"South Kesteven","era":"other","nn":54,"risk":26,"cat":"green"},{"name":"Buckminster Gliding Club Ltd","lat":52.82272,"lon":-0.67301,"postcode":"NG33 5HR","la":"South Kesteven","era":"other","nn":356,"risk":48,"cat":"amber"},{"name":"Cross Swords Inn","lat":52.82153,"lon":-0.66809,"postcode":"NG33 5HB","la":"South Kesteven","era":"trad","nn":356,"risk":48,"cat":"amber"},{"name":"Edwards","lat":52.91277,"lon":-0.64361,"postcode":"NG31 6LR","la":"South Kesteven","era":"other","nn":0,"risk":26,"cat":"green"},{"name":"Five Bells","lat":52.91655,"lon":-0.64115,"postcode":"NG31 6RY","la":"South Kesteven","era":"other","nn":163,"risk":27,"cat":"green"},{"name":"Five Bells","lat":53.03114,"lon":-0.72931,"postcode":"NG23 5BJ","la":"South Kesteven","era":"other","nn":3201,"risk":71,"cat":"red"},{"name":"Fox & Hounds","lat":52.8912,"lon":-0.57558,"postcode":"NG33 4AB","la":"South Kesteven","era":"trad","nn":3549,"risk":73,"cat":"red"},{"name":"Grantham Bowling Club","lat":52.90841,"lon":-0.63674,"postcode":"NG31 6HD","la":"South Kesteven","era":"other","nn":144,"risk":27,"cat":"green"},{"name":"Grantham Conservative Club","lat":52.91324,"lon":-0.64033,"postcode":"NG31 6SN","la":"South Kesteven","era":"other","nn":111,"risk":27,"cat":"green"},{"name":"Grantham Masonic Club Committee","lat":52.91687,"lon":-0.64352,"postcode":"NG31 8BL","la":"South Kesteven","era":"trad","nn":163,"risk":27,"cat":"green"},{"name":"Grantham Snooker & Pool Club","lat":52.91027,"lon":-0.64119,"postcode":"NG31 6QF","la":"South Kesteven","era":"other","nn":88,"risk":26,"cat":"green"},{"name":"Grantham Squash Club","lat":52.89825,"lon":-0.66217,"postcode":"NG31 7JX","la":"South Kesteven","era":"other","nn":90,"risk":47,"cat":"amber"},{"name":"Gravity","lat":52.91339,"lon":-0.64397,"postcode":"NG31 6LJ","la":"South Kesteven","era":"other","nn":54,"risk":26,"cat":"green"},{"name":"Green Man","lat":52.89613,"lon":-0.52331,"postcode":"NG33 4BE","la":"South Kesteven","era":"other","nn":3549,"risk":73,"cat":"red"},{"name":"Guildhall Arts Centre Bars and Kitchens","lat":52.91051,"lon":-0.63994,"postcode":"NG31 6PY","la":"South Kesteven","era":"mod","nn":49,"risk":26,"cat":"green"},{"name":"Hunter's Bar","lat":52.91391,"lon":-0.64567,"postcode":"NG31 6NZ","la":"South Kesteven","era":"other","nn":127,"risk":27,"cat":"green"},{"name":"Kings Arms","lat":52.91187,"lon":-0.64366,"postcode":"NG31 6LT","la":"South Kesteven","era":"trad","nn":40,"risk":26,"cat":"green"},{"name":"KlubHaus","lat":52.91302,"lon":-0.64257,"postcode":"NG31 6PN","la":"South Kesteven","era":"other","nn":75,"risk":26,"cat":"green"},{"name":"Lord Harrowby","lat":52.90703,"lon":-0.6337,"postcode":"NG31 9AB","la":"South Kesteven","era":"other","nn":255,"risk":28,"cat":"green"},{"name":"Miller & Carter Grantham","lat":52.91789,"lon":-0.66402,"postcode":"NG31 8SR","la":"South Kesteven","era":"trad","nn":942,"risk":52,"cat":"amber"},{"name":"Nobody Inn","lat":52.91506,"lon":-0.64447,"postcode":"NG31 6NU","la":"South Kesteven","era":"trad","nn":149,"risk":27,"cat":"green"},{"name":"Old Bank (inc. K Town Chicken, Chik Box, 88th Street, Value Mighty, S)","lat":52.91154,"lon":-0.64344,"postcode":"NG31 6NJ","la":"South Kesteven","era":"other","nn":40,"risk":26,"cat":"green"},{"name":"Robin Hood & Little John","lat":52.86146,"lon":-0.38523,"postcode":"NG34 0HL","la":"South Kesteven","era":"other","nn":2941,"risk":69,"cat":"red"},{"name":"Stoke Rochford Catering - Stoke Rochford Golf Club","lat":52.83887,"lon":-0.63017,"postcode":"NG33 5EW","la":"South Kesteven","era":"other","nn":3195,"risk":71,"cat":"red"},{"name":"Taboo","lat":52.91205,"lon":-0.64419,"postcode":"NG31 6LE","la":"South Kesteven","era":"other","nn":0,"risk":26,"cat":"green"},{"name":"The Angel Inn","lat":52.76449,"lon":-0.62774,"postcode":"NG33 5PJ","la":"South Kesteven","era":"trad","nn":235,"risk":48,"cat":"amber"},{"name":"The Apple Tap","lat":52.91205,"lon":-0.64419,"postcode":"NG31 6LE","la":"South Kesteven","era":"mod","nn":0,"risk":26,"cat":"green"},{"name":"The Beehive Inn","lat":52.91227,"lon":-0.64068,"postcode":"NG31 6SE","la":"South Kesteven","era":"trad","nn":111,"risk":27,"cat":"green"},{"name":"The Blue Cow","lat":52.76239,"lon":-0.62811,"postcode":"NG33 5QB","la":"South Kesteven","era":"other","nn":235,"risk":48,"cat":"amber"},{"name":"The Blue Pig Inn","lat":52.91385,"lon":-0.64238,"postcode":"NG31 6RQ","la":"South Kesteven","era":"trad","nn":83,"risk":26,"cat":"green"},{"name":"The Castle Inn","lat":52.75449,"lon":-0.53796,"postcode":"NG33 4RZ","la":"South Kesteven","era":"trad","nn":0,"risk":46,"cat":"amber"},{"name":"The Chequers","lat":52.91277,"lon":-0.64361,"postcode":"NG31 6LR","la":"South Kesteven","era":"other","nn":0,"risk":26,"cat":"green"},{"name":"The Chequers","lat":52.89806,"lon":-0.75628,"postcode":"NG32 1LU","la":"South Kesteven","era":"other","nn":1130,"risk":56,"cat":"amber"},{"name":"The Cholmeley Arms","lat":52.82164,"lon":-0.55001,"postcode":"NG33 4JS","la":"South Kesteven","era":"trad","nn":2252,"risk":64,"cat":"red"},{"name":"The Crown & Anchor","lat":52.9339,"lon":-0.55089,"postcode":"NG32 3LP","la":"South Kesteven","era":"trad","nn":2941,"risk":69,"cat":"red"},{"name":"The Dirty Duck","lat":52.90694,"lon":-0.74807,"postcode":"NG32 1NY","la":"South Kesteven","era":"other","nn":1130,"risk":56,"cat":"amber"},{"name":"The Farrier","lat":52.89787,"lon":-0.66099,"postcode":"NG31 7JT","la":"South Kesteven","era":"other","nn":90,"risk":47,"cat":"amber"},{"name":"The Fighting Cocks Inn","lat":52.81323,"lon":-0.51953,"postcode":"NG33 4NH","la":"South Kesteven","era":"trad","nn":326,"risk":48,"cat":"amber"},{"name":"The Fortescue Arms","lat":52.89283,"lon":-0.3417,"postcode":"NG34 0QB","la":"South Kesteven","era":"trad","nn":1133,"risk":56,"cat":"amber"},{"name":"The Fox","lat":52.76569,"lon":-0.61058,"postcode":"NG33 5LN","la":"South Kesteven","era":"trad","nn":1162,"risk":57,"cat":"amber"},{"name":"The Fox & Hounds","lat":52.75449,"lon":-0.53796,"postcode":"NG33 4RZ","la":"South Kesteven","era":"trad","nn":0,"risk":46,"cat":"amber"},{"name":"The Gregory Arms","lat":52.88802,"lon":-0.68758,"postcode":"NG32 1AD","la":"South Kesteven","era":"trad","nn":1814,"risk":61,"cat":"red"},{"name":"The Griffin Inn","lat":52.82932,"lon":-0.48005,"postcode":"NG33 4JG","la":"South Kesteven","era":"trad","nn":3200,"risk":71,"cat":"red"},{"name":"The Hare And Hounds","lat":53.04225,"lon":-0.58738,"postcode":"NG32 3JJ","la":"South Kesteven","era":"trad","nn":2192,"risk":64,"cat":"red"},{"name":"The Houblon Arms","lat":52.93936,"lon":-0.50796,"postcode":"NG32 3NB","la":"South Kesteven","era":"trad","nn":2941,"risk":69,"cat":"red"},{"name":"The New Inn","lat":52.88912,"lon":-0.41226,"postcode":"NG34 0SW","la":"South Kesteven","era":"trad","nn":3512,"risk":73,"cat":"red"},{"name":"The Old Ship Inn","lat":52.87288,"lon":-0.34203,"postcode":"NG34 0LX","la":"South Kesteven","era":"trad","nn":2218,"risk":64,"cat":"red"},{"name":"The Plough Inn","lat":52.90295,"lon":-0.33973,"postcode":"NG34 0PF","la":"South Kesteven","era":"trad","nn":1133,"risk":56,"cat":"amber"},{"name":"The Priory","lat":52.90973,"lon":-0.66025,"postcode":"NG31 7DX","la":"South Kesteven","era":"other","nn":942,"risk":52,"cat":"amber"},{"name":"The Railway Inn","lat":52.98945,"lon":-0.53305,"postcode":"NG32 3QN","la":"South Kesteven","era":"trad","nn":679,"risk":51,"cat":"amber"},{"name":"The Recruiting Sergeant","lat":52.93487,"lon":-0.66629,"postcode":"NG31 8JP","la":"South Kesteven","era":"other","nn":1894,"risk":62,"cat":"red"},{"name":"The Red Lion (Pub & Cafe)","lat":53.02477,"lon":-0.60255,"postcode":"NG32 3DN","la":"South Kesteven","era":"trad","nn":170,"risk":47,"cat":"amber"},{"name":"The Reindeer at Long Bennington","lat":52.98971,"lon":-0.75599,"postcode":"NG23 5EH","la":"South Kesteven","era":"other","nn":794,"risk":49,"cat":"amber"},{"name":"The Reindeer Inn","lat":52.90888,"lon":-0.63873,"postcode":"NG31 6EX","la":"South Kesteven","era":"trad","nn":144,"risk":27,"cat":"green"},{"name":"The Royal Oak","lat":52.99665,"lon":-0.75878,"postcode":"NG23 5DJ","la":"South Kesteven","era":"trad","nn":9,"risk":43,"cat":"amber"},{"name":"The Royal Oak","lat":52.79323,"lon":-0.53196,"postcode":"NG33 4LL","la":"South Kesteven","era":"trad","nn":2211,"risk":64,"cat":"red"},{"name":"The Royal Queen","lat":52.92294,"lon":-0.63014,"postcode":"NG31 9PH","la":"South Kesteven","era":"trad","nn":566,"risk":50,"cat":"amber"},{"name":"The Stag Inn","lat":52.96308,"lon":-0.61435,"postcode":"NG32 2NB","la":"South Kesteven","era":"trad","nn":4533,"risk":80,"cat":"red"},{"name":"The Three Gables","lat":52.91791,"lon":-0.62881,"postcode":"NG31 9BL","la":"South Kesteven","era":"other","nn":566,"risk":32,"cat":"amber"},{"name":"The Welby Arms","lat":52.95328,"lon":-0.72599,"postcode":"NG32 2EA","la":"South Kesteven","era":"trad","nn":4494,"risk":80,"cat":"red"},{"name":"The Welby Arms","lat":52.88385,"lon":-0.71372,"postcode":"NG32 1LG","la":"South Kesteven","era":"trad","nn":1814,"risk":61,"cat":"red"},{"name":"The Whistle Stop Micro Pub","lat":52.90695,"lon":-0.64343,"postcode":"NG31 6BT","la":"South Kesteven","era":"other","nn":382,"risk":29,"cat":"green"},{"name":"The White Lion","lat":52.90413,"lon":-0.63267,"postcode":"NG31 6JJ","la":"South Kesteven","era":"trad","nn":330,"risk":28,"cat":"green"},{"name":"The White Lion","lat":52.80718,"lon":-0.62055,"postcode":"NG33 5NE","la":"South Kesteven","era":"trad","nn":3571,"risk":73,"cat":"red"},{"name":"The White Swan","lat":52.91713,"lon":-0.69002,"postcode":"NG32 1BH","la":"South Kesteven","era":"trad","nn":1746,"risk":61,"cat":"red"},{"name":"The Woodhouse Arms","lat":52.81085,"lon":-0.51671,"postcode":"NG33 4NS","la":"South Kesteven","era":"other","nn":326,"risk":48,"cat":"amber"},{"name":"Thorold Arms","lat":52.98198,"lon":-0.67433,"postcode":"NG32 2HH","la":"South Kesteven","era":"trad","nn":4533,"risk":80,"cat":"red"},{"name":"Tollemache Inn","lat":52.91087,"lon":-0.6395,"postcode":"NG31 6PZ","la":"South Kesteven","era":"trad","nn":49,"risk":26,"cat":"green"},{"name":"Torsion Bar","lat":53.03461,"lon":-0.65084,"postcode":"NG32 2AY","la":"South Kesteven","era":"other","nn":3409,"risk":72,"cat":"red"},{"name":"Waggon & Horses Bar & Grill Limited","lat":53.02326,"lon":-0.60293,"postcode":"NG32 3DR","la":"South Kesteven","era":"other","nn":170,"risk":47,"cat":"amber"},{"name":"Whittakers Bar and Restaurant","lat":52.99673,"lon":-0.75876,"postcode":"NG23 5DJ","la":"South Kesteven","era":"mod","nn":9,"risk":43,"cat":"amber"}]