[{"name":"Balanco's Bar & Grill","lat":54.08411,"lon":-0.18808,"postcode":"YO15 2QE","la":"East Riding of Yorkshire","era":"mod","nn":29,"risk":17,"cat":"green"},{"name":"Barmston Beach Holiday Park","lat":54.01749,"lon":-0.21535,"postcode":"YO25 8PJ","la":"East Riding of Yorkshire","era":"trad","nn":718,"risk":41,"cat":"amber"},{"name":"Bay Horse","lat":53.8648,"lon":-0.66822,"postcode":"YO43 3AN","la":"East Riding of Yorkshire","era":"trad","nn":146,"risk":17,"cat":"green"},{"name":"Beacon Lodge","lat":53.93389,"lon":-0.77694,"postcode":"YO42 2HA","la":"East Riding of Yorkshire","era":"other","nn":168,"risk":18,"cat":"green"},{"name":"Benjamin Fawcett","lat":54.0073,"lon":-0.44086,"postcode":"YO25 6SW","la":"East Riding of Yorkshire","era":"other","nn":169,"risk":18,"cat":"green"},{"name":"Black Bull Inn","lat":54.01502,"lon":-0.2255,"postcode":"YO25 8PG","la":"East Riding of Yorkshire","era":"trad","nn":718,"risk":41,"cat":"amber"},{"name":"Black Horse","lat":53.94044,"lon":-0.18874,"postcode":"YO25 8DQ","la":"East Riding of Yorkshire","era":"trad","nn":1606,"risk":50,"cat":"amber"},{"name":"Black Lion","lat":54.09333,"lon":-0.20907,"postcode":"YO16 4PN","la":"East Riding of Yorkshire","era":"trad","nn":0,"risk":16,"cat":"green"},{"name":"Black Swan","lat":53.91227,"lon":-0.29787,"postcode":"YO25 8RG","la":"East Riding of Yorkshire","era":"trad","nn":273,"risk":23,"cat":"green"},{"name":"Black Swan","lat":53.82924,"lon":-0.85505,"postcode":"YO8 6PR","la":"East Riding of Yorkshire","era":"trad","nn":2270,"risk":55,"cat":"amber"},{"name":"Blacksmiths Arms","lat":53.83649,"lon":-0.76764,"postcode":"YO43 4AA","la":"East Riding of Yorkshire","era":"trad","nn":235,"risk":38,"cat":"amber"},{"name":"Boot And Shoe Inn","lat":53.85051,"lon":-0.93031,"postcode":"YO42 4PB","la":"East Riding of Yorkshire","era":"trad","nn":3233,"risk":62,"cat":"red"},{"name":"Bosville Arms Public House","lat":54.09508,"lon":-0.32664,"postcode":"YO25 4UB","la":"East Riding of Yorkshire","era":"trad","nn":4305,"risk":69,"cat":"red"},{"name":"Breighton Ferry","lat":53.79737,"lon":-0.92468,"postcode":"YO8 6DH","la":"East Riding of Yorkshire","era":"other","nn":2417,"risk":56,"cat":"amber"},{"name":"Bridbrewer and Taproom Limited","lat":54.08237,"lon":-0.1906,"postcode":"YO15 2DN","la":"East Riding of Yorkshire","era":"mod","nn":47,"risk":17,"cat":"green"},{"name":"Bridlington Golf Club(Bar)","lat":54.07218,"lon":-0.20592,"postcode":"YO15 3NA","la":"East Riding of Yorkshire","era":"other","nn":477,"risk":37,"cat":"amber"},{"name":"Bridlington Links Golf & Leisure Estate Limited","lat":54.10573,"lon":-0.1511,"postcode":"YO15 1DW","la":"East Riding of Yorkshire","era":"other","nn":1088,"risk":47,"cat":"amber"},{"name":"Bridlington Rugby Union Club","lat":54.13347,"lon":-1.31588,"postcode":"YO16 7LN","la":"East Riding of Yorkshire","era":"other","nn":0,"risk":16,"cat":"green"},{"name":"Bridlington Sports & Community","lat":54.08606,"lon":-0.19719,"postcode":"YO16 4LE","la":"East Riding of Yorkshire","era":"other","nn":210,"risk":18,"cat":"green"},{"name":"Bridlington Sports Centre","lat":54.09094,"lon":-0.21332,"postcode":"YO16 4AY","la":"East Riding of Yorkshire","era":"other","nn":384,"risk":19,"cat":"green"},{"name":"Bridlington Town A.F.C Ltd.","lat":54.13347,"lon":-1.31588,"postcode":"YO16 7LN","la":"East Riding of Yorkshire","era":"other","nn":0,"risk":16,"cat":"green"},{"name":"Brunswick Hotel","lat":54.08249,"lon":-0.19216,"postcode":"YO15 2SA","la":"East Riding of Yorkshire","era":"other","nn":102,"risk":17,"cat":"green"},{"name":"Bubwith Leisure Centre","lat":53.81836,"lon":-0.91401,"postcode":"YO8 6LX","la":"East Riding of Yorkshire","era":"other","nn":371,"risk":39,"cat":"amber"},{"name":"Buck Inn","lat":54.00511,"lon":-0.43964,"postcode":"YO25 6AP","la":"East Riding of Yorkshire","era":"trad","nn":0,"risk":16,"cat":"green"},{"name":"Builders Arms","lat":54.08493,"lon":-0.18809,"postcode":"YO15 2QU","la":"East Riding of Yorkshire","era":"trad","nn":0,"risk":16,"cat":"green"},{"name":"Bull & Sun","lat":54.09318,"lon":-0.2042,"postcode":"YO16 7JT","la":"East Riding of Yorkshire","era":"trad","nn":163,"risk":18,"cat":"green"},{"name":"Burton Arms","lat":54.1327,"lon":-0.34227,"postcode":"YO25 3PE","la":"East Riding of Yorkshire","era":"trad","nn":3652,"risk":65,"cat":"red"},{"name":"Carpenters Arms","lat":53.86188,"lon":-0.66378,"postcode":"YO43 3BQ","la":"East Riding of Yorkshire","era":"trad","nn":299,"risk":19,"cat":"green"},{"name":"Charlie's Bar","lat":53.93749,"lon":-0.34433,"postcode":"YO25 8NB","la":"East Riding of Yorkshire","era":"other","nn":3121,"risk":61,"cat":"red"},{"name":"Cocktail Revolution","lat":54.0835,"lon":-0.18789,"postcode":"YO15 2QD","la":"East Riding of Yorkshire","era":"other","nn":0,"risk":16,"cat":"green"},{"name":"Conservative Club","lat":54.08651,"lon":-0.18747,"postcode":"YO15 2ET","la":"East Riding of Yorkshire","era":"other","nn":180,"risk":18,"cat":"green"},{"name":"Cross Keys","lat":54.02262,"lon":-0.39278,"postcode":"YO25 4JW","la":"East Riding of Yorkshire","era":"trad","nn":0,"risk":34,"cat":"amber"},{"name":"Cue and Cushion","lat":54.08436,"lon":-0.18798,"postcode":"YO15 2QE","la":"East Riding of Yorkshire","era":"other","nn":29,"risk":17,"cat":"green"},{"name":"Dacre Arms","lat":53.91046,"lon":-0.30235,"postcode":"YO25 8RL","la":"East Riding of Yorkshire","era":"trad","nn":155,"risk":23,"cat":"green"},{"name":"Dacre Lakeside Park","lat":53.90706,"lon":-0.30419,"postcode":"YO25 8RT","la":"East Riding of Yorkshire","era":"other","nn":397,"risk":24,"cat":"green"},{"name":"Driffield Golf Club","lat":53.98557,"lon":-0.4505,"postcode":"YO25 9AD","la":"East Riding of Yorkshire","era":"other","nn":1061,"risk":46,"cat":"amber"},{"name":"Driffield Recreation Club","lat":54.00427,"lon":-0.44695,"postcode":"YO25 6TT","la":"East Riding of Yorkshire","era":"other","nn":240,"risk":18,"cat":"green"},{"name":"Driffield Rugby Club","lat":53.99493,"lon":-0.45365,"postcode":"YO25 9DW","la":"East Riding of Yorkshire","era":"other","nn":1061,"risk":46,"cat":"amber"},{"name":"Ferns Farm Hotel","lat":54.07272,"lon":-0.24864,"postcode":"YO16 4UJ","la":"East Riding of Yorkshire","era":"other","nn":2244,"risk":55,"cat":"amber"},{"name":"Fir Tree Park","lat":54.11401,"lon":-0.17619,"postcode":"YO16 6YG","la":"East Riding of Yorkshire","era":"other","nn":324,"risk":39,"cat":"amber"},{"name":"Flamborough Head Golf Club Bar","lat":54.1164,"lon":-0.08257,"postcode":"YO15 1AR","la":"East Riding of Yorkshire","era":"trad","nn":2138,"risk":54,"cat":"amber"},{"name":"Flamborough Victoria Club & Institute","lat":54.11734,"lon":-0.12444,"postcode":"YO15 1LH","la":"East Riding of Yorkshire","era":"trad","nn":94,"risk":20,"cat":"green"},{"name":"Fleece Inn","lat":53.98438,"lon":-0.78763,"postcode":"YO42 1RU","la":"East Riding of Yorkshire","era":"trad","nn":3566,"risk":64,"cat":"red"},{"name":"Forty One","lat":54.00589,"lon":-0.43987,"postcode":"YO25 6AN","la":"East Riding of Yorkshire","era":"other","nn":32,"risk":17,"cat":"green"},{"name":"Friendly Forester","lat":54.10099,"lon":-0.18521,"postcode":"YO16 6YS","la":"East Riding of Yorkshire","era":"other","nn":1266,"risk":48,"cat":"amber"},{"name":"G.O.A.T.","lat":54.08126,"lon":-0.18886,"postcode":"YO15 2NP","la":"East Riding of Yorkshire","era":"other","nn":0,"risk":16,"cat":"green"},{"name":"Gnu Inn","lat":53.81897,"lon":-0.61459,"postcode":"YO43 4SA","la":"East Riding of Yorkshire","era":"trad","nn":0,"risk":36,"cat":"amber"},{"name":"Gold Cup Inn","lat":53.97437,"lon":-0.92603,"postcode":"YO41 1EA","la":"East Riding of Yorkshire","era":"trad","nn":1404,"risk":49,"cat":"amber"},{"name":"Goodmanham Arms","lat":53.87698,"lon":-0.64672,"postcode":"YO43 3JA","la":"East Riding of Yorkshire","era":"trad","nn":1877,"risk":52,"cat":"amber"},{"name":"Gransmoor Lodge","lat":54.01544,"lon":-0.27089,"postcode":"YO25 8HY","la":"East Riding of Yorkshire","era":"other","nn":2966,"risk":60,"cat":"amber"},{"name":"Hainsworth Park Golf Club","lat":53.91017,"lon":-0.30003,"postcode":"YO25 8RX","la":"East Riding of Yorkshire","era":"other","nn":155,"risk":23,"cat":"green"},{"name":"Half Moon","lat":53.86416,"lon":-0.66626,"postcode":"YO43 3AQ","la":"East Riding of Yorkshire","era":"other","nn":0,"risk":16,"cat":"green"},{"name":"Hawthorn Bar","lat":54.11967,"lon":-0.20078,"postcode":"YO16 6XA","la":"East Riding of Yorkshire","era":"trad","nn":1721,"risk":51,"cat":"amber"},{"name":"Hilderthorpe Pub/ Fish and Chips Freehouse","lat":54.08212,"lon":-0.19361,"postcode":"YO15 3AY","la":"East Riding of Yorkshire","era":"other","nn":59,"risk":17,"cat":"green"},{"name":"Hook And Parrot","lat":54.08296,"lon":-0.18708,"postcode":"YO15 2PB","la":"East Riding of Yorkshire","era":"other","nn":81,"risk":17,"cat":"green"},{"name":"Hotham Arms","lat":53.79662,"lon":-0.64427,"postcode":"YO43 4UD","la":"East Riding of Yorkshire","era":"trad","nn":1644,"risk":50,"cat":"amber"},{"name":"JJs Cafe Pub and Wine Bar","lat":53.93164,"lon":-0.7778,"postcode":"YO42 2AE","la":"East Riding of Yorkshire","era":"other","nn":0,"risk":16,"cat":"green"},{"name":"Judsons Bar","lat":53.92982,"lon":-0.77958,"postcode":"YO42 2QW","la":"East Riding of Yorkshire","era":"other","nn":71,"risk":17,"cat":"green"},{"name":"Kilnwick Percy Resort & Golf Club","lat":53.94103,"lon":-0.74413,"postcode":"YO42 1UF","la":"East Riding of Yorkshire","era":"other","nn":1708,"risk":51,"cat":"amber"},{"name":"Londesborough Arms","lat":53.86433,"lon":-0.66568,"postcode":"YO43 3AH","la":"East Riding of Yorkshire","era":"trad","nn":0,"risk":16,"cat":"green"},{"name":"Lounge Bar","lat":54.08493,"lon":-0.18809,"postcode":"YO15 2QU","la":"East Riding of Yorkshire","era":"mod","nn":0,"risk":16,"cat":"green"},{"name":"Makis Leisure Limited","lat":54.06462,"lon":-0.21715,"postcode":"YO15 3QN","la":"East Riding of Yorkshire","era":"other","nn":973,"risk":43,"cat":"amber"},{"name":"Market Tavern","lat":53.96773,"lon":-0.20717,"postcode":"YO25 8SY","la":"East Riding of Yorkshire","era":"other","nn":0,"risk":36,"cat":"amber"},{"name":"Martonian  Inn","lat":54.1124,"lon":-0.17204,"postcode":"YO15 1DX","la":"East Riding of Yorkshire","era":"trad","nn":324,"risk":39,"cat":"amber"},{"name":"Masonic Hall","lat":54.08391,"lon":-0.2076,"postcode":"YO16 4NW","la":"East Riding of Yorkshire","era":"trad","nn":538,"risk":20,"cat":"green"},{"name":"Melbourne Arms","lat":53.88741,"lon":-0.8553,"postcode":"YO42 4QJ","la":"East Riding of Yorkshire","era":"trad","nn":4381,"risk":70,"cat":"red"},{"name":"Mishka Pub","lat":54.00185,"lon":-0.43227,"postcode":"YO25 6NX","la":"East Riding of Yorkshire","era":"other","nn":505,"risk":20,"cat":"green"},{"name":"Moon Tap (Brewery)","lat":54.08369,"lon":-0.19237,"postcode":"YO15 2AL","la":"East Riding of Yorkshire","era":"mod","nn":132,"risk":17,"cat":"green"},{"name":"Northcote Hotel","lat":54.08774,"lon":-0.18957,"postcode":"YO15 2EY","la":"East Riding of Yorkshire","era":"other","nn":194,"risk":18,"cat":"green"},{"name":"Original Keys","lat":54.00511,"lon":-0.43964,"postcode":"YO25 6AP","la":"East Riding of Yorkshire","era":"other","nn":0,"risk":16,"cat":"green"},{"name":"Pack Horse Inn","lat":54.09433,"lon":-0.21016,"postcode":"YO16 4QJ","la":"East Riding of Yorkshire","era":"trad","nn":132,"risk":17,"cat":"green"},{"name":"Pocklington Cricket Club","lat":53.92065,"lon":-0.76291,"postcode":"YO42 1UJ","la":"East Riding of Yorkshire","era":"other","nn":1047,"risk":46,"cat":"amber"},{"name":"Pocklington RUFC","lat":53.92984,"lon":-0.77277,"postcode":"YO42 2QB","la":"East Riding of Yorkshire","era":"other","nn":139,"risk":17,"cat":"green"},{"name":"Pocklington Sports Social Club","lat":53.92666,"lon":-0.77527,"postcode":"YO42 2NZ","la":"East Riding of Yorkshire","era":"mod","nn":253,"risk":18,"cat":"green"},{"name":"Prior John","lat":54.0835,"lon":-0.18789,"postcode":"YO15 2QD","la":"East Riding of Yorkshire","era":"other","nn":0,"risk":16,"cat":"green"},{"name":"Quay Leisure","lat":54.08449,"lon":-0.19387,"postcode":"YO15 2AB","la":"East Riding of Yorkshire","era":"other","nn":132,"risk":17,"cat":"green"},{"name":"Red Lion","lat":53.86433,"lon":-0.66568,"postcode":"YO43 3AH","la":"East Riding of Yorkshire","era":"trad","nn":0,"risk":16,"cat":"green"},{"name":"Robin Hood Inn","lat":53.93329,"lon":-0.55973,"postcode":"YO25 9UF","la":"East Riding of Yorkshire","era":"trad","nn":2799,"risk":59,"cat":"amber"},{"name":"Rose And Crown","lat":54.00805,"lon":-0.45905,"postcode":"YO25 5XA","la":"East Riding of Yorkshire","era":"trad","nn":896,"risk":40,"cat":"amber"},{"name":"Rose and Crown (Flamborough) Ltd","lat":54.1183,"lon":-0.1226,"postcode":"YO15 1JY","la":"East Riding of Yorkshire","era":"trad","nn":160,"risk":18,"cat":"green"},{"name":"Royal Dog And Duck Hotel","lat":54.11589,"lon":-0.12427,"postcode":"YO15 1NB","la":"East Riding of Yorkshire","era":"trad","nn":68,"risk":19,"cat":"green"},{"name":"Royal Oak","lat":54.00585,"lon":-0.44445,"postcode":"YO25 6TY","la":"East Riding of Yorkshire","era":"trad","nn":240,"risk":18,"cat":"green"},{"name":"Royal Yorkshire Yacht Club","lat":54.08096,"lon":-0.19527,"postcode":"YO15 3HX","la":"East Riding of Yorkshire","era":"trad","nn":149,"risk":17,"cat":"green"},{"name":"Seabirds Inn","lat":54.11507,"lon":-0.12452,"postcode":"YO15 1PD","la":"East Riding of Yorkshire","era":"trad","nn":93,"risk":20,"cat":"green"},{"name":"Skipsea Beach Social Club","lat":53.98707,"lon":-0.21101,"postcode":"YO25 8TY","la":"East Riding of Yorkshire","era":"mod","nn":374,"risk":39,"cat":"amber"},{"name":"Skipsea Sands Holiday Park","lat":53.98956,"lon":-0.20717,"postcode":"YO25 8TZ","la":"East Riding of Yorkshire","era":"other","nn":374,"risk":39,"cat":"amber"},{"name":"Sky Lounge Cocktail Bar","lat":53.86416,"lon":-0.66626,"postcode":"YO43 3AQ","la":"East Riding of Yorkshire","era":"mod","nn":0,"risk":16,"cat":"green"},{"name":"Southcliffe Hotel","lat":54.07986,"lon":-0.19655,"postcode":"YO15 3DA","la":"East Riding of Yorkshire","era":"other","nn":149,"risk":17,"cat":"green"},{"name":"Spread Eagle","lat":54.00606,"lon":-0.43798,"postcode":"YO25 6LJ","la":"East Riding of Yorkshire","era":"trad","nn":1,"risk":16,"cat":"green"},{"name":"St Vincent Arms","lat":53.91472,"lon":-0.92404,"postcode":"YO41 4BN","la":"East Riding of Yorkshire","era":"trad","nn":2086,"risk":54,"cat":"amber"},{"name":"Stamford Bridge Sports Club","lat":53.98606,"lon":-0.91789,"postcode":"YO41 1DZ","la":"East Riding of Yorkshire","era":"other","nn":310,"risk":24,"cat":"green"},{"name":"Stamford Bridge Sports Hall Association,   The Old Station Club","lat":53.98829,"lon":-0.91506,"postcode":"YO41 1DG","la":"East Riding of Yorkshire","era":"other","nn":310,"risk":24,"cat":"green"},{"name":"Stamfords","lat":53.93142,"lon":-0.77703,"postcode":"YO42 2JL","la":"East Riding of Yorkshire","era":"other","nn":56,"risk":17,"cat":"green"},{"name":"Star Inn","lat":53.95686,"lon":-0.57639,"postcode":"YO25 9UX","la":"East Riding of Yorkshire","era":"trad","nn":2838,"risk":59,"cat":"amber"},{"name":"Stewart Bowling Club","lat":53.92865,"lon":-0.7734,"postcode":"YO42 2QE","la":"East Riding of Yorkshire","era":"other","nn":139,"risk":17,"cat":"green"},{"name":"Stirling Castle","lat":54.08159,"lon":-0.19116,"postcode":"YO15 2SN","la":"East Riding of Yorkshire","era":"other","nn":61,"risk":17,"cat":"green"},{"name":"Telegraph Inn","lat":54.08626,"lon":-0.20039,"postcode":"YO16 4JB","la":"East Riding of Yorkshire","era":"trad","nn":210,"risk":18,"cat":"green"},{"name":"The Albion","lat":54.08257,"lon":-0.19409,"postcode":"YO15 3AZ","la":"East Riding of Yorkshire","era":"other","nn":59,"risk":17,"cat":"green"},{"name":"The Anvil Arms","lat":54.14206,"lon":-0.39601,"postcode":"YO25 3YL","la":"East Riding of Yorkshire","era":"trad","nn":3652,"risk":65,"cat":"red"},{"name":"The Apollo","lat":54.08126,"lon":-0.18886,"postcode":"YO15 2NP","la":"East Riding of Yorkshire","era":"other","nn":0,"risk":16,"cat":"green"},{"name":"The Bay Horse","lat":53.99149,"lon":-0.9115,"postcode":"YO41 1AB","la":"East Riding of Yorkshire","era":"trad","nn":425,"risk":24,"cat":"green"},{"name":"The Beaconsfield Arms","lat":54.08781,"lon":-0.18512,"postcode":"YO15 2HX","la":"East Riding of Yorkshire","era":"trad","nn":211,"risk":18,"cat":"green"},{"name":"The Black Bull","lat":53.93033,"lon":-0.77843,"postcode":"YO42 2AR","la":"East Riding of Yorkshire","era":"trad","nn":0,"risk":16,"cat":"green"},{"name":"The Black Horse - CLOSED","lat":53.85654,"lon":-0.81377,"postcode":"YO42 4LZ","la":"East Riding of Yorkshire","era":"trad","nn":3683,"risk":65,"cat":"red"},{"name":"The Black Swan","lat":53.93033,"lon":-0.77843,"postcode":"YO42 2AR","la":"East Riding of Yorkshire","era":"trad","nn":0,"risk":16,"cat":"green"},{"name":"The Blue Bell Inn","lat":54.01492,"lon":-0.39242,"postcode":"YO25 4LJ","la":"East Riding of Yorkshire","era":"trad","nn":856,"risk":40,"cat":"amber"},{"name":"The Blue Post","lat":53.96284,"lon":-0.32386,"postcode":"YO25 8LG","la":"East Riding of Yorkshire","era":"other","nn":3121,"risk":61,"cat":"red"},{"name":"The Board Inn","lat":54.0935,"lon":-0.2085,"postcode":"YO16 4QA","la":"East Riding of Yorkshire","era":"trad","nn":0,"risk":16,"cat":"green"},{"name":"The Board Inn","lat":53.97817,"lon":-0.21989,"postcode":"YO25 8SW","la":"East Riding of Yorkshire","era":"trad","nn":1147,"risk":47,"cat":"amber"},{"name":"The Boot and Slipper","lat":53.93205,"lon":-0.81593,"postcode":"YO42 4HH","la":"East Riding of Yorkshire","era":"other","nn":1340,"risk":48,"cat":"amber"},{"name":"The Butchers Dog","lat":54.00515,"lon":-0.4388,"postcode":"YO25 6AW","la":"East Riding of Yorkshire","era":"other","nn":55,"risk":17,"cat":"green"},{"name":"The Carpenters Arms","lat":53.96843,"lon":-0.83494,"postcode":"YO41 5QG","la":"East Riding of Yorkshire","era":"trad","nn":3566,"risk":64,"cat":"red"},{"name":"The Coachman","lat":54.08308,"lon":-0.19637,"postcode":"YO15 3BH","la":"East Riding of Yorkshire","era":"trad","nn":159,"risk":18,"cat":"green"},{"name":"The Crooked Tap Driffield","lat":54.00574,"lon":-0.4403,"postcode":"YO25 6AR","la":"East Riding of Yorkshire","era":"mod","nn":32,"risk":17,"cat":"green"},{"name":"The Cross Keys","lat":53.93164,"lon":-0.7778,"postcode":"YO42 2AE","la":"East Riding of Yorkshire","era":"trad","nn":0,"risk":16,"cat":"green"},{"name":"The Dog House","lat":54.08196,"lon":-0.19045,"postcode":"YO15 2DQ","la":"East Riding of Yorkshire","era":"other","nn":45,"risk":17,"cat":"green"},{"name":"The Full Measure","lat":54.00555,"lon":-0.44082,"postcode":"YO25 6TN","la":"East Riding of Yorkshire","era":"other","nn":40,"risk":17,"cat":"green"},{"name":"The Gait Inn","lat":53.9555,"lon":-0.73539,"postcode":"YO42 1TX","la":"East Riding of Yorkshire","era":"trad","nn":1708,"risk":51,"cat":"amber"},{"name":"The Garden","lat":54.08148,"lon":-0.18896,"postcode":"YO15 2NP","la":"East Riding of Yorkshire","era":"other","nn":25,"risk":17,"cat":"green"},{"name":"The George","lat":54.08133,"lon":-0.18838,"postcode":"YO15 2NP","la":"East Riding of Yorkshire","era":"trad","nn":32,"risk":17,"cat":"green"},{"name":"The Half Moon Inn","lat":53.9349,"lon":-0.90412,"postcode":"YO41 4DB","la":"East Riding of Yorkshire","era":"trad","nn":1802,"risk":52,"cat":"amber"},{"name":"The Harbour Tavern","lat":54.08158,"lon":-0.19018,"postcode":"YO15 2SH","la":"East Riding of Yorkshire","era":"other","nn":45,"risk":17,"cat":"green"},{"name":"The Lobster Pot","lat":54.07304,"lon":-0.21308,"postcode":"YO15 3NG","la":"East Riding of Yorkshire","era":"other","nn":477,"risk":37,"cat":"amber"},{"name":"The Manor Inn","lat":54.02117,"lon":-0.6656,"postcode":"YO25 9RT","la":"East Riding of Yorkshire","era":"trad","nn":3723,"risk":65,"cat":"red"},{"name":"The Market Tap","lat":53.93042,"lon":-0.77921,"postcode":"YO42 2AS","la":"East Riding of Yorkshire","era":"mod","nn":52,"risk":17,"cat":"green"},{"name":"The New Inn","lat":54.08178,"lon":-0.18902,"postcode":"YO15 2NW","la":"East Riding of Yorkshire","era":"trad","nn":26,"risk":17,"cat":"green"},{"name":"The Nut and Nettle","lat":54.09333,"lon":-0.20907,"postcode":"YO16 4PN","la":"East Riding of Yorkshire","era":"other","nn":0,"risk":16,"cat":"green"},{"name":"The Oaks Golf Club & Spa Limited","lat":53.84022,"lon":-0.88422,"postcode":"YO42 4PW","la":"East Riding of Yorkshire","era":"trad","nn":2270,"risk":55,"cat":"amber"},{"name":"The Oddfellows Arms","lat":53.94875,"lon":-0.88984,"postcode":"YO41 5NN","la":"East Riding of Yorkshire","era":"trad","nn":1802,"risk":52,"cat":"amber"},{"name":"The Old Ship Inn","lat":54.09172,"lon":-0.204,"postcode":"YO16 7JS","la":"East Riding of Yorkshire","era":"trad","nn":163,"risk":18,"cat":"green"},{"name":"The Old Star (Kilham) Ltd","lat":54.06408,"lon":-0.37561,"postcode":"YO25 4RG","la":"East Riding of Yorkshire","era":"other","nn":4700,"risk":72,"cat":"red"},{"name":"The Olde Globe Inn","lat":54.0935,"lon":-0.2085,"postcode":"YO16 4QA","la":"East Riding of Yorkshire","era":"trad","nn":0,"risk":16,"cat":"green"},{"name":"The Ship Inn","lat":54.10109,"lon":-0.16579,"postcode":"YO15 1EW","la":"East Riding of Yorkshire","era":"trad","nn":1088,"risk":47,"cat":"amber"},{"name":"The Ship Inn","lat":54.1165,"lon":-0.12424,"postcode":"YO15 1JS","la":"East Riding of Yorkshire","era":"trad","nn":68,"risk":19,"cat":"green"},{"name":"The Ship Inn","lat":54.08888,"lon":-0.45743,"postcode":"YO25 3TH","la":"East Riding of Yorkshire","era":"trad","nn":5957,"risk":74,"cat":"red"},{"name":"The Star Inn","lat":54.02262,"lon":-0.39278,"postcode":"YO25 4JW","la":"East Riding of Yorkshire","era":"trad","nn":0,"risk":34,"cat":"amber"},{"name":"The Star Inn","lat":54.00606,"lon":-0.43797,"postcode":"YO25 6LJ","la":"East Riding of Yorkshire","era":"trad","nn":1,"risk":16,"cat":"green"},{"name":"The Star Inn","lat":53.84214,"lon":-0.6323,"postcode":"YO43 4QP","la":"East Riding of Yorkshire","era":"trad","nn":2827,"risk":59,"cat":"amber"},{"name":"The Station Hotel","lat":53.9304,"lon":-0.78015,"postcode":"YO42 2AU","la":"East Riding of Yorkshire","era":"other","nn":62,"risk":17,"cat":"green"},{"name":"The Stumble Inn","lat":53.93244,"lon":-0.7762,"postcode":"YO42 2JJ","la":"East Riding of Yorkshire","era":"trad","nn":126,"risk":17,"cat":"green"},{"name":"The Three Brass Monkeys","lat":54.0819,"lon":-0.18868,"postcode":"YO15 2NW","la":"East Riding of Yorkshire","era":"trad","nn":26,"risk":17,"cat":"green"},{"name":"The Tiger Inn","lat":54.00478,"lon":-0.43817,"postcode":"YO25 6AW","la":"East Riding of Yorkshire","era":"trad","nn":58,"risk":17,"cat":"green"},{"name":"The Trout Inn","lat":53.98997,"lon":-0.37906,"postcode":"YO25 8NX","la":"East Riding of Yorkshire","era":"trad","nn":2909,"risk":59,"cat":"amber"},{"name":"The Viking Hotel","lat":54.12472,"lon":-0.11215,"postcode":"YO15 1BA","la":"East Riding of Yorkshire","era":"trad","nn":986,"risk":43,"cat":"amber"},{"name":"The White Horse","lat":53.95652,"lon":-0.43913,"postcode":"YO25 9QN","la":"East Riding of Yorkshire","era":"trad","nn":3314,"risk":62,"cat":"red"},{"name":"The White Horse Inn","lat":54.13171,"lon":-0.18022,"postcode":"YO15 1HB","la":"East Riding of Yorkshire","era":"trad","nn":1894,"risk":52,"cat":"amber"},{"name":"The White Swan","lat":53.8189,"lon":-0.91959,"postcode":"YO8 6LT","la":"East Riding of Yorkshire","era":"trad","nn":371,"risk":39,"cat":"amber"},{"name":"The Wolds Inn","lat":53.98387,"lon":-0.65665,"postcode":"YO42 1YH","la":"East Riding of Yorkshire","era":"trad","nn":4189,"risk":68,"cat":"red"},{"name":"The Yacht Club","lat":54.07859,"lon":-0.19876,"postcode":"YO15 3JJ","la":"East Riding of Yorkshire","era":"other","nn":201,"risk":18,"cat":"green"},{"name":"Three B's Micropub","lat":54.08415,"lon":-0.19014,"postcode":"YO15 2DS","la":"East Riding of Yorkshire","era":"other","nn":135,"risk":17,"cat":"green"},{"name":"Tiger Inn","lat":53.97265,"lon":-0.27549,"postcode":"YO25 8AS","la":"East Riding of Yorkshire","era":"trad","nn":3347,"risk":62,"cat":"red"},{"name":"Tiger Inn","lat":53.81897,"lon":-0.61459,"postcode":"YO43 4SA","la":"East Riding of Yorkshire","era":"trad","nn":0,"risk":36,"cat":"amber"},{"name":"Tow Bar Inn","lat":53.96773,"lon":-0.20717,"postcode":"YO25 8SY","la":"East Riding of Yorkshire","era":"other","nn":0,"risk":36,"cat":"amber"},{"name":"Triton Inn","lat":54.07133,"lon":-0.57442,"postcode":"YO25 3XQ","la":"East Riding of Yorkshire","era":"trad","nn":5836,"risk":74,"cat":"red"},{"name":"United Services Club & Institute","lat":53.93116,"lon":-0.77862,"postcode":"YO42 2AG","la":"East Riding of Yorkshire","era":"other","nn":76,"risk":17,"cat":"green"},{"name":"Victoria Inn","lat":54.01901,"lon":-0.58153,"postcode":"YO25 9XL","la":"East Riding of Yorkshire","era":"trad","nn":5497,"risk":74,"cat":"red"},{"name":"Victoria Sailors Working Mens Club","lat":54.08239,"lon":-0.18899,"postcode":"YO15 2NJ","la":"East Riding of Yorkshire","era":"trad","nn":58,"risk":17,"cat":"green"},{"name":"Wellington Inn","lat":53.91952,"lon":-0.52395,"postcode":"YO25 9TE","la":"East Riding of Yorkshire","era":"trad","nn":2733,"risk":58,"cat":"amber"},{"name":"Wolds Gliding Club","lat":53.92424,"lon":-0.80034,"postcode":"YO42 1NP","la":"East Riding of Yorkshire","era":"other","nn":1340,"risk":48,"cat":"amber"},{"name":"Ye Olde Red Lion","lat":53.83852,"lon":-0.76667,"postcode":"YO43 4AD","la":"East Riding of Yorkshire","era":"trad","nn":235,"risk":38,"cat":"amber"},{"name":"Yorkway Motel","lat":53.91246,"lon":-0.77079,"postcode":"YO42 2NX","la":"East Riding of Yorkshire","era":"other","nn":1047,"risk":46,"cat":"amber"},{"name":"Abbey Vaults","lat":53.78294,"lon":-1.06853,"postcode":"YO8 4PY","la":"North Yorkshire","era":"trad","nn":155,"risk":15,"cat":"green"},{"name":"Alne Cricket Club","lat":54.08244,"lon":-1.2375,"postcode":"YO61 1TB","la":"North Yorkshire","era":"other","nn":368,"risk":37,"cat":"amber"},{"name":"Arosa Camp Site Bar","lat":54.23314,"lon":-0.44549,"postcode":"YO12 4QB","la":"North Yorkshire","era":"other","nn":732,"risk":39,"cat":"amber"},{"name":"Ayton Sports Association","lat":54.24939,"lon":-0.48328,"postcode":"YO13 9HY","la":"North Yorkshire","era":"other","nn":149,"risk":33,"cat":"amber"},{"name":"Bacchus","lat":54.27392,"lon":-0.40321,"postcode":"YO11 2LN","la":"North Yorkshire","era":"other","nn":68,"risk":15,"cat":"green"},{"name":"Banks Lounge Bar","lat":54.20965,"lon":-0.28832,"postcode":"YO14 9DA","la":"North Yorkshire","era":"mod","nn":58,"risk":15,"cat":"green"},{"name":"Bar 2B","lat":54.28126,"lon":-0.39935,"postcode":"YO11 2EP","la":"North Yorkshire","era":"mod","nn":51,"risk":15,"cat":"green"},{"name":"Bar Complex","lat":54.21644,"lon":-0.29931,"postcode":"YO14 9NU","la":"North Yorkshire","era":"mod","nn":168,"risk":16,"cat":"green"},{"name":"Bay Horse","lat":54.00397,"lon":-1.29909,"postcode":"YO26 8BN","la":"North Yorkshire","era":"trad","nn":322,"risk":37,"cat":"amber"},{"name":"Bay Horse Hotel","lat":53.78536,"lon":-1.06807,"postcode":"YO8 4EA","la":"North Yorkshire","era":"trad","nn":46,"risk":15,"cat":"green"},{"name":"Bay Horse Inn","lat":54.246,"lon":-0.77749,"postcode":"YO18 7AA","la":"North Yorkshire","era":"trad","nn":7,"risk":17,"cat":"green"},{"name":"Bay Hotel","lat":54.43039,"lon":-0.53241,"postcode":"YO22 4SJ","la":"North Yorkshire","era":"other","nn":68,"risk":20,"cat":"green"},{"name":"Beer O'Clock","lat":54.4865,"lon":-0.6156,"postcode":"YO21 3BA","la":"North Yorkshire","era":"other","nn":0,"risk":14,"cat":"green"},{"name":"Birch Hall Inn","lat":54.40901,"lon":-0.7361,"postcode":"YO22 5LE","la":"North Yorkshire","era":"trad","nn":1616,"risk":48,"cat":"amber"},{"name":"Black Bull","lat":54.2332,"lon":-1.34204,"postcode":"YO7 1EY","la":"North Yorkshire","era":"trad","nn":31,"risk":15,"cat":"green"},{"name":"Black Bull Inn","lat":54.09401,"lon":-1.39512,"postcode":"YO51 9AR","la":"North Yorkshire","era":"trad","nn":250,"risk":36,"cat":"amber"},{"name":"Black Bull Inn","lat":54.22201,"lon":-0.77048,"postcode":"YO18 8EA","la":"North Yorkshire","era":"trad","nn":2291,"risk":53,"cat":"amber"},{"name":"Black Bull Inn","lat":54.48979,"lon":-0.77142,"postcode":"YO21 2BQ","la":"North Yorkshire","era":"trad","nn":1862,"risk":50,"cat":"amber"},{"name":"Black Horse","lat":54.48765,"lon":-0.61184,"postcode":"YO22 4BH","la":"North Yorkshire","era":"trad","nn":16,"risk":14,"cat":"green"},{"name":"Black Lion","lat":54.28331,"lon":-0.40137,"postcode":"YO11 1DF","la":"North Yorkshire","era":"trad","nn":0,"risk":14,"cat":"green"},{"name":"Black Swan","lat":54.26979,"lon":-0.932,"postcode":"YO62 6AA","la":"North Yorkshire","era":"trad","nn":104,"risk":35,"cat":"amber"},{"name":"Black Swan Inn","lat":53.81359,"lon":-1.1019,"postcode":"YO8 3UU","la":"North Yorkshire","era":"trad","nn":2810,"risk":56,"cat":"amber"},{"name":"Black Swan Inn","lat":54.1515,"lon":-1.41604,"postcode":"YO7 3JU","la":"North Yorkshire","era":"trad","nn":0,"risk":34,"cat":"amber"},{"name":"Blacksmiths Arms","lat":54.3362,"lon":-0.44893,"postcode":"YO13 0AE","la":"North Yorkshire","era":"trad","nn":0,"risk":19,"cat":"green"},{"name":"Blacksmiths Arms","lat":54.07738,"lon":-0.84749,"postcode":"YO60 7NE","la":"North Yorkshire","era":"trad","nn":2133,"risk":52,"cat":"amber"},{"name":"Blue Ball","lat":54.1378,"lon":-0.79995,"postcode":"YO17 7JF","la":"North Yorkshire","era":"other","nn":244,"risk":16,"cat":"green"},{"name":"Blue Bell Inn","lat":54.12406,"lon":-0.52635,"postcode":"YO17 8EX","la":"North Yorkshire","era":"trad","nn":5957,"risk":72,"cat":"red"},{"name":"Boat House Bar","lat":54.24017,"lon":-0.36635,"postcode":"YO11 3NJ","la":"North Yorkshire","era":"mod","nn":253,"risk":36,"cat":"amber"},{"name":"Bonhommes","lat":54.20611,"lon":-0.28681,"postcode":"YO14 9JH","la":"North Yorkshire","era":"other","nn":236,"risk":16,"cat":"green"},{"name":"Brigghouse","lat":54.23069,"lon":-0.32144,"postcode":"YO14 9PU","la":"North Yorkshire","era":"other","nn":0,"risk":17,"cat":"green"},{"name":"Bright Steels Social Club","lat":54.13152,"lon":-0.78604,"postcode":"YO17 9BA","la":"North Yorkshire","era":"mod","nn":103,"risk":15,"cat":"green"},{"name":"Bryherstones Inn","lat":54.34376,"lon":-0.44614,"postcode":"YO13 0AR","la":"North Yorkshire","era":"trad","nn":860,"risk":25,"cat":"green"},{"name":"Buck Inn","lat":54.26366,"lon":-0.82717,"postcode":"YO18 8PJ","la":"North Yorkshire","era":"trad","nn":3137,"risk":59,"cat":"amber"},{"name":"Byways Hotel","lat":54.24121,"lon":-0.41956,"postcode":"YO12 4LT","la":"North Yorkshire","era":"other","nn":1390,"risk":47,"cat":"amber"},{"name":"Castle Tavern","lat":54.28422,"lon":-0.40315,"postcode":"YO11 1BG","la":"North Yorkshire","era":"other","nn":74,"risk":15,"cat":"green"},{"name":"Cayton Playing Fields Association","lat":54.23228,"lon":-0.37703,"postcode":"YO11 3TG","la":"North Yorkshire","era":"other","nn":893,"risk":41,"cat":"amber"},{"name":"Cellars","lat":54.27516,"lon":-0.40803,"postcode":"YO11 2LX","la":"North Yorkshire","era":"other","nn":0,"risk":14,"cat":"green"},{"name":"Champers For Campers","lat":54.04542,"lon":-0.98902,"postcode":"YO60 7QZ","la":"North Yorkshire","era":"other","nn":2144,"risk":52,"cat":"amber"},{"name":"Chaplins Bar","lat":54.2832,"lon":-0.39981,"postcode":"YO11 1DR","la":"North Yorkshire","era":"other","nn":33,"risk":15,"cat":"green"},{"name":"Chapter Two Bar","lat":54.13524,"lon":-0.79991,"postcode":"YO17 7LP","la":"North Yorkshire","era":"other","nn":42,"risk":15,"cat":"green"},{"name":"Club Atomic","lat":53.78457,"lon":-1.0692,"postcode":"YO8 4DT","la":"North Yorkshire","era":"other","nn":22,"risk":14,"cat":"green"},{"name":"Cobblers Arms","lat":54.21023,"lon":-0.2889,"postcode":"YO14 9DZ","la":"North Yorkshire","era":"trad","nn":0,"risk":14,"cat":"green"},{"name":"Comus Inn","lat":53.72534,"lon":-1.02182,"postcode":"YO8 8HR","la":"North Yorkshire","era":"trad","nn":1940,"risk":50,"cat":"amber"},{"name":"Conservative Club","lat":54.20817,"lon":-0.28769,"postcode":"YO14 9HY","la":"North Yorkshire","era":"other","nn":111,"risk":15,"cat":"green"},{"name":"Craft","lat":54.28082,"lon":-0.4054,"postcode":"YO11 1JH","la":"North Yorkshire","era":"mod","nn":62,"risk":15,"cat":"green"},{"name":"Cross Keys","lat":54.03864,"lon":-0.71422,"postcode":"YO17 9TG","la":"North Yorkshire","era":"trad","nn":3723,"risk":63,"cat":"red"},{"name":"Cross Keys Inn","lat":54.23351,"lon":-1.34482,"postcode":"YO7 1PL","la":"North Yorkshire","era":"trad","nn":33,"risk":15,"cat":"green"},{"name":"Crown & Cushion","lat":54.10337,"lon":-0.90152,"postcode":"YO60 7DZ","la":"North Yorkshire","era":"trad","nn":2680,"risk":56,"cat":"amber"},{"name":"Crown Hotel","lat":54.09622,"lon":-1.39588,"postcode":"YO51 9LB","la":"North Yorkshire","era":"trad","nn":250,"risk":34,"cat":"amber"},{"name":"Crown Inn","lat":54.1515,"lon":-1.41604,"postcode":"YO7 3JU","la":"North Yorkshire","era":"trad","nn":0,"risk":34,"cat":"amber"},{"name":"Crown Inn","lat":53.7723,"lon":-0.98019,"postcode":"YO8 6QE","la":"North Yorkshire","era":"trad","nn":0,"risk":34,"cat":"amber"},{"name":"Crows Nest Bar","lat":54.23279,"lon":-0.33456,"postcode":"YO14 9PS","la":"North Yorkshire","era":"other","nn":884,"risk":23,"cat":"green"},{"name":"Denison Arms","lat":54.25012,"lon":-0.48135,"postcode":"YO13 9HL","la":"North Yorkshire","era":"trad","nn":149,"risk":33,"cat":"amber"},{"name":"Dog And Gun","lat":54.28607,"lon":-1.33625,"postcode":"YO7 4AZ","la":"North Yorkshire","era":"other","nn":1287,"risk":46,"cat":"amber"},{"name":"Duke Of Wellington","lat":54.47008,"lon":-0.90948,"postcode":"YO21 2LY","la":"North Yorkshire","era":"trad","nn":7555,"risk":72,"cat":"red"},{"name":"E Casino","lat":54.28273,"lon":-0.39871,"postcode":"YO11 1NA","la":"North Yorkshire","era":"other","nn":58,"risk":15,"cat":"green"},{"name":"Easingwold Cricket Club","lat":54.12314,"lon":-1.18963,"postcode":"YO61 3BG","la":"North Yorkshire","era":"other","nn":162,"risk":20,"cat":"green"},{"name":"Elsinore Hotel","lat":54.48683,"lon":-0.61547,"postcode":"YO21 3BB","la":"North Yorkshire","era":"other","nn":38,"risk":15,"cat":"green"},{"name":"Employees Welfare Club","lat":54.28557,"lon":-0.40803,"postcode":"YO12 7QS","la":"North Yorkshire","era":"other","nn":281,"risk":16,"cat":"green"},{"name":"Escrick & Deighton Club","lat":53.87731,"lon":-1.04297,"postcode":"YO19 6LQ","la":"North Yorkshire","era":"other","nn":1380,"risk":46,"cat":"amber"},{"name":"Fairfax Arms","lat":54.18423,"lon":-1.05899,"postcode":"YO62 4JH","la":"North Yorkshire","era":"trad","nn":2873,"risk":57,"cat":"amber"},{"name":"Fauconberg Arms","lat":54.18789,"lon":-1.18311,"postcode":"YO61 4AD","la":"North Yorkshire","era":"trad","nn":2941,"risk":57,"cat":"amber"},{"name":"Ferry Inn","lat":53.83365,"lon":-1.12915,"postcode":"YO8 3TL","la":"North Yorkshire","era":"trad","nn":116,"risk":35,"cat":"amber"},{"name":"Feversham Arms","lat":54.36469,"lon":-0.97334,"postcode":"YO62 7LF","la":"North Yorkshire","era":"trad","nn":7178,"risk":72,"cat":"red"},{"name":"Filey Community Sports Club","lat":54.21503,"lon":-0.30023,"postcode":"YO14 9NJ","la":"North Yorkshire","era":"other","nn":168,"risk":16,"cat":"green"},{"name":"Filey Golf Club (Bar)","lat":54.20025,"lon":-0.29014,"postcode":"YO14 9BQ","la":"North Yorkshire","era":"other","nn":686,"risk":22,"cat":"green"},{"name":"Filey Playing Fields Association","lat":54.20773,"lon":-0.29469,"postcode":"YO14 0AY","la":"North Yorkshire","era":"other","nn":349,"risk":17,"cat":"green"},{"name":"Filey Sailing Club","lat":54.13347,"lon":-1.31588,"postcode":"YO14 9LF","la":"North Yorkshire","era":"other","nn":0,"risk":14,"cat":"green"},{"name":"Filey Sports Bar","lat":54.21013,"lon":-0.29124,"postcode":"YO14 9AQ","la":"North Yorkshire","era":"other","nn":152,"risk":15,"cat":"green"},{"name":"First In Last Out","lat":54.48137,"lon":-0.61698,"postcode":"YO21 1PT","la":"North Yorkshire","era":"other","nn":403,"risk":17,"cat":"green"},{"name":"Fox And Hounds","lat":54.51929,"lon":-0.70588,"postcode":"YO21 3RX","la":"North Yorkshire","era":"trad","nn":3157,"risk":59,"cat":"amber"},{"name":"Fox And Hounds","lat":54.09969,"lon":-1.40738,"postcode":"YO51 9BZ","la":"North Yorkshire","era":"trad","nn":843,"risk":40,"cat":"amber"},{"name":"Fox And Pheasant","lat":53.7723,"lon":-0.98019,"postcode":"YO8 6QE","la":"North Yorkshire","era":"trad","nn":0,"risk":34,"cat":"amber"},{"name":"Foxhound Inn And Fisheries","lat":54.20182,"lon":-0.40671,"postcode":"YO11 3UB","la":"North Yorkshire","era":"trad","nn":3898,"risk":64,"cat":"red"},{"name":"Galaxy Bar","lat":54.23069,"lon":-0.32144,"postcode":"YO14 9PU","la":"North Yorkshire","era":"other","nn":0,"risk":17,"cat":"green"},{"name":"George Hotel","lat":54.4853,"lon":-0.61657,"postcode":"YO21 1BN","la":"North Yorkshire","era":"trad","nn":53,"risk":15,"cat":"green"},{"name":"Goathland Community Hub And Sports Pavilion","lat":54.40043,"lon":-0.71594,"postcode":"YO22 5LY","la":"North Yorkshire","era":"other","nn":1616,"risk":48,"cat":"amber"},{"name":"Golden Ball","lat":54.28421,"lon":-0.38828,"postcode":"YO11 1PG","la":"North Yorkshire","era":"other","nn":12,"risk":14,"cat":"green"},{"name":"Golden Last","lat":54.28358,"lon":-0.3958,"postcode":"YO11 1NW","la":"North Yorkshire","era":"other","nn":25,"risk":15,"cat":"green"},{"name":"Golden Lion","lat":54.12321,"lon":-1.32946,"postcode":"YO61 2NT","la":"North Yorkshire","era":"trad","nn":1444,"risk":47,"cat":"amber"},{"name":"Green Dragon","lat":54.4869,"lon":-0.61196,"postcode":"YO22 4BA","la":"North Yorkshire","era":"trad","nn":72,"risk":15,"cat":"green"},{"name":"Green Hammerton Social Club","lat":54.00612,"lon":-1.3024,"postcode":"YO26 8AE","la":"North Yorkshire","era":"mod","nn":322,"risk":37,"cat":"amber"},{"name":"Grosmont Crossing Club","lat":54.43579,"lon":-0.72538,"postcode":"YO22 5QE","la":"North Yorkshire","era":"trad","nn":2305,"risk":53,"cat":"amber"},{"name":"Grosvenor Hotel","lat":54.4351,"lon":-0.53602,"postcode":"YO22 4RA","la":"North Yorkshire","era":"other","nn":138,"risk":20,"cat":"green"},{"name":"Half Moon Inn","lat":54.04523,"lon":-0.80384,"postcode":"YO17 9RG","la":"North Yorkshire","era":"trad","nn":1363,"risk":46,"cat":"amber"},{"name":"Ham & Cheese","lat":54.14315,"lon":-0.72409,"postcode":"YO17 8DY","la":"North Yorkshire","era":"other","nn":2299,"risk":53,"cat":"amber"},{"name":"Harry's Lounge Bar And Brasserie","lat":54.48914,"lon":-0.61493,"postcode":"YO21 3PU","la":"North Yorkshire","era":"mod","nn":0,"risk":14,"cat":"green"},{"name":"Hart Inn","lat":54.50049,"lon":-0.66922,"postcode":"YO21 3SU","la":"North Yorkshire","era":"trad","nn":1278,"risk":46,"cat":"amber"},{"name":"Hawkwood Bar/Restaurant","lat":54.16563,"lon":-0.25453,"postcode":"YO14 9SH","la":"North Yorkshire","era":"other","nn":0,"risk":34,"cat":"amber"},{"name":"Hayburn Wyke Hotel","lat":54.35751,"lon":-0.45156,"postcode":"YO13 0AU","la":"North Yorkshire","era":"other","nn":1569,"risk":48,"cat":"amber"},{"name":"Highwayman Inn","lat":54.08883,"lon":-1.00752,"postcode":"YO60 6QZ","la":"North Yorkshire","era":"trad","nn":3724,"risk":63,"cat":"red"},{"name":"Home Guard Club","lat":54.28038,"lon":-0.40902,"postcode":"YO11 1SR","la":"North Yorkshire","era":"other","nn":160,"risk":15,"cat":"green"},{"name":"Honeypot Inn","lat":54.15449,"lon":-0.25522,"postcode":"YO14 9TA","la":"North Yorkshire","era":"trad","nn":1239,"risk":46,"cat":"amber"},{"name":"Horse Shoe Inn","lat":54.11844,"lon":-1.19068,"postcode":"YO61 3JB","la":"North Yorkshire","era":"trad","nn":427,"risk":22,"cat":"green"},{"name":"Indigo Alley","lat":54.28589,"lon":-0.40137,"postcode":"YO12 7PD","la":"North Yorkshire","era":"other","nn":140,"risk":15,"cat":"green"},{"name":"Jacobs Mount Caravan Park","lat":54.26879,"lon":-0.43254,"postcode":"YO12 5NL","la":"North Yorkshire","era":"other","nn":1206,"risk":45,"cat":"amber"},{"name":"Jet Bar   Bistro","lat":54.13347,"lon":-1.31588,"postcode":"YO22 4JX","la":"North Yorkshire","era":"mod","nn":0,"risk":14,"cat":"green"},{"name":"JK's Bar","lat":54.48538,"lon":-0.61536,"postcode":"YO21 1DY","la":"North Yorkshire","era":"other","nn":30,"risk":15,"cat":"green"},{"name":"Jolly Farmers Inn","lat":54.05743,"lon":-0.8017,"postcode":"YO17 9SA","la":"North Yorkshire","era":"trad","nn":1363,"risk":46,"cat":"amber"},{"name":"Jolly Sailor Inn","lat":53.8327,"lon":-1.1299,"postcode":"YO8 3SR","la":"North Yorkshire","era":"trad","nn":116,"risk":35,"cat":"amber"},{"name":"Jolly Sailors","lat":54.48718,"lon":-0.61439,"postcode":"YO21 3PW","la":"North Yorkshire","era":"other","nn":0,"risk":14,"cat":"green"},{"name":"L' Amour Cabaret Bar","lat":54.28058,"lon":-0.40426,"postcode":"YO11 1UN","la":"North Yorkshire","era":"other","nn":60,"risk":15,"cat":"green"},{"name":"Lady Ediths Holiday Park","lat":54.28052,"lon":-0.4501,"postcode":"YO12 5RJ","la":"North Yorkshire","era":"other","nn":799,"risk":40,"cat":"amber"},{"name":"Live Lounge & Show Bar","lat":54.18526,"lon":-0.28849,"postcode":"YO14 9RF","la":"North Yorkshire","era":"mod","nn":0,"risk":32,"cat":"amber"},{"name":"Lord Nelson","lat":54.28356,"lon":-0.39415,"postcode":"YO11 1PB","la":"North Yorkshire","era":"trad","nn":17,"risk":14,"cat":"green"},{"name":"Malton & Norton R U F C","lat":54.13997,"lon":-0.78845,"postcode":"YO17 7EY","la":"North Yorkshire","era":"other","nn":557,"risk":18,"cat":"green"},{"name":"Malton And Norton Golf Club","lat":54.12419,"lon":-0.79886,"postcode":"YO17 9QE","la":"North Yorkshire","era":"other","nn":1105,"risk":45,"cat":"amber"},{"name":"Marleys","lat":54.27598,"lon":-0.402,"postcode":"YO11 2BJ","la":"North Yorkshire","era":"other","nn":87,"risk":15,"cat":"green"},{"name":"Masonic Hall","lat":54.2809,"lon":-0.39886,"postcode":"YO11 2ES","la":"North Yorkshire","era":"trad","nn":51,"risk":15,"cat":"green"},{"name":"Mcginitys","lat":54.28465,"lon":-0.40097,"postcode":"YO11 1DU","la":"North Yorkshire","era":"other","nn":85,"risk":15,"cat":"green"},{"name":"Mecca Bingo","lat":54.28182,"lon":-0.40406,"postcode":"YO11 1XS","la":"North Yorkshire","era":"other","nn":62,"risk":15,"cat":"green"},{"name":"Middle Earth Tavern","lat":54.48331,"lon":-0.60946,"postcode":"YO22 4AE","la":"North Yorkshire","era":"other","nn":348,"risk":17,"cat":"green"},{"name":"Milton Rooms","lat":54.13528,"lon":-0.79878,"postcode":"YO17 7LX","la":"North Yorkshire","era":"mod","nn":74,"risk":15,"cat":"green"},{"name":"Moorcock Inn","lat":54.30841,"lon":-0.55866,"postcode":"YO13 0BN","la":"North Yorkshire","era":"trad","nn":6264,"risk":72,"cat":"red"},{"name":"Moors Inn","lat":54.28066,"lon":-0.87163,"postcode":"YO62 6TE","la":"North Yorkshire","era":"trad","nn":2284,"risk":53,"cat":"amber"},{"name":"Mowbray Arms","lat":54.2331,"lon":-1.3416,"postcode":"YO7 1ET","la":"North Yorkshire","era":"trad","nn":31,"risk":15,"cat":"green"},{"name":"Nelson Inn","lat":53.78295,"lon":-1.06029,"postcode":"YO8 8BL","la":"North Yorkshire","era":"trad","nn":0,"risk":14,"cat":"green"},{"name":"New Angel Hotel","lat":54.48574,"lon":-0.6143,"postcode":"YO21 1DH","la":"North Yorkshire","era":"trad","nn":19,"risk":14,"cat":"green"},{"name":"New Tavern","lat":54.2768,"lon":-0.41654,"postcode":"YO12 5EY","la":"North Yorkshire","era":"other","nn":114,"risk":15,"cat":"green"},{"name":"Newcastle Packet","lat":54.28422,"lon":-0.39123,"postcode":"YO11 1PE","la":"North Yorkshire","era":"other","nn":108,"risk":15,"cat":"green"},{"name":"Newlands Park Hotel","lat":54.29473,"lon":-0.4228,"postcode":"YO12 6DW","la":"North Yorkshire","era":"other","nn":716,"risk":22,"cat":"green"},{"name":"North Riding Hotel","lat":54.28975,"lon":-0.4048,"postcode":"YO12 7HU","la":"North Yorkshire","era":"other","nn":202,"risk":16,"cat":"green"},{"name":"Number Four Bar","lat":54.24594,"lon":-0.77752,"postcode":"YO18 7AA","la":"North Yorkshire","era":"other","nn":7,"risk":17,"cat":"green"},{"name":"Oasis Bar And Lounge","lat":54.23911,"lon":-0.36978,"postcode":"YO11 3NN","la":"North Yorkshire","era":"mod","nn":253,"risk":34,"cat":"amber"},{"name":"Old Scalby Mills","lat":54.30094,"lon":-0.41694,"postcode":"YO12 6RW","la":"North Yorkshire","era":"trad","nn":0,"risk":19,"cat":"green"},{"name":"Orlop Bar & Grill","lat":54.49087,"lon":-0.61462,"postcode":"YO21 3PU","la":"North Yorkshire","era":"mod","nn":193,"risk":16,"cat":"green"},{"name":"Owners Lounge","lat":54.23069,"lon":-0.32144,"postcode":"YO14 9PU","la":"North Yorkshire","era":"mod","nn":0,"risk":17,"cat":"green"},{"name":"Owners Lounge","lat":54.18526,"lon":-0.28849,"postcode":"YO14 9RF","la":"North Yorkshire","era":"mod","nn":0,"risk":32,"cat":"amber"},{"name":"Pickering Recreation Club","lat":54.24209,"lon":-0.77839,"postcode":"YO18 7DB","la":"North Yorkshire","era":"other","nn":432,"risk":20,"cat":"green"},{"name":"Pindar Leisure Centre","lat":54.23832,"lon":-0.39556,"postcode":"YO11 3LW","la":"North Yorkshire","era":"other","nn":1379,"risk":46,"cat":"amber"},{"name":"Plough Inn","lat":54.48603,"lon":-0.61454,"postcode":"YO21 1BW","la":"North Yorkshire","era":"trad","nn":36,"risk":15,"cat":"green"},{"name":"Plough Inn","lat":54.24719,"lon":-0.9745,"postcode":"YO62 7RW","la":"North Yorkshire","era":"trad","nn":1504,"risk":47,"cat":"amber"},{"name":"Prince Of Wales Inn","lat":54.28392,"lon":-0.40418,"postcode":"YO11 1XA","la":"North Yorkshire","era":"trad","nn":0,"risk":14,"cat":"green"},{"name":"Rack N Roll Sports Bar","lat":54.2829,"lon":-0.39988,"postcode":"YO11 1DW","la":"North Yorkshire","era":"other","nn":33,"risk":15,"cat":"green"},{"name":"Red Bear","lat":54.23292,"lon":-1.34319,"postcode":"YO7 1HA","la":"North Yorkshire","era":"other","nn":81,"risk":15,"cat":"green"},{"name":"Red Lion","lat":54.3362,"lon":-0.44893,"postcode":"YO13 0AE","la":"North Yorkshire","era":"trad","nn":0,"risk":19,"cat":"green"},{"name":"Red Lion Inn","lat":53.77076,"lon":-1.1648,"postcode":"YO8 9JL","la":"North Yorkshire","era":"trad","nn":2436,"risk":54,"cat":"amber"},{"name":"Red Lion Inn","lat":54.3362,"lon":-0.44893,"postcode":"YO13 0AE","la":"North Yorkshire","era":"trad","nn":0,"risk":19,"cat":"green"},{"name":"Resolution Hotel","lat":54.48738,"lon":-0.61733,"postcode":"YO21 3AH","la":"North Yorkshire","era":"other","nn":64,"risk":15,"cat":"green"},{"name":"Roscoe's Bar","lat":54.27927,"lon":-0.41113,"postcode":"YO12 7BY","la":"North Yorkshire","era":"other","nn":185,"risk":16,"cat":"green"},{"name":"Rose & Crown","lat":54.25337,"lon":-0.9951,"postcode":"YO62 7RD","la":"North Yorkshire","era":"trad","nn":1504,"risk":47,"cat":"amber"},{"name":"Rowing Club","lat":54.28362,"lon":-0.3939,"postcode":"YO11 1PB","la":"North Yorkshire","era":"other","nn":17,"risk":14,"cat":"green"},{"name":"Royal British Legion Club","lat":54.23322,"lon":-1.34478,"postcode":"YO7 1PL","la":"North Yorkshire","era":"trad","nn":33,"risk":15,"cat":"green"},{"name":"Royal Oak","lat":54.14261,"lon":-0.78118,"postcode":"YO17 7HB","la":"North Yorkshire","era":"trad","nn":425,"risk":35,"cat":"amber"},{"name":"Royal Oak Inn","lat":54.30123,"lon":-0.95307,"postcode":"YO62 7HX","la":"North Yorkshire","era":"trad","nn":2324,"risk":53,"cat":"amber"},{"name":"Sanctuary","lat":54.28224,"lon":-0.39903,"postcode":"YO11 2HF","la":"North Yorkshire","era":"other","nn":0,"risk":14,"cat":"green"},{"name":"Sands Showbar","lat":54.16563,"lon":-0.25453,"postcode":"YO14 9SH","la":"North Yorkshire","era":"other","nn":0,"risk":34,"cat":"amber"},{"name":"Scalby Manor Hotel","lat":54.30918,"lon":-0.42537,"postcode":"YO13 0DA","la":"North Yorkshire","era":"other","nn":1067,"risk":44,"cat":"amber"},{"name":"Scalm Park Leisure","lat":53.78934,"lon":-1.14519,"postcode":"YO8 3RD","la":"North Yorkshire","era":"other","nn":2436,"risk":54,"cat":"amber"},{"name":"Scarborough And District Contract Bridge Club","lat":54.27411,"lon":-0.40222,"postcode":"YO11 2QL","la":"North Yorkshire","era":"other","nn":22,"risk":14,"cat":"green"},{"name":"Scarborough Anglers Social Club","lat":54.28471,"lon":-0.39877,"postcode":"YO11 1HN","la":"North Yorkshire","era":"mod","nn":65,"risk":15,"cat":"green"},{"name":"Scarborough Arms","lat":54.2858,"lon":-0.3986,"postcode":"YO11 1HU","la":"North Yorkshire","era":"trad","nn":121,"risk":15,"cat":"green"},{"name":"Scarborough Club Institute","lat":54.27902,"lon":-0.40801,"postcode":"YO11 1TS","la":"North Yorkshire","era":"other","nn":72,"risk":15,"cat":"green"},{"name":"Scarborough Cricket Club","lat":54.28827,"lon":-0.40299,"postcode":"YO12 7TJ","la":"North Yorkshire","era":"other","nn":125,"risk":15,"cat":"green"},{"name":"Scarborough Flyer/Chik Box/K-Town Chicken/Locked & Loaded/88","lat":54.28224,"lon":-0.39903,"postcode":"YO11 2HF","la":"North Yorkshire","era":"other","nn":0,"risk":14,"cat":"green"},{"name":"Scarborough Railway Club","lat":54.27988,"lon":-0.40538,"postcode":"YO11 1TN","la":"North Yorkshire","era":"trad","nn":91,"risk":15,"cat":"green"},{"name":"Scarborough RUFC","lat":54.30983,"lon":-0.44522,"postcode":"YO13 0NL","la":"North Yorkshire","era":"other","nn":1053,"risk":44,"cat":"amber"},{"name":"Scarborough Snooker Centre","lat":54.28489,"lon":-0.39973,"postcode":"YO11 1HJ","la":"North Yorkshire","era":"other","nn":65,"risk":15,"cat":"green"},{"name":"Scarborough Sub Aqua Club","lat":54.28511,"lon":-0.38911,"postcode":"YO11 1QX","la":"North Yorkshire","era":"other","nn":104,"risk":15,"cat":"green"},{"name":"Scarborough Yacht Club","lat":54.28209,"lon":-0.38981,"postcode":"YO11 1PH","la":"North Yorkshire","era":"other","nn":255,"risk":16,"cat":"green"},{"name":"Scholars Bar","lat":54.27121,"lon":-0.39765,"postcode":"YO11 2PX","la":"North Yorkshire","era":"other","nn":290,"risk":16,"cat":"green"},{"name":"Seamer Sports Association","lat":54.23908,"lon":-0.44063,"postcode":"YO12 4QP","la":"North Yorkshire","era":"other","nn":732,"risk":39,"cat":"amber"},{"name":"Selby Bowling Club Ltd","lat":53.77082,"lon":-1.08163,"postcode":"YO8 9AX","la":"North Yorkshire","era":"other","nn":1592,"risk":48,"cat":"amber"},{"name":"Shish And Grill Thirsk Limited","lat":54.23198,"lon":-1.34382,"postcode":"YO7 1LB","la":"North Yorkshire","era":"other","nn":112,"risk":15,"cat":"green"},{"name":"Snooty Fox","lat":54.17836,"lon":-0.56512,"postcode":"YO17 8EN","la":"North Yorkshire","era":"trad","nn":6545,"risk":72,"cat":"red"},{"name":"Snowys","lat":54.28127,"lon":-0.40422,"postcode":"YO11 1XX","la":"North Yorkshire","era":"other","nn":24,"risk":14,"cat":"green"},{"name":"South Cliff Club","lat":54.27394,"lon":-0.40204,"postcode":"YO11 2QL","la":"North Yorkshire","era":"other","nn":22,"risk":14,"cat":"green"},{"name":"South Cliff Recreation Club","lat":54.27119,"lon":-0.40212,"postcode":"YO11 2SD","la":"North Yorkshire","era":"other","nn":290,"risk":16,"cat":"green"},{"name":"Stakesby Arms","lat":54.48497,"lon":-0.62788,"postcode":"YO21 1JH","la":"North Yorkshire","era":"trad","nn":346,"risk":17,"cat":"green"},{"name":"Starlight Bar (main Complex)","lat":54.23069,"lon":-0.32144,"postcode":"YO14 9PU","la":"North Yorkshire","era":"mod","nn":0,"risk":17,"cat":"green"},{"name":"Station Hotel","lat":54.21216,"lon":-0.28952,"postcode":"YO14 9ED","la":"North Yorkshire","era":"other","nn":219,"risk":16,"cat":"green"},{"name":"Stone Trough Inn","lat":54.08339,"lon":-0.87853,"postcode":"YO60 7JS","la":"North Yorkshire","era":"trad","nn":2133,"risk":52,"cat":"amber"},{"name":"Storm","lat":54.28029,"lon":-0.40301,"postcode":"YO11 2NP","la":"North Yorkshire","era":"other","nn":87,"risk":15,"cat":"green"},{"name":"Sun Inn","lat":54.24643,"lon":-0.78586,"postcode":"YO18 8BB","la":"North Yorkshire","era":"trad","nn":439,"risk":20,"cat":"green"},{"name":"Sun Inn","lat":54.28367,"lon":-0.39984,"postcode":"YO11 1DY","la":"North Yorkshire","era":"trad","nn":52,"risk":15,"cat":"green"},{"name":"Sun Inn","lat":54.22634,"lon":-0.87489,"postcode":"YO62 6RH","la":"North Yorkshire","era":"trad","nn":5181,"risk":72,"cat":"red"},{"name":"Taylor's Bar","lat":54.29306,"lon":-0.40767,"postcode":"YO12 7TP","la":"North Yorkshire","era":"other","nn":287,"risk":16,"cat":"green"},{"name":"The Albert Hotel","lat":54.28724,"lon":-0.40221,"postcode":"YO12 7PE","la":"North Yorkshire","era":"other","nn":125,"risk":15,"cat":"green"},{"name":"The Alma Inn","lat":54.28132,"lon":-0.40583,"postcode":"YO11 1SJ","la":"North Yorkshire","era":"trad","nn":62,"risk":15,"cat":"green"},{"name":"The Angel","lat":54.1225,"lon":-1.19186,"postcode":"YO61 3AA","la":"North Yorkshire","era":"trad","nn":84,"risk":20,"cat":"green"},{"name":"The Angel Inn","lat":54.28331,"lon":-0.40137,"postcode":"YO11 1DF","la":"North Yorkshire","era":"trad","nn":0,"risk":14,"cat":"green"},{"name":"The Anvil","lat":54.25211,"lon":-0.55514,"postcode":"YO13 9DY","la":"North Yorkshire","era":"other","nn":4169,"risk":66,"cat":"red"},{"name":"The Baize Lounge","lat":53.78396,"lon":-1.06574,"postcode":"YO8 4PU","la":"North Yorkshire","era":"mod","nn":121,"risk":15,"cat":"green"},{"name":"The Bay Horse Inn","lat":54.17054,"lon":-1.43602,"postcode":"YO7 3PX","la":"North Yorkshire","era":"trad","nn":2484,"risk":54,"cat":"amber"},{"name":"The Bay Tree Inn","lat":54.10272,"lon":-1.1085,"postcode":"YO61 1JU","la":"North Yorkshire","era":"trad","nn":58,"risk":35,"cat":"amber"},{"name":"The Beehive Inn","lat":54.48431,"lon":-0.66287,"postcode":"YO21 3QT","la":"North Yorkshire","era":"trad","nn":1072,"risk":44,"cat":"amber"},{"name":"The Black Swan","lat":54.48596,"lon":-0.61525,"postcode":"YO21 1BL","la":"North Yorkshire","era":"trad","nn":47,"risk":15,"cat":"green"},{"name":"The Blackamoor Head Hotel","lat":53.78429,"lon":-1.06912,"postcode":"YO8 4DS","la":"North Yorkshire","era":"trad","nn":20,"risk":14,"cat":"green"},{"name":"The Blacksmith Arms","lat":54.10102,"lon":-1.06241,"postcode":"YO61 1NW","la":"North Yorkshire","era":"trad","nn":2956,"risk":58,"cat":"amber"},{"name":"The Blacksmiths Arms","lat":54.03306,"lon":-1.22029,"postcode":"YO30 2BN","la":"North Yorkshire","era":"trad","nn":5605,"risk":72,"cat":"red"},{"name":"The Blue Bell Inn","lat":54.0825,"lon":-1.24313,"postcode":"YO61 1RR","la":"North Yorkshire","era":"trad","nn":368,"risk":37,"cat":"amber"},{"name":"The Board Inn","lat":54.48888,"lon":-0.61223,"postcode":"YO22 4DE","la":"North Yorkshire","era":"trad","nn":37,"risk":15,"cat":"green"},{"name":"The Boatmans Tavern","lat":54.29319,"lon":-0.41209,"postcode":"YO12 6PF","la":"North Yorkshire","era":"other","nn":287,"risk":16,"cat":"green"},{"name":"The Boot & Shoe","lat":53.96508,"lon":-1.28256,"postcode":"YO26 7PR","la":"North Yorkshire","era":"other","nn":4173,"risk":66,"cat":"red"},{"name":"The Brass Castle Brewery Taphouse","lat":54.13471,"lon":-0.7971,"postcode":"YO17 7AB","la":"North Yorkshire","era":"mod","nn":91,"risk":15,"cat":"green"},{"name":"The Bridge Inn","lat":54.47001,"lon":-0.62871,"postcode":"YO21 1NH","la":"North Yorkshire","era":"trad","nn":1473,"risk":47,"cat":"amber"},{"name":"The Buccaneer","lat":54.21023,"lon":-0.2889,"postcode":"YO14 9DZ","la":"North Yorkshire","era":"other","nn":0,"risk":14,"cat":"green"},{"name":"The Buck Inn","lat":54.48718,"lon":-0.61439,"postcode":"YO21 3PW","la":"North Yorkshire","era":"trad","nn":0,"risk":14,"cat":"green"},{"name":"The Carlton Inn","lat":54.18369,"lon":-1.2378,"postcode":"YO7 2BW","la":"North Yorkshire","era":"trad","nn":3589,"risk":62,"cat":"red"},{"name":"The Cask Inn","lat":54.2757,"lon":-0.40325,"postcode":"YO11 2LQ","la":"North Yorkshire","era":"trad","nn":87,"risk":15,"cat":"green"},{"name":"The Coach & Horses","lat":54.15891,"lon":-0.69247,"postcode":"YO17 8LH","la":"North Yorkshire","era":"trad","nn":405,"risk":37,"cat":"amber"},{"name":"The Commercial","lat":54.27702,"lon":-0.41384,"postcode":"YO12 5EG","la":"North Yorkshire","era":"other","nn":56,"risk":15,"cat":"green"},{"name":"The Commercial","lat":54.12206,"lon":-1.19291,"postcode":"YO61 3AN","la":"North Yorkshire","era":"other","nn":84,"risk":20,"cat":"green"},{"name":"The Cottage Inn","lat":54.18073,"lon":-0.32289,"postcode":"YO14 0JT","la":"North Yorkshire","era":"trad","nn":672,"risk":39,"cat":"amber"},{"name":"The Courtyard Bar","lat":54.2809,"lon":-0.40116,"postcode":"YO11 2NH","la":"North Yorkshire","era":"mod","nn":124,"risk":15,"cat":"green"},{"name":"The Crown","lat":54.30036,"lon":-0.91729,"postcode":"YO62 6UA","la":"North Yorkshire","era":"trad","nn":2324,"risk":53,"cat":"amber"},{"name":"The Crown & Anchor","lat":54.22348,"lon":-1.33856,"postcode":"YO7 1JN","la":"North Yorkshire","era":"trad","nn":849,"risk":40,"cat":"amber"},{"name":"The Derwent Arms","lat":54.13211,"lon":-0.78862,"postcode":"YO17 9HS","la":"North Yorkshire","era":"trad","nn":181,"risk":16,"cat":"green"},{"name":"The Duchess","lat":54.27915,"lon":-0.43802,"postcode":"YO12 5DT","la":"North Yorkshire","era":"other","nn":799,"risk":40,"cat":"amber"},{"name":"The Endeavour","lat":54.48634,"lon":-0.61076,"postcode":"YO22 4AS","la":"North Yorkshire","era":"other","nn":0,"risk":14,"cat":"green"},{"name":"The Firk Inn","lat":54.27656,"lon":-0.41425,"postcode":"YO12 5AZ","la":"North Yorkshire","era":"trad","nn":39,"risk":15,"cat":"green"},{"name":"The Fleece","lat":54.15671,"lon":-0.69743,"postcode":"YO17 8LN","la":"North Yorkshire","era":"trad","nn":405,"risk":37,"cat":"amber"},{"name":"The Fleece Inn","lat":54.48634,"lon":-0.61076,"postcode":"YO22 4AS","la":"North Yorkshire","era":"trad","nn":0,"risk":14,"cat":"green"},{"name":"The Forge","lat":54.46673,"lon":-0.675,"postcode":"YO21 1SW","la":"North Yorkshire","era":"trad","nn":2084,"risk":51,"cat":"amber"},{"name":"The Frankland Arms","lat":54.23338,"lon":-1.33729,"postcode":"YO7 1DF","la":"North Yorkshire","era":"trad","nn":281,"risk":16,"cat":"green"},{"name":"The Granby","lat":54.48788,"lon":-0.61783,"postcode":"YO21 3AJ","la":"North Yorkshire","era":"other","nn":64,"risk":15,"cat":"green"},{"name":"The Grapes","lat":54.23563,"lon":-0.62513,"postcode":"YO13 9PA","la":"North Yorkshire","era":"other","nn":4903,"risk":71,"cat":"red"},{"name":"The Grapes Inn","lat":54.16771,"lon":-0.93232,"postcode":"YO62 4AL","la":"North Yorkshire","era":"trad","nn":7431,"risk":72,"cat":"red"},{"name":"The Greyhound","lat":53.83421,"lon":-1.05794,"postcode":"YO19 6TE","la":"North Yorkshire","era":"trad","nn":3686,"risk":63,"cat":"red"},{"name":"The Greyhound","lat":54.2183,"lon":-1.28848,"postcode":"YO7 2PF","la":"North Yorkshire","era":"trad","nn":3306,"risk":60,"cat":"amber"},{"name":"The Griffin","lat":53.78523,"lon":-1.0674,"postcode":"YO8 4EQ","la":"North Yorkshire","era":"trad","nn":46,"risk":15,"cat":"green"},{"name":"The Huntsman","lat":53.72907,"lon":-0.97906,"postcode":"YO8 8NT","la":"North Yorkshire","era":"other","nn":2844,"risk":57,"cat":"amber"},{"name":"The Hyde Park","lat":54.13218,"lon":-0.78101,"postcode":"YO17 9JH","la":"North Yorkshire","era":"other","nn":276,"risk":19,"cat":"green"},{"name":"The Imperial Vaults","lat":54.20953,"lon":-0.28669,"postcode":"YO14 9DL","la":"North Yorkshire","era":"other","nn":95,"risk":15,"cat":"green"},{"name":"The Ivanhoe","lat":54.30094,"lon":-0.41694,"postcode":"YO12 6RW","la":"North Yorkshire","era":"other","nn":0,"risk":19,"cat":"green"},{"name":"The John Paul Jones","lat":54.17899,"lon":-0.28455,"postcode":"YO14 9GA","la":"North Yorkshire","era":"other","nn":743,"risk":37,"cat":"amber"},{"name":"The Laurel Inn","lat":54.43092,"lon":-0.53295,"postcode":"YO22 4SF","la":"North Yorkshire","era":"trad","nn":68,"risk":20,"cat":"green"},{"name":"The Little Angel","lat":54.4865,"lon":-0.6156,"postcode":"YO21 3BA","la":"North Yorkshire","era":"trad","nn":0,"risk":14,"cat":"green"},{"name":"The Lord Rosebery","lat":54.2811,"lon":-0.40446,"postcode":"YO11 1JW","la":"North Yorkshire","era":"other","nn":24,"risk":14,"cat":"green"},{"name":"The Malt Shovel","lat":53.78295,"lon":-1.06029,"postcode":"YO8 8BL","la":"North Yorkshire","era":"other","nn":0,"risk":14,"cat":"green"},{"name":"The Merchant","lat":54.28337,"lon":-0.39567,"postcode":"YO11 1NG","la":"North Yorkshire","era":"other","nn":0,"risk":14,"cat":"green"},{"name":"The Met Bar","lat":54.4902,"lon":-0.62537,"postcode":"YO21 3HU","la":"North Yorkshire","era":"other","nn":62,"risk":15,"cat":"green"},{"name":"The Nags Head","lat":54.30046,"lon":-0.44748,"postcode":"YO13 0PT","la":"North Yorkshire","era":"trad","nn":523,"risk":38,"cat":"amber"},{"name":"The New Globe","lat":54.13431,"lon":-0.79832,"postcode":"YO17 7AA","la":"North Yorkshire","era":"other","nn":91,"risk":15,"cat":"green"},{"name":"The New Inn","lat":53.78393,"lon":-1.07185,"postcode":"YO8 4ET","la":"North Yorkshire","era":"trad","nn":184,"risk":16,"cat":"green"},{"name":"The New Inn","lat":54.29071,"lon":-0.84094,"postcode":"YO18 8HH","la":"North Yorkshire","era":"trad","nn":2284,"risk":53,"cat":"amber"},{"name":"The New Inn","lat":54.09515,"lon":-1.27613,"postcode":"YO61 1SL","la":"North Yorkshire","era":"trad","nn":2572,"risk":55,"cat":"amber"},{"name":"The New Inn","lat":54.23587,"lon":-0.72229,"postcode":"YO18 7LF","la":"North Yorkshire","era":"trad","nn":3491,"risk":61,"cat":"red"},{"name":"The New Lancaster","lat":54.28426,"lon":-0.38845,"postcode":"YO11 1PG","la":"North Yorkshire","era":"other","nn":12,"risk":14,"cat":"green"},{"name":"The Penny Hedge","lat":54.47127,"lon":-0.60005,"postcode":"YO22 4NL","la":"North Yorkshire","era":"other","nn":1052,"risk":44,"cat":"amber"},{"name":"The Piebald Inn","lat":54.17705,"lon":-0.31471,"postcode":"YO14 0LT","la":"North Yorkshire","era":"trad","nn":672,"risk":39,"cat":"amber"},{"name":"The Pier Inn","lat":54.48914,"lon":-0.61493,"postcode":"YO21 3PU","la":"North Yorkshire","era":"trad","nn":0,"risk":14,"cat":"green"},{"name":"The Plough","lat":54.44877,"lon":-0.66577,"postcode":"YO22 5EN","la":"North Yorkshire","era":"trad","nn":2084,"risk":51,"cat":"amber"},{"name":"The Rose Inn","lat":54.24653,"lon":-0.7791,"postcode":"YO18 8DT","la":"North Yorkshire","era":"trad","nn":120,"risk":18,"cat":"green"},{"name":"The Rosette","lat":54.29676,"lon":-0.4425,"postcode":"YO12 5RY","la":"North Yorkshire","era":"other","nn":523,"risk":38,"cat":"amber"},{"name":"The Ship","lat":54.27744,"lon":-0.41243,"postcode":"YO12 5EA","la":"North Yorkshire","era":"trad","nn":103,"risk":15,"cat":"green"},{"name":"The Ship Inn","lat":54.48789,"lon":-0.61461,"postcode":"YO21 3PR","la":"North Yorkshire","era":"trad","nn":24,"risk":14,"cat":"green"},{"name":"The Ship Inn","lat":54.20102,"lon":-0.32157,"postcode":"YO14 0ER","la":"North Yorkshire","era":"trad","nn":1900,"risk":50,"cat":"amber"},{"name":"The Spa","lat":54.28205,"lon":-0.40632,"postcode":"YO11 1SH","la":"North Yorkshire","era":"other","nn":88,"risk":15,"cat":"green"},{"name":"The Spotted Cow","lat":54.13561,"lon":-0.80001,"postcode":"YO17 7JN","la":"North Yorkshire","era":"other","nn":42,"risk":15,"cat":"green"},{"name":"The Stapylton Arms","lat":54.20631,"lon":-1.15068,"postcode":"YO61 4BE","la":"North Yorkshire","era":"trad","nn":2941,"risk":57,"cat":"amber"},{"name":"The Star Inn","lat":54.48788,"lon":-0.61499,"postcode":"YO21 3PP","la":"North Yorkshire","era":"trad","nn":24,"risk":14,"cat":"green"},{"name":"The Station Inn","lat":54.48571,"lon":-0.61401,"postcode":"YO21 1DH","la":"North Yorkshire","era":"trad","nn":19,"risk":14,"cat":"green"},{"name":"The Stumble Inn","lat":54.27842,"lon":-0.40841,"postcode":"YO11 1TU","la":"North Yorkshire","era":"trad","nn":72,"risk":15,"cat":"green"},{"name":"The Tap And Spile","lat":54.27652,"lon":-0.41485,"postcode":"YO12 5AZ","la":"North Yorkshire","era":"mod","nn":39,"risk":15,"cat":"green"},{"name":"The Three Swans","lat":53.78502,"lon":-1.06617,"postcode":"YO8 4PL","la":"North Yorkshire","era":"trad","nn":85,"risk":15,"cat":"green"},{"name":"The Trafalgar","lat":54.28305,"lon":-0.40814,"postcode":"YO12 7AU","la":"North Yorkshire","era":"other","nn":162,"risk":15,"cat":"green"},{"name":"The Union Inn","lat":54.13232,"lon":-0.78524,"postcode":"YO17 9ES","la":"North Yorkshire","era":"trad","nn":103,"risk":15,"cat":"green"},{"name":"The Victoria","lat":53.9935,"lon":-1.32423,"postcode":"YO26 8EB","la":"North Yorkshire","era":"trad","nn":2001,"risk":51,"cat":"amber"},{"name":"The Victoria Hotel","lat":54.27979,"lon":-0.40676,"postcode":"YO11 1TP","la":"North Yorkshire","era":"trad","nn":91,"risk":15,"cat":"green"},{"name":"The Waiting Room","lat":54.48475,"lon":-0.61475,"postcode":"YO21 1YN","la":"North Yorkshire","era":"other","nn":80,"risk":15,"cat":"green"},{"name":"The Wheatsheaf Inn","lat":54.44761,"lon":-0.75467,"postcode":"YO21 1TZ","la":"North Yorkshire","era":"trad","nn":2305,"risk":53,"cat":"amber"},{"name":"The Wheatsheaf Inn","lat":54.29682,"lon":-1.34358,"postcode":"YO7 4QP","la":"North Yorkshire","era":"trad","nn":1287,"risk":46,"cat":"amber"},{"name":"The Whitby Way","lat":54.48547,"lon":-0.61581,"postcode":"YO21 1DY","la":"North Yorkshire","era":"other","nn":30,"risk":15,"cat":"green"},{"name":"The White Bear","lat":54.10252,"lon":-1.10767,"postcode":"YO61 1JU","la":"North Yorkshire","era":"other","nn":58,"risk":35,"cat":"amber"},{"name":"The Wild Swan","lat":54.07709,"lon":-1.40774,"postcode":"YO51 9JF","la":"North Yorkshire","era":"trad","nn":2054,"risk":51,"cat":"amber"},{"name":"The Windmill Inn","lat":54.46299,"lon":-0.59219,"postcode":"YO22 4NT","la":"North Yorkshire","era":"trad","nn":1052,"risk":44,"cat":"amber"},{"name":"Thirsk And Northallerton Golf Club","lat":54.25896,"lon":-1.35686,"postcode":"YO7 4AB","la":"North Yorkshire","era":"other","nn":2096,"risk":52,"cat":"amber"},{"name":"Thirsk And Sowerby Institute","lat":54.23062,"lon":-1.34315,"postcode":"YO7 1LY","la":"North Yorkshire","era":"other","nn":157,"risk":15,"cat":"green"},{"name":"Thirsk Lodge Barns","lat":54.24162,"lon":-1.36954,"postcode":"YO7 4DB","la":"North Yorkshire","era":"other","nn":1843,"risk":50,"cat":"amber"},{"name":"Thompson Arms","lat":54.06221,"lon":-0.97287,"postcode":"YO60 7PZ","la":"North Yorkshire","era":"trad","nn":2144,"risk":52,"cat":"amber"},{"name":"Three Cups Inn","lat":53.99261,"lon":-0.92382,"postcode":"YO41 1AX","la":"North Yorkshire","era":"trad","nn":748,"risk":25,"cat":"green"},{"name":"Three Jolly Sailors","lat":54.32321,"lon":-0.44754,"postcode":"YO13 0HH","la":"North Yorkshire","era":"other","nn":1447,"risk":47,"cat":"amber"},{"name":"Three Tuns Hotel","lat":54.20915,"lon":-0.28801,"postcode":"YO14 9DG","la":"North Yorkshire","era":"other","nn":58,"risk":15,"cat":"green"},{"name":"Turks Head","lat":54.28337,"lon":-0.39567,"postcode":"YO11 1NG","la":"North Yorkshire","era":"trad","nn":0,"risk":14,"cat":"green"},{"name":"Unicorn Inn","lat":53.79063,"lon":-1.07505,"postcode":"YO8 3LX","la":"North Yorkshire","era":"trad","nn":744,"risk":20,"cat":"green"},{"name":"Valley Bar","lat":54.27516,"lon":-0.40803,"postcode":"YO11 2LX","la":"North Yorkshire","era":"other","nn":0,"risk":14,"cat":"green"},{"name":"Victoria Hotel","lat":54.43426,"lon":-0.53446,"postcode":"YO22 4RL","la":"North Yorkshire","era":"trad","nn":138,"risk":20,"cat":"green"},{"name":"Weatherspoons","lat":54.23251,"lon":-1.34136,"postcode":"YO7 1LH","la":"North Yorkshire","era":"other","nn":67,"risk":15,"cat":"green"},{"name":"Wentworth Arms","lat":54.14575,"lon":-0.77748,"postcode":"YO17 7HD","la":"North Yorkshire","era":"trad","nn":425,"risk":35,"cat":"amber"},{"name":"West Riding","lat":54.28392,"lon":-0.40418,"postcode":"YO11 1XA","la":"North Yorkshire","era":"other","nn":0,"risk":14,"cat":"green"},{"name":"Westover S C Club","lat":54.27633,"lon":-0.41041,"postcode":"YO12 5AA","la":"North Yorkshire","era":"other","nn":180,"risk":16,"cat":"green"},{"name":"Whitby & District Rifle Club","lat":54.49037,"lon":-0.62446,"postcode":"YO21 3HT","la":"North Yorkshire","era":"other","nn":62,"risk":15,"cat":"green"},{"name":"Whitby Conservative Club","lat":54.48716,"lon":-0.62407,"postcode":"YO21 3DT","la":"North Yorkshire","era":"other","nn":330,"risk":17,"cat":"green"},{"name":"Whitby Fishermens Amateur Rowing Club","lat":54.48802,"lon":-0.6124,"postcode":"YO22 4DD","la":"North Yorkshire","era":"other","nn":55,"risk":15,"cat":"green"},{"name":"Whitby Fishermens Society Football Club","lat":54.48898,"lon":-0.61501,"postcode":"YO21 3QA","la":"North Yorkshire","era":"mod","nn":19,"risk":14,"cat":"green"},{"name":"Whitby Friendship Amateur Rowing Club","lat":54.48857,"lon":-0.61203,"postcode":"YO22 4DE","la":"North Yorkshire","era":"trad","nn":37,"risk":15,"cat":"green"},{"name":"Whitby Golf Club","lat":54.49269,"lon":-0.65469,"postcode":"YO21 3SR","la":"North Yorkshire","era":"other","nn":1072,"risk":44,"cat":"amber"},{"name":"Whitby Rufc","lat":54.48757,"lon":-0.6319,"postcode":"YO21 3PB","la":"North Yorkshire","era":"other","nn":296,"risk":16,"cat":"green"},{"name":"Whitby Town FC","lat":54.48902,"lon":-0.62805,"postcode":"YO21 3HZ","la":"North Yorkshire","era":"other","nn":0,"risk":14,"cat":"green"},{"name":"Whitby Town Football Club (Bar)","lat":54.48902,"lon":-0.62805,"postcode":"YO21 3HZ","la":"North Yorkshire","era":"other","nn":0,"risk":14,"cat":"green"},{"name":"Whitby Yacht Club","lat":54.48914,"lon":-0.61493,"postcode":"YO21 3PU","la":"North Yorkshire","era":"other","nn":0,"risk":14,"cat":"green"},{"name":"White Horse & Griffin","lat":54.48753,"lon":-0.61171,"postcode":"YO22 4BH","la":"North Yorkshire","era":"trad","nn":16,"risk":14,"cat":"green"},{"name":"White Swan","lat":54.26996,"lon":-0.93043,"postcode":"YO62 6AZ","la":"North Yorkshire","era":"trad","nn":104,"risk":35,"cat":"amber"},{"name":"Wilsons Pub","lat":54.2845,"lon":-0.39282,"postcode":"YO11 1QL","la":"North Yorkshire","era":"other","nn":108,"risk":15,"cat":"green"},{"name":"Windmill Hill At Ampleforth College","lat":54.20067,"lon":-1.09306,"postcode":"YO62 4HE","la":"North Yorkshire","era":"trad","nn":2873,"risk":57,"cat":"amber"},{"name":"Xanders","lat":54.27689,"lon":-0.41468,"postcode":"YO12 5EG","la":"North Yorkshire","era":"other","nn":42,"risk":15,"cat":"green"},{"name":"Ye Jolly Farmers","lat":54.18028,"lon":-1.3402,"postcode":"YO7 3HY","la":"North Yorkshire","era":"other","nn":3020,"risk":58,"cat":"amber"},{"name":"Ye Olde Forge Valley Inn","lat":54.24694,"lon":-0.49158,"postcode":"YO13 9JE","la":"North Yorkshire","era":"trad","nn":605,"risk":36,"cat":"amber"},{"name":"Yorkshire Paintball Centre","lat":53.85221,"lon":-0.98623,"postcode":"YO8 5SW","la":"North Yorkshire","era":"other","nn":3673,"risk":63,"cat":"red"},{"name":"Zuzu Lounge","lat":53.78444,"lon":-1.06894,"postcode":"YO8 4DS","la":"North Yorkshire","era":"mod","nn":20,"risk":14,"cat":"green"},{"name":"Acomb & District Conservative Club","lat":53.95441,"lon":-1.12694,"postcode":"YO24 3BZ","la":"York","era":"other","nn":0,"risk":22,"cat":"green"},{"name":"Acomb W.M.C & Institute","lat":53.95441,"lon":-1.12694,"postcode":"YO24 3BZ","la":"York","era":"other","nn":0,"risk":22,"cat":"green"},{"name":"Ainsty Ales","lat":53.89347,"lon":-1.11107,"postcode":"YO23 2TY","la":"York","era":"other","nn":1093,"risk":52,"cat":"amber"},{"name":"Artful Dodger","lat":53.95712,"lon":-1.08817,"postcode":"YO1 6LJ","la":"York","era":"other","nn":0,"risk":22,"cat":"green"},{"name":"Beeswing","lat":53.95404,"lon":-1.05633,"postcode":"YO10 3JP","la":"York","era":"other","nn":216,"risk":23,"cat":"green"},{"name":"Black Horse","lat":54.01979,"lon":-1.08418,"postcode":"YO32 2PJ","la":"York","era":"trad","nn":255,"risk":26,"cat":"green"},{"name":"Black Horse","lat":53.96427,"lon":-1.07632,"postcode":"YO31 7PB","la":"York","era":"trad","nn":55,"risk":22,"cat":"green"},{"name":"Blacksmiths Arms","lat":53.99578,"lon":-1.13335,"postcode":"YO30 1XW","la":"York","era":"trad","nn":1019,"risk":51,"cat":"amber"},{"name":"Blacksmiths Arms","lat":53.90237,"lon":-1.09101,"postcode":"YO19 4PN","la":"York","era":"trad","nn":819,"risk":48,"cat":"amber"},{"name":"Blacksmiths Arms","lat":53.99772,"lon":-1.05931,"postcode":"YO32 9RB","la":"York","era":"trad","nn":276,"risk":44,"cat":"amber"},{"name":"Blue Boar","lat":53.9573,"lon":-1.08075,"postcode":"YO1 9RN","la":"York","era":"other","nn":30,"risk":22,"cat":"green"},{"name":"Bohemian Bar","lat":53.95683,"lon":-1.07753,"postcode":"YO1 9PB","la":"York","era":"other","nn":0,"risk":22,"cat":"green"},{"name":"Bootham Tavern","lat":53.96327,"lon":-1.08575,"postcode":"YO30 7BW","la":"York","era":"other","nn":0,"risk":22,"cat":"green"},{"name":"Bora Bora","lat":53.96077,"lon":-1.08164,"postcode":"YO1 8AJ","la":"York","era":"other","nn":46,"risk":22,"cat":"green"},{"name":"Brew York Craft Brewery & Tap Room","lat":53.95746,"lon":-1.07637,"postcode":"YO1 9TT","la":"York","era":"mod","nn":104,"risk":23,"cat":"green"},{"name":"Brewdog","lat":53.95661,"lon":-1.09027,"postcode":"YO1 6JX","la":"York","era":"other","nn":0,"risk":22,"cat":"green"},{"name":"Brigadier Gerard","lat":53.96387,"lon":-1.07581,"postcode":"YO31 7PF","la":"York","era":"other","nn":55,"risk":22,"cat":"green"},{"name":"Brown Cow","lat":53.95492,"lon":-1.07353,"postcode":"YO10 4UR","la":"York","era":"other","nn":110,"risk":23,"cat":"green"},{"name":"Burnholme Social Club","lat":53.96503,"lon":-1.0502,"postcode":"YO31 0LL","la":"York","era":"mod","nn":378,"risk":42,"cat":"amber"},{"name":"Burns Hotel","lat":53.95874,"lon":-1.0819,"postcode":"YO1 8SL","la":"York","era":"other","nn":82,"risk":22,"cat":"green"},{"name":"Carlton Tavern","lat":53.95585,"lon":-1.11645,"postcode":"YO24 4HA","la":"York","era":"other","nn":429,"risk":25,"cat":"green"},{"name":"Castle Snooker and Pool Club","lat":53.9556,"lon":-1.081,"postcode":"YO1 9SA","la":"York","era":"other","nn":155,"risk":23,"cat":"green"},{"name":"Charles XII","lat":53.94472,"lon":-1.04461,"postcode":"YO10 5EA","la":"York","era":"other","nn":107,"risk":40,"cat":"amber"},{"name":"Chuandao Karaoke Bar","lat":53.95473,"lon":-1.06676,"postcode":"YO10 3BU","la":"York","era":"other","nn":148,"risk":23,"cat":"green"},{"name":"Club Salvation","lat":53.95777,"lon":-1.08854,"postcode":"YO1 6JP","la":"York","era":"other","nn":76,"risk":22,"cat":"green"},{"name":"Cock & Bottle","lat":53.95524,"lon":-1.08358,"postcode":"YO1 6DS","la":"York","era":"other","nn":91,"risk":22,"cat":"green"},{"name":"Cross Keys","lat":53.94074,"lon":-1.10651,"postcode":"YO24 1LQ","la":"York","era":"trad","nn":247,"risk":44,"cat":"amber"},{"name":"Cross Keys","lat":53.96123,"lon":-1.0801,"postcode":"YO1 7LF","la":"York","era":"trad","nn":0,"risk":22,"cat":"green"},{"name":"Crystal Palace","lat":53.95403,"lon":-1.09604,"postcode":"YO24 4AB","la":"York","era":"other","nn":99,"risk":23,"cat":"green"},{"name":"Deramore Arms","lat":53.94395,"lon":-1.04362,"postcode":"YO10 5EA","la":"York","era":"trad","nn":107,"risk":40,"cat":"amber"},{"name":"Derwent Arms","lat":53.95991,"lon":-1.03484,"postcode":"YO10 3NP","la":"York","era":"trad","nn":1154,"risk":52,"cat":"amber"},{"name":"Derwent College","lat":53.94843,"lon":-1.05356,"postcode":"YO10 5DD","la":"York","era":"other","nn":650,"risk":29,"cat":"green"},{"name":"Dick Turpin Inn","lat":53.93585,"lon":-1.12285,"postcode":"YO24 2RQ","la":"York","era":"trad","nn":810,"risk":47,"cat":"amber"},{"name":"Duke of York","lat":53.9583,"lon":-1.09304,"postcode":"YO24 1AY","la":"York","era":"trad","nn":0,"risk":22,"cat":"green"},{"name":"Duke of York","lat":53.96036,"lon":-1.08022,"postcode":"YO1 8BH","la":"York","era":"trad","nn":53,"risk":22,"cat":"green"},{"name":"Edinburgh Arms","lat":53.95282,"lon":-1.07581,"postcode":"YO10 4AE","la":"York","era":"trad","nn":66,"risk":22,"cat":"green"},{"name":"Elvington Brewery","lat":53.92603,"lon":-0.94947,"postcode":"YO41 4EL","la":"York","era":"other","nn":1018,"risk":51,"cat":"amber"},{"name":"Evil Eye Lounge","lat":53.96097,"lon":-1.08353,"postcode":"YO1 8AS","la":"York","era":"mod","nn":0,"risk":22,"cat":"green"},{"name":"Exhibition Hotel","lat":53.96327,"lon":-1.08575,"postcode":"YO30 7BW","la":"York","era":"other","nn":0,"risk":22,"cat":"green"},{"name":"Flares","lat":53.95862,"lon":-1.08666,"postcode":"YO1 6JB","la":"York","era":"other","nn":0,"risk":22,"cat":"green"},{"name":"Fossgate Social","lat":53.95835,"lon":-1.07836,"postcode":"YO1 9TA","la":"York","era":"mod","nn":0,"risk":22,"cat":"green"},{"name":"Fox & Roman","lat":53.93877,"lon":-1.10822,"postcode":"YO24 1LR","la":"York","era":"trad","nn":247,"risk":44,"cat":"amber"},{"name":"Fox Inn","lat":53.95483,"lon":-1.10468,"postcode":"YO24 4DQ","la":"York","era":"trad","nn":317,"risk":24,"cat":"green"},{"name":"Fulford District Conservative Club","lat":53.94976,"lon":-1.0743,"postcode":"YO10 4BD","la":"York","era":"other","nn":285,"risk":24,"cat":"green"},{"name":"Fulford Golf Club","lat":53.9391,"lon":-1.05848,"postcode":"YO10 5DY","la":"York","era":"other","nn":797,"risk":32,"cat":"amber"},{"name":"Fulfordgate Club & Institute","lat":53.93797,"lon":-1.07051,"postcode":"YO10 4HN","la":"York","era":"other","nn":180,"risk":28,"cat":"green"},{"name":"Golden Lion","lat":53.96021,"lon":-1.08099,"postcode":"YO1 8BG","la":"York","era":"trad","nn":42,"risk":22,"cat":"green"},{"name":"Guppy's Enterprise Club","lat":53.95404,"lon":-1.08796,"postcode":"YO23 1AB","la":"York","era":"other","nn":0,"risk":22,"cat":"green"},{"name":"Harkers","lat":53.9602,"lon":-1.08487,"postcode":"YO1 8QN","la":"York","era":"other","nn":53,"risk":22,"cat":"green"},{"name":"Haxby Sports Bar","lat":54.0172,"lon":-1.07647,"postcode":"YO32 3JP","la":"York","era":"other","nn":49,"risk":25,"cat":"green"},{"name":"Heworth and Bootham Conservative Club","lat":53.96486,"lon":-1.06643,"postcode":"YO31 7YJ","la":"York","era":"other","nn":243,"risk":24,"cat":"green"},{"name":"Hilt","lat":53.96114,"lon":-1.07972,"postcode":"YO1 7FX","la":"York","era":"other","nn":12,"risk":22,"cat":"green"},{"name":"Hogs Head","lat":53.98922,"lon":-1.06731,"postcode":"YO32 9PX","la":"York","era":"trad","nn":919,"risk":48,"cat":"amber"},{"name":"Hole In The Wall","lat":53.96245,"lon":-1.08438,"postcode":"YO1 7EH","la":"York","era":"other","nn":0,"risk":22,"cat":"green"},{"name":"Holgate W M C & Institute","lat":53.95451,"lon":-1.11014,"postcode":"YO24 4NT","la":"York","era":"other","nn":359,"risk":24,"cat":"green"},{"name":"House of Trembling Madness","lat":53.96097,"lon":-1.08353,"postcode":"YO1 8AS","la":"York","era":"mod","nn":0,"risk":22,"cat":"green"},{"name":"House of Trembling Madness Lendal","lat":53.96026,"lon":-1.08568,"postcode":"YO1 8AA","la":"York","era":"mod","nn":21,"risk":22,"cat":"green"},{"name":"Howl","lat":53.95743,"lon":-1.08115,"postcode":"YO1 9RN","la":"York","era":"other","nn":30,"risk":22,"cat":"green"},{"name":"Huntington & District WMC","lat":53.99537,"lon":-1.05793,"postcode":"YO32 9QS","la":"York","era":"other","nn":276,"risk":29,"cat":"green"},{"name":"Jalou","lat":53.95748,"lon":-1.08623,"postcode":"YO1 6JG","la":"York","era":"other","nn":77,"risk":22,"cat":"green"},{"name":"Kennedys","lat":53.96049,"lon":-1.08296,"postcode":"YO1 8AX","la":"York","era":"other","nn":0,"risk":22,"cat":"green"},{"name":"Keystones","lat":53.96276,"lon":-1.07805,"postcode":"YO31 7PE","la":"York","era":"other","nn":106,"risk":23,"cat":"green"},{"name":"King William","lat":53.9527,"lon":-1.1377,"postcode":"YO26 5DH","la":"York","era":"trad","nn":527,"risk":26,"cat":"green"},{"name":"Kings Arms","lat":53.95693,"lon":-1.08287,"postcode":"YO1 9SN","la":"York","era":"trad","nn":23,"risk":22,"cat":"green"},{"name":"Kuda","lat":53.95681,"lon":-1.08217,"postcode":"YO1 9RD","la":"York","era":"other","nn":0,"risk":22,"cat":"green"},{"name":"Lawrence St WMC","lat":53.95499,"lon":-1.06915,"postcode":"YO10 3BP","la":"York","era":"other","nn":0,"risk":22,"cat":"green"},{"name":"Leeman Hotel/Cafe Leemo","lat":53.96297,"lon":-1.10751,"postcode":"YO26 4YE","la":"York","era":"other","nn":476,"risk":25,"cat":"green"},{"name":"Lendal Cellars","lat":53.96031,"lon":-1.08598,"postcode":"YO1 8AA","la":"York","era":"other","nn":0,"risk":22,"cat":"green"},{"name":"Living Word Church","lat":53.97675,"lon":-1.07259,"postcode":"YO31 9BP","la":"York","era":"other","nn":621,"risk":46,"cat":"amber"},{"name":"Longboat","lat":53.95491,"lon":-1.09314,"postcode":"YO24 1AJ","la":"York","era":"other","nn":0,"risk":22,"cat":"green"},{"name":"Lower Derwent Sports & Social Club","lat":53.92441,"lon":-0.96477,"postcode":"YO41 4AU","la":"York","era":"mod","nn":1018,"risk":51,"cat":"amber"},{"name":"Lysander Arms","lat":53.98832,"lon":-1.11231,"postcode":"YO30 5TZ","la":"York","era":"trad","nn":650,"risk":31,"cat":"amber"},{"name":"Marcia Grey","lat":53.95496,"lon":-1.12665,"postcode":"YO24 3BW","la":"York","era":"other","nn":64,"risk":22,"cat":"green"},{"name":"Marcia Inn","lat":53.92161,"lon":-1.09711,"postcode":"YO23 2RA","la":"York","era":"trad","nn":44,"risk":40,"cat":"amber"},{"name":"Nags Head","lat":53.95661,"lon":-1.09027,"postcode":"YO1 6JX","la":"York","era":"trad","nn":0,"risk":22,"cat":"green"},{"name":"Nags Head","lat":53.92856,"lon":-1.16366,"postcode":"YO23 3QS","la":"York","era":"trad","nn":2186,"risk":60,"cat":"amber"},{"name":"New York Club & Institute","lat":53.95491,"lon":-1.09314,"postcode":"YO24 1AJ","la":"York","era":"other","nn":0,"risk":22,"cat":"green"},{"name":"North of England Clay Target Centre","lat":53.96409,"lon":-1.18252,"postcode":"YO23 3RR","la":"York","era":"other","nn":1838,"risk":57,"cat":"amber"},{"name":"Old Ebor Inn","lat":53.95277,"lon":-1.08566,"postcode":"YO23 1EQ","la":"York","era":"trad","nn":133,"risk":23,"cat":"green"},{"name":"O'Neill's","lat":53.95777,"lon":-1.08319,"postcode":"YO1 9QU","la":"York","era":"other","nn":0,"risk":22,"cat":"green"},{"name":"Pavement Vaults","lat":53.95802,"lon":-1.07992,"postcode":"YO1 9NU","la":"York","era":"other","nn":73,"risk":22,"cat":"green"},{"name":"Pear Tree Farm Pub Restaurant","lat":53.98955,"lon":-1.0477,"postcode":"YO32 9GZ","la":"York","era":"other","nn":931,"risk":48,"cat":"amber"},{"name":"Piccadilly Tap","lat":53.95683,"lon":-1.07753,"postcode":"YO1 9PB","la":"York","era":"mod","nn":0,"risk":22,"cat":"green"},{"name":"Pitcher & Piano","lat":53.95897,"lon":-1.08421,"postcode":"YO1 9QL","la":"York","era":"other","nn":0,"risk":22,"cat":"green"},{"name":"Plonkers Wine Bar","lat":53.95691,"lon":-1.08252,"postcode":"YO1 9SW","la":"York","era":"other","nn":0,"risk":22,"cat":"green"},{"name":"Poppleton Road Working Mens Club","lat":53.96155,"lon":-1.11437,"postcode":"YO26 4UP","la":"York","era":"trad","nn":446,"risk":25,"cat":"green"},{"name":"Popworld","lat":53.95809,"lon":-1.08733,"postcode":"YO1 6JL","la":"York","era":"other","nn":74,"risk":22,"cat":"green"},{"name":"Postern Gate","lat":53.9564,"lon":-1.07776,"postcode":"YO1 9NX","la":"York","era":"other","nn":50,"risk":22,"cat":"green"},{"name":"Private Bar","lat":53.95681,"lon":-1.08217,"postcode":"YO1 9RD","la":"York","era":"other","nn":0,"risk":22,"cat":"green"},{"name":"Quakerwood","lat":53.93885,"lon":-1.13412,"postcode":"YO24 3XN","la":"York","era":"other","nn":810,"risk":45,"cat":"amber"},{"name":"R A F Association","lat":53.96148,"lon":-1.07745,"postcode":"YO1 7BX","la":"York","era":"other","nn":145,"risk":23,"cat":"green"},{"name":"Red Lion","lat":54.01688,"lon":-1.07698,"postcode":"YO32 2HX","la":"York","era":"trad","nn":49,"risk":25,"cat":"green"},{"name":"Red Lion","lat":53.97562,"lon":-1.1624,"postcode":"YO26 6PR","la":"York","era":"trad","nn":701,"risk":44,"cat":"amber"},{"name":"Red Lion","lat":53.95738,"lon":-1.07824,"postcode":"YO1 9TU","la":"York","era":"trad","nn":78,"risk":22,"cat":"green"},{"name":"Revolution","lat":53.95897,"lon":-1.08421,"postcode":"YO1 9QL","la":"York","era":"other","nn":0,"risk":22,"cat":"green"},{"name":"Riverside Farm","lat":53.98942,"lon":-1.12212,"postcode":"YO30 1XJ","la":"York","era":"other","nn":653,"risk":44,"cat":"amber"},{"name":"Rook & Gaskill","lat":53.95443,"lon":-1.06897,"postcode":"YO10 3WP","la":"York","era":"other","nn":64,"risk":22,"cat":"green"},{"name":"Roots","lat":53.96249,"lon":-1.08955,"postcode":"YO30 7BH","la":"York","era":"other","nn":0,"risk":22,"cat":"green"},{"name":"Roxy Ball Room","lat":53.95925,"lon":-1.07872,"postcode":"YO1 7NP","la":"York","era":"other","nn":72,"risk":22,"cat":"green"},{"name":"Sea Horses Hotel","lat":53.95342,"lon":-1.07576,"postcode":"YO10 4AH","la":"York","era":"trad","nn":66,"risk":22,"cat":"green"},{"name":"Severus Social Club (Acomb)","lat":53.95424,"lon":-1.12242,"postcode":"YO24 4NJ","la":"York","era":"mod","nn":288,"risk":24,"cat":"green"},{"name":"Ship Inn","lat":54.03987,"lon":-1.03625,"postcode":"YO32 5XS","la":"York","era":"trad","nn":0,"risk":42,"cat":"amber"},{"name":"Ship Inn","lat":53.90223,"lon":-1.10351,"postcode":"YO23 2UH","la":"York","era":"trad","nn":819,"risk":48,"cat":"amber"},{"name":"Slip Inn","lat":53.95267,"lon":-1.08228,"postcode":"YO23 1AN","la":"York","era":"trad","nn":91,"risk":22,"cat":"green"},{"name":"Slug and Lettuce","lat":53.96049,"lon":-1.08227,"postcode":"YO1 8AD","la":"York","era":"other","nn":45,"risk":22,"cat":"green"},{"name":"Slug and Lettuce","lat":53.95777,"lon":-1.08319,"postcode":"YO1 9QU","la":"York","era":"other","nn":0,"risk":22,"cat":"green"},{"name":"Snickleways Inn","lat":53.96123,"lon":-1.07962,"postcode":"YO1 7LS","la":"York","era":"trad","nn":0,"risk":22,"cat":"green"},{"name":"Sotano Limited","lat":53.96049,"lon":-1.08296,"postcode":"YO1 8AX","la":"York","era":"other","nn":0,"risk":22,"cat":"green"},{"name":"South Bank Social Club","lat":53.94676,"lon":-1.09184,"postcode":"YO23 1DJ","la":"York","era":"mod","nn":135,"risk":23,"cat":"green"},{"name":"St Clements Sport and Social","lat":53.9449,"lon":-1.08919,"postcode":"YO23 1HH","la":"York","era":"mod","nn":270,"risk":24,"cat":"green"},{"name":"Stonegate Yard Bar & Brasserie","lat":53.96049,"lon":-1.08296,"postcode":"YO1 8AX","la":"York","era":"mod","nn":0,"risk":22,"cat":"green"},{"name":"Tang Hall W M C","lat":53.95453,"lon":-1.05952,"postcode":"YO10 3JN","la":"York","era":"other","nn":216,"risk":23,"cat":"green"},{"name":"The Ackhorne","lat":53.95694,"lon":-1.08738,"postcode":"YO1 6LN","la":"York","era":"other","nn":55,"risk":22,"cat":"green"},{"name":"The Ainsty","lat":53.96389,"lon":-1.11991,"postcode":"YO26 5SQ","la":"York","era":"other","nn":446,"risk":27,"cat":"green"},{"name":"The Bay Horse","lat":53.95421,"lon":-1.09308,"postcode":"YO24 1AZ","la":"York","era":"trad","nn":77,"risk":22,"cat":"green"},{"name":"The Beagle","lat":53.94489,"lon":-1.124,"postcode":"YO24 3PG","la":"York","era":"trad","nn":652,"risk":44,"cat":"amber"},{"name":"The Biltmore Bar & Grill","lat":53.96036,"lon":-1.08158,"postcode":"YO1 8AZ","la":"York","era":"mod","nn":0,"risk":22,"cat":"green"},{"name":"The Black Swan","lat":53.96042,"lon":-1.07502,"postcode":"YO1 7PR","la":"York","era":"trad","nn":198,"risk":23,"cat":"green"},{"name":"The Blue Bell","lat":53.95813,"lon":-1.07865,"postcode":"YO1 9TF","la":"York","era":"other","nn":0,"risk":22,"cat":"green"},{"name":"The Burton Stone Inn","lat":53.96791,"lon":-1.09373,"postcode":"YO30 6AW","la":"York","era":"trad","nn":352,"risk":24,"cat":"green"},{"name":"The Clifton Hotel","lat":53.97572,"lon":-1.0969,"postcode":"YO30 6PL","la":"York","era":"other","nn":862,"risk":45,"cat":"amber"},{"name":"The Clock House","lat":53.95063,"lon":-1.12197,"postcode":"YO24 3BA","la":"York","era":"other","nn":403,"risk":25,"cat":"green"},{"name":"The Corner Pin","lat":53.95862,"lon":-1.08666,"postcode":"YO1 6JB","la":"York","era":"other","nn":0,"risk":22,"cat":"green"},{"name":"The Cottage Inn","lat":54.0184,"lon":-1.08108,"postcode":"YO32 2JH","la":"York","era":"trad","nn":255,"risk":26,"cat":"green"},{"name":"The Crescent Community Venue","lat":53.95484,"lon":-1.09387,"postcode":"YO24 1AW","la":"York","era":"other","nn":49,"risk":22,"cat":"green"},{"name":"The Crooked Tap","lat":53.95591,"lon":-1.13178,"postcode":"YO26 5LL","la":"York","era":"mod","nn":96,"risk":22,"cat":"green"},{"name":"The Dormouse","lat":53.97682,"lon":-1.10994,"postcode":"YO30 5PA","la":"York","era":"other","nn":862,"risk":45,"cat":"amber"},{"name":"The Eagle and Child","lat":53.96237,"lon":-1.0847,"postcode":"YO1 7EN","la":"York","era":"trad","nn":0,"risk":22,"cat":"green"},{"name":"The Ebor Inn","lat":53.92122,"lon":-1.09695,"postcode":"YO23 2RB","la":"York","era":"trad","nn":0,"risk":39,"cat":"amber"},{"name":"The Fat Badger","lat":53.96245,"lon":-1.08438,"postcode":"YO1 7EH","la":"York","era":"other","nn":0,"risk":22,"cat":"green"},{"name":"The Flying Legends","lat":53.9905,"lon":-1.10202,"postcode":"YO30 4XY","la":"York","era":"other","nn":715,"risk":47,"cat":"amber"},{"name":"The Fossgate Tap","lat":53.95813,"lon":-1.07865,"postcode":"YO1 9TF","la":"York","era":"mod","nn":0,"risk":22,"cat":"green"},{"name":"The Fox","lat":53.99686,"lon":-0.99868,"postcode":"YO32 9UW","la":"York","era":"trad","nn":3306,"risk":67,"cat":"red"},{"name":"The Fulford Arms","lat":53.94722,"lon":-1.07367,"postcode":"YO10 4EX","la":"York","era":"trad","nn":251,"risk":24,"cat":"green"},{"name":"The Golden Ball Inn","lat":53.95452,"lon":-1.08424,"postcode":"YO1 6DU","la":"York","era":"trad","nn":91,"risk":22,"cat":"green"},{"name":"The Golden Fleece","lat":53.95873,"lon":-1.07939,"postcode":"YO1 9UP","la":"York","era":"trad","nn":72,"risk":22,"cat":"green"},{"name":"The Golden Slipper","lat":53.96218,"lon":-1.07934,"postcode":"YO1 7LG","la":"York","era":"other","nn":0,"risk":22,"cat":"green"},{"name":"The Green Tree","lat":53.96375,"lon":-1.13424,"postcode":"YO26 5PJ","la":"York","era":"other","nn":886,"risk":31,"cat":"amber"},{"name":"The Habit","lat":53.96123,"lon":-1.0801,"postcode":"YO1 7LF","la":"York","era":"other","nn":0,"risk":22,"cat":"green"},{"name":"The Half Moon Inn","lat":54.03987,"lon":-1.03625,"postcode":"YO32 5XS","la":"York","era":"trad","nn":0,"risk":42,"cat":"amber"},{"name":"The Heworth Inn","lat":53.96697,"lon":-1.06549,"postcode":"YO31 7TQ","la":"York","era":"trad","nn":243,"risk":24,"cat":"green"},{"name":"The Hop","lat":53.95835,"lon":-1.07836,"postcode":"YO1 9TA","la":"York","era":"other","nn":0,"risk":22,"cat":"green"},{"name":"The Inn on the Green","lat":53.95552,"lon":-1.13047,"postcode":"YO26 5LL","la":"York","era":"trad","nn":0,"risk":22,"cat":"green"},{"name":"The Knavesmire","lat":53.94586,"lon":-1.09323,"postcode":"YO23 1ER","la":"York","era":"other","nn":135,"risk":23,"cat":"green"},{"name":"The Last Drop Inn","lat":53.95996,"lon":-1.07968,"postcode":"YO1 8BN","la":"York","era":"trad","nn":50,"risk":22,"cat":"green"},{"name":"The Lord Collingwood","lat":53.97957,"lon":-1.15404,"postcode":"YO26 6DP","la":"York","era":"other","nn":115,"risk":28,"cat":"green"},{"name":"The Lord Nelson Inn","lat":53.98779,"lon":-1.14877,"postcode":"YO26 6HS","la":"York","era":"trad","nn":893,"risk":46,"cat":"amber"},{"name":"The Lowther","lat":53.95691,"lon":-1.08252,"postcode":"YO1 9SW","la":"York","era":"other","nn":0,"risk":22,"cat":"green"},{"name":"The Maltings","lat":53.95982,"lon":-1.08773,"postcode":"YO1 6HU","la":"York","era":"other","nn":127,"risk":23,"cat":"green"},{"name":"The Market Cat","lat":53.95927,"lon":-1.08102,"postcode":"YO1 8RT","la":"York","era":"other","nn":65,"risk":22,"cat":"green"},{"name":"The Masons Arms","lat":53.95353,"lon":-1.07693,"postcode":"YO10 4AB","la":"York","era":"trad","nn":78,"risk":22,"cat":"green"},{"name":"The Micklegate","lat":53.95621,"lon":-1.09019,"postcode":"YO1 6LB","la":"York","era":"other","nn":0,"risk":22,"cat":"green"},{"name":"The Millfield/Premier Inn","lat":53.9804,"lon":-1.13309,"postcode":"YO26 6RL","la":"York","era":"trad","nn":1079,"risk":52,"cat":"amber"},{"name":"The Minster Inn","lat":53.96249,"lon":-1.08955,"postcode":"YO30 7BH","la":"York","era":"trad","nn":0,"risk":22,"cat":"green"},{"name":"The Mitre","lat":53.98327,"lon":-1.11732,"postcode":"YO30 5XF","la":"York","era":"other","nn":650,"risk":31,"cat":"amber"},{"name":"The Mount Public House","lat":53.95367,"lon":-1.09466,"postcode":"YO24 1AR","la":"York","era":"other","nn":99,"risk":23,"cat":"green"},{"name":"The Nags Head","lat":53.96681,"lon":-1.0613,"postcode":"YO31 0AD","la":"York","era":"trad","nn":275,"risk":26,"cat":"green"},{"name":"The Old Bank","lat":53.96031,"lon":-1.08598,"postcode":"YO1 8AA","la":"York","era":"other","nn":0,"risk":22,"cat":"green"},{"name":"The Old White Swan","lat":53.96123,"lon":-1.0801,"postcode":"YO1 7LF","la":"York","era":"trad","nn":0,"risk":22,"cat":"green"},{"name":"The Phoenix","lat":53.95447,"lon":-1.07503,"postcode":"YO1 9PT","la":"York","era":"other","nn":110,"risk":23,"cat":"green"},{"name":"The Plough Inn","lat":53.93508,"lon":-1.07179,"postcode":"YO10 4PX","la":"York","era":"trad","nn":229,"risk":28,"cat":"green"},{"name":"The Potions Cauldron","lat":53.95955,"lon":-1.08003,"postcode":"YO1 7LZ","la":"York","era":"other","nn":50,"risk":22,"cat":"green"},{"name":"The Priory","lat":53.95621,"lon":-1.09019,"postcode":"YO1 6LB","la":"York","era":"other","nn":0,"risk":22,"cat":"green"},{"name":"The Punch Bowl","lat":53.95552,"lon":-1.09089,"postcode":"YO24 1AU","la":"York","era":"other","nn":89,"risk":22,"cat":"green"},{"name":"The Punch Bowl","lat":53.96783,"lon":-1.07948,"postcode":"YO31 7ND","la":"York","era":"other","nn":219,"risk":23,"cat":"green"},{"name":"The Punch Bowl","lat":53.96057,"lon":-1.08374,"postcode":"YO1 8AN","la":"York","era":"other","nn":47,"risk":22,"cat":"green"},{"name":"The Roman Bath","lat":53.95994,"lon":-1.08165,"postcode":"YO1 8RN","la":"York","era":"other","nn":0,"risk":22,"cat":"green"},{"name":"The Rose and Crown","lat":53.95499,"lon":-1.06915,"postcode":"YO10 3BP","la":"York","era":"trad","nn":0,"risk":22,"cat":"green"},{"name":"The Royal Oak","lat":53.96218,"lon":-1.07934,"postcode":"YO1 7LG","la":"York","era":"trad","nn":0,"risk":22,"cat":"green"},{"name":"The Royal Oak","lat":53.91369,"lon":-1.14184,"postcode":"YO23 3ST","la":"York","era":"trad","nn":2186,"risk":60,"cat":"amber"},{"name":"The Saddle Inn","lat":53.93706,"lon":-1.07278,"postcode":"YO10 4PJ","la":"York","era":"trad","nn":180,"risk":28,"cat":"green"},{"name":"The Stone Roses Bar","lat":53.95734,"lon":-1.0827,"postcode":"YO1 9SP","la":"York","era":"other","nn":46,"risk":22,"cat":"green"},{"name":"The Stonebow","lat":53.95835,"lon":-1.07836,"postcode":"YO1 9TA","la":"York","era":"other","nn":0,"risk":22,"cat":"green"},{"name":"The Sun Inn","lat":53.95552,"lon":-1.13047,"postcode":"YO26 5LL","la":"York","era":"trad","nn":0,"risk":22,"cat":"green"},{"name":"The Swan","lat":53.95284,"lon":-1.08363,"postcode":"YO23 1JH","la":"York","era":"trad","nn":91,"risk":22,"cat":"green"},{"name":"The Terrace","lat":53.95957,"lon":-1.08374,"postcode":"YO1 8RA","la":"York","era":"other","nn":73,"risk":22,"cat":"green"},{"name":"The Three Cranes","lat":53.95994,"lon":-1.08165,"postcode":"YO1 8RN","la":"York","era":"other","nn":0,"risk":22,"cat":"green"},{"name":"The Three Legged Mare","lat":53.96237,"lon":-1.0847,"postcode":"YO1 7EN","la":"York","era":"other","nn":0,"risk":22,"cat":"green"},{"name":"The Tiger Inn","lat":54.01629,"lon":-1.07424,"postcode":"YO32 3HS","la":"York","era":"trad","nn":177,"risk":26,"cat":"green"},{"name":"The Walnut Tree","lat":53.96731,"lon":-1.05447,"postcode":"YO31 1AN","la":"York","era":"other","nn":378,"risk":27,"cat":"green"},{"name":"The Wenlock Arms","lat":53.89626,"lon":-0.96323,"postcode":"YO19 6AA","la":"York","era":"trad","nn":3131,"risk":66,"cat":"red"},{"name":"The Whippet Inn","lat":53.95817,"lon":-1.08609,"postcode":"YO1 6JD","la":"York","era":"trad","nn":63,"risk":22,"cat":"green"},{"name":"The White Horse","lat":53.96329,"lon":-1.08636,"postcode":"YO30 7BL","la":"York","era":"trad","nn":40,"risk":22,"cat":"green"},{"name":"The White Swan","lat":53.88962,"lon":-1.04562,"postcode":"YO19 6HA","la":"York","era":"trad","nn":1380,"risk":54,"cat":"amber"},{"name":"The Windmill","lat":53.95491,"lon":-1.09314,"postcode":"YO24 1AJ","la":"York","era":"trad","nn":0,"risk":22,"cat":"green"},{"name":"The Winning Post","lat":53.94697,"lon":-1.08608,"postcode":"YO23 1NZ","la":"York","era":"trad","nn":307,"risk":24,"cat":"green"},{"name":"Three Tuns","lat":53.95773,"lon":-1.08092,"postcode":"YO1 9NR","la":"York","era":"other","nn":36,"risk":22,"cat":"green"},{"name":"Toby Carvery at Hopgrove","lat":53.98009,"lon":-1.04708,"postcode":"YO32 9TE","la":"York","era":"other","nn":1052,"risk":52,"cat":"amber"},{"name":"Vahebar","lat":53.96123,"lon":-1.07962,"postcode":"YO1 7LS","la":"York","era":"other","nn":0,"risk":22,"cat":"green"},{"name":"Valhalla (York) Ltd","lat":53.95983,"lon":-1.08077,"postcode":"YO1 8BB","la":"York","era":"other","nn":44,"risk":22,"cat":"green"},{"name":"Victoria Hotel","lat":53.95221,"lon":-1.07136,"postcode":"YO10 5AR","la":"York","era":"trad","nn":292,"risk":24,"cat":"green"},{"name":"Victoria Vaults","lat":53.95404,"lon":-1.08796,"postcode":"YO23 1AB","la":"York","era":"trad","nn":0,"risk":22,"cat":"green"},{"name":"Villa Farm","lat":54.00618,"lon":-1.09365,"postcode":"YO32 2RH","la":"York","era":"other","nn":1588,"risk":55,"cat":"amber"},{"name":"Volunteer Arms","lat":53.9546,"lon":-1.09985,"postcode":"YO24 4BH","la":"York","era":"trad","nn":257,"risk":24,"cat":"green"},{"name":"Vudu Lounge","lat":53.96036,"lon":-1.08158,"postcode":"YO1 8AZ","la":"York","era":"mod","nn":0,"risk":22,"cat":"green"},{"name":"Waggon & Horses","lat":53.95499,"lon":-1.06915,"postcode":"YO10 3BP","la":"York","era":"trad","nn":0,"risk":22,"cat":"green"},{"name":"Wellington Inn","lat":53.94733,"lon":-1.07751,"postcode":"YO10 4DL","la":"York","era":"trad","nn":251,"risk":24,"cat":"green"},{"name":"White Horse Pub and Dining","lat":53.98006,"lon":-1.15249,"postcode":"YO26 6DF","la":"York","era":"trad","nn":115,"risk":28,"cat":"green"},{"name":"Woodman Inn","lat":53.92122,"lon":-1.09695,"postcode":"YO23 2RB","la":"York","era":"trad","nn":0,"risk":39,"cat":"amber"},{"name":"Yates (also t/a Chik Box & K-Town Chicken)","lat":53.95788,"lon":-1.08302,"postcode":"YO1 9QT","la":"York","era":"other","nn":16,"risk":22,"cat":"green"},{"name":"Ye Olde Starre Inne","lat":53.96097,"lon":-1.08353,"postcode":"YO1 8AS","la":"York","era":"trad","nn":0,"risk":22,"cat":"green"},{"name":"Yemen Heaven","lat":53.95652,"lon":-1.07368,"postcode":"YO1 9TL","la":"York","era":"other","nn":178,"risk":23,"cat":"green"},{"name":"York Burton Lane C I U","lat":53.96727,"lon":-1.08845,"postcode":"YO30 7AH","la":"York","era":"other","nn":352,"risk":24,"cat":"green"},{"name":"York Clarence Club & Institute","lat":53.96716,"lon":-1.08263,"postcode":"YO31 7EL","la":"York","era":"other","nn":219,"risk":23,"cat":"green"},{"name":"York Hospital Sports & Social Club","lat":53.97166,"lon":-1.0765,"postcode":"YO31 8JR","la":"York","era":"mod","nn":469,"risk":25,"cat":"green"},{"name":"York St John Students Union","lat":53.9652,"lon":-1.08044,"postcode":"YO31 7EX","la":"York","era":"other","nn":260,"risk":24,"cat":"green"},{"name":"York Tap","lat":53.9583,"lon":-1.09304,"postcode":"YO24 1AB","la":"York","era":"mod","nn":0,"risk":22,"cat":"green"},{"name":"Ziggy's","lat":53.95712,"lon":-1.08817,"postcode":"YO1 6LJ","la":"York","era":"other","nn":0,"risk":22,"cat":"green"}]