[{"name":"Aberkenfig Conservative Club","lat":51.54223,"lon":-3.59871,"postcode":"CF32 9BG","la":"Bridgend","era":"other","nn":216,"risk":27,"cat":"green"},{"name":"Aberkenfig Social & Athletic Club","lat":51.53948,"lon":-3.59657,"postcode":"CF32 9AP","la":"Bridgend","era":"mod","nn":99,"risk":26,"cat":"green"},{"name":"Aloha Beach Bar","lat":51.47926,"lon":-3.67929,"postcode":"CF36 5NG","la":"Bridgend","era":"other","nn":0,"risk":31,"cat":"amber"},{"name":"Blaengarw Working Mens Club","lat":51.6263,"lon":-3.5907,"postcode":"CF32 8AW","la":"Bridgend","era":"trad","nn":215,"risk":45,"cat":"amber"},{"name":"Blaenllynfi Hotel","lat":51.63823,"lon":-3.64885,"postcode":"CF34 0PG","la":"Bridgend","era":"other","nn":0,"risk":26,"cat":"green"},{"name":"Bridgend & District United Servicemens' Club","lat":51.50736,"lon":-3.58119,"postcode":"CF31 4JA","la":"Bridgend","era":"other","nn":85,"risk":26,"cat":"green"},{"name":"Bridgend Athletic RFC","lat":51.50145,"lon":-3.57644,"postcode":"CF31 3HP","la":"Bridgend","era":"other","nn":57,"risk":26,"cat":"green"},{"name":"Bridgend Deaf Sports And Social Club","lat":51.5031,"lon":-3.56461,"postcode":"CF31 2AP","la":"Bridgend","era":"mod","nn":701,"risk":31,"cat":"amber"},{"name":"British Legion","lat":51.60741,"lon":-3.65825,"postcode":"CF34 9DL","la":"Bridgend","era":"other","nn":0,"risk":26,"cat":"green"},{"name":"Cabin Bar","lat":51.47892,"lon":-3.69616,"postcode":"CF36 5BY","la":"Bridgend","era":"other","nn":291,"risk":28,"cat":"green"},{"name":"Cabo Roche","lat":51.50153,"lon":-3.57563,"postcode":"CF31 3HW","la":"Bridgend","era":"other","nn":57,"risk":26,"cat":"green"},{"name":"Caerau Imperial Unionist Club","lat":51.63597,"lon":-3.65527,"postcode":"CF34 0YS","la":"Bridgend","era":"other","nn":194,"risk":30,"cat":"green"},{"name":"Cefn Cribwr Sports & Social Club","lat":51.53172,"lon":-3.6535,"postcode":"CF32 0AY","la":"Bridgend","era":"mod","nn":1658,"risk":60,"cat":"amber"},{"name":"Chatterton Arms","lat":51.52408,"lon":-3.50048,"postcode":"CF35 5NW","la":"Bridgend","era":"trad","nn":44,"risk":31,"cat":"amber"},{"name":"Coity Castle Inn","lat":51.50888,"lon":-3.57608,"postcode":"CF31 1HA","la":"Bridgend","era":"trad","nn":107,"risk":26,"cat":"green"},{"name":"Constitutional Club","lat":51.59864,"lon":-3.54142,"postcode":"CF32 7AG","la":"Bridgend","era":"other","nn":136,"risk":32,"cat":"amber"},{"name":"Corbett Arms","lat":51.59748,"lon":-3.54199,"postcode":"CF32 7BB","la":"Bridgend","era":"trad","nn":136,"risk":32,"cat":"amber"},{"name":"Corner House Inn","lat":51.58645,"lon":-3.65148,"postcode":"CF34 9SB","la":"Bridgend","era":"other","nn":1042,"risk":55,"cat":"amber"},{"name":"Cross Inn (Maesteg) Ltd","lat":51.59517,"lon":-3.64595,"postcode":"CF34 9LB","la":"Bridgend","era":"trad","nn":557,"risk":47,"cat":"amber"},{"name":"Food to go","lat":51.48132,"lon":-3.69847,"postcode":"CF36 5DH","la":"Bridgend","era":"other","nn":0,"risk":26,"cat":"green"},{"name":"Fox & Hounds","lat":51.55175,"lon":-3.57891,"postcode":"CF32 9LB","la":"Bridgend","era":"trad","nn":1034,"risk":55,"cat":"amber"},{"name":"Fulgoni's","lat":51.47977,"lon":-3.70327,"postcode":"CF36 3DT","la":"Bridgend","era":"other","nn":0,"risk":26,"cat":"green"},{"name":"Gilfach Goch Social Club & Institute","lat":51.59732,"lon":-3.47476,"postcode":"CF39 8RR","la":"Bridgend","era":"mod","nn":0,"risk":28,"cat":"green"},{"name":"Grove Golf Clubhouse","lat":51.5037,"lon":-3.69923,"postcode":"CF33 4RP","la":"Bridgend","era":"other","nn":1599,"risk":59,"cat":"amber"},{"name":"GSC Top Club","lat":51.63823,"lon":-3.64885,"postcode":"CF34 0PG","la":"Bridgend","era":"other","nn":0,"risk":26,"cat":"green"},{"name":"Heol Y Cyw Rugby Football Club","lat":51.54726,"lon":-3.52284,"postcode":"CF35 6HR","la":"Bridgend","era":"other","nn":227,"risk":47,"cat":"amber"},{"name":"Hunters Lodge","lat":51.51165,"lon":-3.54549,"postcode":"CF31 2JT","la":"Bridgend","era":"other","nn":1193,"risk":57,"cat":"amber"},{"name":"Jolly Sailor","lat":51.48463,"lon":-3.67695,"postcode":"CF36 5PD","la":"Bridgend","era":"other","nn":241,"risk":32,"cat":"amber"},{"name":"Kenfig Hill Labour Club & Institute Ltd","lat":51.53379,"lon":-3.67816,"postcode":"CF33 6ED","la":"Bridgend","era":"other","nn":303,"risk":45,"cat":"amber"},{"name":"King's Head","lat":51.5043,"lon":-3.5771,"postcode":"CF31 3BN","la":"Bridgend","era":"trad","nn":167,"risk":27,"cat":"green"},{"name":"Laleston Inn","lat":51.50714,"lon":-3.62251,"postcode":"CF32 0HS","la":"Bridgend","era":"trad","nn":2860,"risk":68,"cat":"red"},{"name":"Little Bar on the Bridge","lat":51.50692,"lon":-3.58019,"postcode":"CF31 1JH","la":"Bridgend","era":"mod","nn":53,"risk":26,"cat":"green"},{"name":"Llynfi Coach House","lat":51.63248,"lon":-3.65659,"postcode":"CF34 0SU","la":"Bridgend","era":"trad","nn":264,"risk":30,"cat":"green"},{"name":"Maesteg Golf Club","lat":51.61077,"lon":-3.67707,"postcode":"CF34 9PR","la":"Bridgend","era":"other","nn":1048,"risk":56,"cat":"amber"},{"name":"Maesteg Harlequins Rfc","lat":51.60932,"lon":-3.65836,"postcode":"CF34 9BW","la":"Bridgend","era":"other","nn":140,"risk":27,"cat":"green"},{"name":"Maesteg RFC","lat":51.60992,"lon":-3.66196,"postcode":"CF34 9DS","la":"Bridgend","era":"other","nn":258,"risk":27,"cat":"green"},{"name":"Maesteg Squash Sports and Social Club","lat":51.60745,"lon":-3.64784,"postcode":"CF34 0AX","la":"Bridgend","era":"mod","nn":174,"risk":27,"cat":"green"},{"name":"Maesteg Workingmens Club & Institute Ltd","lat":51.60835,"lon":-3.65469,"postcode":"CF34 9YY","la":"Bridgend","era":"trad","nn":192,"risk":27,"cat":"green"},{"name":"Masonic Hall","lat":51.48146,"lon":-3.69721,"postcode":"CF36 5DG","la":"Bridgend","era":"trad","nn":89,"risk":26,"cat":"green"},{"name":"Masons Arms","lat":51.61724,"lon":-3.66248,"postcode":"CF34 0BW","la":"Bridgend","era":"trad","nn":337,"risk":33,"cat":"amber"},{"name":"Masons Arms Hotel","lat":51.54582,"lon":-3.5674,"postcode":"CF32 9YR","la":"Bridgend","era":"trad","nn":1034,"risk":55,"cat":"amber"},{"name":"McNamara Arms","lat":51.60715,"lon":-3.65668,"postcode":"CF34 9HJ","la":"Bridgend","era":"trad","nn":67,"risk":26,"cat":"green"},{"name":"Mr Big Bites","lat":51.61385,"lon":-3.54319,"postcode":"CF32 7EU","la":"Bridgend","era":"other","nn":567,"risk":47,"cat":"amber"},{"name":"Nantyffyllon Non Political Club","lat":51.6202,"lon":-3.66139,"postcode":"CF34 0EW","la":"Bridgend","era":"other","nn":337,"risk":48,"cat":"amber"},{"name":"Nantymoel Hotel","lat":51.62494,"lon":-3.54058,"postcode":"CF32 7RB","la":"Bridgend","era":"other","nn":0,"risk":43,"cat":"amber"},{"name":"Nantymoel RFC","lat":51.61683,"lon":-3.53654,"postcode":"CF32 7SH","la":"Bridgend","era":"other","nn":567,"risk":35,"cat":"amber"},{"name":"Nantymoel Social Club & Institute Ltd","lat":51.62494,"lon":-3.54058,"postcode":"CF32 7RB","la":"Bridgend","era":"mod","nn":0,"risk":43,"cat":"amber"},{"name":"Oddfellows","lat":51.57001,"lon":-3.58906,"postcode":"CF32 8TA","la":"Bridgend","era":"other","nn":1825,"risk":61,"cat":"red"},{"name":"Ogmore Junction","lat":51.56934,"lon":-3.53958,"postcode":"CF35 6DR","la":"Bridgend","era":"other","nn":2070,"risk":63,"cat":"red"},{"name":"Ogmore Vale Non Political Club & Institute Ltd","lat":51.60119,"lon":-3.54184,"postcode":"CF32 7AD","la":"Bridgend","era":"other","nn":285,"risk":33,"cat":"amber"},{"name":"Ogmore Vale Rugby Football Club","lat":51.60512,"lon":-3.5434,"postcode":"CF32 7EH","la":"Bridgend","era":"other","nn":450,"risk":31,"cat":"amber"},{"name":"Pencoed Rugby Football Club","lat":51.52171,"lon":-3.50074,"postcode":"CF35 5PB","la":"Bridgend","era":"other","nn":240,"risk":30,"cat":"green"},{"name":"Pencoed Social Club","lat":51.52387,"lon":-3.50438,"postcode":"CF35 6TB","la":"Bridgend","era":"mod","nn":233,"risk":32,"cat":"amber"},{"name":"Plough Inn","lat":51.54919,"lon":-3.52179,"postcode":"CF35 6HY","la":"Bridgend","era":"trad","nn":227,"risk":47,"cat":"amber"},{"name":"Pontycymer Constitutional Club Ltd","lat":51.6125,"lon":-3.58336,"postcode":"CF32 8LN","la":"Bridgend","era":"other","nn":188,"risk":44,"cat":"amber"},{"name":"Pontycymer RFC Ltd","lat":51.60995,"lon":-3.58396,"postcode":"CF32 8DD","la":"Bridgend","era":"other","nn":103,"risk":44,"cat":"amber"},{"name":"Porthcawl Rugby Football Club","lat":51.48551,"lon":-3.70135,"postcode":"CF36 3DA","la":"Bridgend","era":"other","nn":435,"risk":29,"cat":"green"},{"name":"Prince of Wales","lat":51.48061,"lon":-3.70032,"postcode":"CF36 5DN","la":"Bridgend","era":"trad","nn":0,"risk":26,"cat":"green"},{"name":"Prince Of Wales Court Bowling Club","lat":51.48418,"lon":-3.70754,"postcode":"CF36 3NA","la":"Bridgend","era":"trad","nn":436,"risk":29,"cat":"green"},{"name":"RAFA Club","lat":51.48061,"lon":-3.70032,"postcode":"CF36 5DN","la":"Bridgend","era":"other","nn":0,"risk":26,"cat":"green"},{"name":"Railway Inn","lat":51.58862,"lon":-3.63181,"postcode":"CF34 9TF","la":"Bridgend","era":"trad","nn":1218,"risk":57,"cat":"amber"},{"name":"Riverside Tavern","lat":51.50913,"lon":-3.58074,"postcode":"CF31 4AP","la":"Bridgend","era":"other","nn":199,"risk":27,"cat":"green"},{"name":"Royal Oak","lat":51.53626,"lon":-3.67633,"postcode":"CF33 6EP","la":"Bridgend","era":"trad","nn":303,"risk":48,"cat":"amber"},{"name":"Saltwater Inn","lat":51.47616,"lon":-3.70267,"postcode":"CF36 3BW","la":"Bridgend","era":"trad","nn":34,"risk":26,"cat":"green"},{"name":"Sarn and Bryncwils Social Club","lat":51.54015,"lon":-3.58359,"postcode":"CF32 9NY","la":"Bridgend","era":"mod","nn":878,"risk":32,"cat":"amber"},{"name":"Sawyers Arms","lat":51.60822,"lon":-3.65935,"postcode":"CF34 9DF","la":"Bridgend","era":"trad","nn":103,"risk":26,"cat":"green"},{"name":"Sportsman","lat":51.47926,"lon":-3.67929,"postcode":"CF36 5NG","la":"Bridgend","era":"other","nn":0,"risk":31,"cat":"amber"},{"name":"The Bird","lat":51.60741,"lon":-3.65825,"postcode":"CF34 9DL","la":"Bridgend","era":"other","nn":0,"risk":26,"cat":"green"},{"name":"The Blaengarw Hotel","lat":51.62536,"lon":-3.58798,"postcode":"CF32 8AA","la":"Bridgend","era":"other","nn":158,"risk":44,"cat":"amber"},{"name":"The Britannia Inn","lat":51.52385,"lon":-3.50101,"postcode":"CF35 5NW","la":"Bridgend","era":"trad","nn":44,"risk":31,"cat":"amber"},{"name":"The Cherry Laurel","lat":51.5009,"lon":-3.54427,"postcode":"CF31 3RY","la":"Bridgend","era":"other","nn":1169,"risk":56,"cat":"amber"},{"name":"The Coach","lat":51.50149,"lon":-3.5744,"postcode":"CF31 3DH","la":"Bridgend","era":"trad","nn":85,"risk":26,"cat":"green"},{"name":"The Colliers","lat":51.54031,"lon":-3.59709,"postcode":"CF32 9BA","la":"Bridgend","era":"other","nn":32,"risk":26,"cat":"green"},{"name":"The Crown Hotel","lat":51.60875,"lon":-3.64924,"postcode":"CF34 0LG","la":"Bridgend","era":"trad","nn":174,"risk":27,"cat":"green"},{"name":"The Federation Bar","lat":51.60768,"lon":-3.65813,"postcode":"CF34 9DH","la":"Bridgend","era":"other","nn":32,"risk":26,"cat":"green"},{"name":"The Garth Inn","lat":51.59934,"lon":-3.64149,"postcode":"CF34 0NE","la":"Bridgend","era":"trad","nn":557,"risk":50,"cat":"amber"},{"name":"The General Picton","lat":51.48132,"lon":-3.69847,"postcode":"CF36 5DH","la":"Bridgend","era":"other","nn":0,"risk":26,"cat":"green"},{"name":"The Globe Inn","lat":51.48544,"lon":-3.68018,"postcode":"CF36 5RN","la":"Bridgend","era":"trad","nn":241,"risk":32,"cat":"amber"},{"name":"The Greenmeadow Inn","lat":51.57806,"lon":-3.56604,"postcode":"CF32 8PD","la":"Bridgend","era":"trad","nn":1825,"risk":61,"cat":"red"},{"name":"The Navigation Hotel","lat":51.6348,"lon":-3.65737,"postcode":"CF34 0SS","la":"Bridgend","era":"other","nn":194,"risk":30,"cat":"green"},{"name":"The New Coytrahen Arms","lat":51.60611,"lon":-3.65147,"postcode":"CF34 9PJ","la":"Bridgend","era":"trad","nn":292,"risk":28,"cat":"green"},{"name":"The New House Inn","lat":51.51954,"lon":-3.7011,"postcode":"CF33 4HT","la":"Bridgend","era":"other","nn":1467,"risk":58,"cat":"amber"},{"name":"The Old Castle Inn","lat":51.50281,"lon":-3.57668,"postcode":"CF31 3BP","la":"Bridgend","era":"trad","nn":152,"risk":27,"cat":"green"},{"name":"The Pirates Club","lat":51.47606,"lon":-3.70313,"postcode":"CF36 3BW","la":"Bridgend","era":"other","nn":34,"risk":26,"cat":"green"},{"name":"The Prince Of Wales","lat":51.54059,"lon":-3.59702,"postcode":"CF32 9BA","la":"Bridgend","era":"trad","nn":32,"risk":26,"cat":"green"},{"name":"The Railway","lat":51.50798,"lon":-3.57665,"postcode":"CF31 1LH","la":"Bridgend","era":"trad","nn":107,"risk":26,"cat":"green"},{"name":"The Red Cow","lat":51.60123,"lon":-3.65568,"postcode":"CF34 9AW","la":"Bridgend","era":"other","nn":615,"risk":30,"cat":"green"},{"name":"The Rock Inn","lat":51.47977,"lon":-3.70327,"postcode":"CF36 3DT","la":"Bridgend","era":"trad","nn":0,"risk":26,"cat":"green"},{"name":"The Roof","lat":51.50716,"lon":-3.57938,"postcode":"CF31 1LJ","la":"Bridgend","era":"other","nn":23,"risk":26,"cat":"green"},{"name":"The Sandpiper Inn","lat":51.48061,"lon":-3.70032,"postcode":"CF36 5DN","la":"Bridgend","era":"trad","nn":0,"risk":26,"cat":"green"},{"name":"The Seagull Hotel","lat":51.48977,"lon":-3.71524,"postcode":"CF36 3UT","la":"Bridgend","era":"other","nn":819,"risk":49,"cat":"amber"},{"name":"THE SEAHORSE PORTHCAWL","lat":51.48169,"lon":-3.70268,"postcode":"CF36 3DH","la":"Bridgend","era":"trad","nn":172,"risk":27,"cat":"green"},{"name":"The Six Bells Inn","lat":51.52125,"lon":-3.55315,"postcode":"CF35 6BH","la":"Bridgend","era":"trad","nn":1193,"risk":57,"cat":"amber"},{"name":"The Squirrel Hotel","lat":51.61081,"lon":-3.58342,"postcode":"CF32 8HA","la":"Bridgend","era":"other","nn":103,"risk":44,"cat":"amber"},{"name":"The Star","lat":51.50732,"lon":-3.57917,"postcode":"CF31 1LJ","la":"Bridgend","era":"other","nn":23,"risk":26,"cat":"green"},{"name":"The Swan Inn","lat":51.53691,"lon":-3.59569,"postcode":"CF32 9AE","la":"Bridgend","era":"trad","nn":292,"risk":28,"cat":"green"},{"name":"The Swan Inn","lat":51.48952,"lon":-3.70307,"postcode":"CF36 3SS","la":"Bridgend","era":"trad","nn":462,"risk":29,"cat":"green"},{"name":"The Three Horseshoes","lat":51.50554,"lon":-3.57845,"postcode":"CF31 1HU","la":"Bridgend","era":"trad","nn":154,"risk":27,"cat":"green"},{"name":"The Walnut Tree","lat":51.52989,"lon":-3.68793,"postcode":"CF33 6DA","la":"Bridgend","era":"other","nn":803,"risk":51,"cat":"amber"},{"name":"The Wellington","lat":51.60761,"lon":-3.6573,"postcode":"CF34 9AD","la":"Bridgend","era":"trad","nn":58,"risk":26,"cat":"green"},{"name":"Toby Carvery","lat":51.49622,"lon":-3.56116,"postcode":"CF31 3UL","la":"Bridgend","era":"other","nn":801,"risk":51,"cat":"amber"},{"name":"Tondu Cricket & Lawn Tennis Club","lat":51.54607,"lon":-3.5924,"postcode":"CF32 9EB","la":"Bridgend","era":"other","nn":610,"risk":30,"cat":"green"},{"name":"Ty-Risha Alehouse","lat":51.53227,"lon":-3.58288,"postcode":"CF32 9SN","la":"Bridgend","era":"other","nn":878,"risk":52,"cat":"amber"},{"name":"United Services Club","lat":51.48093,"lon":-3.7005,"postcode":"CF36 5DL","la":"Bridgend","era":"other","nn":38,"risk":26,"cat":"green"},{"name":"WEXA Club","lat":51.6255,"lon":-3.5857,"postcode":"CF32 8AD","la":"Bridgend","era":"other","nn":158,"risk":44,"cat":"amber"},{"name":"White Horse Inn","lat":51.50655,"lon":-3.53003,"postcode":"CF35 5HD","la":"Bridgend","era":"trad","nn":1169,"risk":56,"cat":"amber"},{"name":"Wyndham Arms","lat":51.50677,"lon":-3.57947,"postcode":"CF31 1JE","la":"Bridgend","era":"trad","nn":43,"risk":26,"cat":"green"},{"name":"Ye Olde Ogmore","lat":51.59732,"lon":-3.47476,"postcode":"CF39 8RR","la":"Bridgend","era":"other","nn":0,"risk":28,"cat":"green"},{"name":"Aber & Senghenydd Ex-Servicemens Club","lat":51.6083,"lon":-3.27848,"postcode":"CF83 4HA","la":"Caerphilly","era":"other","nn":0,"risk":44,"cat":"amber"},{"name":"Aber Hotel","lat":51.59427,"lon":-3.27169,"postcode":"CF83 4EA","la":"Caerphilly","era":"other","nn":261,"risk":43,"cat":"amber"},{"name":"Angel Bar & Grill","lat":51.58233,"lon":-3.24843,"postcode":"CF83 2RL","la":"Caerphilly","era":"other","nn":1181,"risk":54,"cat":"amber"},{"name":"Arthur Balfour Conservative Workingmens Club","lat":51.69119,"lon":-3.22196,"postcode":"CF81 9EX","la":"Caerphilly","era":"trad","nn":163,"risk":25,"cat":"green"},{"name":"Baileys Arms","lat":51.70873,"lon":-3.26506,"postcode":"CF81 9HX","la":"Caerphilly","era":"trad","nn":143,"risk":42,"cat":"amber"},{"name":"Bargoed Bowls Club","lat":51.68298,"lon":-3.23929,"postcode":"CF81 8LF","la":"Caerphilly","era":"other","nn":560,"risk":27,"cat":"green"},{"name":"Bargoed Labour Club & Institute Ltd","lat":51.68691,"lon":-3.2342,"postcode":"CF81 8PF","la":"Caerphilly","era":"other","nn":254,"risk":25,"cat":"green"},{"name":"Bargoed Rugby Football Club Limited","lat":51.68606,"lon":-3.23023,"postcode":"CF81 8LQ","la":"Caerphilly","era":"other","nn":84,"risk":24,"cat":"green"},{"name":"Bedwas Rugby Football Club","lat":51.58902,"lon":-3.2008,"postcode":"CF83 8DZ","la":"Caerphilly","era":"other","nn":267,"risk":43,"cat":"amber"},{"name":"Black Cock Inn","lat":51.55829,"lon":-3.23228,"postcode":"CF83 1BD","la":"Caerphilly","era":"trad","nn":1281,"risk":55,"cat":"amber"},{"name":"Blast Furnace Inn","lat":51.74859,"lon":-3.27982,"postcode":"CF81 9PP","la":"Caerphilly","era":"trad","nn":241,"risk":43,"cat":"amber"},{"name":"Brew Monster Brewing Company Ltd","lat":51.57515,"lon":-3.21654,"postcode":"CF83 1NW","la":"Caerphilly","era":"other","nn":84,"risk":24,"cat":"green"},{"name":"Butters Bar","lat":51.67889,"lon":-3.22696,"postcode":"CF81 8JF","la":"Caerphilly","era":"other","nn":357,"risk":26,"cat":"green"},{"name":"Caerphilly Conservative Club","lat":51.57231,"lon":-3.21683,"postcode":"CF83 1JT","la":"Caerphilly","era":"other","nn":219,"risk":25,"cat":"green"},{"name":"Caerphilly Golf Club","lat":51.56923,"lon":-3.21797,"postcode":"CF83 1HJ","la":"Caerphilly","era":"other","nn":245,"risk":25,"cat":"green"},{"name":"Caerphilly Masonic Club","lat":51.57062,"lon":-3.21521,"postcode":"CF83 1HR","la":"Caerphilly","era":"trad","nn":219,"risk":25,"cat":"green"},{"name":"Caerphilly Municipal Club","lat":51.5747,"lon":-3.21751,"postcode":"CF83 1NX","la":"Caerphilly","era":"other","nn":84,"risk":24,"cat":"green"},{"name":"Caerphilly Rugby Football Club","lat":51.58176,"lon":-3.21818,"postcode":"CF83 3JA","la":"Caerphilly","era":"other","nn":127,"risk":24,"cat":"green"},{"name":"Caerphilly Social Club","lat":51.57685,"lon":-3.21724,"postcode":"CF83 1NZ","la":"Caerphilly","era":"mod","nn":101,"risk":24,"cat":"green"},{"name":"Caerphilly Workmens Institute","lat":51.57774,"lon":-3.21703,"postcode":"CF83 1NY","la":"Caerphilly","era":"other","nn":101,"risk":24,"cat":"green"},{"name":"Church House Inn","lat":51.59539,"lon":-3.19899,"postcode":"CF83 8AY","la":"Caerphilly","era":"other","nn":460,"risk":44,"cat":"amber"},{"name":"Coopers Arms","lat":51.63256,"lon":-3.23575,"postcode":"CF82 7EP","la":"Caerphilly","era":"trad","nn":645,"risk":46,"cat":"amber"},{"name":"Cross Inn","lat":51.6725,"lon":-3.26832,"postcode":"CF82 8FU","la":"Caerphilly","era":"trad","nn":1512,"risk":57,"cat":"amber"},{"name":"Cross Keys Inn","lat":51.65313,"lon":-3.23383,"postcode":"CF82 7HN","la":"Caerphilly","era":"trad","nn":289,"risk":43,"cat":"amber"},{"name":"Cwrt Rawlin Inn","lat":51.57081,"lon":-3.24124,"postcode":"CF83 1SN","la":"Caerphilly","era":"trad","nn":305,"risk":43,"cat":"amber"},{"name":"Deri Rugby Football Club","lat":51.70705,"lon":-3.26514,"postcode":"CF81 9HF","la":"Caerphilly","era":"other","nn":187,"risk":42,"cat":"amber"},{"name":"Dynevor Arms","lat":51.65084,"lon":-3.28194,"postcode":"CF46 6NF","la":"Caerphilly","era":"trad","nn":115,"risk":24,"cat":"green"},{"name":"Emporium Snooker Club Ltd","lat":51.69149,"lon":-3.22999,"postcode":"CF81 8RD","la":"Caerphilly","era":"other","nn":47,"risk":24,"cat":"green"},{"name":"Exclusive Catering","lat":51.65266,"lon":-3.28378,"postcode":"CF46 6DY","la":"Caerphilly","era":"other","nn":102,"risk":24,"cat":"green"},{"name":"Fochriw Social Club","lat":51.73903,"lon":-3.29841,"postcode":"CF81 9JP","la":"Caerphilly","era":"mod","nn":1480,"risk":56,"cat":"amber"},{"name":"Fox and Hounds","lat":51.65635,"lon":-3.25125,"postcode":"CF82 7FX","la":"Caerphilly","era":"trad","nn":747,"risk":49,"cat":"amber"},{"name":"Gelligaer Bowling Club","lat":51.66436,"lon":-3.24371,"postcode":"CF82 8FJ","la":"Caerphilly","era":"other","nn":528,"risk":45,"cat":"amber"},{"name":"Gelligaer Masonic Club","lat":51.68679,"lon":-3.23053,"postcode":"CF81 8NZ","la":"Caerphilly","era":"trad","nn":67,"risk":24,"cat":"green"},{"name":"Gilfach Workmen's Club","lat":51.68199,"lon":-3.22833,"postcode":"CF81 8LX","la":"Caerphilly","era":"other","nn":126,"risk":24,"cat":"green"},{"name":"Jacabbs Club","lat":51.65186,"lon":-3.28166,"postcode":"CF46 6NE","la":"Caerphilly","era":"other","nn":92,"risk":24,"cat":"green"},{"name":"Jax #1 Bar","lat":51.68705,"lon":-3.22964,"postcode":"CF81 8PA","la":"Caerphilly","era":"other","nn":67,"risk":24,"cat":"green"},{"name":"Kings Arms","lat":51.57319,"lon":-3.21984,"postcode":"CF83 1JQ","la":"Caerphilly","era":"trad","nn":115,"risk":24,"cat":"green"},{"name":"Llanbradach Bowling Club","lat":51.6043,"lon":-3.23047,"postcode":"CF83 3LP","la":"Caerphilly","era":"other","nn":0,"risk":44,"cat":"amber"},{"name":"Llanbradach Workingmen's Club & Institute","lat":51.6043,"lon":-3.23047,"postcode":"CF83 3LP","la":"Caerphilly","era":"trad","nn":0,"risk":44,"cat":"amber"},{"name":"Lord Nelson","lat":51.74852,"lon":-3.28332,"postcode":"CF81 9PQ","la":"Caerphilly","era":"trad","nn":241,"risk":43,"cat":"amber"},{"name":"Lord Nelson Inn","lat":51.65189,"lon":-3.28299,"postcode":"CF46 6ND","la":"Caerphilly","era":"trad","nn":92,"risk":24,"cat":"green"},{"name":"Machen Workingmens Constitutional Club","lat":51.59596,"lon":-3.14311,"postcode":"CF83 8NA","la":"Caerphilly","era":"trad","nn":154,"risk":45,"cat":"amber"},{"name":"Maenllwyd Inn","lat":51.57623,"lon":-3.15058,"postcode":"CF83 3EB","la":"Caerphilly","era":"trad","nn":2251,"risk":62,"cat":"red"},{"name":"Maesycwmmer Inn","lat":51.64566,"lon":-3.22146,"postcode":"CF82 7PJ","la":"Caerphilly","era":"trad","nn":38,"risk":29,"cat":"green"},{"name":"Masons Arms","lat":51.57961,"lon":-3.22353,"postcode":"CF83 3FE","la":"Caerphilly","era":"trad","nn":379,"risk":26,"cat":"green"},{"name":"Murray's Bar","lat":51.69131,"lon":-3.23061,"postcode":"CF81 8QY","la":"Caerphilly","era":"other","nn":47,"risk":24,"cat":"green"},{"name":"Neuaddwen Inn","lat":51.6962,"lon":-3.21822,"postcode":"CF81 9DN","la":"Caerphilly","era":"trad","nn":535,"risk":30,"cat":"green"},{"name":"New Duffryn Hotel","lat":51.69247,"lon":-3.22313,"postcode":"CF81 9EW","la":"Caerphilly","era":"other","nn":163,"risk":25,"cat":"green"},{"name":"Old Comrades Club","lat":51.61368,"lon":-3.22745,"postcode":"CF83 3NX","la":"Caerphilly","era":"other","nn":1064,"risk":53,"cat":"amber"},{"name":"Piccadilly Hotel","lat":51.5784,"lon":-3.2184,"postcode":"CF83 1AL","la":"Caerphilly","era":"other","nn":120,"risk":24,"cat":"green"},{"name":"Plough and Harrow","lat":51.66899,"lon":-3.24195,"postcode":"CF82 8BQ","la":"Caerphilly","era":"trad","nn":528,"risk":32,"cat":"amber"},{"name":"Pontygwindy Inn","lat":51.58694,"lon":-3.22224,"postcode":"CF83 3HR","la":"Caerphilly","era":"trad","nn":514,"risk":27,"cat":"green"},{"name":"R A O B Social Club","lat":51.59653,"lon":-3.27275,"postcode":"CF83 4DH","la":"Caerphilly","era":"mod","nn":261,"risk":43,"cat":"amber"},{"name":"Royal Oak Hotel","lat":51.65407,"lon":-3.28584,"postcode":"CF46 6DY","la":"Caerphilly","era":"trad","nn":212,"risk":25,"cat":"green"},{"name":"Ruperra Social Club","lat":51.59376,"lon":-3.18411,"postcode":"CF83 8FR","la":"Caerphilly","era":"mod","nn":1044,"risk":53,"cat":"amber"},{"name":"Senghenydd RFC","lat":51.6083,"lon":-3.27848,"postcode":"CF83 4HA","la":"Caerphilly","era":"other","nn":0,"risk":44,"cat":"amber"},{"name":"Shappelles","lat":51.63823,"lon":-3.23377,"postcode":"CF82 7ED","la":"Caerphilly","era":"other","nn":117,"risk":27,"cat":"green"},{"name":"The Angel Inn","lat":51.64591,"lon":-3.22184,"postcode":"CF82 7PH","la":"Caerphilly","era":"trad","nn":38,"risk":29,"cat":"green"},{"name":"The Beech Tree Hotel","lat":51.64334,"lon":-3.23388,"postcode":"CF82 7AB","la":"Caerphilly","era":"other","nn":218,"risk":25,"cat":"green"},{"name":"The Capel Hotel","lat":51.68307,"lon":-3.22888,"postcode":"CF81 8LW","la":"Caerphilly","era":"other","nn":126,"risk":24,"cat":"green"},{"name":"The Court House","lat":51.57468,"lon":-3.22022,"postcode":"CF83 1FN","la":"Caerphilly","era":"other","nn":168,"risk":25,"cat":"green"},{"name":"The George Hotel","lat":51.68926,"lon":-3.22048,"postcode":"CF81 9FG","la":"Caerphilly","era":"trad","nn":238,"risk":25,"cat":"green"},{"name":"The Green Lady","lat":51.58277,"lon":-3.21902,"postcode":"CF83 3HF","la":"Caerphilly","era":"other","nn":127,"risk":24,"cat":"green"},{"name":"The Harp Inn Y Delyn Aur","lat":51.66301,"lon":-3.25261,"postcode":"CF82 8FE","la":"Caerphilly","era":"trad","nn":632,"risk":33,"cat":"amber"},{"name":"The Hollybush","lat":51.65111,"lon":-3.29387,"postcode":"CF46 6HF","la":"Caerphilly","era":"trad","nn":645,"risk":28,"cat":"green"},{"name":"The Junction Inn","lat":51.64738,"lon":-3.2247,"postcode":"CF82 7RA","la":"Caerphilly","era":"trad","nn":256,"risk":25,"cat":"green"},{"name":"The Lindsay Club","lat":51.65556,"lon":-3.23529,"postcode":"CF82 7HL","la":"Caerphilly","era":"other","nn":289,"risk":46,"cat":"amber"},{"name":"The Malcolm Uphill","lat":51.57216,"lon":-3.22004,"postcode":"CF83 1FQ","la":"Caerphilly","era":"other","nn":115,"risk":24,"cat":"green"},{"name":"The Moathouse","lat":51.57097,"lon":-3.23116,"postcode":"CF83 1BY","la":"Caerphilly","era":"other","nn":697,"risk":28,"cat":"green"},{"name":"The Old Club","lat":51.70987,"lon":-3.266,"postcode":"CF81 9HX","la":"Caerphilly","era":"other","nn":143,"risk":42,"cat":"amber"},{"name":"The Red Kite","lat":51.57055,"lon":-3.24564,"postcode":"CF83 2AX","la":"Caerphilly","era":"other","nn":305,"risk":46,"cat":"amber"},{"name":"The Rowan Tree","lat":51.65022,"lon":-3.27034,"postcode":"CF46 6PR","la":"Caerphilly","era":"other","nn":738,"risk":29,"cat":"green"},{"name":"The Wonky Bar","lat":51.59126,"lon":-3.19945,"postcode":"CF83 8EA","la":"Caerphilly","era":"other","nn":267,"risk":43,"cat":"amber"},{"name":"Toby Carvery","lat":51.59318,"lon":-3.22352,"postcode":"CF83 3HX","la":"Caerphilly","era":"other","nn":700,"risk":48,"cat":"amber"},{"name":"Travellers Rest","lat":51.55413,"lon":-3.215,"postcode":"CF83 1LY","la":"Caerphilly","era":"other","nn":1281,"risk":55,"cat":"amber"},{"name":"Trecenydd Snooker & Sports Bar","lat":51.57943,"lon":-3.23192,"postcode":"CF83 2SD","la":"Caerphilly","era":"other","nn":580,"risk":28,"cat":"green"},{"name":"Tylers Arms","lat":51.64946,"lon":-3.28097,"postcode":"CF46 6NW","la":"Caerphilly","era":"trad","nn":168,"risk":25,"cat":"green"},{"name":"United Services Club","lat":51.59558,"lon":-3.14096,"postcode":"CF83 8PH","la":"Caerphilly","era":"other","nn":154,"risk":45,"cat":"amber"},{"name":"White Cross Inn","lat":51.57497,"lon":-3.26075,"postcode":"CF15 7UT","la":"Caerphilly","era":"trad","nn":1154,"risk":54,"cat":"amber"},{"name":"Ye Olde Royal Oak","lat":51.63869,"lon":-3.23529,"postcode":"CF82 7DY","la":"Caerphilly","era":"trad","nn":117,"risk":27,"cat":"green"},{"name":"YMCA","lat":51.59744,"lon":-3.26889,"postcode":"CF83 4BH","la":"Caerphilly","era":"other","nn":285,"risk":43,"cat":"amber"},{"name":"Ystrad Mynach Non-Political Club","lat":51.64199,"lon":-3.23618,"postcode":"CF82 7AA","la":"Caerphilly","era":"other","nn":218,"risk":28,"cat":"green"},{"name":"4th Glamorgan Home Guard Club","lat":51.47087,"lon":-3.2483,"postcode":"CF5 5LQ","la":"Cardiff","era":"other","nn":131,"risk":42,"cat":"amber"},{"name":"Admiral","lat":51.48133,"lon":-3.19983,"postcode":"CF11 9AL","la":"Cardiff","era":"other","nn":37,"risk":24,"cat":"green"},{"name":"Bar 105","lat":51.49431,"lon":-3.18213,"postcode":"CF24 4HU","la":"Cardiff","era":"mod","nn":232,"risk":25,"cat":"green"},{"name":"Birchgrove Inn","lat":51.51119,"lon":-3.20021,"postcode":"CF14 1RR","la":"Cardiff","era":"trad","nn":134,"risk":29,"cat":"green"},{"name":"Bluebell","lat":51.48104,"lon":-3.18065,"postcode":"CF10 1PU","la":"Cardiff","era":"other","nn":42,"risk":24,"cat":"green"},{"name":"Borough Arms","lat":51.47982,"lon":-3.17892,"postcode":"CF10 1AT","la":"Cardiff","era":"trad","nn":39,"risk":24,"cat":"green"},{"name":"Brewhouse","lat":51.47781,"lon":-3.17718,"postcode":"CF10 1FG","la":"Cardiff","era":"other","nn":11,"risk":23,"cat":"green"},{"name":"Broad Pub Limited","lat":51.49073,"lon":-3.15033,"postcode":"CF24 1QJ","la":"Cardiff","era":"other","nn":261,"risk":25,"cat":"green"},{"name":"Butchers Arms","lat":51.49431,"lon":-3.21879,"postcode":"CF5 2DZ","la":"Cardiff","era":"trad","nn":27,"risk":24,"cat":"green"},{"name":"Canton Cross Vaults","lat":51.48089,"lon":-3.20128,"postcode":"CF11 8HJ","la":"Cardiff","era":"trad","nn":80,"risk":24,"cat":"green"},{"name":"Canton Liberal Workmens Club & Institute","lat":51.48147,"lon":-3.2035,"postcode":"CF5 1JB","la":"Cardiff","era":"other","nn":130,"risk":24,"cat":"green"},{"name":"Cardiff Golf Club","lat":51.52555,"lon":-3.16154,"postcode":"CF23 6SJ","la":"Cardiff","era":"other","nn":480,"risk":47,"cat":"amber"},{"name":"Cardiff Masonic Hall","lat":51.48051,"lon":-3.17079,"postcode":"CF10 2HL","la":"Cardiff","era":"trad","nn":137,"risk":24,"cat":"green"},{"name":"Cardiff Model Engineering Soc","lat":51.50961,"lon":-3.18436,"postcode":"CF14 4EP","la":"Cardiff","era":"other","nn":931,"risk":50,"cat":"amber"},{"name":"Cardiff West End Social Club","lat":51.47621,"lon":-3.24908,"postcode":"CF5 5BY","la":"Cardiff","era":"mod","nn":489,"risk":44,"cat":"amber"},{"name":"Cathays Beer House","lat":51.49577,"lon":-3.17972,"postcode":"CF24 4NF","la":"Cardiff","era":"other","nn":232,"risk":25,"cat":"green"},{"name":"Church Inn / K-Town,/Chik Box and Locked and Loaded","lat":51.52879,"lon":-3.18963,"postcode":"CF14 5EH","la":"Cardiff","era":"trad","nn":499,"risk":44,"cat":"amber"},{"name":"City Arms","lat":51.48004,"lon":-3.1809,"postcode":"CF10 1EA","la":"Cardiff","era":"trad","nn":0,"risk":23,"cat":"green"},{"name":"City Arms","lat":51.48004,"lon":-3.1809,"postcode":"CF10 1EA","la":"Cardiff","era":"trad","nn":0,"risk":23,"cat":"green"},{"name":"Claude Hotel","lat":51.49379,"lon":-3.16297,"postcode":"CF24 3RW","la":"Cardiff","era":"other","nn":189,"risk":25,"cat":"green"},{"name":"Clive Arms","lat":51.48282,"lon":-3.21296,"postcode":"CF5 1HE","la":"Cardiff","era":"trad","nn":111,"risk":24,"cat":"green"},{"name":"Coopers Carvery","lat":51.46951,"lon":-3.26266,"postcode":"CF5 5TF","la":"Cardiff","era":"trad","nn":952,"risk":50,"cat":"amber"},{"name":"Corky's","lat":51.53158,"lon":-3.2006,"postcode":"CF14 5BL","la":"Cardiff","era":"other","nn":660,"risk":46,"cat":"amber"},{"name":"Cornwall Hotel","lat":51.47221,"lon":-3.18992,"postcode":"CF11 6SR","la":"Cardiff","era":"other","nn":254,"risk":43,"cat":"amber"},{"name":"Cottage","lat":51.47888,"lon":-3.17802,"postcode":"CF10 1AA","la":"Cardiff","era":"other","nn":33,"risk":24,"cat":"green"},{"name":"Cottage Hotel","lat":51.48021,"lon":-3.15906,"postcode":"CF24 2AA","la":"Cardiff","era":"other","nn":509,"risk":27,"cat":"green"},{"name":"Creigiau inn limited","lat":51.52417,"lon":-3.3242,"postcode":"CF15 9NT","la":"Cardiff","era":"trad","nn":1284,"risk":55,"cat":"amber"},{"name":"Cross Inn","lat":51.50946,"lon":-3.13114,"postcode":"CF3 4AJ","la":"Cardiff","era":"trad","nn":137,"risk":29,"cat":"green"},{"name":"Crwys Road Bar","lat":51.49322,"lon":-3.17295,"postcode":"CF24 4NJ","la":"Cardiff","era":"other","nn":78,"risk":24,"cat":"green"},{"name":"Daffodil","lat":51.48403,"lon":-3.17311,"postcode":"CF10 3BZ","la":"Cardiff","era":"other","nn":79,"risk":24,"cat":"green"},{"name":"Dead Canary","lat":51.48023,"lon":-3.1732,"postcode":"CF10 2GG","la":"Cardiff","era":"other","nn":69,"risk":24,"cat":"green"},{"name":"Diggste pub company","lat":51.49299,"lon":-3.18944,"postcode":"CF10 3DX","la":"Cardiff","era":"other","nn":527,"risk":27,"cat":"green"},{"name":"Dirty Martini Cardiff","lat":51.477,"lon":-3.17733,"postcode":"CF10 1FA","la":"Cardiff","era":"other","nn":17,"risk":24,"cat":"green"},{"name":"District","lat":51.48311,"lon":-3.17576,"postcode":"CF10 3AD","la":"Cardiff","era":"other","nn":23,"risk":24,"cat":"green"},{"name":"Eagle Bar Cardiff","lat":51.48085,"lon":-3.1732,"postcode":"CF10 2GB","la":"Cardiff","era":"other","nn":69,"risk":24,"cat":"green"},{"name":"Earl Haig Memorial British Legion","lat":51.51417,"lon":-3.22102,"postcode":"CF14 2AA","la":"Cardiff","era":"other","nn":139,"risk":27,"cat":"green"},{"name":"Earlswood Social Club","lat":51.51075,"lon":-3.11857,"postcode":"CF3 3PN","la":"Cardiff","era":"mod","nn":460,"risk":32,"cat":"amber"},{"name":"Elevens Bar & Grill","lat":51.48095,"lon":-3.18163,"postcode":"CF10 1BS","la":"Cardiff","era":"mod","nn":18,"risk":24,"cat":"green"},{"name":"Eli Jenkins","lat":51.46415,"lon":-3.16521,"postcode":"CF10 5AN","la":"Cardiff","era":"other","nn":56,"risk":29,"cat":"green"},{"name":"Ely Conservative Club","lat":51.48289,"lon":-3.23436,"postcode":"CF5 5BS","la":"Cardiff","era":"other","nn":475,"risk":47,"cat":"amber"},{"name":"Flight Club Cardiff","lat":51.48012,"lon":-3.17923,"postcode":"CF10 1AT","la":"Cardiff","era":"other","nn":34,"risk":24,"cat":"green"},{"name":"For Your Eyes Only (FYEO)","lat":51.47834,"lon":-3.17837,"postcode":"CF10 1DW","la":"Cardiff","era":"other","nn":9,"risk":23,"cat":"green"},{"name":"Fuel Rock Club Ltd","lat":51.48043,"lon":-3.18166,"postcode":"CF10 1BR","la":"Cardiff","era":"other","nn":17,"risk":24,"cat":"green"},{"name":"Gassy Jacks","lat":51.48892,"lon":-3.17415,"postcode":"CF24 4AB","la":"Cardiff","era":"other","nn":77,"risk":24,"cat":"green"},{"name":"Great Western Lloyds Bar","lat":51.4766,"lon":-3.17695,"postcode":"CF10 1FA","la":"Cardiff","era":"other","nn":52,"risk":24,"cat":"green"},{"name":"Gwaelod-y-Garth Inn","lat":51.54734,"lon":-3.27692,"postcode":"CF15 9HH","la":"Cardiff","era":"trad","nn":365,"risk":26,"cat":"green"},{"name":"Heath Hotel","lat":51.49897,"lon":-3.18453,"postcode":"CF14 3LW","la":"Cardiff","era":"other","nn":488,"risk":27,"cat":"green"},{"name":"Heidi's Bier Bar","lat":51.47724,"lon":-3.17643,"postcode":"CF10 1FL","la":"Cardiff","era":"other","nn":19,"risk":24,"cat":"green"},{"name":"Henry's Cafe Bar","lat":51.48287,"lon":-3.17492,"postcode":"CF10 3DP","la":"Cardiff","era":"other","nn":64,"risk":24,"cat":"green"},{"name":"Highfields Inn","lat":51.47182,"lon":-3.24942,"postcode":"CF5 5JP","la":"Cardiff","era":"trad","nn":131,"risk":29,"cat":"green"},{"name":"Hollybush","lat":51.52405,"lon":-3.15504,"postcode":"CF23 7DX","la":"Cardiff","era":"trad","nn":480,"risk":47,"cat":"amber"},{"name":"Hollybush Pub and Carvery","lat":51.52284,"lon":-3.23621,"postcode":"CF14 7EG","la":"Cardiff","era":"trad","nn":537,"risk":47,"cat":"amber"},{"name":"Ivor Davies","lat":51.48131,"lon":-3.20036,"postcode":"CF11 9AN","la":"Cardiff","era":"other","nn":37,"risk":24,"cat":"green"},{"name":"Kapu","lat":51.47778,"lon":-3.17702,"postcode":"CF10 1AD","la":"Cardiff","era":"other","nn":11,"risk":23,"cat":"green"},{"name":"Kelvie Men's Salon","lat":51.4937,"lon":-3.21965,"postcode":"CF5 2DZ","la":"Cardiff","era":"other","nn":34,"risk":24,"cat":"green"},{"name":"Kings Arms","lat":51.52804,"lon":-3.29242,"postcode":"CF15 9QF","la":"Cardiff","era":"trad","nn":494,"risk":47,"cat":"amber"},{"name":"Lab 22","lat":51.47831,"lon":-3.17599,"postcode":"CF10 1FF","la":"Cardiff","era":"other","nn":25,"risk":24,"cat":"green"},{"name":"Llandaff Institute","lat":51.49453,"lon":-3.21861,"postcode":"CF5 2DZ","la":"Cardiff","era":"other","nn":27,"risk":24,"cat":"green"},{"name":"Llandaff North Rugby Sports & Social Club","lat":51.50688,"lon":-3.23227,"postcode":"CF14 2FU","la":"Cardiff","era":"mod","nn":304,"risk":43,"cat":"amber"},{"name":"Llandaff Rowing Club","lat":51.49786,"lon":-3.22416,"postcode":"CF5 2PT","la":"Cardiff","era":"other","nn":534,"risk":27,"cat":"green"},{"name":"Llanishen RFC","lat":51.52732,"lon":-3.18281,"postcode":"CF14 5DX","la":"Cardiff","era":"other","nn":499,"risk":44,"cat":"amber"},{"name":"Llanrumney RBL Club Ltd","lat":51.51043,"lon":-3.13236,"postcode":"CF3 4BN","la":"Cardiff","era":"other","nn":137,"risk":29,"cat":"green"},{"name":"Mad Dog Brewery Co","lat":51.48091,"lon":-3.18188,"postcode":"CF10 1BS","la":"Cardiff","era":"other","nn":18,"risk":24,"cat":"green"},{"name":"Maltster's Arms Hotel","lat":51.51165,"lon":-3.21731,"postcode":"CF14 1DD","la":"Cardiff","era":"trad","nn":244,"risk":28,"cat":"green"},{"name":"Marys","lat":51.47826,"lon":-3.17833,"postcode":"CF10 1DW","la":"Cardiff","era":"other","nn":9,"risk":23,"cat":"green"},{"name":"Master Gunner","lat":51.50102,"lon":-3.21354,"postcode":"CF14 2RU","la":"Cardiff","era":"other","nn":803,"risk":29,"cat":"green"},{"name":"Miller & Carter Cardiff","lat":51.47992,"lon":-3.1762,"postcode":"CF10 1AH","la":"Cardiff","era":"trad","nn":0,"risk":23,"cat":"green"},{"name":"Miss Jones Canton","lat":51.48239,"lon":-3.21152,"postcode":"CF5 1JH","la":"Cardiff","era":"other","nn":111,"risk":24,"cat":"green"},{"name":"Monkstone Inn","lat":51.51288,"lon":-3.12428,"postcode":"CF3 4LL","la":"Cardiff","era":"trad","nn":460,"risk":32,"cat":"amber"},{"name":"Night Hawks","lat":51.48118,"lon":-3.18121,"postcode":"CF10 1BW","la":"Cardiff","era":"other","nn":39,"risk":24,"cat":"green"},{"name":"North Star Bar & Kitchen","lat":51.49813,"lon":-3.19319,"postcode":"CF14 3AE","la":"Cardiff","era":"mod","nn":485,"risk":27,"cat":"green"},{"name":"NQ64","lat":51.4771,"lon":-3.17663,"postcode":"CF10 1FE","la":"Cardiff","era":"other","nn":20,"risk":24,"cat":"green"},{"name":"Old Arcade","lat":51.48037,"lon":-3.17896,"postcode":"CF10 1BG","la":"Cardiff","era":"other","nn":26,"risk":24,"cat":"green"},{"name":"Old Illtydians Rfc","lat":51.48474,"lon":-3.15429,"postcode":"CF24 1HA","la":"Cardiff","era":"other","nn":392,"risk":26,"cat":"green"},{"name":"O'Neills","lat":51.48041,"lon":-3.17859,"postcode":"CF10 1BH","la":"Cardiff","era":"other","nn":26,"risk":24,"cat":"green"},{"name":"O'Neills","lat":51.47763,"lon":-3.17778,"postcode":"CF10 1DW","la":"Cardiff","era":"other","nn":0,"risk":23,"cat":"green"},{"name":"Owain Glyndwr","lat":51.48095,"lon":-3.17873,"postcode":"CF10 1GL","la":"Cardiff","era":"other","nn":48,"risk":24,"cat":"green"},{"name":"Par 59","lat":51.47715,"lon":-3.17742,"postcode":"CF10 1FA","la":"Cardiff","era":"other","nn":0,"risk":23,"cat":"green"},{"name":"Paradise Garden","lat":51.49181,"lon":-3.17146,"postcode":"CF24 3JD","la":"Cardiff","era":"other","nn":18,"risk":24,"cat":"green"},{"name":"Park Conservative Club","lat":51.49197,"lon":-3.17153,"postcode":"CF24 3JD","la":"Cardiff","era":"other","nn":18,"risk":24,"cat":"green"},{"name":"Pen & Wig","lat":51.48607,"lon":-3.17506,"postcode":"CF10 3BJ","la":"Cardiff","era":"other","nn":248,"risk":25,"cat":"green"},{"name":"Pineapple Inn","lat":51.50374,"lon":-3.2279,"postcode":"CF14 2FB","la":"Cardiff","era":"trad","nn":395,"risk":31,"cat":"amber"},{"name":"Pitch","lat":51.47712,"lon":-3.17624,"postcode":"CF10 1FL","la":"Cardiff","era":"other","nn":19,"risk":24,"cat":"green"},{"name":"Play at Pins","lat":51.47992,"lon":-3.1762,"postcode":"CF10 1AH","la":"Cardiff","era":"other","nn":0,"risk":23,"cat":"green"},{"name":"Playhouse Gentlemens Club","lat":51.47861,"lon":-3.17784,"postcode":"CF10 1AB","la":"Cardiff","era":"mod","nn":33,"risk":24,"cat":"green"},{"name":"Plymouth Arms Hotel","lat":51.48757,"lon":-3.26803,"postcode":"CF5 6DU","la":"Cardiff","era":"trad","nn":1821,"risk":59,"cat":"amber"},{"name":"Popworld","lat":51.47866,"lon":-3.17869,"postcode":"CF10 1DX","la":"Cardiff","era":"other","nn":41,"risk":24,"cat":"green"},{"name":"Powerleague Fives Limited","lat":51.51593,"lon":-3.21567,"postcode":"CF14 1RF","la":"Cardiff","era":"other","nn":418,"risk":31,"cat":"amber"},{"name":"Proud Mary Pub","lat":51.47805,"lon":-3.17748,"postcode":"CF10 1AD","la":"Cardiff","era":"other","nn":34,"risk":24,"cat":"green"},{"name":"PULSE","lat":51.48221,"lon":-3.17266,"postcode":"CF10 2HD","la":"Cardiff","era":"other","nn":85,"risk":24,"cat":"green"},{"name":"Queens Vaults","lat":51.47899,"lon":-3.17939,"postcode":"CF10 1EH","la":"Cardiff","era":"trad","nn":61,"risk":24,"cat":"green"},{"name":"Radyr Tap","lat":51.51568,"lon":-3.25098,"postcode":"CF15 8AA","la":"Cardiff","era":"mod","nn":1295,"risk":55,"cat":"amber"},{"name":"Railway Inn","lat":51.4861,"lon":-3.22984,"postcode":"CF5 3AB","la":"Cardiff","era":"trad","nn":475,"risk":47,"cat":"amber"},{"name":"Roath Conservative Club","lat":51.48766,"lon":-3.15752,"postcode":"CF24 1DQ","la":"Cardiff","era":"other","nn":121,"risk":24,"cat":"green"},{"name":"Robin Hood","lat":51.48497,"lon":-3.20022,"postcode":"CF11 9EN","la":"Cardiff","era":"other","nn":202,"risk":25,"cat":"green"},{"name":"Rummer Tavern","lat":51.48129,"lon":-3.17917,"postcode":"CF10 1AY","la":"Cardiff","era":"other","nn":48,"risk":24,"cat":"green"},{"name":"Sai La Vie","lat":51.47258,"lon":-3.18631,"postcode":"CF11 6QR","la":"Cardiff","era":"other","nn":254,"risk":25,"cat":"green"},{"name":"Slug & Lettuce Cardiff Central","lat":51.47763,"lon":-3.17778,"postcode":"CF10 1DW","la":"Cardiff","era":"other","nn":0,"risk":23,"cat":"green"},{"name":"Splott Conservative Club","lat":51.48149,"lon":-3.15114,"postcode":"CF24 2DX","la":"Cardiff","era":"other","nn":139,"risk":24,"cat":"green"},{"name":"St Albans Rugby Football Sports & Social Club","lat":51.48972,"lon":-3.1339,"postcode":"CF24 2RN","la":"Cardiff","era":"mod","nn":1143,"risk":54,"cat":"amber"},{"name":"St Josephs Catholic Social Club","lat":51.50199,"lon":-3.18995,"postcode":"CF14 3JN","la":"Cardiff","era":"mod","nn":485,"risk":27,"cat":"green"},{"name":"St Peters Rugby Football Club Ltd","lat":51.49294,"lon":-3.15159,"postcode":"CF23 5AS","la":"Cardiff","era":"other","nn":261,"risk":25,"cat":"green"},{"name":"Temple Bar","lat":51.48094,"lon":-3.18,"postcode":"CF10 1AW","la":"Cardiff","era":"other","nn":46,"risk":24,"cat":"green"},{"name":"Ten Mill Lane","lat":51.47768,"lon":-3.17603,"postcode":"CF10 1FL","la":"Cardiff","era":"trad","nn":47,"risk":24,"cat":"green"},{"name":"The Albany Hotel","lat":51.49609,"lon":-3.17075,"postcode":"CF24 4TL","la":"Cardiff","era":"other","nn":323,"risk":26,"cat":"green"},{"name":"The Alchemist","lat":51.48001,"lon":-3.17986,"postcode":"CF10 1DY","la":"Cardiff","era":"other","nn":45,"risk":24,"cat":"green"},{"name":"The Andrew Buchan","lat":51.49321,"lon":-3.17015,"postcode":"CF24 3LH","la":"Cardiff","era":"other","nn":137,"risk":24,"cat":"green"},{"name":"The Aneurin Bevan","lat":51.50768,"lon":-3.19988,"postcode":"CF14 4AD","la":"Cardiff","era":"other","nn":55,"risk":26,"cat":"green"},{"name":"The Black Griffin Inn","lat":51.54039,"lon":-3.16748,"postcode":"CF14 0SJ","la":"Cardiff","era":"trad","nn":1344,"risk":55,"cat":"amber"},{"name":"The Black Lion","lat":51.49347,"lon":-3.21934,"postcode":"CF5 2DQ","la":"Cardiff","era":"trad","nn":34,"risk":24,"cat":"green"},{"name":"The Bootlegger","lat":51.48044,"lon":-3.18133,"postcode":"CF10 1BR","la":"Cardiff","era":"other","nn":22,"risk":24,"cat":"green"},{"name":"The Cambrian Tap","lat":51.47768,"lon":-3.17709,"postcode":"CF10 1AD","la":"Cardiff","era":"mod","nn":12,"risk":23,"cat":"green"},{"name":"The Canton Hotel","lat":51.48204,"lon":-3.20186,"postcode":"CF11 9NJ","la":"Cardiff","era":"other","nn":130,"risk":24,"cat":"green"},{"name":"The Central Bar","lat":51.48335,"lon":-3.17279,"postcode":"CF10 3BW","la":"Cardiff","era":"other","nn":35,"risk":24,"cat":"green"},{"name":"The Clifton Hotel","lat":51.48689,"lon":-3.15876,"postcode":"CF24 1PW","la":"Cardiff","era":"other","nn":121,"risk":24,"cat":"green"},{"name":"The Cocktail Club Cardiff","lat":51.47715,"lon":-3.17742,"postcode":"CF10 1FA","la":"Cardiff","era":"other","nn":0,"risk":23,"cat":"green"},{"name":"The Cornerhouse","lat":51.47809,"lon":-3.17591,"postcode":"CF10 1FF","la":"Cardiff","era":"other","nn":25,"risk":24,"cat":"green"},{"name":"The Cricketers","lat":51.48571,"lon":-3.19389,"postcode":"CF11 9LL","la":"Cardiff","era":"other","nn":446,"risk":27,"cat":"green"},{"name":"The Depot","lat":51.46893,"lon":-3.17566,"postcode":"CF10 5DF","la":"Cardiff","era":"mod","nn":792,"risk":29,"cat":"green"},{"name":"The Discovery","lat":51.51468,"lon":-3.16915,"postcode":"CF23 6FH","la":"Cardiff","era":"other","nn":975,"risk":50,"cat":"amber"},{"name":"The Dock","lat":51.46303,"lon":-3.16575,"postcode":"CF10 5BZ","la":"Cardiff","era":"other","nn":130,"risk":29,"cat":"green"},{"name":"THE DOCK FEEDER","lat":51.48147,"lon":-3.17288,"postcode":"CF10 2DY","la":"Cardiff","era":"other","nn":72,"risk":24,"cat":"green"},{"name":"The Ernest Willows","lat":51.48572,"lon":-3.16553,"postcode":"CF24 3DL","la":"Cardiff","era":"trad","nn":375,"risk":26,"cat":"green"},{"name":"The Flute and Tankard","lat":51.48316,"lon":-3.1732,"postcode":"CF10 3BX","la":"Cardiff","era":"other","nn":35,"risk":24,"cat":"green"},{"name":"The Four Elms","lat":51.48803,"lon":-3.16159,"postcode":"CF24 3QR","la":"Cardiff","era":"trad","nn":233,"risk":25,"cat":"green"},{"name":"The Gate Keeper","lat":51.4803,"lon":-3.18177,"postcode":"CF10 1DD","la":"Cardiff","era":"other","nn":17,"risk":24,"cat":"green"},{"name":"The Glassworks","lat":51.47937,"lon":-3.17784,"postcode":"CF10 1AG","la":"Cardiff","era":"mod","nn":9,"risk":23,"cat":"green"},{"name":"The Globe","lat":51.49421,"lon":-3.16585,"postcode":"CF24 3NS","la":"Cardiff","era":"other","nn":25,"risk":24,"cat":"green"},{"name":"The Golden Cross","lat":51.47704,"lon":-3.17447,"postcode":"CF10 1GH","la":"Cardiff","era":"trad","nn":123,"risk":24,"cat":"green"},{"name":"The Grange","lat":51.46992,"lon":-3.18698,"postcode":"CF11 6NJ","la":"Cardiff","era":"other","nn":299,"risk":28,"cat":"green"},{"name":"The Kings Castle","lat":51.48164,"lon":-3.19612,"postcode":"CF11 9DU","la":"Cardiff","era":"trad","nn":259,"risk":25,"cat":"green"},{"name":"The Lansdowne Public House","lat":51.47957,"lon":-3.20727,"postcode":"CF5 1LX","la":"Cardiff","era":"other","nn":336,"risk":26,"cat":"green"},{"name":"The Lewis Arms","lat":51.53121,"lon":-3.29743,"postcode":"CF15 9PN","la":"Cardiff","era":"trad","nn":494,"risk":47,"cat":"amber"},{"name":"The lewis arms","lat":51.53225,"lon":-3.25183,"postcode":"CF15 7JP","la":"Cardiff","era":"trad","nn":18,"risk":41,"cat":"amber"},{"name":"The Live Lounge","lat":51.48147,"lon":-3.17741,"postcode":"CF10 2AQ","la":"Cardiff","era":"mod","nn":108,"risk":24,"cat":"green"},{"name":"The New Fleur Sports And Social Club","lat":51.48029,"lon":-3.15171,"postcode":"CF24 5FX","la":"Cardiff","era":"mod","nn":139,"risk":24,"cat":"green"},{"name":"The New Inn","lat":51.50998,"lon":-3.20003,"postcode":"CF14 4AE","la":"Cardiff","era":"trad","nn":134,"risk":29,"cat":"green"},{"name":"The Packet","lat":51.46428,"lon":-3.16599,"postcode":"CF10 5AB","la":"Cardiff","era":"other","nn":56,"risk":29,"cat":"green"},{"name":"The Pear Tree","lat":51.49435,"lon":-3.16556,"postcode":"CF24 3PE","la":"Cardiff","era":"other","nn":25,"risk":24,"cat":"green"},{"name":"The Pendragon","lat":51.53749,"lon":-3.20143,"postcode":"CF14 9BB","la":"Cardiff","era":"trad","nn":660,"risk":48,"cat":"amber"},{"name":"The Plough","lat":51.51314,"lon":-3.21989,"postcode":"CF14 1DA","la":"Cardiff","era":"trad","nn":139,"risk":27,"cat":"green"},{"name":"The Poachers Arms","lat":51.52511,"lon":-3.11283,"postcode":"CF3 5UP","la":"Cardiff","era":"trad","nn":67,"risk":41,"cat":"amber"},{"name":"The Prince of Wales","lat":51.47762,"lon":-3.17754,"postcode":"CF10 1FA","la":"Cardiff","era":"trad","nn":16,"risk":23,"cat":"green"},{"name":"The Railway Hotel","lat":51.50729,"lon":-3.22793,"postcode":"CF14 2FH","la":"Cardiff","era":"trad","nn":304,"risk":26,"cat":"green"},{"name":"The Romilly","lat":51.48531,"lon":-3.20308,"postcode":"CF11 9NQ","la":"Cardiff","era":"trad","nn":202,"risk":25,"cat":"green"},{"name":"The Royal George","lat":51.49283,"lon":-3.17202,"postcode":"CF24 4RJ","la":"Cardiff","era":"trad","nn":78,"risk":24,"cat":"green"},{"name":"The Traders Tavern","lat":51.47971,"lon":-3.17231,"postcode":"CF10 2EH","la":"Cardiff","era":"other","nn":85,"risk":24,"cat":"green"},{"name":"The Unicorn Inn","lat":51.53181,"lon":-3.12507,"postcode":"CF3 6YA","la":"Cardiff","era":"trad","nn":1017,"risk":53,"cat":"amber"},{"name":"The Village Inn","lat":51.53055,"lon":-3.13963,"postcode":"CF23 8AJ","la":"Cardiff","era":"trad","nn":1017,"risk":53,"cat":"amber"},{"name":"The Willows Pub","lat":51.52595,"lon":-3.10315,"postcode":"CF3 0EF","la":"Cardiff","era":"trad","nn":639,"risk":45,"cat":"amber"},{"name":"The Woodville","lat":51.4906,"lon":-3.18051,"postcode":"CF24 4DW","la":"Cardiff","era":"other","nn":428,"risk":26,"cat":"green"},{"name":"Three Arches","lat":51.51952,"lon":-3.18091,"postcode":"CF14 4HS","la":"Cardiff","era":"other","nn":877,"risk":47,"cat":"amber"},{"name":"Three horse shoes Whitchurch limited","lat":51.50753,"lon":-3.20064,"postcode":"CF14 1DL","la":"Cardiff","era":"trad","nn":55,"risk":26,"cat":"green"},{"name":"Tiny Rebel","lat":51.4799,"lon":-3.18118,"postcode":"CF10 1DD","la":"Cardiff","era":"other","nn":24,"risk":24,"cat":"green"},{"name":"Tongwynlais RFC","lat":51.53214,"lon":-3.252,"postcode":"CF15 7LG","la":"Cardiff","era":"other","nn":18,"risk":41,"cat":"amber"},{"name":"Tonight Josephine Cardiff","lat":51.4776,"lon":-3.17692,"postcode":"CF10 1FF","la":"Cardiff","era":"other","nn":16,"risk":23,"cat":"green"},{"name":"Ty Mawr Arms","lat":51.55027,"lon":-3.17867,"postcode":"CF14 0UF","la":"Cardiff","era":"trad","nn":1344,"risk":55,"cat":"amber"},{"name":"Tynant Inn","lat":51.52932,"lon":-3.25955,"postcode":"CF15 8LB","la":"Cardiff","era":"trad","nn":609,"risk":45,"cat":"amber"},{"name":"Ty'r Winch","lat":51.52563,"lon":-3.11237,"postcode":"CF3 5UW","la":"Cardiff","era":"other","nn":67,"risk":41,"cat":"amber"},{"name":"United Services Mess","lat":51.47937,"lon":-3.17797,"postcode":"CF10 1AG","la":"Cardiff","era":"other","nn":9,"risk":23,"cat":"green"},{"name":"Victoria Park","lat":51.48292,"lon":-3.2162,"postcode":"CF5 1JL","la":"Cardiff","era":"trad","nn":225,"risk":25,"cat":"green"},{"name":"Whitchurch Golf Club","lat":51.52468,"lon":-3.22905,"postcode":"CF14 7TD","la":"Cardiff","era":"other","nn":537,"risk":47,"cat":"amber"},{"name":"Wingman","lat":51.48823,"lon":-3.17418,"postcode":"CF24 4AP","la":"Cardiff","era":"other","nn":77,"risk":24,"cat":"green"},{"name":"Yates Cardiff /Loco Loco /El Rodeo /Mexicano /Burrito Bandits","lat":51.48317,"lon":-3.17608,"postcode":"CF10 3AD","la":"Cardiff","era":"other","nn":23,"risk":24,"cat":"green"},{"name":"Aberglais Inn Pontsarn Road","lat":51.78137,"lon":-3.38669,"postcode":"CF48 2TS","la":"Merthyr Tydfil","era":"trad","nn":1225,"risk":57,"cat":"amber"},{"name":"Ale Mary","lat":51.74902,"lon":-3.37737,"postcode":"CF47 8UB","la":"Merthyr Tydfil","era":"other","nn":0,"risk":26,"cat":"green"},{"name":"Angel Inn","lat":51.71219,"lon":-3.34807,"postcode":"CF48 4DX","la":"Merthyr Tydfil","era":"trad","nn":26,"risk":29,"cat":"green"},{"name":"Antelope Inn","lat":51.76239,"lon":-3.34633,"postcode":"CF48 3HB","la":"Merthyr Tydfil","era":"trad","nn":193,"risk":27,"cat":"green"},{"name":"Baili Glas Inn","lat":51.74348,"lon":-3.37443,"postcode":"CF47 0SD","la":"Merthyr Tydfil","era":"trad","nn":89,"risk":27,"cat":"green"},{"name":"BDJ Navigation Limited","lat":51.6658,"lon":-3.30325,"postcode":"CF46 5HE","la":"Merthyr Tydfil","era":"other","nn":237,"risk":28,"cat":"green"},{"name":"Bedlinog Constitutional Club","lat":51.70603,"lon":-3.31095,"postcode":"CF46 6SF","la":"Merthyr Tydfil","era":"other","nn":686,"risk":51,"cat":"amber"},{"name":"Bedlinog Rugby Club","lat":51.69986,"lon":-3.31092,"postcode":"CF46 6TG","la":"Merthyr Tydfil","era":"other","nn":686,"risk":51,"cat":"amber"},{"name":"Belle Vue","lat":51.74652,"lon":-3.37929,"postcode":"CF47 8AU","la":"Merthyr Tydfil","era":"other","nn":0,"risk":26,"cat":"green"},{"name":"Belle Vue Inn","lat":51.71208,"lon":-3.34773,"postcode":"CF48 4DT","la":"Merthyr Tydfil","era":"trad","nn":0,"risk":29,"cat":"green"},{"name":"Bruce Hotel","lat":51.76474,"lon":-3.35672,"postcode":"CF48 3RW","la":"Merthyr Tydfil","era":"other","nn":192,"risk":27,"cat":"green"},{"name":"Cefn Coed Rugby Club","lat":51.76138,"lon":-3.40596,"postcode":"CF48 2NB","la":"Merthyr Tydfil","era":"other","nn":0,"risk":31,"cat":"amber"},{"name":"Cefn Coed Social Club","lat":51.76086,"lon":-3.40504,"postcode":"CF48 2PU","la":"Merthyr Tydfil","era":"mod","nn":85,"risk":32,"cat":"amber"},{"name":"Colliers Cwtch","lat":51.66475,"lon":-3.30625,"postcode":"CF46 5RB","la":"Merthyr Tydfil","era":"other","nn":50,"risk":26,"cat":"green"},{"name":"Conservative Club","lat":51.74421,"lon":-3.37747,"postcode":"CF47 8DW","la":"Merthyr Tydfil","era":"other","nn":78,"risk":27,"cat":"green"},{"name":"Court Of Requests","lat":51.74756,"lon":-3.38454,"postcode":"CF48 1AY","la":"Merthyr Tydfil","era":"other","nn":0,"risk":26,"cat":"green"},{"name":"Cyfarthfa Arms","lat":51.75259,"lon":-3.38546,"postcode":"CF47 8NR","la":"Merthyr Tydfil","era":"trad","nn":22,"risk":26,"cat":"green"},{"name":"Danygraig Labour Club & Institute Ltd","lat":51.66341,"lon":-3.3082,"postcode":"CF46 5LH","la":"Merthyr Tydfil","era":"other","nn":172,"risk":27,"cat":"green"},{"name":"Dowlais Rugby Club","lat":51.76228,"lon":-3.34085,"postcode":"CF48 3RB","la":"Merthyr Tydfil","era":"other","nn":377,"risk":34,"cat":"amber"},{"name":"Drovers Arms","lat":51.76202,"lon":-3.40486,"postcode":"CF48 2PN","la":"Merthyr Tydfil","era":"trad","nn":103,"risk":32,"cat":"amber"},{"name":"Ffaldcaiach Inn","lat":51.66338,"lon":-3.29279,"postcode":"CF46 6BS","la":"Merthyr Tydfil","era":"trad","nn":770,"risk":34,"cat":"amber"},{"name":"Grawen Arms","lat":51.75251,"lon":-3.38517,"postcode":"CF47 8NR","la":"Merthyr Tydfil","era":"trad","nn":22,"risk":26,"cat":"green"},{"name":"Great Western Hotel","lat":51.66158,"lon":-3.32216,"postcode":"CF46 5NR","la":"Merthyr Tydfil","era":"other","nn":984,"risk":53,"cat":"amber"},{"name":"Guest Memorial Social & Bowls Club","lat":51.76145,"lon":-3.34869,"postcode":"CF48 3HA","la":"Merthyr Tydfil","era":"mod","nn":0,"risk":26,"cat":"green"},{"name":"Gurnos Sports Club Limited","lat":51.76376,"lon":-3.38083,"postcode":"CF47 9SF","la":"Merthyr Tydfil","era":"other","nn":839,"risk":49,"cat":"amber"},{"name":"Heolgerrig Social Club","lat":51.74549,"lon":-3.40174,"postcode":"CF48 1RP","la":"Merthyr Tydfil","era":"mod","nn":267,"risk":48,"cat":"amber"},{"name":"Hills Plymouth Cricket Club","lat":51.72476,"lon":-3.35734,"postcode":"CF48 4BJ","la":"Merthyr Tydfil","era":"other","nn":235,"risk":30,"cat":"green"},{"name":"Horse & Groom Inn","lat":51.75978,"lon":-3.36242,"postcode":"CF47 9HH","la":"Merthyr Tydfil","era":"trad","nn":496,"risk":29,"cat":"green"},{"name":"Kooler Nightclub","lat":51.74756,"lon":-3.38454,"postcode":"CF48 1AY","la":"Merthyr Tydfil","era":"other","nn":0,"risk":26,"cat":"green"},{"name":"Llwyn-yr-Eos Inn","lat":51.72519,"lon":-3.3682,"postcode":"CF48 1AX","la":"Merthyr Tydfil","era":"trad","nn":162,"risk":30,"cat":"green"},{"name":"Lucky Leprechaun Ltd T/A The Celtic Bar","lat":51.74756,"lon":-3.38454,"postcode":"CF48 1AY","la":"Merthyr Tydfil","era":"other","nn":0,"risk":26,"cat":"green"},{"name":"Martyrs Club","lat":51.76351,"lon":-3.36865,"postcode":"CF47 9JH","la":"Merthyr Tydfil","era":"other","nn":596,"risk":30,"cat":"green"},{"name":"Merthyr Borough Ex-Servicemen's Club","lat":51.74224,"lon":-3.37694,"postcode":"CF47 8EB","la":"Merthyr Tydfil","era":"other","nn":156,"risk":27,"cat":"green"},{"name":"Merthyr Labour Club","lat":51.74342,"lon":-3.37572,"postcode":"CF47 8DU","la":"Merthyr Tydfil","era":"other","nn":89,"risk":27,"cat":"green"},{"name":"Merthyr Town Football Club","lat":51.74996,"lon":-3.3784,"postcode":"CF47 8RF","la":"Merthyr Tydfil","era":"other","nn":126,"risk":27,"cat":"green"},{"name":"Merthyr Tydfil (Rhydycar) Bowls Limited","lat":51.73884,"lon":-3.3782,"postcode":"CF48 1UT","la":"Merthyr Tydfil","era":"other","nn":387,"risk":29,"cat":"green"},{"name":"Merthyr Vale & Aberfan Social Democratic Club & Institute Lt","lat":51.6959,"lon":-3.34436,"postcode":"CF48 4QQ","la":"Merthyr Tydfil","era":"mod","nn":628,"risk":48,"cat":"amber"},{"name":"Merthyr Vale Ex Servicemen's Club & Institute","lat":51.69031,"lon":-3.343,"postcode":"CF48 4RF","la":"Merthyr Tydfil","era":"other","nn":348,"risk":46,"cat":"amber"},{"name":"Merthyr West End Bowls Club","lat":51.75364,"lon":-3.37772,"postcode":"CF47 8YR","la":"Merthyr Tydfil","era":"other","nn":298,"risk":28,"cat":"green"},{"name":"Morlais Tavern","lat":51.7631,"lon":-3.35761,"postcode":"CF48 3AF","la":"Merthyr Tydfil","era":"other","nn":192,"risk":27,"cat":"green"},{"name":"Narrow Gauge","lat":51.74652,"lon":-3.37929,"postcode":"CF47 8AU","la":"Merthyr Tydfil","era":"other","nn":0,"risk":26,"cat":"green"},{"name":"Pant Cad Ifor Inn","lat":51.77433,"lon":-3.36125,"postcode":"CF48 2DD","la":"Merthyr Tydfil","era":"trad","nn":260,"risk":45,"cat":"amber"},{"name":"Paula Davies Catering Ltd","lat":51.77467,"lon":-3.37255,"postcode":"CF48 2UY","la":"Merthyr Tydfil","era":"other","nn":778,"risk":49,"cat":"amber"},{"name":"Pentrebach Labour Club","lat":51.72314,"lon":-3.35515,"postcode":"CF48 4BY","la":"Merthyr Tydfil","era":"other","nn":235,"risk":30,"cat":"green"},{"name":"Penydarren Social Club","lat":51.75571,"lon":-3.37498,"postcode":"CF47 9AF","la":"Merthyr Tydfil","era":"mod","nn":298,"risk":28,"cat":"green"},{"name":"Quakers Yard Inn","lat":51.66024,"lon":-3.30575,"postcode":"CF46 5AN","la":"Merthyr Tydfil","era":"other","nn":99,"risk":27,"cat":"green"},{"name":"Quarrymans Arms","lat":51.77276,"lon":-3.35846,"postcode":"CF48 2DA","la":"Merthyr Tydfil","era":"trad","nn":260,"risk":33,"cat":"amber"},{"name":"Red Cow Inn","lat":51.79359,"lon":-3.36747,"postcode":"CF48 2UN","la":"Merthyr Tydfil","era":"trad","nn":1896,"risk":62,"cat":"red"},{"name":"Red Lion","lat":51.74424,"lon":-3.40505,"postcode":"CF48 1SB","la":"Merthyr Tydfil","era":"trad","nn":267,"risk":48,"cat":"amber"},{"name":"Richards Arms","lat":51.72287,"lon":-3.36375,"postcode":"CF48 1RX","la":"Merthyr Tydfil","era":"trad","nn":239,"risk":30,"cat":"green"},{"name":"Rose & Crown","lat":51.75239,"lon":-3.38399,"postcode":"CF47 8TP","la":"Merthyr Tydfil","era":"trad","nn":82,"risk":27,"cat":"green"},{"name":"Scala Pool And Snooker Club Ltd","lat":51.7462,"lon":-3.37698,"postcode":"CF47 0AW","la":"Merthyr Tydfil","era":"other","nn":4,"risk":26,"cat":"green"},{"name":"Silver Bullet","lat":51.71208,"lon":-3.34773,"postcode":"CF48 4DT","la":"Merthyr Tydfil","era":"trad","nn":0,"risk":29,"cat":"green"},{"name":"Station Hotel","lat":51.76138,"lon":-3.40596,"postcode":"CF48 2NB","la":"Merthyr Tydfil","era":"other","nn":0,"risk":31,"cat":"amber"},{"name":"The Anchor Inn","lat":51.74864,"lon":-3.37725,"postcode":"CF47 8UH","la":"Merthyr Tydfil","era":"trad","nn":43,"risk":26,"cat":"green"},{"name":"The Colliers Arms","lat":51.72421,"lon":-3.36646,"postcode":"CF48 1EJ","la":"Merthyr Tydfil","era":"trad","nn":162,"risk":30,"cat":"green"},{"name":"The Glantaff Inn Ltd","lat":51.65955,"lon":-3.30664,"postcode":"CF46 5AH","la":"Merthyr Tydfil","era":"trad","nn":99,"risk":27,"cat":"green"},{"name":"The Guest Keen","lat":51.76145,"lon":-3.34869,"postcode":"CF48 3HA","la":"Merthyr Tydfil","era":"other","nn":0,"risk":26,"cat":"green"},{"name":"The Iron Dragon","lat":51.74698,"lon":-3.3792,"postcode":"CF47 8BG","la":"Merthyr Tydfil","era":"trad","nn":0,"risk":26,"cat":"green"},{"name":"The Jukebox","lat":51.74692,"lon":-3.37829,"postcode":"CF47 8AP","la":"Merthyr Tydfil","era":"other","nn":0,"risk":26,"cat":"green"},{"name":"The Scala Venue","lat":51.74621,"lon":-3.37704,"postcode":"CF47 0AW","la":"Merthyr Tydfil","era":"other","nn":4,"risk":26,"cat":"green"},{"name":"The Taffy","lat":51.749,"lon":-3.38018,"postcode":"CF47 8LR","la":"Merthyr Tydfil","era":"other","nn":163,"risk":27,"cat":"green"},{"name":"The Vulcan Inn","lat":51.74827,"lon":-3.37808,"postcode":"CF47 8UD","la":"Merthyr Tydfil","era":"trad","nn":70,"risk":27,"cat":"green"},{"name":"The Welsh Bar","lat":51.7437,"lon":-3.37825,"postcode":"CF47 8DP","la":"Merthyr Tydfil","era":"other","nn":78,"risk":27,"cat":"green"},{"name":"The Winchester","lat":51.74698,"lon":-3.3792,"postcode":"CF47 8BG","la":"Merthyr Tydfil","era":"other","nn":0,"risk":26,"cat":"green"},{"name":"Treharris Unionist Club","lat":51.6643,"lon":-3.30616,"postcode":"CF46 5PS","la":"Merthyr Tydfil","era":"other","nn":50,"risk":26,"cat":"green"},{"name":"Troedyrhiw Ex Servicemen's Club","lat":51.71261,"lon":-3.34657,"postcode":"CF48 4JU","la":"Merthyr Tydfil","era":"other","nn":99,"risk":29,"cat":"green"},{"name":"VNU","lat":51.74652,"lon":-3.37929,"postcode":"CF47 8AU","la":"Merthyr Tydfil","era":"other","nn":0,"risk":26,"cat":"green"},{"name":"Whitehall Golf Club","lat":51.6479,"lon":-3.30969,"postcode":"CF46 6ST","la":"Merthyr Tydfil","era":"other","nn":1148,"risk":57,"cat":"amber"},{"name":"Windsor Hotel & Bar","lat":51.69087,"lon":-3.33803,"postcode":"CF48 4SB","la":"Merthyr Tydfil","era":"other","nn":348,"risk":46,"cat":"amber"},{"name":"Wyndham Arms","lat":51.74666,"lon":-3.3788,"postcode":"CF47 8AT","la":"Merthyr Tydfil","era":"trad","nn":37,"risk":26,"cat":"green"},{"name":"Y Dic Penderyn","lat":51.74692,"lon":-3.37829,"postcode":"CF47 8AP","la":"Merthyr Tydfil","era":"other","nn":0,"risk":26,"cat":"green"},{"name":"Ye Olde Express Inn","lat":51.74902,"lon":-3.37737,"postcode":"CF47 8UB","la":"Merthyr Tydfil","era":"trad","nn":0,"risk":26,"cat":"green"},{"name":"Ynysowen Rugby Club","lat":51.71245,"lon":-3.34865,"postcode":"CF48 4NH","la":"Merthyr Tydfil","era":"other","nn":50,"risk":29,"cat":"green"},{"name":"Coach & Horses","lat":51.5464,"lon":-3.07817,"postcode":"CF3 2UQ","la":"Newport","era":"trad","nn":1706,"risk":61,"cat":"red"},{"name":"The Masons Arms","lat":51.53269,"lon":-3.0671,"postcode":"CF3 2TX","la":"Newport","era":"trad","nn":604,"risk":51,"cat":"amber"},{"name":"Y Maerun","lat":51.5302,"lon":-3.05932,"postcode":"CF3 2TU","la":"Newport","era":"other","nn":604,"risk":51,"cat":"amber"},{"name":"The New Inn","lat":51.81152,"lon":-3.55111,"postcode":"CF44 9JE","la":"Powys","era":"trad","nn":4999,"risk":80,"cat":"red"},{"name":"5th Welch Old Comrades Club & Institute Ltd","lat":51.59575,"lon":-3.32673,"postcode":"CF37 1BE","la":"Rhondda Cynon Taf","era":"other","nn":0,"risk":20,"cat":"green"},{"name":"Abercwmboi RFC","lat":51.69424,"lon":-3.42365,"postcode":"CF44 6AX","la":"Rhondda Cynon Taf","era":"other","nn":513,"risk":24,"cat":"green"},{"name":"Abercwmboi Social Club","lat":51.68839,"lon":-3.40621,"postcode":"CF44 6BP","la":"Rhondda Cynon Taf","era":"mod","nn":351,"risk":40,"cat":"amber"},{"name":"Abercynon Rugby Football Club","lat":51.65155,"lon":-3.33188,"postcode":"CF45 4RU","la":"Rhondda Cynon Taf","era":"other","nn":427,"risk":28,"cat":"green"},{"name":"Aberdare Constitutional Club","lat":51.71366,"lon":-3.44752,"postcode":"CF44 7AW","la":"Rhondda Cynon Taf","era":"other","nn":79,"risk":21,"cat":"green"},{"name":"Aberdare Golf Club","lat":51.71849,"lon":-3.43419,"postcode":"CF44 0RY","la":"Rhondda Cynon Taf","era":"other","nn":736,"risk":26,"cat":"green"},{"name":"Aberdare Masonic Club","lat":51.7134,"lon":-3.44646,"postcode":"CF44 7AP","la":"Rhondda Cynon Taf","era":"trad","nn":0,"risk":20,"cat":"green"},{"name":"Aberdare RFC","lat":51.71498,"lon":-3.44428,"postcode":"CF44 7BP","la":"Rhondda Cynon Taf","era":"other","nn":105,"risk":21,"cat":"green"},{"name":"Aberdare Town FC","lat":51.69156,"lon":-3.41554,"postcode":"CF44 6AA","la":"Rhondda Cynon Taf","era":"other","nn":388,"risk":28,"cat":"green"},{"name":"Alfreds Bar & Grill","lat":51.60223,"lon":-3.34081,"postcode":"CF37 2ST","la":"Rhondda Cynon Taf","era":"mod","nn":0,"risk":20,"cat":"green"},{"name":"Barini's Lounge Bar & Grill","lat":51.59622,"lon":-3.32844,"postcode":"CF37 1BH","la":"Rhondda Cynon Taf","era":"mod","nn":0,"risk":20,"cat":"green"},{"name":"Beddau RFC","lat":51.55828,"lon":-3.35994,"postcode":"CF38 2AA","la":"Rhondda Cynon Taf","era":"other","nn":425,"risk":28,"cat":"green"},{"name":"Blaengwawr Inn","lat":51.70804,"lon":-3.437,"postcode":"CF44 6HX","la":"Rhondda Cynon Taf","era":"trad","nn":410,"risk":23,"cat":"green"},{"name":"Blaenrhondda Social Club","lat":51.68766,"lon":-3.55275,"postcode":"CF42 5SE","la":"Rhondda Cynon Taf","era":"mod","nn":1067,"risk":50,"cat":"amber"},{"name":"Blueberry Hotel and Bar","lat":51.60223,"lon":-3.34081,"postcode":"CF37 2ST","la":"Rhondda Cynon Taf","era":"other","nn":0,"risk":20,"cat":"green"},{"name":"Boars Head","lat":51.52489,"lon":-3.40102,"postcode":"CF72 9EZ","la":"Rhondda Cynon Taf","era":"trad","nn":554,"risk":24,"cat":"green"},{"name":"Broadway Social Club","lat":51.59575,"lon":-3.32673,"postcode":"CF37 1BE","la":"Rhondda Cynon Taf","era":"mod","nn":0,"risk":20,"cat":"green"},{"name":"Brocks Bar & Grill","lat":51.69441,"lon":-3.4311,"postcode":"CF44 6LS","la":"Rhondda Cynon Taf","era":"mod","nn":327,"risk":23,"cat":"green"},{"name":"Brown's Inns at The Top Club","lat":51.64535,"lon":-3.32874,"postcode":"CF45 4RB","la":"Rhondda Cynon Taf","era":"trad","nn":97,"risk":24,"cat":"green"},{"name":"Brunel Arms","lat":51.52423,"lon":-3.39194,"postcode":"CF72 9DS","la":"Rhondda Cynon Taf","era":"trad","nn":152,"risk":21,"cat":"green"},{"name":"Brynffynon Hotel","lat":51.65056,"lon":-3.40264,"postcode":"CF37 3PH","la":"Rhondda Cynon Taf","era":"other","nn":2011,"risk":57,"cat":"amber"},{"name":"Bush Inn","lat":51.55896,"lon":-3.33314,"postcode":"CF38 2EP","la":"Rhondda Cynon Taf","era":"trad","nn":153,"risk":26,"cat":"green"},{"name":"Cambrian Colliery Sports and Social Club","lat":51.62722,"lon":-3.45652,"postcode":"CF40 2ES","la":"Rhondda Cynon Taf","era":"mod","nn":261,"risk":22,"cat":"green"},{"name":"Cambrian Inn","lat":51.71505,"lon":-3.44721,"postcode":"CF44 7BB","la":"Rhondda Cynon Taf","era":"trad","nn":101,"risk":21,"cat":"green"},{"name":"Cap Coch Inn","lat":51.68955,"lon":-3.41095,"postcode":"CF44 6BN","la":"Rhondda Cynon Taf","era":"trad","nn":351,"risk":40,"cat":"amber"},{"name":"Carpenters Arms","lat":51.55114,"lon":-3.31764,"postcode":"CF38 1AR","la":"Rhondda Cynon Taf","era":"trad","nn":1255,"risk":52,"cat":"amber"},{"name":"Castell Mynach Inn","lat":51.52149,"lon":-3.36072,"postcode":"CF72 8NH","la":"Rhondda Cynon Taf","era":"trad","nn":850,"risk":46,"cat":"amber"},{"name":"Ceiber Social Club","lat":51.67078,"lon":-3.36286,"postcode":"CF45 3SN","la":"Rhondda Cynon Taf","era":"mod","nn":124,"risk":39,"cat":"amber"},{"name":"Celtic Club","lat":51.60119,"lon":-3.34177,"postcode":"CF37 2SN","la":"Rhondda Cynon Taf","era":"other","nn":70,"risk":21,"cat":"green"},{"name":"Cilfynydd Constitutional Club","lat":51.61912,"lon":-3.3212,"postcode":"CF37 4NT","la":"Rhondda Cynon Taf","era":"other","nn":691,"risk":30,"cat":"green"},{"name":"Cilfynydd RFC","lat":51.62515,"lon":-3.3188,"postcode":"CF37 4NW","la":"Rhondda Cynon Taf","era":"other","nn":691,"risk":45,"cat":"amber"},{"name":"Club Ice","lat":51.59947,"lon":-3.34054,"postcode":"CF37 1BA","la":"Rhondda Cynon Taf","era":"other","nn":0,"risk":20,"cat":"green"},{"name":"Clwb Y Bont","lat":51.60112,"lon":-3.34076,"postcode":"CF37 4SL","la":"Rhondda Cynon Taf","era":"other","nn":70,"risk":21,"cat":"green"},{"name":"Clydach Vale Hotel","lat":51.62709,"lon":-3.47922,"postcode":"CF40 2DJ","la":"Rhondda Cynon Taf","era":"other","nn":572,"risk":44,"cat":"amber"},{"name":"Coed Ely Constitutional Club","lat":51.56905,"lon":-3.42,"postcode":"CF39 8BA","la":"Rhondda Cynon Taf","era":"other","nn":984,"risk":47,"cat":"amber"},{"name":"Colliers Arms","lat":51.6085,"lon":-3.40364,"postcode":"CF39 9LG","la":"Rhondda Cynon Taf","era":"trad","nn":304,"risk":23,"cat":"green"},{"name":"Coronation Constitutional Club Ltd","lat":51.64699,"lon":-3.49026,"postcode":"CF41 7HE","la":"Rhondda Cynon Taf","era":"other","nn":98,"risk":21,"cat":"green"},{"name":"Cross Inn Hotel","lat":51.5383,"lon":-3.36319,"postcode":"CF72 8AZ","la":"Rhondda Cynon Taf","era":"trad","nn":586,"risk":25,"cat":"green"},{"name":"Cue Snooker Club","lat":51.70241,"lon":-3.42848,"postcode":"CF44 6RD","la":"Rhondda Cynon Taf","era":"other","nn":43,"risk":21,"cat":"green"},{"name":"Cwm & Llantwit Welfare Hall","lat":51.55649,"lon":-3.35451,"postcode":"CF38 2DA","la":"Rhondda Cynon Taf","era":"other","nn":180,"risk":27,"cat":"green"},{"name":"Cwmaman Workmens and Social Club","lat":51.68563,"lon":-3.451,"postcode":"CF44 6LA","la":"Rhondda Cynon Taf","era":"mod","nn":593,"risk":45,"cat":"amber"},{"name":"Cwmdare Miners Social & Welfare Club","lat":51.72142,"lon":-3.47334,"postcode":"CF44 8TW","la":"Rhondda Cynon Taf","era":"mod","nn":361,"risk":40,"cat":"amber"},{"name":"Cymmer Workmens Club and Institute","lat":51.60944,"lon":-3.40777,"postcode":"CF39 9AH","la":"Rhondda Cynon Taf","era":"other","nn":220,"risk":22,"cat":"green"},{"name":"Cynon Valley Club & Institute","lat":51.71273,"lon":-3.44469,"postcode":"CF44 7LB","la":"Rhondda Cynon Taf","era":"other","nn":0,"risk":20,"cat":"green"},{"name":"Dog & Muff","lat":51.63393,"lon":-3.44891,"postcode":"CF40 2LS","la":"Rhondda Cynon Taf","era":"other","nn":278,"risk":22,"cat":"green"},{"name":"Dunraven Conservative Club","lat":51.61449,"lon":-3.44714,"postcode":"CF40 1JX","la":"Rhondda Cynon Taf","era":"other","nn":75,"risk":21,"cat":"green"},{"name":"Dynevor Arms","lat":51.52039,"lon":-3.34173,"postcode":"CF72 8NS","la":"Rhondda Cynon Taf","era":"trad","nn":1284,"risk":52,"cat":"amber"},{"name":"Ely Valley Miners Welfare Association","lat":51.57635,"lon":-3.43272,"postcode":"CF39 8BW","la":"Rhondda Cynon Taf","era":"other","nn":432,"risk":26,"cat":"green"},{"name":"Fagins Ale & Chop House","lat":51.54829,"lon":-3.27105,"postcode":"CF15 7QD","la":"Rhondda Cynon Taf","era":"other","nn":0,"risk":20,"cat":"green"},{"name":"Fagins Bar and Restaurant","lat":51.565,"lon":-3.31878,"postcode":"CF38 1PY","la":"Rhondda Cynon Taf","era":"mod","nn":207,"risk":39,"cat":"amber"},{"name":"Farmers Arms","lat":51.60412,"lon":-3.41881,"postcode":"CF39 9EL","la":"Rhondda Cynon Taf","era":"trad","nn":488,"risk":41,"cat":"amber"},{"name":"Farmers Arms","lat":51.57041,"lon":-3.32622,"postcode":"CF38 1EB","la":"Rhondda Cynon Taf","era":"trad","nn":660,"risk":43,"cat":"amber"},{"name":"Ferndale Band Musical Club & Institute","lat":51.66216,"lon":-3.44982,"postcode":"CF43 4HL","la":"Rhondda Cynon Taf","era":"other","nn":0,"risk":20,"cat":"green"},{"name":"Ferndale Business & Professional Mens Club","lat":51.66041,"lon":-3.44708,"postcode":"CF43 4EW","la":"Rhondda Cynon Taf","era":"other","nn":124,"risk":21,"cat":"green"},{"name":"Ferndale Conservative Club","lat":51.66216,"lon":-3.44982,"postcode":"CF43 4HL","la":"Rhondda Cynon Taf","era":"other","nn":0,"risk":20,"cat":"green"},{"name":"Ferndale Hotel","lat":51.65861,"lon":-3.44625,"postcode":"CF43 4EL","la":"Rhondda Cynon Taf","era":"other","nn":208,"risk":22,"cat":"green"},{"name":"Ferndale Imperial Cons Work Club","lat":51.66308,"lon":-3.45112,"postcode":"CF43 4HW","la":"Rhondda Cynon Taf","era":"other","nn":136,"risk":21,"cat":"green"},{"name":"Ferndale Labour Club And Institute","lat":51.66109,"lon":-3.44851,"postcode":"CF43 4HE","la":"Rhondda Cynon Taf","era":"other","nn":124,"risk":21,"cat":"green"},{"name":"Frames Snooker Club","lat":51.53003,"lon":-3.39938,"postcode":"CF72 9HJ","la":"Rhondda Cynon Taf","era":"trad","nn":582,"risk":25,"cat":"green"},{"name":"Gadlys Arms","lat":51.72008,"lon":-3.44798,"postcode":"CF44 8EY","la":"Rhondda Cynon Taf","era":"trad","nn":364,"risk":23,"cat":"green"},{"name":"Gatto Lounge","lat":51.60422,"lon":-3.33944,"postcode":"CF37 4TH","la":"Rhondda Cynon Taf","era":"mod","nn":98,"risk":21,"cat":"green"},{"name":"Gelli & Ton Pentre Hibernian","lat":51.64349,"lon":-3.48045,"postcode":"CF41 7TR","la":"Rhondda Cynon Taf","era":"other","nn":379,"risk":23,"cat":"green"},{"name":"Gelli & Ystrad Comrades Club","lat":51.64463,"lon":-3.48563,"postcode":"CF41 7LY","la":"Rhondda Cynon Taf","era":"other","nn":195,"risk":22,"cat":"green"},{"name":"Gelli Hotel","lat":51.64513,"lon":-3.48834,"postcode":"CF41 7AS","la":"Rhondda Cynon Taf","era":"other","nn":141,"risk":21,"cat":"green"},{"name":"Gelliwastad Club & Institute","lat":51.60383,"lon":-3.34156,"postcode":"CF37 2BP","la":"Rhondda Cynon Taf","era":"other","nn":67,"risk":21,"cat":"green"},{"name":"Gilfach Goch Festival Club","lat":51.59722,"lon":-3.46838,"postcode":"CF39 8SW","la":"Rhondda Cynon Taf","era":"other","nn":438,"risk":26,"cat":"green"},{"name":"Gilfach Goch RFC","lat":51.59368,"lon":-3.47114,"postcode":"CF39 8SR","la":"Rhondda Cynon Taf","era":"other","nn":62,"risk":23,"cat":"green"},{"name":"Glancynon Inn","lat":51.73878,"lon":-3.50538,"postcode":"CF44 9PE","la":"Rhondda Cynon Taf","era":"trad","nn":357,"risk":28,"cat":"green"},{"name":"Glyncoch Social Club & Institute Ltd","lat":51.6216,"lon":-3.33398,"postcode":"CF37 3DD","la":"Rhondda Cynon Taf","era":"mod","nn":925,"risk":47,"cat":"amber"},{"name":"Greenfield Hotel","lat":51.6461,"lon":-3.47209,"postcode":"CF41 7QR","la":"Rhondda Cynon Taf","era":"other","nn":239,"risk":22,"cat":"green"},{"name":"Griffin Inn","lat":51.57731,"lon":-3.46149,"postcode":"CF39 8YL","la":"Rhondda Cynon Taf","era":"trad","nn":1107,"risk":51,"cat":"amber"},{"name":"Griffin Inn","lat":51.58676,"lon":-3.31258,"postcode":"CF37 5RW","la":"Rhondda Cynon Taf","era":"trad","nn":409,"risk":26,"cat":"green"},{"name":"Harlequins Bowling Club","lat":51.72032,"lon":-3.45324,"postcode":"CF44 8EL","la":"Rhondda Cynon Taf","era":"other","nn":172,"risk":22,"cat":"green"},{"name":"Hawthorn Inn","lat":51.57932,"lon":-3.30473,"postcode":"CF37 5AG","la":"Rhondda Cynon Taf","era":"trad","nn":497,"risk":26,"cat":"green"},{"name":"Hirwaun RFC","lat":51.74002,"lon":-3.51209,"postcode":"CF44 9SL","la":"Rhondda Cynon Taf","era":"other","nn":142,"risk":26,"cat":"green"},{"name":"Hopkinstown Cricket Club","lat":51.6067,"lon":-3.35934,"postcode":"CF37 2PR","la":"Rhondda Cynon Taf","era":"other","nn":357,"risk":28,"cat":"green"},{"name":"Ivor Hael Hotel","lat":51.63316,"lon":-3.45275,"postcode":"CF40 2JJ","la":"Rhondda Cynon Taf","era":"other","nn":278,"risk":22,"cat":"green"},{"name":"Jacs","lat":51.712,"lon":-3.44484,"postcode":"CF44 7LL","la":"Rhondda Cynon Taf","era":"other","nn":83,"risk":21,"cat":"green"},{"name":"Judges","lat":51.71335,"lon":-3.44307,"postcode":"CF44 7DY","la":"Rhondda Cynon Taf","era":"other","nn":0,"risk":20,"cat":"green"},{"name":"Just Play Golf","lat":51.63514,"lon":-3.4378,"postcode":"CF43 3PW","la":"Rhondda Cynon Taf","era":"other","nn":0,"risk":23,"cat":"green"},{"name":"Legion House","lat":51.70352,"lon":-3.43054,"postcode":"CF44 6PY","la":"Rhondda Cynon Taf","era":"other","nn":0,"risk":20,"cat":"green"},{"name":"Lindsay Constitutional Club","lat":51.64453,"lon":-3.32919,"postcode":"CF45 4RL","la":"Rhondda Cynon Taf","era":"other","nn":97,"risk":24,"cat":"green"},{"name":"Llanharan Constitutional Club","lat":51.53811,"lon":-3.44101,"postcode":"CF72 9QA","la":"Rhondda Cynon Taf","era":"other","nn":0,"risk":38,"cat":"amber"},{"name":"Llanharan RFC Ltd","lat":51.53526,"lon":-3.44225,"postcode":"CF72 9RD","la":"Rhondda Cynon Taf","era":"other","nn":328,"risk":28,"cat":"green"},{"name":"Llanharry Workingmens Club Ltd","lat":51.51352,"lon":-3.43154,"postcode":"CF72 9HR","la":"Rhondda Cynon Taf","era":"trad","nn":2288,"risk":59,"cat":"amber"},{"name":"Llantrisant & Pontyclun Golf Club","lat":51.53923,"lon":-3.38479,"postcode":"CF72 8AP","la":"Rhondda Cynon Taf","era":"other","nn":251,"risk":22,"cat":"green"},{"name":"Llantrisant RFC","lat":51.54507,"lon":-3.3697,"postcode":"CF72 8HA","la":"Rhondda Cynon Taf","era":"other","nn":426,"risk":23,"cat":"green"},{"name":"Llantrisant Workingmens Club","lat":51.54228,"lon":-3.37592,"postcode":"CF72 8ED","la":"Rhondda Cynon Taf","era":"trad","nn":0,"risk":20,"cat":"green"},{"name":"Llantwit Fardre Constitutional Club","lat":51.5584,"lon":-3.34631,"postcode":"CF38 2DY","la":"Rhondda Cynon Taf","era":"other","nn":605,"risk":25,"cat":"green"},{"name":"Llantwit Fardre RFC","lat":51.56516,"lon":-3.32177,"postcode":"CF38 1BU","la":"Rhondda Cynon Taf","era":"other","nn":207,"risk":39,"cat":"amber"},{"name":"Llantwit Fardre Sports & Community Club","lat":51.59912,"lon":-3.32303,"postcode":"CF38 1RJ","la":"Rhondda Cynon Taf","era":"other","nn":454,"risk":24,"cat":"green"},{"name":"Llwyncelyn Hotel","lat":51.61179,"lon":-3.40495,"postcode":"CF39 9SH","la":"Rhondda Cynon Taf","era":"other","nn":105,"risk":21,"cat":"green"},{"name":"Llwyncelyn Inn","lat":51.72305,"lon":-3.46394,"postcode":"CF44 8HT","la":"Rhondda Cynon Taf","era":"trad","nn":473,"risk":24,"cat":"green"},{"name":"Maerdy Ex Servicemens Club","lat":51.67018,"lon":-3.47779,"postcode":"CF43 4AU","la":"Rhondda Cynon Taf","era":"other","nn":42,"risk":26,"cat":"green"},{"name":"Maerdy Hotel and Wine Bar","lat":51.67488,"lon":-3.48522,"postcode":"CF43 4DA","la":"Rhondda Cynon Taf","era":"other","nn":54,"risk":26,"cat":"green"},{"name":"Maerdy Social Club & Institute","lat":51.67519,"lon":-3.48581,"postcode":"CF43 4DB","la":"Rhondda Cynon Taf","era":"mod","nn":54,"risk":26,"cat":"green"},{"name":"Malsters Arms","lat":51.60449,"lon":-3.33768,"postcode":"CF37 4PF","la":"Rhondda Cynon Taf","era":"trad","nn":0,"risk":20,"cat":"green"},{"name":"Merlin Hotel","lat":51.60326,"lon":-3.34894,"postcode":"CF37 1HH","la":"Rhondda Cynon Taf","era":"other","nn":274,"risk":22,"cat":"green"},{"name":"Mid Rhondda Central Workingmens Club","lat":51.62031,"lon":-3.45404,"postcode":"CF40 1BQ","la":"Rhondda Cynon Taf","era":"trad","nn":160,"risk":22,"cat":"green"},{"name":"Mid Rhondda Workmens Club","lat":51.62487,"lon":-3.4616,"postcode":"CF40 2RQ","la":"Rhondda Cynon Taf","era":"other","nn":305,"risk":23,"cat":"green"},{"name":"Miskin Arms","lat":51.5191,"lon":-3.37546,"postcode":"CF72 8JQ","la":"Rhondda Cynon Taf","era":"trad","nn":1054,"risk":50,"cat":"amber"},{"name":"Miskin Hotel","lat":51.62074,"lon":-3.44884,"postcode":"CF40 2QN","la":"Rhondda Cynon Taf","era":"other","nn":228,"risk":22,"cat":"green"},{"name":"Miskin Manor Cricket Club","lat":51.51385,"lon":-3.36043,"postcode":"CF72 8ND","la":"Rhondda Cynon Taf","era":"other","nn":850,"risk":46,"cat":"amber"},{"name":"Molly O'D's Irish Pub","lat":51.59347,"lon":-3.47197,"postcode":"CF39 8SP","la":"Rhondda Cynon Taf","era":"other","nn":62,"risk":21,"cat":"green"},{"name":"Morgans at the White Hart","lat":51.62173,"lon":-3.4544,"postcode":"CF40 1AS","la":"Rhondda Cynon Taf","era":"trad","nn":160,"risk":22,"cat":"green"},{"name":"Mount Pleasant Hotel","lat":51.67509,"lon":-3.37155,"postcode":"CF45 3UF","la":"Rhondda Cynon Taf","era":"other","nn":409,"risk":23,"cat":"green"},{"name":"Mount Pleasant Hotel Ltd","lat":51.72084,"lon":-3.45559,"postcode":"CF44 8NG","la":"Rhondda Cynon Taf","era":"other","nn":114,"risk":21,"cat":"green"},{"name":"Mountain Ash Golf Club","lat":51.70239,"lon":-3.39565,"postcode":"CF45 4EE","la":"Rhondda Cynon Taf","era":"other","nn":511,"risk":44,"cat":"amber"},{"name":"Mountain Ash Hibernian Club","lat":51.68318,"lon":-3.3803,"postcode":"CF45 3NS","la":"Rhondda Cynon Taf","era":"other","nn":58,"risk":21,"cat":"green"},{"name":"Mountain Ash RFC","lat":51.68301,"lon":-3.3795,"postcode":"CF45 3PL","la":"Rhondda Cynon Taf","era":"other","nn":0,"risk":20,"cat":"green"},{"name":"Mountain Ash Workingmens Club","lat":51.68144,"lon":-3.37741,"postcode":"CF45 3HD","la":"Rhondda Cynon Taf","era":"trad","nn":224,"risk":22,"cat":"green"},{"name":"National Tap","lat":51.71267,"lon":-3.44305,"postcode":"CF44 7DP","la":"Rhondda Cynon Taf","era":"mod","nn":75,"risk":21,"cat":"green"},{"name":"Nedda's Bar Ltd","lat":51.61102,"lon":-3.40585,"postcode":"CF39 9RB","la":"Rhondda Cynon Taf","era":"mod","nn":105,"risk":21,"cat":"green"},{"name":"New Inn","lat":51.68301,"lon":-3.3795,"postcode":"CF45 3PL","la":"Rhondda Cynon Taf","era":"trad","nn":0,"risk":20,"cat":"green"},{"name":"Ninian Stuart Conservative & Unionist Workingmens Club Ltd","lat":51.67358,"lon":-3.5334,"postcode":"CF42 5NR","la":"Rhondda Cynon Taf","era":"trad","nn":215,"risk":22,"cat":"green"},{"name":"No 12","lat":51.60261,"lon":-3.3406,"postcode":"CF37 2ST","la":"Rhondda Cynon Taf","era":"other","nn":44,"risk":21,"cat":"green"},{"name":"No. 20","lat":51.7134,"lon":-3.44646,"postcode":"CF44 7AP","la":"Rhondda Cynon Taf","era":"other","nn":0,"risk":20,"cat":"green"},{"name":"Paddy's Goose Hotel","lat":51.62225,"lon":-3.4515,"postcode":"CF40 2NX","la":"Rhondda Cynon Taf","era":"other","nn":209,"risk":22,"cat":"green"},{"name":"Pandy Hotel","lat":51.62491,"lon":-3.45718,"postcode":"CF40 2QZ","la":"Rhondda Cynon Taf","era":"other","nn":0,"risk":20,"cat":"green"},{"name":"Parc Hotel","lat":51.65188,"lon":-3.52215,"postcode":"CF42 6LD","la":"Rhondda Cynon Taf","era":"other","nn":399,"risk":43,"cat":"amber"},{"name":"Paul Kirner's Music Palace","lat":51.62481,"lon":-3.4105,"postcode":"CF39 0EG","la":"Rhondda Cynon Taf","era":"other","nn":128,"risk":21,"cat":"green"},{"name":"Penrhiwceiber Constitutional Club","lat":51.66998,"lon":-3.36161,"postcode":"CF45 3SP","la":"Rhondda Cynon Taf","era":"other","nn":124,"risk":39,"cat":"amber"},{"name":"Pentre Comrades Club Ltd","lat":51.65505,"lon":-3.49491,"postcode":"CF41 7JX","la":"Rhondda Cynon Taf","era":"other","nn":270,"risk":22,"cat":"green"},{"name":"Penygraig Labour Club","lat":51.61133,"lon":-3.4472,"postcode":"CF40 1HA","la":"Rhondda Cynon Taf","era":"other","nn":318,"risk":23,"cat":"green"},{"name":"Penygraig RFC","lat":51.61659,"lon":-3.44891,"postcode":"CF40 1JR","la":"Rhondda Cynon Taf","era":"other","nn":264,"risk":22,"cat":"green"},{"name":"Penywaun Social Club & Institute Ltd","lat":51.73055,"lon":-3.4818,"postcode":"CF44 9AP","la":"Rhondda Cynon Taf","era":"mod","nn":1170,"risk":51,"cat":"amber"},{"name":"Pick & Shovel","lat":51.59456,"lon":-3.32574,"postcode":"CF37 1SG","la":"Rhondda Cynon Taf","era":"other","nn":148,"risk":21,"cat":"green"},{"name":"Platform 11","lat":51.60013,"lon":-3.34112,"postcode":"CF37 1QJ","la":"Rhondda Cynon Taf","era":"other","nn":84,"risk":21,"cat":"green"},{"name":"Pontyclun Institute Athletic Club","lat":51.52216,"lon":-3.39112,"postcode":"CF72 9EH","la":"Rhondda Cynon Taf","era":"other","nn":110,"risk":21,"cat":"green"},{"name":"Pontyclun Rugby & Sports Club","lat":51.52469,"lon":-3.38987,"postcode":"CF72 9DQ","la":"Rhondda Cynon Taf","era":"other","nn":0,"risk":20,"cat":"green"},{"name":"Pontygwaith Non Political Workingmens Club","lat":51.63692,"lon":-3.43134,"postcode":"CF43 3LA","la":"Rhondda Cynon Taf","era":"trad","nn":488,"risk":29,"cat":"green"},{"name":"Pontypridd & District Club","lat":51.6046,"lon":-3.3456,"postcode":"CF37 2HS","la":"Rhondda Cynon Taf","era":"other","nn":274,"risk":22,"cat":"green"},{"name":"Pontypridd Deaf Sports & Social Club","lat":51.60702,"lon":-3.33988,"postcode":"CF37 2DH","la":"Rhondda Cynon Taf","era":"mod","nn":272,"risk":22,"cat":"green"},{"name":"Pontypridd Ex-Servicemens Club","lat":51.59905,"lon":-3.34744,"postcode":"CF37 1DZ","la":"Rhondda Cynon Taf","era":"other","nn":197,"risk":22,"cat":"green"},{"name":"Pontypridd Golf Club","lat":51.60418,"lon":-3.32202,"postcode":"CF37 4DJ","la":"Rhondda Cynon Taf","era":"other","nn":567,"risk":24,"cat":"green"},{"name":"Pontypridd RFC","lat":51.60081,"lon":-3.34713,"postcode":"CF37 1HA","la":"Rhondda Cynon Taf","era":"other","nn":197,"risk":22,"cat":"green"},{"name":"Porth Harlequins RFC","lat":51.61263,"lon":-3.39464,"postcode":"CF39 9TW","la":"Rhondda Cynon Taf","era":"other","nn":654,"risk":25,"cat":"green"},{"name":"Prince of Wales","lat":51.71273,"lon":-3.44469,"postcode":"CF44 7LB","la":"Rhondda Cynon Taf","era":"trad","nn":0,"risk":20,"cat":"green"},{"name":"Queen's Head Inn","lat":51.58011,"lon":-3.35779,"postcode":"CF37 1PY","la":"Rhondda Cynon Taf","era":"trad","nn":2158,"risk":58,"cat":"amber"},{"name":"RAFA Pub","lat":51.66161,"lon":-3.50984,"postcode":"CF42 6BB","la":"Rhondda Cynon Taf","era":"other","nn":129,"risk":21,"cat":"green"},{"name":"Railway Canteen Community Club","lat":51.6719,"lon":-3.53497,"postcode":"CF42 5HU","la":"Rhondda Cynon Taf","era":"trad","nn":217,"risk":22,"cat":"green"},{"name":"Red Cow Inn","lat":51.73628,"lon":-3.45989,"postcode":"CF44 0YE","la":"Rhondda Cynon Taf","era":"trad","nn":1353,"risk":52,"cat":"amber"},{"name":"Red Gate Inn","lat":51.58368,"lon":-3.4296,"postcode":"CF39 8PG","la":"Rhondda Cynon Taf","era":"trad","nn":225,"risk":27,"cat":"green"},{"name":"Red Lion Inn","lat":51.76562,"lon":-3.52977,"postcode":"CF44 9JR","la":"Rhondda Cynon Taf","era":"trad","nn":366,"risk":43,"cat":"amber"},{"name":"Rhigos RFC","lat":51.73875,"lon":-3.56499,"postcode":"CF44 9HJ","la":"Rhondda Cynon Taf","era":"other","nn":1313,"risk":52,"cat":"amber"},{"name":"Rhondda Golf Club","lat":51.63514,"lon":-3.4378,"postcode":"CF43 3PW","la":"Rhondda Cynon Taf","era":"other","nn":0,"risk":23,"cat":"green"},{"name":"Rhos Wenallt Inn","lat":51.72222,"lon":-3.42536,"postcode":"CF44 0YS","la":"Rhondda Cynon Taf","era":"trad","nn":736,"risk":46,"cat":"amber"},{"name":"Rhydyfelin Non Political Club","lat":51.58356,"lon":-3.30696,"postcode":"CF37 5LS","la":"Rhondda Cynon Taf","era":"other","nn":497,"risk":29,"cat":"green"},{"name":"Rhydyfelin RFC","lat":51.58392,"lon":-3.31635,"postcode":"CF37 5HR","la":"Rhondda Cynon Taf","era":"other","nn":409,"risk":26,"cat":"green"},{"name":"Rickards Arms Hotel","lat":51.59322,"lon":-3.32497,"postcode":"CF37 1SN","la":"Rhondda Cynon Taf","era":"trad","nn":158,"risk":22,"cat":"green"},{"name":"Rose & Crown Hotel","lat":51.59742,"lon":-3.34368,"postcode":"CF37 1QP","la":"Rhondda Cynon Taf","era":"trad","nn":97,"risk":21,"cat":"green"},{"name":"Royal Oak","lat":51.61078,"lon":-3.3263,"postcode":"CF37 4DW","la":"Rhondda Cynon Taf","era":"trad","nn":131,"risk":21,"cat":"green"},{"name":"Southgate Park","lat":51.53867,"lon":-3.37379,"postcode":"CF72 8DJ","la":"Rhondda Cynon Taf","era":"other","nn":175,"risk":22,"cat":"green"},{"name":"Squares","lat":51.61295,"lon":-3.40931,"postcode":"CF39 9RT","la":"Rhondda Cynon Taf","era":"other","nn":125,"risk":21,"cat":"green"},{"name":"Swan Inn","lat":51.55021,"lon":-3.27136,"postcode":"CF15 7QE","la":"Rhondda Cynon Taf","era":"trad","nn":215,"risk":22,"cat":"green"},{"name":"Table Table","lat":51.51368,"lon":-3.49626,"postcode":"CF35 5HY","la":"Bridgend","era":"other","nn":945,"risk":52,"cat":"amber"},{"name":"Taff Ely Indoor Bowls Club","lat":51.60467,"lon":-3.34098,"postcode":"CF37 2DP","la":"Rhondda Cynon Taf","era":"other","nn":102,"risk":21,"cat":"green"},{"name":"Taffs Well AFC","lat":51.54583,"lon":-3.26863,"postcode":"CF15 7PW","la":"Rhondda Cynon Taf","era":"other","nn":234,"risk":22,"cat":"green"},{"name":"Taffs Well Ex Service & Social Club","lat":51.54829,"lon":-3.27105,"postcode":"CF15 7QD","la":"Rhondda Cynon Taf","era":"mod","nn":0,"risk":20,"cat":"green"},{"name":"Taffs Well Inn","lat":51.54662,"lon":-3.27176,"postcode":"CF15 7PR","la":"Rhondda Cynon Taf","era":"trad","nn":191,"risk":22,"cat":"green"},{"name":"Taffs Well RFC","lat":51.54829,"lon":-3.27105,"postcode":"CF15 7QD","la":"Rhondda Cynon Taf","era":"other","nn":0,"risk":20,"cat":"green"},{"name":"Talbot Arms","lat":51.53699,"lon":-3.38434,"postcode":"CF72 8AF","la":"Rhondda Cynon Taf","era":"trad","nn":251,"risk":22,"cat":"green"},{"name":"Temple Bar","lat":51.70364,"lon":-3.4325,"postcode":"CF44 6UU","la":"Rhondda Cynon Taf","era":"other","nn":136,"risk":21,"cat":"green"},{"name":"The Aberdare Hotel","lat":51.68435,"lon":-3.37902,"postcode":"CF45 4AA","la":"Rhondda Cynon Taf","era":"other","nn":65,"risk":21,"cat":"green"},{"name":"The Baglan Hotel","lat":51.66978,"lon":-3.52734,"postcode":"CF42 5AW","la":"Rhondda Cynon Taf","era":"other","nn":154,"risk":22,"cat":"green"},{"name":"The Bailey's Arms","lat":51.6785,"lon":-3.37377,"postcode":"CF45 3UB","la":"Rhondda Cynon Taf","era":"trad","nn":343,"risk":23,"cat":"green"},{"name":"The Banc","lat":51.65263,"lon":-3.48941,"postcode":"CF41 7BW","la":"Rhondda Cynon Taf","era":"other","nn":218,"risk":22,"cat":"green"},{"name":"The Bear Inn","lat":51.54291,"lon":-3.37494,"postcode":"CF72 8DA","la":"Rhondda Cynon Taf","era":"trad","nn":97,"risk":21,"cat":"green"},{"name":"The Beehive Inn","lat":51.71695,"lon":-3.45398,"postcode":"CF44 8BG","la":"Rhondda Cynon Taf","era":"trad","nn":145,"risk":21,"cat":"green"},{"name":"The Bertie","lat":51.6099,"lon":-3.38394,"postcode":"CF37 2NW","la":"Rhondda Cynon Taf","era":"other","nn":147,"risk":26,"cat":"green"},{"name":"The Bridgend Inn","lat":51.72422,"lon":-3.45733,"postcode":"CF44 8PL","la":"Rhondda Cynon Taf","era":"trad","nn":394,"risk":23,"cat":"green"},{"name":"The Brown Trout","lat":51.55793,"lon":-3.33461,"postcode":"CF38 2ER","la":"Rhondda Cynon Taf","era":"other","nn":153,"risk":26,"cat":"green"},{"name":"The Bryncae Arms","lat":51.53269,"lon":-3.45292,"postcode":"CF72 9RP","la":"Rhondda Cynon Taf","era":"trad","nn":792,"risk":46,"cat":"amber"},{"name":"The Bunch Of Grapes","lat":51.60273,"lon":-3.33249,"postcode":"CF37 4DA","la":"Rhondda Cynon Taf","era":"other","nn":408,"risk":23,"cat":"green"},{"name":"The Bush Hotel","lat":51.62665,"lon":-3.47096,"postcode":"CF40 2DG","la":"Rhondda Cynon Taf","era":"other","nn":572,"risk":24,"cat":"green"},{"name":"The Bush Inn","lat":51.71363,"lon":-3.4436,"postcode":"CF44 7RW","la":"Rhondda Cynon Taf","era":"trad","nn":48,"risk":21,"cat":"green"},{"name":"The Butchers Arms","lat":51.68494,"lon":-3.37808,"postcode":"CF45 4BD","la":"Rhondda Cynon Taf","era":"trad","nn":37,"risk":21,"cat":"green"},{"name":"The Bute","lat":51.67474,"lon":-3.53589,"postcode":"CF42 5NP","la":"Rhondda Cynon Taf","era":"other","nn":198,"risk":22,"cat":"green"},{"name":"The Bute Arms","lat":51.71273,"lon":-3.44469,"postcode":"CF44 7LB","la":"Rhondda Cynon Taf","era":"trad","nn":0,"risk":20,"cat":"green"},{"name":"The Carne Park Hotel","lat":51.64198,"lon":-3.33309,"postcode":"CF45 4PF","la":"Rhondda Cynon Taf","era":"other","nn":391,"risk":28,"cat":"green"},{"name":"The Cefn Pennar Inn","lat":51.69786,"lon":-3.39449,"postcode":"CF45 4EA","la":"Rhondda Cynon Taf","era":"trad","nn":511,"risk":44,"cat":"amber"},{"name":"The Central Hotel","lat":51.60828,"lon":-3.33555,"postcode":"CF37 4PN","la":"Rhondda Cynon Taf","era":"other","nn":330,"risk":23,"cat":"green"},{"name":"The Club House Maerdy Con","lat":51.67025,"lon":-3.47719,"postcode":"CF43 4AN","la":"Rhondda Cynon Taf","era":"mod","nn":42,"risk":26,"cat":"green"},{"name":"The Cokeworks Bar","lat":51.55487,"lon":-3.35475,"postcode":"CF38 2BL","la":"Rhondda Cynon Taf","era":"mod","nn":180,"risk":27,"cat":"green"},{"name":"The Con","lat":51.64559,"lon":-3.46873,"postcode":"CF41 7QU","la":"Rhondda Cynon Taf","era":"other","nn":239,"risk":27,"cat":"green"},{"name":"The Conway Inn","lat":51.71069,"lon":-3.44115,"postcode":"CF44 7EN","la":"Rhondda Cynon Taf","era":"trad","nn":0,"risk":20,"cat":"green"},{"name":"The Cross Keys Llantrisant","lat":51.54197,"lon":-3.37333,"postcode":"CF72 8BR","la":"Rhondda Cynon Taf","era":"trad","nn":97,"risk":21,"cat":"green"},{"name":"The De Winton Hotel","lat":51.62491,"lon":-3.45718,"postcode":"CF40 2QZ","la":"Rhondda Cynon Taf","era":"other","nn":0,"risk":20,"cat":"green"},{"name":"The Duffryn","lat":51.6831,"lon":-3.37924,"postcode":"CF45 3PG","la":"Rhondda Cynon Taf","era":"other","nn":21,"risk":21,"cat":"green"},{"name":"The Dunraven Hotel","lat":51.67486,"lon":-3.53876,"postcode":"CF42 5BG","la":"Rhondda Cynon Taf","era":"other","nn":198,"risk":22,"cat":"green"},{"name":"The Falcon Retreat","lat":51.69058,"lon":-3.43494,"postcode":"CF44 6LU","la":"Rhondda Cynon Taf","era":"other","nn":229,"risk":25,"cat":"green"},{"name":"The Flamingo Cabaret Show Bar","lat":51.66337,"lon":-3.51334,"postcode":"CF42 6DA","la":"Rhondda Cynon Taf","era":"other","nn":183,"risk":22,"cat":"green"},{"name":"The Fulling Mill","lat":51.61775,"lon":-3.44536,"postcode":"CF40 2PS","la":"Rhondda Cynon Taf","era":"trad","nn":277,"risk":22,"cat":"green"},{"name":"The George Inn","lat":51.68158,"lon":-3.37356,"postcode":"CF45 4HA","la":"Rhondda Cynon Taf","era":"trad","nn":266,"risk":22,"cat":"green"},{"name":"The Glamorgan Hotel","lat":51.60756,"lon":-3.4429,"postcode":"CF40 1PU","la":"Rhondda Cynon Taf","era":"other","nn":513,"risk":29,"cat":"green"},{"name":"The Globe Inn","lat":51.69264,"lon":-3.43487,"postcode":"CF44 6HD","la":"Rhondda Cynon Taf","era":"trad","nn":229,"risk":22,"cat":"green"},{"name":"The Gloster Arms","lat":51.71432,"lon":-3.44536,"postcode":"CF44 7AU","la":"Rhondda Cynon Taf","era":"trad","nn":105,"risk":21,"cat":"green"},{"name":"The Glyn","lat":51.665,"lon":-3.44581,"postcode":"CF43 4NE","la":"Rhondda Cynon Taf","era":"other","nn":419,"risk":23,"cat":"green"},{"name":"The Green Rooms","lat":51.57055,"lon":-3.29286,"postcode":"CF37 5YB","la":"Rhondda Cynon Taf","era":"mod","nn":729,"risk":43,"cat":"amber"},{"name":"The Ivor Arms","lat":51.51777,"lon":-3.39919,"postcode":"CF72 9BT","la":"Rhondda Cynon Taf","era":"trad","nn":502,"risk":24,"cat":"green"},{"name":"The Jeffrey Arms","lat":51.68462,"lon":-3.37819,"postcode":"CF45 4AD","la":"Rhondda Cynon Taf","era":"trad","nn":37,"risk":21,"cat":"green"},{"name":"The Lamb Hotel","lat":51.7688,"lon":-3.52845,"postcode":"CF44 9JU","la":"Rhondda Cynon Taf","era":"other","nn":366,"risk":43,"cat":"amber"},{"name":"The Lamb Inn","lat":51.73881,"lon":-3.51275,"postcode":"CF44 9NL","la":"Rhondda Cynon Taf","era":"trad","nn":142,"risk":26,"cat":"green"},{"name":"The Legion","lat":51.58462,"lon":-3.47236,"postcode":"CF39 8TF","la":"Rhondda Cynon Taf","era":"other","nn":984,"risk":47,"cat":"amber"},{"name":"The Lion Treorchy","lat":51.6609,"lon":-3.50788,"postcode":"CF42 6AH","la":"Rhondda Cynon Taf","era":"trad","nn":156,"risk":22,"cat":"green"},{"name":"The Llanover Arms","lat":51.60449,"lon":-3.33768,"postcode":"CF37 4PF","la":"Rhondda Cynon Taf","era":"trad","nn":0,"risk":20,"cat":"green"},{"name":"The Marquis","lat":51.71069,"lon":-3.44115,"postcode":"CF44 7EN","la":"Rhondda Cynon Taf","era":"other","nn":0,"risk":20,"cat":"green"},{"name":"The Mountain Hare Inn","lat":51.53302,"lon":-3.47343,"postcode":"CF35 6PG","la":"Rhondda Cynon Taf","era":"trad","nn":488,"risk":44,"cat":"amber"},{"name":"The Napiers Arms","lat":51.68153,"lon":-3.38083,"postcode":"CF45 3LD","la":"Rhondda Cynon Taf","era":"trad","nn":187,"risk":22,"cat":"green"},{"name":"The New Inn","lat":51.54228,"lon":-3.37592,"postcode":"CF72 8ED","la":"Rhondda Cynon Taf","era":"trad","nn":0,"risk":20,"cat":"green"},{"name":"The New Inn","lat":51.74977,"lon":-3.57183,"postcode":"CF44 9YU","la":"Rhondda Cynon Taf","era":"trad","nn":1313,"risk":52,"cat":"amber"},{"name":"The New Inn Hotel","lat":51.64636,"lon":-3.4888,"postcode":"CF41 7ED","la":"Rhondda Cynon Taf","era":"trad","nn":77,"risk":21,"cat":"green"},{"name":"The New Inn Hotel","lat":51.6706,"lon":-3.52913,"postcode":"CF42 5AG","la":"Rhondda Cynon Taf","era":"trad","nn":154,"risk":22,"cat":"green"},{"name":"The New Market Tavern","lat":51.71335,"lon":-3.44307,"postcode":"CF44 7DY","la":"Rhondda Cynon Taf","era":"other","nn":0,"risk":20,"cat":"green"},{"name":"The Old Bwl Inn","lat":51.64678,"lon":-3.36695,"postcode":"CF37 3LS","la":"Rhondda Cynon Taf","era":"trad","nn":689,"risk":43,"cat":"amber"},{"name":"The Otley Arms","lat":51.59174,"lon":-3.32426,"postcode":"CF37 1SY","la":"Rhondda Cynon Taf","era":"trad","nn":172,"risk":22,"cat":"green"},{"name":"The Patriot","lat":51.60373,"lon":-3.34061,"postcode":"CF37 4UA","la":"Rhondda Cynon Taf","era":"other","nn":67,"risk":21,"cat":"green"},{"name":"The Penny Farthing / Porky's","lat":51.53784,"lon":-3.37163,"postcode":"CF72 8DG","la":"Rhondda Cynon Taf","era":"other","nn":175,"risk":22,"cat":"green"},{"name":"The Penylan Hotel","lat":51.70058,"lon":-3.42858,"postcode":"CF44 6ET","la":"Rhondda Cynon Taf","era":"other","nn":204,"risk":22,"cat":"green"},{"name":"The Pipeworks Bar","lat":51.52231,"lon":-3.3927,"postcode":"CF72 9EE","la":"Rhondda Cynon Taf","era":"mod","nn":110,"risk":21,"cat":"green"},{"name":"The Plough Inn","lat":51.70352,"lon":-3.43054,"postcode":"CF44 6PY","la":"Rhondda Cynon Taf","era":"trad","nn":0,"risk":20,"cat":"green"},{"name":"The Pottery","lat":51.56483,"lon":-3.28256,"postcode":"CF37 5YR","la":"Rhondda Cynon Taf","era":"other","nn":955,"risk":47,"cat":"amber"},{"name":"The Prince of Wales","lat":51.73815,"lon":-3.51047,"postcode":"CF44 9NP","la":"Rhondda Cynon Taf","era":"trad","nn":173,"risk":27,"cat":"green"},{"name":"The Prince of Wales","lat":51.6598,"lon":-3.50518,"postcode":"CF42 6AA","la":"Rhondda Cynon Taf","era":"trad","nn":35,"risk":21,"cat":"green"},{"name":"The Queen Victoria Inn","lat":51.70484,"lon":-3.41498,"postcode":"CF44 0AL","la":"Rhondda Cynon Taf","era":"trad","nn":484,"risk":29,"cat":"green"},{"name":"The Queens Hotel","lat":51.65425,"lon":-3.49121,"postcode":"CF41 7BU","la":"Rhondda Cynon Taf","era":"trad","nn":218,"risk":22,"cat":"green"},{"name":"The Railway Inn","lat":51.59622,"lon":-3.32844,"postcode":"CF37 1BH","la":"Rhondda Cynon Taf","era":"trad","nn":0,"risk":20,"cat":"green"},{"name":"The Rheola Hotel","lat":51.61521,"lon":-3.41092,"postcode":"CF39 0LF","la":"Rhondda Cynon Taf","era":"other","nn":275,"risk":22,"cat":"green"},{"name":"The Roberttown Hotel","lat":51.63717,"lon":-3.35779,"postcode":"CF37 3DU","la":"Rhondda Cynon Taf","era":"other","nn":180,"risk":27,"cat":"green"},{"name":"The Rock Inn","lat":51.70278,"lon":-3.42864,"postcode":"CF44 6RB","la":"Rhondda Cynon Taf","era":"trad","nn":43,"risk":21,"cat":"green"},{"name":"The Shepherds Arms","lat":51.68558,"lon":-3.44239,"postcode":"CF44 6NS","la":"Rhondda Cynon Taf","era":"trad","nn":593,"risk":30,"cat":"green"},{"name":"The Ship Inn","lat":51.55019,"lon":-3.33573,"postcode":"CF38 1BH","la":"Rhondda Cynon Taf","era":"trad","nn":864,"risk":44,"cat":"amber"},{"name":"The Skinny Dog","lat":51.59947,"lon":-3.34054,"postcode":"CF37 1BA","la":"Rhondda Cynon Taf","era":"trad","nn":0,"risk":20,"cat":"green"},{"name":"The Stag","lat":51.65951,"lon":-3.50499,"postcode":"CF42 6AT","la":"Rhondda Cynon Taf","era":"trad","nn":35,"risk":21,"cat":"green"},{"name":"The Station Hotel","lat":51.62701,"lon":-3.41116,"postcode":"CF39 0EN","la":"Rhondda Cynon Taf","era":"other","nn":249,"risk":22,"cat":"green"},{"name":"The Tonglwyd Fawr Inn","lat":51.71882,"lon":-3.47648,"postcode":"CF44 8UB","la":"Rhondda Cynon Taf","era":"trad","nn":361,"risk":40,"cat":"amber"},{"name":"The Trebanog","lat":51.60083,"lon":-3.42349,"postcode":"CF39 9YS","la":"Rhondda Cynon Taf","era":"other","nn":488,"risk":44,"cat":"amber"},{"name":"The Tumble Inn","lat":51.59947,"lon":-3.34054,"postcode":"CF37 1BA","la":"Rhondda Cynon Taf","era":"trad","nn":0,"risk":20,"cat":"green"},{"name":"The Wheatsheaf Hotel","lat":51.54117,"lon":-3.37389,"postcode":"CF72 8BQ","la":"Rhondda Cynon Taf","era":"trad","nn":97,"risk":21,"cat":"green"},{"name":"The Whitcombe Inn","lat":51.71525,"lon":-3.44578,"postcode":"CF44 7DA","la":"Rhondda Cynon Taf","era":"trad","nn":101,"risk":21,"cat":"green"},{"name":"The White Lion Hotel","lat":51.71637,"lon":-3.45211,"postcode":"CF44 8AE","la":"Rhondda Cynon Taf","era":"trad","nn":145,"risk":21,"cat":"green"},{"name":"The Windsor Arms","lat":51.64705,"lon":-3.48885,"postcode":"CF41 7EG","la":"Rhondda Cynon Taf","era":"trad","nn":77,"risk":21,"cat":"green"},{"name":"The Windsor Hotel","lat":51.52469,"lon":-3.38987,"postcode":"CF72 9DQ","la":"Rhondda Cynon Taf","era":"other","nn":0,"risk":20,"cat":"green"},{"name":"The Wyndham Hotel","lat":51.67834,"lon":-3.54517,"postcode":"CF42 5BS","la":"Rhondda Cynon Taf","era":"other","nn":0,"risk":20,"cat":"green"},{"name":"The Ynyscynon Hotel","lat":51.62874,"lon":-3.45213,"postcode":"CF40 2LL","la":"Rhondda Cynon Taf","era":"other","nn":347,"risk":23,"cat":"green"},{"name":"The Ynyscynon Inn","lat":51.71141,"lon":-3.42846,"postcode":"CF44 0PA","la":"Rhondda Cynon Taf","era":"trad","nn":697,"risk":25,"cat":"green"},{"name":"Thomastown Social Club & Institute","lat":51.57247,"lon":-3.43313,"postcode":"CF39 8DS","la":"Rhondda Cynon Taf","era":"mod","nn":432,"risk":41,"cat":"amber"},{"name":"Thorn Hotel","lat":51.6479,"lon":-3.33,"postcode":"CF45 4PR","la":"Rhondda Cynon Taf","era":"other","nn":296,"risk":25,"cat":"green"},{"name":"Tirfounder Fields","lat":51.70203,"lon":-3.42035,"postcode":"CF44 0AH","la":"Rhondda Cynon Taf","era":"other","nn":484,"risk":24,"cat":"green"},{"name":"Ton Pentre AFC Social Club","lat":51.64689,"lon":-3.48539,"postcode":"CF41 7AF","la":"Rhondda Cynon Taf","era":"mod","nn":239,"risk":22,"cat":"green"},{"name":"Tonyrefail RFC","lat":51.58407,"lon":-3.42641,"postcode":"CF39 8PH","la":"Rhondda Cynon Taf","era":"other","nn":225,"risk":27,"cat":"green"},{"name":"Tonyrefail Workingmens Club","lat":51.58425,"lon":-3.4329,"postcode":"CF39 8EW","la":"Rhondda Cynon Taf","era":"trad","nn":236,"risk":27,"cat":"green"},{"name":"Trallwn Workmens Club and Institute Ltd","lat":51.61114,"lon":-3.3281,"postcode":"CF37 4LR","la":"Rhondda Cynon Taf","era":"other","nn":131,"risk":21,"cat":"green"},{"name":"Treforest Football Club","lat":51.5926,"lon":-3.32999,"postcode":"CF37 1AD","la":"Rhondda Cynon Taf","era":"other","nn":354,"risk":23,"cat":"green"},{"name":"Trehafod & District Social Club","lat":51.61017,"lon":-3.38603,"postcode":"CF37 2NP","la":"Rhondda Cynon Taf","era":"mod","nn":147,"risk":26,"cat":"green"},{"name":"Treherbert RFC","lat":51.67834,"lon":-3.54517,"postcode":"CF42 5BS","la":"Rhondda Cynon Taf","era":"other","nn":0,"risk":20,"cat":"green"},{"name":"Tremains Hotel","lat":51.65074,"lon":-3.52764,"postcode":"CF42 6LG","la":"Rhondda Cynon Taf","era":"other","nn":399,"risk":43,"cat":"amber"},{"name":"Treorchy Businessmens Club Ltd","lat":51.65903,"lon":-3.50292,"postcode":"CF42 6NU","la":"Rhondda Cynon Taf","era":"other","nn":152,"risk":21,"cat":"green"},{"name":"Treorchy RFC","lat":51.65778,"lon":-3.50077,"postcode":"CF42 6PN","la":"Rhondda Cynon Taf","era":"other","nn":203,"risk":22,"cat":"green"},{"name":"Trisant Masonic Hall","lat":51.52152,"lon":-3.39514,"postcode":"CF72 9BR","la":"Rhondda Cynon Taf","era":"trad","nn":191,"risk":22,"cat":"green"},{"name":"Turberville Arms","lat":51.61413,"lon":-3.44807,"postcode":"CF40 1LA","la":"Rhondda Cynon Taf","era":"trad","nn":75,"risk":21,"cat":"green"},{"name":"Turberville Hotel","lat":51.53811,"lon":-3.44101,"postcode":"CF72 9QA","la":"Rhondda Cynon Taf","era":"other","nn":0,"risk":38,"cat":"amber"},{"name":"Tylorstown Community Club/RFC","lat":51.64102,"lon":-3.4403,"postcode":"CF43 3PN","la":"Rhondda Cynon Taf","era":"other","nn":677,"risk":25,"cat":"green"},{"name":"Tylorstown Ex Servicemens Club","lat":51.64796,"lon":-3.43173,"postcode":"CF43 3DA","la":"Rhondda Cynon Taf","era":"other","nn":0,"risk":38,"cat":"amber"},{"name":"Tylorstown Welfare Hall & Institute","lat":51.64796,"lon":-3.43173,"postcode":"CF43 3DA","la":"Rhondda Cynon Taf","era":"other","nn":0,"risk":38,"cat":"amber"},{"name":"Tymawr Inn","lat":51.60741,"lon":-3.35429,"postcode":"CF37 2RS","la":"Rhondda Cynon Taf","era":"trad","nn":357,"risk":23,"cat":"green"},{"name":"Tynewydd Hotel","lat":51.67915,"lon":-3.54559,"postcode":"CF42 5NA","la":"Rhondda Cynon Taf","era":"other","nn":95,"risk":24,"cat":"green"},{"name":"Union Jack Ex Servicemens Club","lat":51.62488,"lon":-3.41235,"postcode":"CF39 0NR","la":"Rhondda Cynon Taf","era":"other","nn":128,"risk":21,"cat":"green"},{"name":"United Services Inn","lat":51.63965,"lon":-3.36041,"postcode":"CF37 3HS","la":"Rhondda Cynon Taf","era":"trad","nn":150,"risk":24,"cat":"green"},{"name":"University of South Wales Students Union","lat":51.58794,"lon":-3.32787,"postcode":"CF37 1UF","la":"Rhondda Cynon Taf","era":"other","nn":491,"risk":24,"cat":"green"},{"name":"Upper Boat Inn","lat":51.57698,"lon":-3.29501,"postcode":"CF37 5BH","la":"Rhondda Cynon Taf","era":"trad","nn":720,"risk":43,"cat":"amber"},{"name":"Victoria Inn","lat":51.59807,"lon":-3.34275,"postcode":"CF37 1QX","la":"Rhondda Cynon Taf","era":"trad","nn":97,"risk":21,"cat":"green"},{"name":"Wattstown RFC","lat":51.63236,"lon":-3.41492,"postcode":"CF39 0RD","la":"Rhondda Cynon Taf","era":"other","nn":199,"risk":24,"cat":"green"},{"name":"Wattstown Social Welfare Club","lat":51.63363,"lon":-3.4129,"postcode":"CF39 0RA","la":"Rhondda Cynon Taf","era":"mod","nn":199,"risk":24,"cat":"green"},{"name":"Wayne Morgan Constitutional Club","lat":51.60958,"lon":-3.37659,"postcode":"CF37 2LS","la":"Rhondda Cynon Taf","era":"other","nn":509,"risk":41,"cat":"amber"},{"name":"Welcome Inn","lat":51.61905,"lon":-3.45071,"postcode":"CF40 1AW","la":"Rhondda Cynon Taf","era":"trad","nn":228,"risk":22,"cat":"green"},{"name":"Welsh Harp/Cross Inn","lat":51.72068,"lon":-3.45722,"postcode":"CF44 8LU","la":"Rhondda Cynon Taf","era":"trad","nn":114,"risk":21,"cat":"green"},{"name":"White Dragon","lat":51.66227,"lon":-3.51137,"postcode":"CF42 6BN","la":"Rhondda Cynon Taf","era":"trad","nn":129,"risk":21,"cat":"green"},{"name":"White Hills","lat":51.53611,"lon":-3.46841,"postcode":"CF72 9QF","la":"Rhondda Cynon Taf","era":"other","nn":488,"risk":44,"cat":"amber"},{"name":"Wyndham Constitutional Club","lat":51.61225,"lon":-3.41073,"postcode":"CF39 9BE","la":"Rhondda Cynon Taf","era":"other","nn":125,"risk":21,"cat":"green"},{"name":"Ynyshir & District Workmens Club","lat":51.61998,"lon":-3.41122,"postcode":"CF39 0AU","la":"Rhondda Cynon Taf","era":"other","nn":532,"risk":24,"cat":"green"},{"name":"Ynysybwl Constitutional Club","lat":51.6385,"lon":-3.35926,"postcode":"CF37 3HR","la":"Rhondda Cynon Taf","era":"other","nn":150,"risk":26,"cat":"green"},{"name":"Ynysybwl RFC","lat":51.64107,"lon":-3.36308,"postcode":"CF37 3HU","la":"Rhondda Cynon Taf","era":"other","nn":243,"risk":25,"cat":"green"},{"name":"Yr Ieuan Ap Iago","lat":51.71261,"lon":-3.44665,"postcode":"CF44 7AA","la":"Rhondda Cynon Taf","era":"other","nn":89,"risk":21,"cat":"green"},{"name":"Ystrad Rhondda RFC","lat":51.6445,"lon":-3.46438,"postcode":"CF41 7RQ","la":"Rhondda Cynon Taf","era":"other","nn":323,"risk":40,"cat":"amber"},{"name":"Ystradfechan Bowls Club","lat":51.6564,"lon":-3.50863,"postcode":"CF42 6HL","la":"Rhondda Cynon Taf","era":"other","nn":427,"risk":23,"cat":"green"},{"name":"1 Town Hall Square","lat":51.46204,"lon":-3.44745,"postcode":"CF71 7DD","la":"Vale of Glamorgan","era":"other","nn":68,"risk":30,"cat":"green"},{"name":"Academy 297","lat":51.39912,"lon":-3.2791,"postcode":"CF62 5QU","la":"Vale of Glamorgan","era":"other","nn":0,"risk":27,"cat":"green"},{"name":"Aubrey Arms","lat":51.45218,"lon":-3.35342,"postcode":"CF5 6TQ","la":"Vale of Glamorgan","era":"trad","nn":812,"risk":53,"cat":"amber"},{"name":"Baroque Night Club","lat":51.43898,"lon":-3.17521,"postcode":"CF64 1JH","la":"Vale of Glamorgan","era":"other","nn":69,"risk":27,"cat":"green"},{"name":"Barry Island Sports & Social Club","lat":51.39416,"lon":-3.26593,"postcode":"CF62 5TT","la":"Vale of Glamorgan","era":"mod","nn":327,"risk":34,"cat":"amber"},{"name":"Barry Rugby Club","lat":51.42038,"lon":-3.27178,"postcode":"CF62 9TH","la":"Vale of Glamorgan","era":"other","nn":896,"risk":51,"cat":"amber"},{"name":"Barry West End Club","lat":51.39504,"lon":-3.28861,"postcode":"CF62 6QY","la":"Vale of Glamorgan","era":"other","nn":205,"risk":28,"cat":"green"},{"name":"Baruc Arms","lat":51.39975,"lon":-3.28347,"postcode":"CF62 7DX","la":"Vale of Glamorgan","era":"trad","nn":38,"risk":27,"cat":"green"},{"name":"Blue Anchor","lat":51.39125,"lon":-3.38795,"postcode":"CF62 3DD","la":"Vale of Glamorgan","era":"trad","nn":1580,"risk":60,"cat":"amber"},{"name":"Brewers Fayre","lat":51.3997,"lon":-3.27926,"postcode":"CF62 5QN","la":"Vale of Glamorgan","era":"other","nn":66,"risk":27,"cat":"green"},{"name":"Bridgend Golf Complex","lat":51.48627,"lon":-3.55013,"postcode":"CF35 5AS","la":"Vale of Glamorgan","era":"other","nn":257,"risk":49,"cat":"amber"},{"name":"Brynhill Golf Club","lat":51.42124,"lon":-3.28608,"postcode":"CF62 8PN","la":"Vale of Glamorgan","era":"other","nn":476,"risk":48,"cat":"amber"},{"name":"Cadoxton Conservative Club","lat":51.41082,"lon":-3.25228,"postcode":"CF63 2HU","la":"Vale of Glamorgan","era":"other","nn":513,"risk":35,"cat":"amber"},{"name":"Captains Wife (Vintage Inns)","lat":51.40193,"lon":-3.20051,"postcode":"CF64 5UG","la":"Vale of Glamorgan","era":"trad","nn":1512,"risk":60,"cat":"amber"},{"name":"Cefn Mably","lat":51.43198,"lon":-3.187,"postcode":"CF64 3NW","la":"Vale of Glamorgan","era":"other","nn":552,"risk":31,"cat":"amber"},{"name":"Cherry Orchard","lat":51.40895,"lon":-3.27789,"postcode":"CF62 8EH","la":"Vale of Glamorgan","era":"other","nn":449,"risk":30,"cat":"green"},{"name":"Cogan Coronation Club & Institute","lat":51.44289,"lon":-3.18712,"postcode":"CF64 2JZ","la":"Vale of Glamorgan","era":"other","nn":396,"risk":30,"cat":"green"},{"name":"Compass Kitchen","lat":51.39316,"lon":-3.26151,"postcode":"CF62 5QS","la":"Vale of Glamorgan","era":"mod","nn":327,"risk":47,"cat":"amber"},{"name":"Craft Republic","lat":51.39891,"lon":-3.28005,"postcode":"CF62 5QT","la":"Vale of Glamorgan","era":"mod","nn":70,"risk":27,"cat":"green"},{"name":"Cross Keys Inn","lat":51.43451,"lon":-3.21815,"postcode":"CF64 4AA","la":"Vale of Glamorgan","era":"trad","nn":127,"risk":33,"cat":"amber"},{"name":"Dinas Powys Athletic (RF) Ltd","lat":51.4313,"lon":-3.22581,"postcode":"CF64 4DU","la":"Vale of Glamorgan","era":"other","nn":490,"risk":33,"cat":"amber"},{"name":"Dinas Powys Bowls Club","lat":51.43241,"lon":-3.23265,"postcode":"CF64 4HB","la":"Vale of Glamorgan","era":"other","nn":490,"risk":35,"cat":"amber"},{"name":"Farmers Arms","lat":51.46764,"lon":-3.42875,"postcode":"CF71 7LG","la":"Vale of Glamorgan","era":"trad","nn":1325,"risk":59,"cat":"amber"},{"name":"Finnegan's Inn","lat":51.39222,"lon":-3.27528,"postcode":"CF62 5TH","la":"Vale of Glamorgan","era":"trad","nn":169,"risk":28,"cat":"green"},{"name":"Fontygary Inn Ltd","lat":51.38935,"lon":-3.36539,"postcode":"CF62 3DZ","la":"Vale of Glamorgan","era":"trad","nn":239,"risk":46,"cat":"amber"},{"name":"Fox and Hounds","lat":51.42424,"lon":-3.36518,"postcode":"CF62 3AD","la":"Vale of Glamorgan","era":"trad","nn":2120,"risk":64,"cat":"red"},{"name":"Gileston Manor","lat":51.39416,"lon":-3.41332,"postcode":"CF62 4HX","la":"Vale of Glamorgan","era":"other","nn":929,"risk":53,"cat":"amber"},{"name":"Gin 64","lat":51.43598,"lon":-3.17585,"postcode":"CF64 3ED","la":"Vale of Glamorgan","era":"other","nn":126,"risk":28,"cat":"green"},{"name":"Glamorganshire Golf Club","lat":51.41839,"lon":-3.17921,"postcode":"CF64 5UP","la":"Vale of Glamorgan","era":"other","nn":0,"risk":47,"cat":"amber"},{"name":"Glenbrook Inn","lat":51.41846,"lon":-3.24383,"postcode":"CF63 2NP","la":"Vale of Glamorgan","era":"trad","nn":619,"risk":49,"cat":"amber"},{"name":"Golden Mile Inn","lat":51.48504,"lon":-3.547,"postcode":"CF35 5BA","la":"Vale of Glamorgan","era":"trad","nn":257,"risk":49,"cat":"amber"},{"name":"Golf Club Catering","lat":51.41092,"lon":-3.41483,"postcode":"CF62 4LJ","la":"Vale of Glamorgan","era":"other","nn":948,"risk":53,"cat":"amber"},{"name":"GoodBar","lat":51.39912,"lon":-3.2791,"postcode":"CF62 5QU","la":"Vale of Glamorgan","era":"other","nn":0,"risk":27,"cat":"green"},{"name":"Horse & Groom (wet sales only)","lat":51.46186,"lon":-3.446,"postcode":"CF71 7AD","la":"Vale of Glamorgan","era":"trad","nn":102,"risk":30,"cat":"green"},{"name":"Kanya Bar","lat":51.39905,"lon":-3.28748,"postcode":"CF62 7BA","la":"Vale of Glamorgan","era":"other","nn":220,"risk":28,"cat":"green"},{"name":"King William","lat":51.41641,"lon":-3.25546,"postcode":"CF63 1LD","la":"Vale of Glamorgan","era":"trad","nn":660,"risk":34,"cat":"amber"},{"name":"Kings Head Hotel","lat":51.40865,"lon":-3.4842,"postcode":"CF61 1XY","la":"Vale of Glamorgan","era":"trad","nn":0,"risk":27,"cat":"green"},{"name":"Llandough & Leckwith Royal British Legion Club","lat":51.45061,"lon":-3.19934,"postcode":"CF64 2LT","la":"Vale of Glamorgan","era":"trad","nn":560,"risk":51,"cat":"amber"},{"name":"LLANTWIT MAJOR RFC","lat":51.40851,"lon":-3.48211,"postcode":"CF61 1XZ","la":"Vale of Glamorgan","era":"other","nn":146,"risk":28,"cat":"green"},{"name":"Marconi Inn","lat":51.40787,"lon":-3.18091,"postcode":"CF64 5UL","la":"Vale of Glamorgan","era":"trad","nn":1176,"risk":58,"cat":"amber"},{"name":"Merrie Harrier Hotel","lat":51.4457,"lon":-3.19754,"postcode":"CF64 2NY","la":"Vale of Glamorgan","era":"other","nn":560,"risk":36,"cat":"amber"},{"name":"Mezze@ The Farmers Arms","lat":51.4588,"lon":-3.59152,"postcode":"CF32 0SE","la":"Vale of Glamorgan","era":"trad","nn":1470,"risk":60,"cat":"amber"},{"name":"O'briens","lat":51.40598,"lon":-3.26503,"postcode":"CF63 4HL","la":"Vale of Glamorgan","era":"other","nn":4,"risk":27,"cat":"green"},{"name":"Old Penarthians Club","lat":51.42725,"lon":-3.1846,"postcode":"CF64 3PF","la":"Vale of Glamorgan","era":"other","nn":520,"risk":48,"cat":"amber"},{"name":"Penarth Athletic Club","lat":51.41839,"lon":-3.17921,"postcode":"CF64 5UP","la":"Vale of Glamorgan","era":"other","nn":0,"risk":47,"cat":"amber"},{"name":"Penarth Bowling Club","lat":51.43706,"lon":-3.17257,"postcode":"CF64 3AN","la":"Vale of Glamorgan","era":"other","nn":0,"risk":27,"cat":"green"},{"name":"Penarth Conservative Club","lat":51.43711,"lon":-3.17582,"postcode":"CF64 2EZ","la":"Vale of Glamorgan","era":"other","nn":126,"risk":28,"cat":"green"},{"name":"Penarth Ex-Servicemans Club","lat":51.43998,"lon":-3.1772,"postcode":"CF64 1JE","la":"Vale of Glamorgan","era":"other","nn":0,"risk":27,"cat":"green"},{"name":"Penarth Labour Club & Institute","lat":51.43984,"lon":-3.17468,"postcode":"CF64 1ED","la":"Vale of Glamorgan","era":"other","nn":33,"risk":27,"cat":"green"},{"name":"Penarth Lawn Tennis Club","lat":51.43706,"lon":-3.17257,"postcode":"CF64 3AN","la":"Vale of Glamorgan","era":"other","nn":0,"risk":27,"cat":"green"},{"name":"Penarth Road Snooker Club","lat":51.46211,"lon":-3.19407,"postcode":"CF11 8TT","la":"Cardiff","era":"other","nn":998,"risk":50,"cat":"amber"},{"name":"Penarth Yacht Club","lat":51.43444,"lon":-3.16814,"postcode":"CF64 3AU","la":"Vale of Glamorgan","era":"other","nn":367,"risk":29,"cat":"green"},{"name":"Phoenix Catering","lat":51.43609,"lon":-3.18074,"postcode":"CF64 3LR","la":"Vale of Glamorgan","era":"other","nn":339,"risk":29,"cat":"green"},{"name":"Pier and Piano","lat":51.43965,"lon":-3.17765,"postcode":"CF64 1JJ","la":"Vale of Glamorgan","era":"other","nn":48,"risk":27,"cat":"green"},{"name":"Plough and Harrow, Monknash","lat":51.42312,"lon":-3.55799,"postcode":"CF71 7QQ","la":"Vale of Glamorgan","era":"trad","nn":1769,"risk":62,"cat":"red"},{"name":"Railway Hotel","lat":51.43412,"lon":-3.17341,"postcode":"CF64 3DA","la":"Vale of Glamorgan","era":"trad","nn":268,"risk":29,"cat":"green"},{"name":"Rhoose & District Social Club","lat":51.38915,"lon":-3.34884,"postcode":"CF62 3DR","la":"Vale of Glamorgan","era":"mod","nn":909,"risk":53,"cat":"amber"},{"name":"Rhoose Bowling Club","lat":51.38933,"lon":-3.36194,"postcode":"CF62 3FT","la":"Vale of Glamorgan","era":"other","nn":239,"risk":34,"cat":"amber"},{"name":"Ship Inn","lat":51.39402,"lon":-3.28615,"postcode":"CF62 5SB","la":"Vale of Glamorgan","era":"trad","nn":205,"risk":28,"cat":"green"},{"name":"Sir Samuel Romilly","lat":51.39855,"lon":-3.28437,"postcode":"CF62 7AU","la":"Vale of Glamorgan","era":"trad","nn":22,"risk":27,"cat":"green"},{"name":"Soraya's Cocktails and Desserts","lat":51.40602,"lon":-3.26502,"postcode":"CF63 4HL","la":"Vale of Glamorgan","era":"other","nn":4,"risk":27,"cat":"green"},{"name":"Southerndown Golf Club (wet sales only)","lat":51.47978,"lon":-3.60891,"postcode":"CF32 0QP","la":"Vale of Glamorgan","era":"other","nn":141,"risk":48,"cat":"amber"},{"name":"St Andrews Major Golf Club","lat":51.42333,"lon":-3.23949,"postcode":"CF63 1BL","la":"Vale of Glamorgan","era":"other","nn":619,"risk":51,"cat":"amber"},{"name":"St Fagans Castle","lat":51.43955,"lon":-3.17481,"postcode":"CF64 1EB","la":"Vale of Glamorgan","era":"other","nn":33,"risk":27,"cat":"green"},{"name":"Star Inn","lat":51.43371,"lon":-3.21947,"postcode":"CF64 4DE","la":"Vale of Glamorgan","era":"trad","nn":0,"risk":29,"cat":"green"},{"name":"Tadross Hotel","lat":51.40818,"lon":-3.25836,"postcode":"CF63 4HT","la":"Vale of Glamorgan","era":"other","nn":513,"risk":30,"cat":"green"},{"name":"The Barley Mow","lat":51.48815,"lon":-3.47327,"postcode":"CF71 7RT","la":"Vale of Glamorgan","era":"other","nn":1377,"risk":59,"cat":"amber"},{"name":"The Bear Hotel","lat":51.46239,"lon":-3.44948,"postcode":"CF71 7AF","la":"Vale of Glamorgan","era":"other","nn":78,"risk":30,"cat":"green"},{"name":"The Bier Keller","lat":51.39099,"lon":-3.27671,"postcode":"CF62 5TQ","la":"Vale of Glamorgan","era":"other","nn":169,"risk":28,"cat":"green"},{"name":"The Buck Sports Bar & Grill","lat":51.40528,"lon":-3.2692,"postcode":"CF63 4HE","la":"Vale of Glamorgan","era":"mod","nn":0,"risk":27,"cat":"green"},{"name":"The Bush Inn","lat":51.44999,"lon":-3.41436,"postcode":"CF71 7DP","la":"Vale of Glamorgan","era":"trad","nn":2079,"risk":64,"cat":"red"},{"name":"The Butterfly Collector","lat":51.40528,"lon":-3.2692,"postcode":"CF63 4HE","la":"Vale of Glamorgan","era":"other","nn":0,"risk":27,"cat":"green"},{"name":"The Clive Arms","lat":51.44307,"lon":-3.16905,"postcode":"CF64 1DN","la":"Vale of Glamorgan","era":"trad","nn":297,"risk":29,"cat":"green"},{"name":"The Colcot Arms","lat":51.41723,"lon":-3.28367,"postcode":"CF62 8UJ","la":"Vale of Glamorgan","era":"trad","nn":476,"risk":48,"cat":"amber"},{"name":"The Cross Inn","lat":51.45804,"lon":-3.4702,"postcode":"CF71 7JF","la":"Vale of Glamorgan","era":"trad","nn":1515,"risk":60,"cat":"amber"},{"name":"The Dock town Bar","lat":51.39947,"lon":-3.28316,"postcode":"CF62 7AB","la":"Vale of Glamorgan","era":"other","nn":38,"risk":27,"cat":"green"},{"name":"The Edmondes Arms (wet sales only)","lat":51.45852,"lon":-3.44106,"postcode":"CF71 7EP","la":"Vale of Glamorgan","era":"trad","nn":505,"risk":33,"cat":"amber"},{"name":"The Fox","lat":51.4765,"lon":-3.47999,"postcode":"CF71 7RQ","la":"Vale of Glamorgan","era":"trad","nn":1377,"risk":59,"cat":"amber"},{"name":"The Golden Lion","lat":51.44165,"lon":-3.17474,"postcode":"CF64 1EF","la":"Vale of Glamorgan","era":"trad","nn":199,"risk":28,"cat":"green"},{"name":"The Highwayman Inn","lat":51.39608,"lon":-3.36087,"postcode":"CF62 3BH","la":"Vale of Glamorgan","era":"trad","nn":755,"risk":50,"cat":"amber"},{"name":"The Horse & Jockey","lat":51.45638,"lon":-3.27333,"postcode":"CF5 6BG","la":"Vale of Glamorgan","era":"trad","nn":650,"risk":51,"cat":"amber"},{"name":"The Lamb & Flag","lat":51.43826,"lon":-3.55016,"postcode":"CF71 7QE","la":"Vale of Glamorgan","era":"other","nn":376,"risk":49,"cat":"amber"},{"name":"The Market Street Club","lat":51.39875,"lon":-3.28435,"postcode":"CF62 7AS","la":"Vale of Glamorgan","era":"other","nn":22,"risk":27,"cat":"green"},{"name":"The Old Swan Inn","lat":51.40825,"lon":-3.48598,"postcode":"CF61 1SB","la":"Vale of Glamorgan","era":"trad","nn":33,"risk":27,"cat":"green"},{"name":"The Old White Hart","lat":51.40872,"lon":-3.4869,"postcode":"CF61 1RZ","la":"Vale of Glamorgan","era":"trad","nn":77,"risk":27,"cat":"green"},{"name":"The Oystercatcher","lat":51.44628,"lon":-3.18535,"postcode":"CF64 1SB","la":"Vale of Glamorgan","era":"other","nn":396,"risk":30,"cat":"green"},{"name":"The Pelican Inn","lat":51.48053,"lon":-3.60727,"postcode":"CF32 0QP","la":"Vale of Glamorgan","era":"trad","nn":141,"risk":48,"cat":"amber"},{"name":"the pilot pub","lat":51.44321,"lon":-3.17333,"postcode":"CF64 1DJ","la":"Vale of Glamorgan","era":"other","nn":199,"risk":28,"cat":"green"},{"name":"The Red Lion Bonvilston","lat":51.45943,"lon":-3.3548,"postcode":"CF5 6TR","la":"Vale of Glamorgan","era":"trad","nn":812,"risk":53,"cat":"amber"},{"name":"The Savoy Social Club","lat":51.40285,"lon":-3.27549,"postcode":"CF62 7AJ","la":"Vale of Glamorgan","era":"mod","nn":437,"risk":30,"cat":"green"},{"name":"The Star","lat":51.4948,"lon":-3.52479,"postcode":"CF35 5DL","la":"Vale of Glamorgan","era":"other","nn":1356,"risk":59,"cat":"amber"},{"name":"The Star Inn","lat":51.4416,"lon":-3.55104,"postcode":"CF71 7QA","la":"Vale of Glamorgan","era":"trad","nn":376,"risk":49,"cat":"amber"},{"name":"The Sycamore Tree","lat":51.4674,"lon":-3.52646,"postcode":"CF71 7NG","la":"Vale of Glamorgan","era":"other","nn":2423,"risk":66,"cat":"red"},{"name":"The Three Horseshoes","lat":51.40241,"lon":-3.41548,"postcode":"CF62 4PF","la":"Vale of Glamorgan","era":"trad","nn":929,"risk":51,"cat":"amber"},{"name":"The Three Horseshoes Inn","lat":51.47887,"lon":-3.32219,"postcode":"CF5 6LH","la":"Vale of Glamorgan","era":"trad","nn":3126,"risk":71,"cat":"red"},{"name":"The Walston Castle","lat":51.45317,"lon":-3.26548,"postcode":"CF5 6DD","la":"Vale of Glamorgan","era":"other","nn":571,"risk":48,"cat":"amber"},{"name":"The White Lion","lat":51.48924,"lon":-3.42487,"postcode":"CF71 7SY","la":"Vale of Glamorgan","era":"trad","nn":2417,"risk":66,"cat":"red"},{"name":"The Windsor","lat":51.43998,"lon":-3.1772,"postcode":"CF64 1JE","la":"Vale of Glamorgan","era":"other","nn":0,"risk":27,"cat":"green"},{"name":"Three Golden Cups","lat":51.45229,"lon":-3.60999,"postcode":"CF32 0RW","la":"Vale of Glamorgan","era":"other","nn":1470,"risk":60,"cat":"amber"},{"name":"Three Horseshoes","lat":51.4228,"lon":-3.33468,"postcode":"CF62 3AB","la":"Vale of Glamorgan","era":"trad","nn":2120,"risk":64,"cat":"red"},{"name":"Three Horseshoes","lat":51.43371,"lon":-3.21947,"postcode":"CF64 4DE","la":"Vale of Glamorgan","era":"trad","nn":0,"risk":29,"cat":"green"},{"name":"Toby Carvery","lat":51.40782,"lon":-3.30433,"postcode":"CF62 3BA","la":"Vale of Glamorgan","era":"other","nn":1522,"risk":60,"cat":"amber"},{"name":"Tudor Tavern","lat":51.40811,"lon":-3.4864,"postcode":"CF61 1SB","la":"Vale of Glamorgan","era":"other","nn":33,"risk":27,"cat":"green"},{"name":"Tynewydd inn","lat":51.41015,"lon":-3.27171,"postcode":"CF62 8BB","la":"Vale of Glamorgan","era":"trad","nn":449,"risk":30,"cat":"green"},{"name":"Vale Of Glamorgan Inn","lat":51.46217,"lon":-3.4484,"postcode":"CF71 7AE","la":"Vale of Glamorgan","era":"trad","nn":68,"risk":30,"cat":"green"},{"name":"Victoria Inn","lat":51.43545,"lon":-3.48048,"postcode":"CF71 7LP","la":"Vale of Glamorgan","era":"trad","nn":2611,"risk":68,"cat":"red"},{"name":"Wenvoe Arms","lat":51.44806,"lon":-3.26481,"postcode":"CF5 6AN","la":"Vale of Glamorgan","era":"trad","nn":571,"risk":51,"cat":"amber"},{"name":"White Lion","lat":51.40865,"lon":-3.4842,"postcode":"CF61 1XY","la":"Vale of Glamorgan","era":"trad","nn":0,"risk":27,"cat":"green"},{"name":"Windsor Bowls Club","lat":51.43012,"lon":-3.17868,"postcode":"CF64 3JF","la":"Vale of Glamorgan","era":"other","nn":520,"risk":30,"cat":"green"},{"name":"Witchill Hotel (wet sales only)","lat":51.41246,"lon":-3.26277,"postcode":"CF63 1BD","la":"Vale of Glamorgan","era":"other","nn":566,"risk":31,"cat":"amber"},{"name":"Y Castel (Airside)","lat":51.39859,"lon":-3.33911,"postcode":"CF62 3BD","la":"Vale of Glamorgan","era":"other","nn":1248,"risk":58,"cat":"amber"}]