[{"name":"The Woolpack Inn","lat":51.13743,"lon":-1.18535,"postcode":"SO24 9TJ","la":"Winchester","era":"trad","nn":5220,"risk":86,"cat":"red"},{"name":"The Yew Tree Inn","lat":51.15647,"lon":-1.09113,"postcode":"SO24 9RX","la":"East Hampshire","era":"trad","nn":3290,"risk":71,"cat":"red"},{"name":"3d HEALTH & FITNESS","lat":50.98022,"lon":-1.39255,"postcode":"SO53 4BW","la":"Eastleigh","era":"other","nn":723,"risk":32,"cat":"amber"},{"name":"ACORN SOCIAL CLUB","lat":50.96588,"lon":-1.29808,"postcode":"SO50 7GW","la":"Eastleigh","era":"mod","nn":128,"risk":28,"cat":"green"},{"name":"ADMIRAL CASINO","lat":50.96747,"lon":-1.3518,"postcode":"SO50 5RE","la":"Eastleigh","era":"other","nn":108,"risk":28,"cat":"green"},{"name":"Bishopstoke W.M. Social Club","lat":50.97075,"lon":-1.33638,"postcode":"SO50 6LS","la":"Eastleigh","era":"other","nn":140,"risk":45,"cat":"amber"},{"name":"BOTLEY BREWERY & HIDDEN TAP","lat":50.91467,"lon":-1.26875,"postcode":"SO30 2GB","la":"Eastleigh","era":"mod","nn":57,"risk":32,"cat":"amber"},{"name":"Chamberlayne Arms","lat":50.96615,"lon":-1.35433,"postcode":"SO50 5LS","la":"Eastleigh","era":"trad","nn":203,"risk":28,"cat":"green"},{"name":"Chandler's Ford Central Club","lat":50.98202,"lon":-1.38232,"postcode":"SO53 2FZ","la":"Eastleigh","era":"other","nn":37,"risk":27,"cat":"green"},{"name":"Chandlers Ford Snooker Club","lat":50.9823,"lon":-1.38204,"postcode":"SO53 2GD","la":"Eastleigh","era":"other","nn":21,"risk":27,"cat":"green"},{"name":"Churchills Club","lat":50.96876,"lon":-1.35478,"postcode":"SO50 5NX","la":"Eastleigh","era":"other","nn":123,"risk":28,"cat":"green"},{"name":"COOP MICROBAR","lat":50.91401,"lon":-1.30307,"postcode":"SO30 4FN","la":"Eastleigh","era":"other","nn":63,"risk":32,"cat":"amber"},{"name":"CRICKETERS ARMS","lat":50.96473,"lon":-1.29805,"postcode":"SO50 7AJ","la":"Eastleigh","era":"trad","nn":43,"risk":27,"cat":"green"},{"name":"EAST HORTON GOLF CENTRE","lat":50.96126,"lon":-1.27909,"postcode":"SO50 7EA","la":"Eastleigh","era":"other","nn":1249,"risk":58,"cat":"amber"},{"name":"Eastleigh Railway Institute","lat":50.97118,"lon":-1.35204,"postcode":"SO50 9FE","la":"Eastleigh","era":"trad","nn":127,"risk":28,"cat":"green"},{"name":"EASTLEIGH RUGBY CLUB","lat":50.97067,"lon":-1.34145,"postcode":"SO50 6LA","la":"Eastleigh","era":"other","nn":282,"risk":29,"cat":"green"},{"name":"EASTLEIGH WORKING CLUB","lat":50.97013,"lon":-1.35136,"postcode":"SO50 9FD","la":"Eastleigh","era":"trad","nn":32,"risk":27,"cat":"green"},{"name":"ENERGY YOUTH CENTRE","lat":50.96948,"lon":-1.35661,"postcode":"SO50 9DQ","la":"Eastleigh","era":"other","nn":151,"risk":28,"cat":"green"},{"name":"Fair Oak Cricket Club","lat":50.9588,"lon":-1.29788,"postcode":"SO50 7PS","la":"Eastleigh","era":"trad","nn":436,"risk":30,"cat":"green"},{"name":"FLEMING PARK BOWLING","lat":50.97096,"lon":-1.37048,"postcode":"SO50 9NL","la":"Eastleigh","era":"other","nn":795,"risk":37,"cat":"amber"},{"name":"Folland Sports & Social Club","lat":50.86303,"lon":-1.33241,"postcode":"SO31 4NF","la":"Eastleigh","era":"mod","nn":127,"risk":33,"cat":"amber"},{"name":"Fox & Hounds","lat":50.88224,"lon":-1.31841,"postcode":"SO31 8DE","la":"Eastleigh","era":"trad","nn":492,"risk":35,"cat":"amber"},{"name":"Fox and Hounds","lat":50.97596,"lon":-1.30292,"postcode":"SO50 7HB","la":"Eastleigh","era":"trad","nn":1171,"risk":58,"cat":"amber"},{"name":"G-HOSP LTD (FOLLAND)","lat":50.86327,"lon":-1.33064,"postcode":"SO31 4NF","la":"Eastleigh","era":"other","nn":127,"risk":33,"cat":"amber"},{"name":"Grantham Arms","lat":50.965,"lon":-1.35841,"postcode":"SO50 5HZ","la":"Eastleigh","era":"trad","nn":313,"risk":29,"cat":"green"},{"name":"HALFWAY INN","lat":50.98764,"lon":-1.37424,"postcode":"SO53 2GJ","la":"Eastleigh","era":"trad","nn":199,"risk":28,"cat":"green"},{"name":"HAMBLE CLUB","lat":50.86067,"lon":-1.3253,"postcode":"SO31 4JL","la":"Eastleigh","era":"other","nn":473,"risk":30,"cat":"green"},{"name":"HAMBLE RIVER S C FOOD INC","lat":50.85688,"lon":-1.31367,"postcode":"SO31 4JB","la":"Eastleigh","era":"other","nn":185,"risk":28,"cat":"green"},{"name":"HANTS CONSTABULARY CLUB","lat":50.87088,"lon":-1.33444,"postcode":"SO31 4TS","la":"Eastleigh","era":"other","nn":885,"risk":51,"cat":"amber"},{"name":"HEDGE END BOWLING CLUB","lat":50.91925,"lon":-1.28808,"postcode":"SO30 2EZ","la":"Eastleigh","era":"other","nn":1004,"risk":56,"cat":"amber"},{"name":"Hedge End Club Ltd","lat":50.90969,"lon":-1.30664,"postcode":"SO30 0BR","la":"Eastleigh","era":"other","nn":541,"risk":36,"cat":"amber"},{"name":"KINGS COURT CENTRE LTD","lat":50.9872,"lon":-1.377,"postcode":"SO53 2GG","la":"Eastleigh","era":"trad","nn":199,"risk":28,"cat":"green"},{"name":"Locomotive Engineers Club and Institute Limited","lat":50.97006,"lon":-1.35091,"postcode":"SO50 9FJ","la":"Eastleigh","era":"other","nn":16,"risk":27,"cat":"green"},{"name":"Monks Brook","lat":50.98484,"lon":-1.38451,"postcode":"SO53 2FS","la":"Eastleigh","era":"trad","nn":319,"risk":29,"cat":"green"},{"name":"MORGAN AND FAMILY UK LTD","lat":50.96962,"lon":-1.35932,"postcode":"SO50 9DS","la":"Eastleigh","era":"other","nn":0,"risk":27,"cat":"green"},{"name":"NETLEY CENTRAL SPORTS & SOCIAL CLUB","lat":50.87345,"lon":-1.3514,"postcode":"SO31 5AF","la":"Eastleigh","era":"mod","nn":147,"risk":45,"cat":"amber"},{"name":"Netley Cliff Sailing Club","lat":50.87297,"lon":-1.35421,"postcode":"SO31 5DR","la":"Eastleigh","era":"other","nn":112,"risk":45,"cat":"amber"},{"name":"NEW CLOCK INN","lat":50.96467,"lon":-1.30657,"postcode":"SO50 8AA","la":"Eastleigh","era":"trad","nn":265,"risk":29,"cat":"green"},{"name":"PEARTREE INN","lat":50.92678,"lon":-1.28018,"postcode":"SO32 2DH","la":"Eastleigh","era":"trad","nn":1004,"risk":56,"cat":"amber"},{"name":"PROGRESSIVE CLUB","lat":50.98026,"lon":-1.34926,"postcode":"SO50 4HR","la":"Eastleigh","era":"other","nn":751,"risk":52,"cat":"amber"},{"name":"RAF Yacht Club","lat":50.85958,"lon":-1.31392,"postcode":"SO31 4HD","la":"Eastleigh","era":"other","nn":94,"risk":27,"cat":"green"},{"name":"SHAMBLEHURST BARN","lat":50.93053,"lon":-1.29552,"postcode":"SO30 2RX","la":"Eastleigh","era":"other","nn":1153,"risk":57,"cat":"amber"},{"name":"SOUTHAMPTON ARMS","lat":50.93245,"lon":-1.32078,"postcode":"SO30 2HG","la":"Eastleigh","era":"trad","nn":1153,"risk":57,"cat":"amber"},{"name":"Southern Parishes Conservative Club","lat":50.90984,"lon":-1.31665,"postcode":"SO30 4BB","la":"Eastleigh","era":"other","nn":702,"risk":52,"cat":"amber"},{"name":"STORME INNS LTD - THE HILTONBURY FARMHOUSE","lat":50.99652,"lon":-1.39644,"postcode":"SO53 1SZ","la":"Eastleigh","era":"trad","nn":1544,"risk":60,"cat":"amber"},{"name":"THE ANGLERS INN","lat":50.97167,"lon":-1.33774,"postcode":"SO50 6LQ","la":"Eastleigh","era":"trad","nn":140,"risk":28,"cat":"green"},{"name":"THE ARROW","lat":50.97725,"lon":-1.35886,"postcode":"SO50 4QP","la":"Eastleigh","era":"other","nn":751,"risk":32,"cat":"amber"},{"name":"THE BARLEYCORN","lat":50.91374,"lon":-1.30227,"postcode":"SO30 4FQ","la":"Eastleigh","era":"other","nn":63,"risk":32,"cat":"amber"},{"name":"THE BERRY THEATRE","lat":50.92023,"lon":-1.30406,"postcode":"SO30 4EJ","la":"Eastleigh","era":"other","nn":696,"risk":49,"cat":"amber"},{"name":"THE BREWERY BAR","lat":50.91489,"lon":-1.26948,"postcode":"SO30 2AA","la":"Eastleigh","era":"other","nn":57,"risk":32,"cat":"amber"},{"name":"THE BRIGADIER GERARD","lat":50.94671,"lon":-1.29544,"postcode":"SO50 7DQ","la":"Eastleigh","era":"other","nn":984,"risk":54,"cat":"amber"},{"name":"THE BUGLE","lat":50.85861,"lon":-1.31441,"postcode":"SO31 4HA","la":"Eastleigh","era":"other","nn":25,"risk":27,"cat":"green"},{"name":"THE COTTAGE INN","lat":50.87986,"lon":-1.34015,"postcode":"SO31 5FN","la":"Eastleigh","era":"trad","nn":1063,"risk":57,"cat":"amber"},{"name":"THE CRICKETERS","lat":50.96159,"lon":-1.37438,"postcode":"SO53 3HN","la":"Eastleigh","era":"other","nn":1077,"risk":57,"cat":"amber"},{"name":"The George + Deja Vu","lat":50.96447,"lon":-1.29759,"postcode":"SO50 7AN","la":"Eastleigh","era":"trad","nn":43,"risk":27,"cat":"green"},{"name":"THE GOOD COMPANIONS (THG)","lat":50.96962,"lon":-1.35932,"postcode":"SO50 9DS","la":"Eastleigh","era":"other","nn":0,"risk":27,"cat":"green"},{"name":"The Jolly Sailor","lat":50.8818,"lon":-1.30441,"postcode":"SO31 8DN","la":"Eastleigh","era":"other","nn":409,"risk":32,"cat":"amber"},{"name":"THE KING AND QUEEN","lat":50.85854,"lon":-1.31354,"postcode":"SO31 4HA","la":"Eastleigh","era":"trad","nn":47,"risk":27,"cat":"green"},{"name":"THE KING RUFUS","lat":50.98971,"lon":-1.37147,"postcode":"SO53 2DU","la":"Eastleigh","era":"trad","nn":301,"risk":46,"cat":"amber"},{"name":"THE LAPSTONE","lat":50.95554,"lon":-1.29444,"postcode":"SO50 7AP","la":"Eastleigh","era":"other","nn":436,"risk":47,"cat":"amber"},{"name":"The Linden Tree","lat":50.88853,"lon":-1.3154,"postcode":"SO31 8BU","la":"Eastleigh","era":"other","nn":731,"risk":49,"cat":"amber"},{"name":"THE MASTER BUILDER","lat":50.93023,"lon":-1.34543,"postcode":"SO30 3AH","la":"Eastleigh","era":"other","nn":584,"risk":48,"cat":"amber"},{"name":"THE PLOUGH INN","lat":50.8891,"lon":-1.33015,"postcode":"SO31 8BT","la":"Eastleigh","era":"trad","nn":1036,"risk":57,"cat":"amber"},{"name":"The Prince Consort Hotel","lat":50.87248,"lon":-1.35282,"postcode":"SO31 5DQ","la":"Eastleigh","era":"trad","nn":112,"risk":45,"cat":"amber"},{"name":"THE SPITFIRE","lat":50.96833,"lon":-1.35316,"postcode":"SO50 5LD","la":"Eastleigh","era":"other","nn":55,"risk":27,"cat":"green"},{"name":"THE STATION also t/a CHIK BOX/K-TOWN/LOCKED AND LOADED","lat":50.96784,"lon":-1.35323,"postcode":"SO50 5LE","la":"Eastleigh","era":"other","nn":55,"risk":27,"cat":"green"},{"name":"THE STEEL TANK ALE HOUSE","lat":50.98248,"lon":-1.38193,"postcode":"SO53 2GA","la":"Eastleigh","era":"other","nn":21,"risk":27,"cat":"green"},{"name":"THE VICTORY INN","lat":50.85874,"lon":-1.31413,"postcode":"SO31 4HA","la":"Eastleigh","era":"trad","nn":25,"risk":27,"cat":"green"},{"name":"The Vine Inn","lat":50.88049,"lon":-1.31198,"postcode":"SO31 8DJ","la":"Eastleigh","era":"trad","nn":492,"risk":33,"cat":"amber"},{"name":"THE WAGON WORKS","lat":50.97017,"lon":-1.35077,"postcode":"SO50 9FJ","la":"Eastleigh","era":"mod","nn":16,"risk":27,"cat":"green"},{"name":"TWO BROTHERS","lat":50.93251,"lon":-1.35294,"postcode":"SO18 3RA","la":"Eastleigh","era":"other","nn":584,"risk":48,"cat":"amber"},{"name":"West End Brewery","lat":50.92792,"lon":-1.33558,"postcode":"SO30 3DQ","la":"Eastleigh","era":"other","nn":737,"risk":52,"cat":"amber"},{"name":"Ye Olde Whyte Harte","lat":50.85871,"lon":-1.31669,"postcode":"SO31 4JF","la":"Eastleigh","era":"trad","nn":160,"risk":28,"cat":"green"},{"name":"Yzone Youth Centre","lat":50.96337,"lon":-1.30975,"postcode":"SO50 8RB","la":"Eastleigh","era":"other","nn":265,"risk":29,"cat":"green"},{"name":"Breezes Bar","lat":50.83302,"lon":-1.2836,"postcode":"SO31 9HG","la":"Fareham","era":"other","nn":2220,"risk":66,"cat":"red"},{"name":"Harpers Steakhouse","lat":50.88373,"lon":-1.29944,"postcode":"SO31 7EB","la":"Fareham","era":"other","nn":401,"risk":36,"cat":"amber"},{"name":"Locks Heath Working Mens Club","lat":50.87358,"lon":-1.26588,"postcode":"SO31 1BD","la":"Fareham","era":"trad","nn":267,"risk":32,"cat":"amber"},{"name":"Royal British Legion Club","lat":50.8692,"lon":-1.27377,"postcode":"SO31 7DP","la":"Fareham","era":"trad","nn":528,"risk":32,"cat":"amber"},{"name":"Salterns Working Mens Club","lat":50.85163,"lon":-1.30029,"postcode":"SO31 9FY","la":"Fareham","era":"trad","nn":159,"risk":31,"cat":"amber"},{"name":"Sarisbury Green Social Club","lat":50.87492,"lon":-1.27896,"postcode":"SO31 7EP","la":"Fareham","era":"mod","nn":726,"risk":33,"cat":"amber"},{"name":"The Elm Tree Inn","lat":50.88305,"lon":-1.27766,"postcode":"SO31 7DX","la":"Fareham","era":"trad","nn":909,"risk":54,"cat":"amber"},{"name":"The Hook/Luciano'S","lat":50.853,"lon":-1.29965,"postcode":"SO31 9HX","la":"Fareham","era":"other","nn":133,"risk":31,"cat":"amber"},{"name":"The Jolly Farmer","lat":50.85277,"lon":-1.27901,"postcode":"SO31 9JH","la":"Fareham","era":"other","nn":1249,"risk":59,"cat":"amber"},{"name":"The Old Ship Inn","lat":50.88097,"lon":-1.29576,"postcode":"SO31 7FN","la":"Fareham","era":"trad","nn":401,"risk":48,"cat":"amber"},{"name":"The Rising Sun","lat":50.85246,"lon":-1.30548,"postcode":"SO31 9FT","la":"Fareham","era":"other","nn":282,"risk":30,"cat":"green"},{"name":"The Silver Fern","lat":50.85352,"lon":-1.29678,"postcode":"SO31 9HW","la":"Fareham","era":"other","nn":210,"risk":32,"cat":"amber"},{"name":"The Strawberry Field Tavern","lat":50.86379,"lon":-1.27547,"postcode":"SO31 6DX","la":"Fareham","era":"other","nn":614,"risk":52,"cat":"amber"},{"name":"The Talisman","lat":50.87102,"lon":-1.26682,"postcode":"SO31 7GD","la":"Fareham","era":"other","nn":293,"risk":32,"cat":"amber"},{"name":"The Village Inn","lat":50.87524,"lon":-1.26863,"postcode":"SO31 1AZ","la":"Fareham","era":"trad","nn":267,"risk":32,"cat":"amber"},{"name":"Warsash Sailing Club","lat":50.853,"lon":-1.30155,"postcode":"SO31 9FS","la":"Fareham","era":"other","nn":133,"risk":29,"cat":"green"},{"name":"AMALFI RESTAURANT & PIZZERIA","lat":50.87014,"lon":-1.39897,"postcode":"SO45 6AH","la":"New Forest","era":"other","nn":29,"risk":25,"cat":"green"},{"name":"ANGEL AND BLUE PIG","lat":50.75903,"lon":-1.54103,"postcode":"SO41 9AP","la":"New Forest","era":"trad","nn":98,"risk":26,"cat":"green"},{"name":"BLACKFIELD AND LANGLEY FOOTBALL CLUB","lat":50.82428,"lon":-1.3721,"postcode":"SO45 1GA","la":"New Forest","era":"other","nn":597,"risk":47,"cat":"amber"},{"name":"BOROUGH ARMS LTD","lat":50.76107,"lon":-1.54731,"postcode":"SO41 9GP","la":"New Forest","era":"trad","nn":318,"risk":27,"cat":"green"},{"name":"BRAMSHAW CRICKET CLUB","lat":50.92586,"lon":-1.62157,"postcode":"SO43 7HG","la":"New Forest","era":"trad","nn":712,"risk":35,"cat":"amber"},{"name":"BROCKENHURST FOOTBALL CLUB","lat":50.82123,"lon":-1.57515,"postcode":"SO42 7RE","la":"New Forest","era":"other","nn":261,"risk":29,"cat":"green"},{"name":"BROKENHURST MANOR GOLF CLUB","lat":50.80902,"lon":-1.58119,"postcode":"SO42 7SG","la":"New Forest","era":"other","nn":1039,"risk":55,"cat":"amber"},{"name":"CADNAM CRICKET CLUB","lat":50.9168,"lon":-1.57736,"postcode":"SO40 2NR","la":"New Forest","era":"other","nn":530,"risk":34,"cat":"amber"},{"name":"COMMONERS WINE BAR","lat":50.81932,"lon":-1.57774,"postcode":"SO42 7RA","la":"New Forest","era":"other","nn":280,"risk":29,"cat":"green"},{"name":"EAST END ARMS","lat":50.7692,"lon":-1.48813,"postcode":"SO41 5SY","la":"New Forest","era":"trad","nn":1194,"risk":56,"cat":"amber"},{"name":"EBENEZERS","lat":50.87014,"lon":-1.40028,"postcode":"SO45 6AR","la":"New Forest","era":"other","nn":81,"risk":25,"cat":"green"},{"name":"ELEPHANT AND CASTLE","lat":50.91857,"lon":-1.48632,"postcode":"SO40 3AG","la":"New Forest","era":"other","nn":154,"risk":26,"cat":"green"},{"name":"ELING SAILING CLUB","lat":50.90986,"lon":-1.47893,"postcode":"SO40 9HF","la":"New Forest","era":"other","nn":92,"risk":28,"cat":"green"},{"name":"EMPRESS OF BLANDINGS","lat":50.92992,"lon":-1.56441,"postcode":"SO40 2PB","la":"New Forest","era":"other","nn":1281,"risk":56,"cat":"amber"},{"name":"EVERTON & LYMORE SOCIAL CLUB LTD","lat":50.74558,"lon":-1.58737,"postcode":"SO41 0JJ","la":"New Forest","era":"mod","nn":74,"risk":45,"cat":"amber"},{"name":"FALCON INN","lat":50.82665,"lon":-1.35043,"postcode":"SO45 1DD","la":"New Forest","era":"trad","nn":694,"risk":50,"cat":"amber"},{"name":"FAWLEY CRICKET CLUB","lat":50.83648,"lon":-1.38661,"postcode":"SO45 2PA","la":"New Forest","era":"other","nn":655,"risk":47,"cat":"amber"},{"name":"FAWLEY ROYAL BRITISH LEGION SOCIAL CLUB LTD","lat":50.81746,"lon":-1.37431,"postcode":"SO45 1XD","la":"New Forest","era":"other","nn":178,"risk":44,"cat":"amber"},{"name":"FLEUR DE LYS","lat":50.78276,"lon":-1.53694,"postcode":"SO41 5QG","la":"New Forest","era":"other","nn":1255,"risk":56,"cat":"amber"},{"name":"FORESTERS ARMS","lat":50.81865,"lon":-1.57361,"postcode":"SO42 7RR","la":"New Forest","era":"trad","nn":125,"risk":28,"cat":"green"},{"name":"FOX AND HOUNDS","lat":50.87242,"lon":-1.57525,"postcode":"SO43 7BG","la":"New Forest","era":"trad","nn":28,"risk":25,"cat":"green"},{"name":"GREEN DRAGON","lat":50.92155,"lon":-1.61252,"postcode":"SO43 7HE","la":"New Forest","era":"trad","nn":0,"risk":30,"cat":"green"},{"name":"HARE AND HOUNDS","lat":50.78671,"lon":-1.6004,"postcode":"SO41 6AL","la":"New Forest","era":"trad","nn":626,"risk":49,"cat":"amber"},{"name":"HAYWAIN","lat":50.9174,"lon":-1.56254,"postcode":"SO40 2NA","la":"New Forest","era":"other","nn":605,"risk":49,"cat":"amber"},{"name":"HYTHE & DIBDEN CRICKET CLUB","lat":50.87019,"lon":-1.40403,"postcode":"SO45 6AX","la":"New Forest","era":"other","nn":263,"risk":27,"cat":"green"},{"name":"HYTHE & DIBDEN YOUTH FC","lat":50.86004,"lon":-1.42939,"postcode":"SO45 4RQ","la":"New Forest","era":"other","nn":1228,"risk":56,"cat":"amber"},{"name":"HYTHE & DISTRICT CLUB","lat":50.86911,"lon":-1.39955,"postcode":"SO45 6AQ","la":"New Forest","era":"other","nn":31,"risk":25,"cat":"green"},{"name":"HYTHE SAILING CLUB (SOUTHAMPTON)","lat":50.86177,"lon":-1.38712,"postcode":"SO45 6DF","la":"New Forest","era":"other","nn":567,"risk":34,"cat":"amber"},{"name":"HYTHE UNITED REFORMED CHURCH","lat":50.86631,"lon":-1.40093,"postcode":"SO45 6BR","la":"New Forest","era":"other","nn":235,"risk":27,"cat":"green"},{"name":"JOLLY SAILOR","lat":50.82657,"lon":-1.34055,"postcode":"SO45 1DT","la":"New Forest","era":"other","nn":694,"risk":50,"cat":"amber"},{"name":"KINGS ARMS","lat":50.75701,"lon":-1.54791,"postcode":"SO41 9NB","la":"New Forest","era":"trad","nn":36,"risk":25,"cat":"green"},{"name":"KINGS HEAD INN","lat":50.75919,"lon":-1.53777,"postcode":"SO41 3AR","la":"New Forest","era":"trad","nn":59,"risk":25,"cat":"green"},{"name":"LANGLEY TAVERN","lat":50.80487,"lon":-1.36708,"postcode":"SO45 1XR","la":"New Forest","era":"other","nn":1489,"risk":58,"cat":"amber"},{"name":"LYMINGTON (NEW FOREST HORDLE) PREMIER INN","lat":50.762,"lon":-1.6168,"postcode":"SO41 0FN","la":"New Forest","era":"trad","nn":760,"risk":50,"cat":"amber"},{"name":"LYMINGTON AMATEUR ROWING CLUB","lat":50.76172,"lon":-1.53698,"postcode":"SO41 9PX","la":"New Forest","era":"other","nn":177,"risk":26,"cat":"green"},{"name":"LYMINGTON BRITISH LEGION CLUB LIMITED","lat":50.7584,"lon":-1.54008,"postcode":"SO41 9AD","la":"New Forest","era":"other","nn":98,"risk":26,"cat":"green"},{"name":"LYMINGTON COMMUNITY ASSOCIATION","lat":50.7604,"lon":-1.54291,"postcode":"SO41 9BQ","la":"New Forest","era":"other","nn":202,"risk":26,"cat":"green"},{"name":"LYMINGTON CONSERVATIVE CLUB LTD","lat":50.75726,"lon":-1.5476,"postcode":"SO41 9NE","la":"New Forest","era":"other","nn":36,"risk":25,"cat":"green"},{"name":"LYMINGTON MASONIC HALL","lat":50.75883,"lon":-1.53867,"postcode":"SO41 9AA","la":"New Forest","era":"trad","nn":75,"risk":25,"cat":"green"},{"name":"LYMINGTON TOWN SAILING CLUB","lat":50.75444,"lon":-1.53015,"postcode":"SO41 3SE","la":"New Forest","era":"other","nn":0,"risk":25,"cat":"green"},{"name":"MAIRI'S CATERING","lat":50.89888,"lon":-1.44527,"postcode":"SO40 4UX","la":"New Forest","era":"other","nn":0,"risk":27,"cat":"green"},{"name":"MALT & HOPS","lat":50.86695,"lon":-1.39775,"postcode":"SO45 6EA","la":"New Forest","era":"other","nn":235,"risk":27,"cat":"green"},{"name":"MARCHWOOD YACHT CLUB","lat":50.89888,"lon":-1.44527,"postcode":"SO40 4UX","la":"New Forest","era":"other","nn":0,"risk":27,"cat":"green"},{"name":"MAYFLOWER HOTEL","lat":50.751,"lon":-1.53081,"postcode":"SO41 3QD","la":"New Forest","era":"other","nn":386,"risk":30,"cat":"green"},{"name":"MEDBAR","lat":50.8697,"lon":-1.39936,"postcode":"SO45 6AL","la":"New Forest","era":"other","nn":38,"risk":25,"cat":"green"},{"name":"MILFORD ON SEA CLUB LTD","lat":50.72542,"lon":-1.58773,"postcode":"SO41 0QG","la":"New Forest","era":"other","nn":57,"risk":30,"cat":"green"},{"name":"MILFORD TENNIS AND SQUASH CLUB","lat":50.72403,"lon":-1.59207,"postcode":"SO41 0PL","la":"New Forest","era":"other","nn":220,"risk":31,"cat":"amber"},{"name":"MINSTEAD LODGE","lat":50.90408,"lon":-1.60555,"postcode":"SO43 7FT","la":"New Forest","era":"other","nn":290,"risk":47,"cat":"amber"},{"name":"MINSTEAD SOCIAL CLUB","lat":50.9016,"lon":-1.60423,"postcode":"SO43 7FX","la":"New Forest","era":"mod","nn":290,"risk":44,"cat":"amber"},{"name":"NEW FOREST CHILD CARE CIC","lat":50.81898,"lon":-1.37352,"postcode":"SO45 1XA","la":"New Forest","era":"other","nn":178,"risk":44,"cat":"amber"},{"name":"NEW FOREST CHILD CARE CIC FOXHILLS","lat":50.90395,"lon":-1.51217,"postcode":"SO40 7ED","la":"New Forest","era":"trad","nn":803,"risk":51,"cat":"amber"},{"name":"NEW FOREST CHILD CARE CIC HORDLE","lat":50.75545,"lon":-1.61373,"postcode":"SO41 0FB","la":"New Forest","era":"other","nn":760,"risk":50,"cat":"amber"},{"name":"NEW FOREST GOLF CLUB","lat":50.87563,"lon":-1.56365,"postcode":"SO43 7BU","la":"New Forest","era":"other","nn":875,"risk":34,"cat":"amber"},{"name":"NEW FOREST NONDESCRIPTS CLUB","lat":50.87176,"lon":-1.57652,"postcode":"SO43 7EW","la":"New Forest","era":"other","nn":115,"risk":26,"cat":"green"},{"name":"OAK INN","lat":50.86118,"lon":-1.59688,"postcode":"SO43 7FD","la":"New Forest","era":"trad","nn":1508,"risk":58,"cat":"amber"},{"name":"OLD FARMHOUSE","lat":50.91731,"lon":-1.50327,"postcode":"SO40 8EA","la":"New Forest","era":"other","nn":233,"risk":32,"cat":"amber"},{"name":"OLD MILL INN","lat":50.8344,"lon":-1.39532,"postcode":"SO45 2HE","la":"New Forest","era":"trad","nn":655,"risk":47,"cat":"amber"},{"name":"PENNINGTON SPORTS & SOCIAL CLUB","lat":50.75694,"lon":-1.5629,"postcode":"SO41 8HH","la":"New Forest","era":"mod","nn":498,"risk":33,"cat":"amber"},{"name":"PLANET KIDS CIC","lat":50.88556,"lon":-1.45598,"postcode":"SO40 4ZE","la":"New Forest","era":"other","nn":408,"risk":33,"cat":"amber"},{"name":"PLANET KIDS CIC","lat":50.85363,"lon":-1.41514,"postcode":"SO45 4PG","la":"New Forest","era":"other","nn":172,"risk":31,"cat":"amber"},{"name":"PLANET KIDS CIC","lat":50.86332,"lon":-1.39481,"postcode":"SO45 6ET","la":"New Forest","era":"other","nn":454,"risk":28,"cat":"green"},{"name":"PLANET KIDS CIC","lat":50.85277,"lon":-1.40925,"postcode":"SO45 4JX","la":"New Forest","era":"other","nn":399,"risk":33,"cat":"amber"},{"name":"POT BLACK MARCHWOOD LTD","lat":50.89144,"lon":-1.45171,"postcode":"SO40 4SF","la":"New Forest","era":"other","nn":87,"risk":26,"cat":"green"},{"name":"PYLEWELL PARK CRICKET CLUB","lat":50.76127,"lon":-1.49956,"postcode":"SO41 5SJ","la":"New Forest","era":"other","nn":1194,"risk":56,"cat":"amber"},{"name":"ROYAL LYMINGTON YACHT CLUB","lat":50.75444,"lon":-1.53015,"postcode":"SO41 3SE","la":"New Forest","era":"trad","nn":0,"risk":25,"cat":"green"},{"name":"ROYAL SOUTHAMPTON YACHT CLUB  GINS CLUBHOUSE","lat":50.78314,"lon":-1.41613,"postcode":"SO42 7XG","la":"New Forest","era":"trad","nn":4210,"risk":77,"cat":"red"},{"name":"SAXON INN","lat":50.92924,"lon":-1.51591,"postcode":"SO40 2SH","la":"New Forest","era":"trad","nn":812,"risk":51,"cat":"amber"},{"name":"SEASHELLS","lat":50.87016,"lon":-1.39856,"postcode":"SO45 6AG","la":"New Forest","era":"other","nn":0,"risk":25,"cat":"green"},{"name":"SHIP INN","lat":50.75902,"lon":-1.53698,"postcode":"SO41 3AY","la":"New Forest","era":"trad","nn":59,"risk":25,"cat":"green"},{"name":"SIR JOHN BARLEYCORN","lat":50.92204,"lon":-1.58322,"postcode":"SO40 2NP","la":"New Forest","era":"other","nn":0,"risk":30,"cat":"green"},{"name":"SIR WALTER TYRRELL","lat":50.91953,"lon":-1.62001,"postcode":"SO43 7HD","la":"New Forest","era":"other","nn":571,"risk":34,"cat":"amber"},{"name":"T & ECC EVENTS LTD (TOTTON & ELING CRICKET CLUB)","lat":50.91715,"lon":-1.49996,"postcode":"SO40 8RW","la":"New Forest","era":"other","nn":233,"risk":27,"cat":"green"},{"name":"TESTWOOD","lat":50.93144,"lon":-1.50486,"postcode":"SO40 3ND","la":"New Forest","era":"other","nn":812,"risk":51,"cat":"amber"},{"name":"THE ANCHOR","lat":50.91336,"lon":-1.48201,"postcode":"SO40 9GD","la":"New Forest","era":"trad","nn":444,"risk":28,"cat":"green"},{"name":"THE BELL INN","lat":50.92155,"lon":-1.61252,"postcode":"SO43 7HE","la":"New Forest","era":"trad","nn":0,"risk":30,"cat":"green"},{"name":"THE BOLD FORESTER","lat":50.87108,"lon":-1.45774,"postcode":"SO40 4UQ","la":"New Forest","era":"other","nn":1591,"risk":59,"cat":"amber"},{"name":"THE BOSUNS CHAIR","lat":50.76045,"lon":-1.5385,"postcode":"SO41 3BA","la":"New Forest","era":"other","nn":149,"risk":26,"cat":"green"},{"name":"THE CHEQUERS INN","lat":50.74116,"lon":-1.54543,"postcode":"SO41 8AH","la":"New Forest","era":"trad","nn":1046,"risk":55,"cat":"amber"},{"name":"THE COACH AND HORSES","lat":50.91911,"lon":-1.57073,"postcode":"SO40 2NF","la":"New Forest","era":"trad","nn":530,"risk":31,"cat":"amber"},{"name":"THE CROWN INN","lat":50.7455,"lon":-1.58841,"postcode":"SO41 0JJ","la":"New Forest","era":"trad","nn":74,"risk":45,"cat":"amber"},{"name":"THE CROWN STIRRUP","lat":50.86185,"lon":-1.57256,"postcode":"SO43 7DE","la":"New Forest","era":"trad","nn":1136,"risk":55,"cat":"amber"},{"name":"THE DRIFT","lat":50.85466,"lon":-1.50353,"postcode":"SO42 7YQ","la":"New Forest","era":"other","nn":3158,"risk":70,"cat":"red"},{"name":"THE DUSTY BARREL","lat":50.86936,"lon":-1.39932,"postcode":"SO45 6AP","la":"New Forest","era":"other","nn":31,"risk":25,"cat":"green"},{"name":"THE FERRYMAN","lat":50.76017,"lon":-1.53201,"postcode":"SO41 5SB","la":"New Forest","era":"other","nn":372,"risk":28,"cat":"green"},{"name":"THE FILLY INN","lat":50.80176,"lon":-1.57186,"postcode":"SO42 7UF","la":"New Forest","era":"trad","nn":1039,"risk":55,"cat":"amber"},{"name":"THE FISHERMANS REST","lat":50.75022,"lon":-1.54143,"postcode":"SO41 8FD","la":"New Forest","era":"other","nn":753,"risk":30,"cat":"green"},{"name":"THE FOREST HOME","lat":50.84208,"lon":-1.39149,"postcode":"SO45 3FH","la":"New Forest","era":"other","nn":711,"risk":47,"cat":"amber"},{"name":"THE FOREST INN","lat":50.89674,"lon":-1.51286,"postcode":"SO40 7DU","la":"New Forest","era":"trad","nn":803,"risk":48,"cat":"amber"},{"name":"THE GAMEKEEPER PUB","lat":50.90518,"lon":-1.53988,"postcode":"SO40 7GH","la":"New Forest","era":"other","nn":1473,"risk":58,"cat":"amber"},{"name":"THE GLEN","lat":50.85077,"lon":-1.40453,"postcode":"SO45 3RF","la":"New Forest","era":"other","nn":399,"risk":33,"cat":"amber"},{"name":"THE GUN INN","lat":50.72145,"lon":-1.56765,"postcode":"SO41 0TP","la":"New Forest","era":"trad","nn":1437,"risk":57,"cat":"amber"},{"name":"THE HAPPY CHEESE","lat":50.89214,"lon":-1.52258,"postcode":"SO40 7AR","la":"New Forest","era":"other","nn":852,"risk":51,"cat":"amber"},{"name":"THE HEATH HOTEL","lat":50.85216,"lon":-1.41593,"postcode":"SO45 4PW","la":"New Forest","era":"other","nn":172,"risk":31,"cat":"amber"},{"name":"THE HUNTSMAN","lat":50.82079,"lon":-1.5715,"postcode":"SO42 7RH","la":"New Forest","era":"other","nn":254,"risk":29,"cat":"green"},{"name":"THE KEYS","lat":50.91861,"lon":-1.48851,"postcode":"SO40 3BY","la":"New Forest","era":"other","nn":134,"risk":26,"cat":"green"},{"name":"THE KING RUFUS","lat":50.90908,"lon":-1.47935,"postcode":"SO40 9HE","la":"New Forest","era":"trad","nn":92,"risk":28,"cat":"green"},{"name":"THE LORD NELSON","lat":50.87016,"lon":-1.39856,"postcode":"SO45 6AG","la":"New Forest","era":"trad","nn":0,"risk":25,"cat":"green"},{"name":"THE MAILMANS AT LYNDHURST","lat":50.87267,"lon":-1.57521,"postcode":"SO43 7BE","la":"New Forest","era":"trad","nn":0,"risk":25,"cat":"green"},{"name":"THE MORTIMER ARMS","lat":50.94732,"lon":-1.5382,"postcode":"SO51 6AF","la":"New Forest","era":"trad","nn":1205,"risk":56,"cat":"amber"},{"name":"THE MUSKETEER","lat":50.75346,"lon":-1.55844,"postcode":"SO41 8FZ","la":"New Forest","era":"other","nn":498,"risk":28,"cat":"green"},{"name":"THE NEW FOREST HOTEL","lat":50.87971,"lon":-1.52471,"postcode":"SO40 7AA","la":"New Forest","era":"other","nn":1391,"risk":57,"cat":"amber"},{"name":"THE NEW FOREST INN","lat":50.87458,"lon":-1.59365,"postcode":"SO43 7DY","la":"New Forest","era":"trad","nn":469,"risk":48,"cat":"amber"},{"name":"THE NEW INN","lat":50.90646,"lon":-1.49743,"postcode":"SO40 7EP","la":"New Forest","era":"trad","nn":1071,"risk":55,"cat":"amber"},{"name":"THE NEW WHEEL INN","lat":50.7684,"lon":-1.58185,"postcode":"SO41 8LJ","la":"New Forest","era":"trad","nn":1844,"risk":60,"cat":"amber"},{"name":"THE PEG AND PARROT","lat":50.91497,"lon":-1.48801,"postcode":"SO40 9DS","la":"New Forest","era":"other","nn":0,"risk":25,"cat":"green"},{"name":"THE PILGRIM INN","lat":50.88461,"lon":-1.45036,"postcode":"SO40 4WU","la":"New Forest","era":"trad","nn":408,"risk":30,"cat":"green"},{"name":"THE PLOUGH INN","lat":50.77263,"lon":-1.63719,"postcode":"SO41 6FQ","la":"New Forest","era":"trad","nn":913,"risk":51,"cat":"amber"},{"name":"THE RED LION BOLDRE","lat":50.78285,"lon":-1.55479,"postcode":"SO41 8NE","la":"New Forest","era":"trad","nn":1255,"risk":56,"cat":"amber"},{"name":"THE ROEBUCK INN","lat":50.89082,"lon":-1.45097,"postcode":"SO40 4SF","la":"New Forest","era":"trad","nn":87,"risk":26,"cat":"green"},{"name":"THE ROYAL OAK","lat":50.74168,"lon":-1.61408,"postcode":"SO41 0LA","la":"New Forest","era":"trad","nn":1531,"risk":58,"cat":"amber"},{"name":"THE ROYAL OAK","lat":50.83404,"lon":-1.43303,"postcode":"SO42 7YR","la":"New Forest","era":"trad","nn":2346,"risk":64,"cat":"red"},{"name":"THE ROYAL OAK FRITHAM","lat":50.92527,"lon":-1.66738,"postcode":"SO43 7HJ","la":"New Forest","era":"trad","nn":3211,"risk":70,"cat":"red"},{"name":"THE SAIL INN","lat":50.7574,"lon":-1.54876,"postcode":"SO41 9NG","la":"New Forest","era":"trad","nn":67,"risk":25,"cat":"green"},{"name":"THE SALMON LEAP","lat":50.92351,"lon":-1.48826,"postcode":"SO40 3BR","la":"New Forest","era":"other","nn":468,"risk":28,"cat":"green"},{"name":"THE SILVER HIND","lat":50.78436,"lon":-1.60849,"postcode":"SO41 6BA","la":"New Forest","era":"other","nn":626,"risk":49,"cat":"amber"},{"name":"THE SIX BELLS","lat":50.75747,"lon":-1.54614,"postcode":"SO41 9ND","la":"New Forest","era":"other","nn":105,"risk":26,"cat":"green"},{"name":"THE SMUGGLERS INN","lat":50.72499,"lon":-1.58728,"postcode":"SO41 0QE","la":"New Forest","era":"trad","nn":57,"risk":30,"cat":"green"},{"name":"THE SNAKECATCHER PUB","lat":50.81851,"lon":-1.57184,"postcode":"SO42 7RL","la":"New Forest","era":"other","nn":125,"risk":28,"cat":"green"},{"name":"THE STAG AT LYNDHURST","lat":50.87267,"lon":-1.57521,"postcode":"SO43 7BE","la":"New Forest","era":"trad","nn":0,"risk":25,"cat":"green"},{"name":"THE SWAN INN","lat":50.87574,"lon":-1.58722,"postcode":"SO43 7DT","la":"New Forest","era":"trad","nn":469,"risk":28,"cat":"green"},{"name":"THE TOWNHOUSE","lat":50.75716,"lon":-1.54963,"postcode":"SO41 9GF","la":"New Forest","era":"other","nn":67,"risk":25,"cat":"green"},{"name":"THE TRUSTY SERVANT","lat":50.8964,"lon":-1.59587,"postcode":"SO43 7FY","la":"New Forest","era":"other","nn":823,"risk":51,"cat":"amber"},{"name":"THE WASH HOUSE MICRO ALE PUB","lat":50.72572,"lon":-1.59045,"postcode":"SO41 0QF","la":"New Forest","era":"mod","nn":194,"risk":31,"cat":"amber"},{"name":"THE WHITE HART","lat":50.92204,"lon":-1.58322,"postcode":"SO40 2NP","la":"New Forest","era":"trad","nn":0,"risk":30,"cat":"green"},{"name":"THE WHITE HORSE","lat":50.89284,"lon":-1.4474,"postcode":"SO40 4US","la":"New Forest","era":"trad","nn":336,"risk":27,"cat":"green"},{"name":"THE WHITE HORSE","lat":50.91479,"lon":-1.52542,"postcode":"SO40 7GX","la":"New Forest","era":"trad","nn":1399,"risk":57,"cat":"amber"},{"name":"THE WHITE RABBIT","lat":50.87534,"lon":-1.57695,"postcode":"SO43 7AR","la":"New Forest","era":"other","nn":163,"risk":26,"cat":"green"},{"name":"TOTTON CONSERVATIVE CLUB","lat":50.91943,"lon":-1.48991,"postcode":"SO40 3PY","la":"New Forest","era":"other","nn":134,"risk":26,"cat":"green"},{"name":"TOTTON RECREATION CLUB","lat":50.91497,"lon":-1.48801,"postcode":"SO40 9DS","la":"New Forest","era":"other","nn":0,"risk":25,"cat":"green"},{"name":"TOTTONIANS RFC LTD","lat":50.921,"lon":-1.50807,"postcode":"SO40 3ZX","la":"New Forest","era":"other","nn":530,"risk":46,"cat":"amber"},{"name":"TRAVELLERS REST (HYTHE) LTD","lat":50.8547,"lon":-1.38999,"postcode":"SO45 3ND","la":"New Forest","era":"other","nn":811,"risk":51,"cat":"amber"},{"name":"TURFCUTTERS ARMS","lat":50.80389,"lon":-1.47106,"postcode":"SO42 7WL","la":"New Forest","era":"trad","nn":4040,"risk":76,"cat":"red"},{"name":"VINE INN (OWER)","lat":50.95717,"lon":-1.53101,"postcode":"SO51 6AE","la":"Test Valley","era":"trad","nn":1205,"risk":59,"cat":"amber"},{"name":"WALHAMPTON ARMS","lat":50.77118,"lon":-1.52856,"postcode":"SO41 5RE","la":"New Forest","era":"trad","nn":1207,"risk":56,"cat":"amber"},{"name":"WATERLOO ARMS","lat":50.87642,"lon":-1.57851,"postcode":"SO43 7AS","la":"New Forest","era":"trad","nn":163,"risk":26,"cat":"green"},{"name":"7 Bone Southampton","lat":50.91318,"lon":-1.40627,"postcode":"SO15 2DG","la":"Southampton","era":"other","nn":59,"risk":24,"cat":"green"},{"name":"All Bar One West Quay","lat":50.90221,"lon":-1.40709,"postcode":"SO15 1DE","la":"Southampton","era":"mod","nn":1,"risk":24,"cat":"green"},{"name":"Aqua Lounge","lat":50.90906,"lon":-1.40447,"postcode":"SO14 7DW","la":"Southampton","era":"mod","nn":0,"risk":24,"cat":"green"},{"name":"Arlott Bar","lat":50.9342,"lon":-1.3957,"postcode":"SO17 1BJ","la":"Southampton","era":"other","nn":0,"risk":24,"cat":"green"},{"name":"Atherley Bowling Club","lat":50.91949,"lon":-1.4191,"postcode":"SO15 5AG","la":"Southampton","era":"other","nn":566,"risk":28,"cat":"green"},{"name":"Banana Wharf","lat":50.89728,"lon":-1.39116,"postcode":"SO14 3JF","la":"Southampton","era":"other","nn":81,"risk":25,"cat":"green"},{"name":"Bar 104","lat":50.9055,"lon":-1.40416,"postcode":"SO14 7DT","la":"Southampton","era":"mod","nn":71,"risk":24,"cat":"green"},{"name":"Bar SO16","lat":50.93833,"lon":-1.3913,"postcode":"SO16 3AY","la":"Southampton","era":"mod","nn":553,"risk":28,"cat":"green"},{"name":"Bar Terminus","lat":50.89846,"lon":-1.3969,"postcode":"SO14 3DT","la":"Southampton","era":"mod","nn":0,"risk":24,"cat":"green"},{"name":"Bassett Lawn Tennis Club","lat":50.92527,"lon":-1.42259,"postcode":"SO15 5JR","la":"Southampton","era":"other","nn":257,"risk":26,"cat":"green"},{"name":"Bellemoor Tavern","lat":50.92842,"lon":-1.41669,"postcode":"SO15 7NU","la":"Southampton","era":"other","nn":469,"risk":32,"cat":"amber"},{"name":"Below Deck","lat":50.9342,"lon":-1.3957,"postcode":"SO17 1BJ","la":"Southampton","era":"other","nn":0,"risk":24,"cat":"green"},{"name":"Bitterne Conservative Club","lat":50.91734,"lon":-1.3551,"postcode":"SO18 6AN","la":"Southampton","era":"other","nn":135,"risk":30,"cat":"green"},{"name":"Bitterne Park Social Club","lat":50.92626,"lon":-1.37685,"postcode":"SO18 1NQ","la":"Southampton","era":"mod","nn":198,"risk":25,"cat":"green"},{"name":"Bridge Bar","lat":50.9342,"lon":-1.3957,"postcode":"SO17 1BJ","la":"Southampton","era":"other","nn":0,"risk":24,"cat":"green"},{"name":"Bright Water Inn","lat":50.91881,"lon":-1.42933,"postcode":"SO15 3HY","la":"Southampton","era":"trad","nn":0,"risk":24,"cat":"green"},{"name":"Brown's","lat":50.91171,"lon":-1.3834,"postcode":"SO14 5QN","la":"Southampton","era":"other","nn":294,"risk":29,"cat":"green"},{"name":"Butcher's Hook Alehouse","lat":50.92464,"lon":-1.37567,"postcode":"SO18 1NN","la":"Southampton","era":"other","nn":198,"risk":25,"cat":"green"},{"name":"Cafe Parfait Ltd","lat":50.90906,"lon":-1.40447,"postcode":"SO14 7DW","la":"Southampton","era":"other","nn":0,"risk":24,"cat":"green"},{"name":"Chapel Arms","lat":50.90024,"lon":-1.39075,"postcode":"SO14 5GB","la":"Southampton","era":"trad","nn":331,"risk":26,"cat":"green"},{"name":"Charlies Cabana","lat":50.92376,"lon":-1.39508,"postcode":"SO17 2FX","la":"Southampton","era":"other","nn":67,"risk":24,"cat":"green"},{"name":"Clowns & Jesters Nightclub","lat":50.91797,"lon":-1.39525,"postcode":"SO14 0JZ","la":"Southampton","era":"other","nn":0,"risk":24,"cat":"green"},{"name":"Connaught Hall Bar","lat":50.93824,"lon":-1.37531,"postcode":"SO18 2NS","la":"Southampton","era":"other","nn":194,"risk":25,"cat":"green"},{"name":"Conservative Club","lat":50.92517,"lon":-1.38321,"postcode":"SO17 2FP","la":"Southampton","era":"other","nn":460,"risk":27,"cat":"green"},{"name":"Cricketers","lat":50.913,"lon":-1.40547,"postcode":"SO15 2DX","la":"Southampton","era":"other","nn":0,"risk":24,"cat":"green"},{"name":"Cricketers Arms","lat":50.8973,"lon":-1.37281,"postcode":"SO19 9AL","la":"Southampton","era":"trad","nn":389,"risk":27,"cat":"green"},{"name":"DM Dance Centre","lat":50.92117,"lon":-1.39359,"postcode":"SO17 2GA","la":"Southampton","era":"other","nn":266,"risk":26,"cat":"green"},{"name":"Duke Of Wellington","lat":50.89893,"lon":-1.40579,"postcode":"SO14 2AH","la":"Southampton","era":"trad","nn":124,"risk":25,"cat":"green"},{"name":"Fever and Vibe","lat":50.91274,"lon":-1.40518,"postcode":"SO15 2DY","la":"Southampton","era":"other","nn":36,"risk":24,"cat":"green"},{"name":"Fleming Arms","lat":50.94229,"lon":-1.37332,"postcode":"SO18 2QN","la":"Southampton","era":"trad","nn":472,"risk":32,"cat":"amber"},{"name":"For Your Eyes Only","lat":50.89981,"lon":-1.40409,"postcode":"SO14 2BR","la":"Southampton","era":"other","nn":32,"risk":24,"cat":"green"},{"name":"Fox & Hounds","lat":50.91682,"lon":-1.35704,"postcode":"SO18 6BP","la":"Southampton","era":"trad","nn":148,"risk":30,"cat":"green"},{"name":"Freemantle Arms","lat":50.9151,"lon":-1.429,"postcode":"SO15 3EF","la":"Southampton","era":"trad","nn":256,"risk":26,"cat":"green"},{"name":"Freemantle Hotel","lat":50.91273,"lon":-1.42596,"postcode":"SO15 3BX","la":"Southampton","era":"other","nn":138,"risk":25,"cat":"green"},{"name":"Gardeners Arms","lat":50.89071,"lon":-1.35316,"postcode":"SO19 9HR","la":"Southampton","era":"trad","nn":983,"risk":51,"cat":"amber"},{"name":"Giddy Bridge","lat":50.91531,"lon":-1.43905,"postcode":"SO15 2YD","la":"Southampton","era":"other","nn":213,"risk":25,"cat":"green"},{"name":"Glen Eyre Bar","lat":50.94394,"lon":-1.40149,"postcode":"SO16 3UF","la":"Southampton","era":"other","nn":948,"risk":51,"cat":"amber"},{"name":"Gordon Arms","lat":50.92323,"lon":-1.39552,"postcode":"SO17 2FU","la":"Southampton","era":"trad","nn":67,"risk":24,"cat":"green"},{"name":"Griffin Bar & Grill","lat":50.92474,"lon":-1.43442,"postcode":"SO15 5QH","la":"Southampton","era":"other","nn":164,"risk":25,"cat":"green"},{"name":"Holy Family Church Social Club","lat":50.92741,"lon":-1.45096,"postcode":"SO16 4PL","la":"Southampton","era":"mod","nn":476,"risk":45,"cat":"amber"},{"name":"Ice House","lat":50.92766,"lon":-1.43729,"postcode":"SO16 6AA","la":"Southampton","era":"other","nn":382,"risk":27,"cat":"green"},{"name":"Joiners Music Ltd","lat":50.90446,"lon":-1.39641,"postcode":"SO14 1NS","la":"Southampton","era":"other","nn":125,"risk":25,"cat":"green"},{"name":"Junk Club","lat":50.91179,"lon":-1.40441,"postcode":"SO15 2AD","la":"Southampton","era":"other","nn":66,"risk":24,"cat":"green"},{"name":"Key And Anchor","lat":50.90935,"lon":-1.42395,"postcode":"SO15 1JQ","la":"Southampton","era":"trad","nn":276,"risk":26,"cat":"green"},{"name":"Kings Arms","lat":50.92311,"lon":-1.43259,"postcode":"SO15 5LF","la":"Southampton","era":"trad","nn":154,"risk":25,"cat":"green"},{"name":"Kingsland Tavern","lat":50.90554,"lon":-1.39691,"postcode":"SO14 1NY","la":"Southampton","era":"trad","nn":125,"risk":25,"cat":"green"},{"name":"Leo Leisure","lat":50.90117,"lon":-1.40353,"postcode":"SO14 2DF","la":"Southampton","era":"other","nn":55,"risk":24,"cat":"green"},{"name":"London Hotel","lat":50.89846,"lon":-1.3969,"postcode":"SO14 3DT","la":"Southampton","era":"other","nn":0,"risk":24,"cat":"green"},{"name":"Malvern Tavern","lat":50.93243,"lon":-1.42321,"postcode":"SO16 6TU","la":"Southampton","era":"other","nn":543,"risk":33,"cat":"amber"},{"name":"Maverick's","lat":50.90277,"lon":-1.40186,"postcode":"SO14 1JX","la":"Southampton","era":"other","nn":189,"risk":25,"cat":"green"},{"name":"Mayflower Village","lat":50.90874,"lon":-1.41066,"postcode":"SO15 1GE","la":"Southampton","era":"other","nn":413,"risk":27,"cat":"green"},{"name":"Millers Pond Pub","lat":50.89808,"lon":-1.3614,"postcode":"SO19 8FQ","la":"Southampton","era":"trad","nn":305,"risk":26,"cat":"green"},{"name":"Mo'jive / Engine Rooms","lat":50.90161,"lon":-1.4124,"postcode":"SO15 1GZ","la":"Southampton","era":"mod","nn":378,"risk":27,"cat":"green"},{"name":"Mountbatten","lat":50.94071,"lon":-1.44906,"postcode":"SO16 8HY","la":"Southampton","era":"other","nn":976,"risk":51,"cat":"amber"},{"name":"Northam Social Club","lat":50.91053,"lon":-1.38929,"postcode":"SO14 0QH","la":"Southampton","era":"mod","nn":158,"risk":25,"cat":"green"},{"name":"Oasis Bar","lat":50.9001,"lon":-1.4041,"postcode":"SO14 2BS","la":"Southampton","era":"other","nn":32,"risk":24,"cat":"green"},{"name":"Olaf's Tun Craft Ale Bar","lat":50.89798,"lon":-1.37984,"postcode":"SO19 9AA","la":"Southampton","era":"mod","nn":73,"risk":24,"cat":"green"},{"name":"One Oxford","lat":50.8987,"lon":-1.39914,"postcode":"SO14 3DJ","la":"Southampton","era":"other","nn":0,"risk":24,"cat":"green"},{"name":"O'Neills","lat":50.90752,"lon":-1.40425,"postcode":"SO14 7DU","la":"Southampton","era":"other","nn":0,"risk":24,"cat":"green"},{"name":"Orange Rooms","lat":50.91238,"lon":-1.40491,"postcode":"SO15 2EJ","la":"Southampton","era":"mod","nn":44,"risk":24,"cat":"green"},{"name":"Overdraft","lat":50.913,"lon":-1.40547,"postcode":"SO15 2DX","la":"Southampton","era":"other","nn":0,"risk":24,"cat":"green"},{"name":"Overdraft","lat":50.91941,"lon":-1.42928,"postcode":"SO15 3JD","la":"Southampton","era":"other","nn":67,"risk":24,"cat":"green"},{"name":"Ox47 Lounge","lat":50.89796,"lon":-1.39818,"postcode":"SO14 3DP","la":"Southampton","era":"mod","nn":11,"risk":24,"cat":"green"},{"name":"Park Inn","lat":50.92343,"lon":-1.43667,"postcode":"SO16 4FN","la":"Southampton","era":"trad","nn":95,"risk":25,"cat":"green"},{"name":"Peartree Inn","lat":50.90419,"lon":-1.37315,"postcode":"SO19 7GZ","la":"Southampton","era":"trad","nn":551,"risk":28,"cat":"green"},{"name":"Pig N Whistle","lat":50.91252,"lon":-1.42142,"postcode":"SO15 3FD","la":"Southampton","era":"other","nn":182,"risk":25,"cat":"green"},{"name":"Pirrie Park Bowling Club","lat":50.92755,"lon":-1.42324,"postcode":"SO15 7QE","la":"Southampton","era":"other","nn":257,"risk":26,"cat":"green"},{"name":"Pitcher And Piano","lat":50.89708,"lon":-1.39005,"postcode":"SO14 3JB","la":"Southampton","era":"other","nn":81,"risk":25,"cat":"green"},{"name":"Platform Tavern","lat":50.89641,"lon":-1.40359,"postcode":"SO14 2NY","la":"Southampton","era":"other","nn":120,"risk":25,"cat":"green"},{"name":"Polish Social Club","lat":50.92933,"lon":-1.38551,"postcode":"SO17 2TH","la":"Southampton","era":"mod","nn":210,"risk":25,"cat":"green"},{"name":"Popworld","lat":50.91263,"lon":-1.40595,"postcode":"SO15 2EH","la":"Southampton","era":"other","nn":53,"risk":24,"cat":"green"},{"name":"Pre-Bar","lat":50.91571,"lon":-1.39653,"postcode":"SO14 0JP","la":"Southampton","era":"other","nn":91,"risk":25,"cat":"green"},{"name":"Prince Of Wales","lat":50.91145,"lon":-1.38757,"postcode":"SO14 0QF","la":"Southampton","era":"trad","nn":62,"risk":24,"cat":"green"},{"name":"Quayside","lat":50.8952,"lon":-1.38346,"postcode":"SO19 9UR","la":"Southampton","era":"other","nn":344,"risk":26,"cat":"green"},{"name":"Red Lion","lat":50.89905,"lon":-1.40349,"postcode":"SO14 2NS","la":"Southampton","era":"trad","nn":94,"risk":25,"cat":"green"},{"name":"Regents Park Hotel - Heeley Group","lat":50.91611,"lon":-1.44182,"postcode":"SO15 8PG","la":"Southampton","era":"other","nn":213,"risk":25,"cat":"green"},{"name":"Revolution Southampton","lat":50.91187,"lon":-1.40587,"postcode":"SO15 2DB","la":"Southampton","era":"other","nn":0,"risk":24,"cat":"green"},{"name":"Rio's","lat":50.91683,"lon":-1.42599,"postcode":"SO15 3HT","la":"Southampton","era":"other","nn":103,"risk":25,"cat":"green"},{"name":"Royal British Legion","lat":50.91259,"lon":-1.34244,"postcode":"SO19 5JS","la":"Southampton","era":"trad","nn":469,"risk":32,"cat":"amber"},{"name":"Royal Shisha Lounge","lat":50.89793,"lon":-1.39802,"postcode":"SO14 3DP","la":"Southampton","era":"other","nn":5,"risk":24,"cat":"green"},{"name":"Salisbury Arms","lat":50.92338,"lon":-1.43532,"postcode":"SO16 4EZ","la":"Southampton","era":"trad","nn":54,"risk":24,"cat":"green"},{"name":"Santo Lounge","lat":50.92043,"lon":-1.4307,"postcode":"SO15 3JF","la":"Southampton","era":"mod","nn":151,"risk":25,"cat":"green"},{"name":"Scholars Arms","lat":50.90752,"lon":-1.40425,"postcode":"SO14 7DU","la":"Southampton","era":"trad","nn":0,"risk":24,"cat":"green"},{"name":"Seymours Wine Bar","lat":50.91281,"lon":-1.40448,"postcode":"SO15 2EA","la":"Southampton","era":"other","nn":50,"risk":24,"cat":"green"},{"name":"Sharkey's Sports Bar Southampton","lat":50.90756,"lon":-1.40423,"postcode":"SO14 7DU","la":"Southampton","era":"mod","nn":5,"risk":24,"cat":"green"},{"name":"Sing Noodles","lat":50.92233,"lon":-1.38867,"postcode":"SO17 2EZ","la":"Southampton","era":"other","nn":30,"risk":24,"cat":"green"},{"name":"Slug & Lettuce /LocoLoco/ElRodeoMexicano/BurritoBandits","lat":50.90601,"lon":-1.40477,"postcode":"SO14 7FG","la":"Southampton","era":"other","nn":58,"risk":24,"cat":"green"},{"name":"South Western Arms","lat":50.92201,"lon":-1.38743,"postcode":"SO17 2HW","la":"Southampton","era":"trad","nn":94,"risk":25,"cat":"green"},{"name":"Southampton Amateur Rowing Club","lat":50.9035,"lon":-1.38233,"postcode":"SO19 7GB","la":"Southampton","era":"other","nn":638,"risk":28,"cat":"green"},{"name":"Southampton Sailing Club","lat":50.88967,"lon":-1.38301,"postcode":"SO19 9EF","la":"Southampton","era":"other","nn":0,"risk":24,"cat":"green"},{"name":"Spike Islander","lat":50.90279,"lon":-1.35665,"postcode":"SO19 8JR","la":"Southampton","era":"other","nn":290,"risk":28,"cat":"green"},{"name":"Stage Door","lat":50.90735,"lon":-1.40519,"postcode":"SO14 7FW","la":"Southampton","era":"trad","nn":27,"risk":24,"cat":"green"},{"name":"Stags Head","lat":50.9342,"lon":-1.3957,"postcode":"SO17 1BJ","la":"Southampton","era":"trad","nn":0,"risk":24,"cat":"green"},{"name":"Standing Order","lat":50.90069,"lon":-1.40367,"postcode":"SO14 2DF","la":"Southampton","era":"other","nn":55,"risk":24,"cat":"green"},{"name":"Stile Inn","lat":50.91529,"lon":-1.42467,"postcode":"SO15 3HR","la":"Southampton","era":"trad","nn":97,"risk":25,"cat":"green"},{"name":"Swaythling Working Mens Club","lat":50.93714,"lon":-1.38016,"postcode":"SO16 2JH","la":"Southampton","era":"trad","nn":179,"risk":25,"cat":"green"},{"name":"Switch","lat":50.90733,"lon":-1.40481,"postcode":"SO14 7FN","la":"Southampton","era":"other","nn":27,"risk":24,"cat":"green"},{"name":"Tap & Tandoor","lat":50.90222,"lon":-1.40709,"postcode":"SO15 1DE","la":"Southampton","era":"other","nn":1,"risk":24,"cat":"green"},{"name":"The 1865","lat":50.89899,"lon":-1.40047,"postcode":"SO14 3AR","la":"Southampton","era":"other","nn":99,"risk":25,"cat":"green"},{"name":"The Admiral Sir Lucius Curtis","lat":50.89688,"lon":-1.39376,"postcode":"SO14 3FJ","la":"Southampton","era":"other","nn":188,"risk":25,"cat":"green"},{"name":"The Alexandra","lat":50.91242,"lon":-1.4015,"postcode":"SO15 2AY","la":"Southampton","era":"other","nn":171,"risk":25,"cat":"green"},{"name":"The Angel","lat":50.90579,"lon":-1.40088,"postcode":"SO14 1LL","la":"Southampton","era":"trad","nn":232,"risk":26,"cat":"green"},{"name":"The Bedford","lat":50.91187,"lon":-1.40587,"postcode":"SO15 2DB","la":"Southampton","era":"other","nn":0,"risk":24,"cat":"green"},{"name":"The Bittern","lat":50.91445,"lon":-1.33644,"postcode":"SO18 5TQ","la":"Southampton","era":"other","nn":469,"risk":45,"cat":"amber"},{"name":"The Boiler House","lat":50.93805,"lon":-1.37806,"postcode":"SO18 2NU","la":"Southampton","era":"other","nn":179,"risk":25,"cat":"green"},{"name":"The Brass Monkey","lat":50.91881,"lon":-1.42933,"postcode":"SO15 3HY","la":"Southampton","era":"trad","nn":0,"risk":24,"cat":"green"},{"name":"The Bricklayers Arms","lat":50.9239,"lon":-1.45483,"postcode":"SO16 4QD","la":"Southampton","era":"trad","nn":476,"risk":47,"cat":"amber"},{"name":"The Broadway","lat":50.92495,"lon":-1.39329,"postcode":"SO17 2NH","la":"Southampton","era":"other","nn":182,"risk":25,"cat":"green"},{"name":"The Brook","lat":50.93258,"lon":-1.38369,"postcode":"SO17 3SD","la":"Southampton","era":"other","nn":322,"risk":26,"cat":"green"},{"name":"The Crown Inn","lat":50.93221,"lon":-1.40039,"postcode":"SO17 1QE","la":"Southampton","era":"trad","nn":396,"risk":27,"cat":"green"},{"name":"The Dancing Man","lat":50.89692,"lon":-1.40511,"postcode":"SO14 2AR","la":"Southampton","era":"other","nn":120,"risk":25,"cat":"green"},{"name":"The Dolphin St Denys","lat":50.92259,"lon":-1.38855,"postcode":"SO17 2EZ","la":"Southampton","era":"other","nn":30,"risk":24,"cat":"green"},{"name":"The Drummond Arms","lat":50.93083,"lon":-1.38736,"postcode":"SO17 3AA","la":"Southampton","era":"trad","nn":210,"risk":25,"cat":"green"},{"name":"The Edge Night Club","lat":50.90974,"lon":-1.39941,"postcode":"SO14 0BH","la":"Southampton","era":"other","nn":332,"risk":26,"cat":"green"},{"name":"The Firehouse","lat":50.90427,"lon":-1.40314,"postcode":"SO14 1JY","la":"Southampton","era":"other","nn":155,"risk":25,"cat":"green"},{"name":"The Grapes","lat":50.8979,"lon":-1.39797,"postcode":"SO14 3DP","la":"Southampton","era":"other","nn":5,"risk":24,"cat":"green"},{"name":"The Guide Dog Alehouse Ltd","lat":50.91794,"lon":-1.3972,"postcode":"SO14 6SF","la":"Southampton","era":"mod","nn":137,"risk":25,"cat":"green"},{"name":"The Hinkler","lat":50.90684,"lon":-1.33185,"postcode":"SO19 6GL","la":"Southampton","era":"other","nn":906,"risk":48,"cat":"amber"},{"name":"The Hobbit","lat":50.91797,"lon":-1.39525,"postcode":"SO14 0JZ","la":"Southampton","era":"other","nn":0,"risk":24,"cat":"green"},{"name":"The Hop Inn","lat":50.93263,"lon":-1.37094,"postcode":"SO18 2PH","la":"Southampton","era":"trad","nn":695,"risk":29,"cat":"green"},{"name":"The Humble Plum","lat":50.91626,"lon":-1.35425,"postcode":"SO18 6LY","la":"Southampton","era":"other","nn":135,"risk":27,"cat":"green"},{"name":"The London Road Brew House","lat":50.9123,"lon":-1.40393,"postcode":"SO15 2AB","la":"Southampton","era":"other","nn":66,"risk":24,"cat":"green"},{"name":"The Mitre","lat":50.92668,"lon":-1.391,"postcode":"SO17 2LB","la":"Southampton","era":"other","nn":0,"risk":24,"cat":"green"},{"name":"The Obelisk Bar","lat":50.89394,"lon":-1.37128,"postcode":"SO19 9DP","la":"Southampton","era":"other","nn":290,"risk":26,"cat":"green"},{"name":"The Osborne","lat":50.90984,"lon":-1.41901,"postcode":"SO15 3EX","la":"Southampton","era":"other","nn":343,"risk":26,"cat":"green"},{"name":"The Red Lion","lat":50.91187,"lon":-1.40587,"postcode":"SO15 2DB","la":"Southampton","era":"trad","nn":0,"risk":24,"cat":"green"},{"name":"The Red Lion","lat":50.9144,"lon":-1.35918,"postcode":"SO18 5EF","la":"Southampton","era":"trad","nn":308,"risk":31,"cat":"amber"},{"name":"The Robin Hood","lat":50.90413,"lon":-1.3602,"postcode":"SO19 8TQ","la":"Southampton","era":"other","nn":290,"risk":26,"cat":"green"},{"name":"The Rockstone","lat":50.91513,"lon":-1.39764,"postcode":"SO14 0JL","la":"Southampton","era":"other","nn":100,"risk":25,"cat":"green"},{"name":"The Rover Inn Ltd","lat":50.91594,"lon":-1.4256,"postcode":"SO15 3HP","la":"Southampton","era":"trad","nn":97,"risk":25,"cat":"green"},{"name":"The Saints","lat":50.93085,"lon":-1.4642,"postcode":"SO16 9LP","la":"Southampton","era":"trad","nn":644,"risk":48,"cat":"amber"},{"name":"The Ship Inn","lat":50.92108,"lon":-1.47259,"postcode":"SO15 0NN","la":"Southampton","era":"trad","nn":1002,"risk":53,"cat":"amber"},{"name":"The Shirley Hotel","lat":50.92304,"lon":-1.43478,"postcode":"SO16 4FB","la":"Southampton","era":"other","nn":54,"risk":24,"cat":"green"},{"name":"The Shooting Star","lat":50.91642,"lon":-1.3959,"postcode":"SO14 0JR","la":"Southampton","era":"other","nn":91,"risk":25,"cat":"green"},{"name":"The Station","lat":50.91985,"lon":-1.37485,"postcode":"SO18 1GT","la":"Southampton","era":"other","nn":536,"risk":28,"cat":"green"},{"name":"The Swan","lat":50.89606,"lon":-1.36432,"postcode":"SO19 9BG","la":"Southampton","era":"trad","nn":278,"risk":26,"cat":"green"},{"name":"The Titanic","lat":50.90003,"lon":-1.40554,"postcode":"SO14 2BE","la":"Southampton","era":"other","nn":101,"risk":25,"cat":"green"},{"name":"The White Star Tavern","lat":50.8987,"lon":-1.39914,"postcode":"SO14 3DJ","la":"Southampton","era":"other","nn":0,"risk":24,"cat":"green"},{"name":"The White Swan","lat":50.93772,"lon":-1.35618,"postcode":"SO18 3HW","la":"Eastleigh","era":"trad","nn":623,"risk":51,"cat":"amber"},{"name":"The Witch's Brew","lat":50.91457,"lon":-1.42375,"postcode":"SO15 3FL","la":"Southampton","era":"other","nn":104,"risk":25,"cat":"green"},{"name":"Trago Lounge","lat":50.92668,"lon":-1.391,"postcode":"SO17 2LB","la":"Southampton","era":"mod","nn":0,"risk":24,"cat":"green"},{"name":"Unity Brewing Co","lat":50.91199,"lon":-1.38773,"postcode":"SO14 5RP","la":"Southampton","era":"other","nn":62,"risk":24,"cat":"green"},{"name":"Victoria Pub","lat":50.88967,"lon":-1.38301,"postcode":"SO19 9EF","la":"Southampton","era":"trad","nn":0,"risk":24,"cat":"green"},{"name":"Waterloo Arms","lat":50.91128,"lon":-1.42643,"postcode":"SO15 3BS","la":"Southampton","era":"trad","nn":165,"risk":25,"cat":"green"},{"name":"Wellington Arms","lat":50.91273,"lon":-1.424,"postcode":"SO15 3DE","la":"Southampton","era":"trad","nn":138,"risk":25,"cat":"green"},{"name":"Woodies At The junction","lat":50.9207,"lon":-1.38832,"postcode":"SO17 2JZ","la":"Southampton","era":"other","nn":158,"risk":25,"cat":"green"},{"name":"Woolston Bowling Club","lat":50.89434,"lon":-1.36719,"postcode":"SO19 9FE","la":"Southampton","era":"other","nn":278,"risk":26,"cat":"green"},{"name":"Woolston Social Club","lat":50.89733,"lon":-1.37991,"postcode":"SO19 9DX","la":"Southampton","era":"mod","nn":73,"risk":24,"cat":"green"},{"name":"Woolston Trade And Labour Club","lat":50.89999,"lon":-1.36896,"postcode":"SO19 2FS","la":"Southampton","era":"other","nn":403,"risk":27,"cat":"green"},{"name":"Yates /88th/ValueMighty/SinCity/KTown/ChikBox/LockedLoaded","lat":50.90653,"lon":-1.40486,"postcode":"SO14 7FH","la":"Southampton","era":"other","nn":58,"risk":24,"cat":"green"},{"name":"Ampfield And North Baddesley Cricket Club","lat":51.00677,"lon":-1.42962,"postcode":"SO51 9BQ","la":"Test Valley","era":"other","nn":0,"risk":46,"cat":"amber"},{"name":"Ampfield Par Three Golf And Country Club Ltd","lat":51.00677,"lon":-1.42962,"postcode":"SO51 9BQ","la":"Test Valley","era":"other","nn":0,"risk":46,"cat":"amber"},{"name":"Balmoral Inn","lat":50.94479,"lon":-1.46139,"postcode":"SO16 0XJ","la":"Test Valley","era":"trad","nn":253,"risk":30,"cat":"green"},{"name":"Banister Park","lat":50.95173,"lon":-1.38356,"postcode":"SO50 9HT","la":"Test Valley","era":"other","nn":87,"risk":49,"cat":"amber"},{"name":"Braishfield Social Club","lat":51.02184,"lon":-1.46436,"postcode":"SO51 0QF","la":"Test Valley","era":"mod","nn":192,"risk":47,"cat":"amber"},{"name":"Cocky Anchor","lat":50.98914,"lon":-1.50035,"postcode":"SO51 8NB","la":"Test Valley","era":"trad","nn":77,"risk":29,"cat":"green"},{"name":"Dog And Crook","lat":51.01549,"lon":-1.47042,"postcode":"SO51 0QB","la":"Test Valley","era":"other","nn":634,"risk":50,"cat":"amber"},{"name":"Hunters Inn Limited","lat":50.99865,"lon":-1.4694,"postcode":"SO51 7NW","la":"Test Valley","era":"trad","nn":1407,"risk":61,"cat":"red"},{"name":"John O' Gaunt Inn","lat":51.07208,"lon":-1.50789,"postcode":"SO20 6PU","la":"Test Valley","era":"trad","nn":1540,"risk":62,"cat":"red"},{"name":"Luzborough House","lat":50.98006,"lon":-1.47202,"postcode":"SO51 9AA","la":"Test Valley","era":"other","nn":1525,"risk":62,"cat":"red"},{"name":"Michelmersh And Timsbury Sports Club","lat":51.02648,"lon":-1.50707,"postcode":"SO51 0NJ","la":"Test Valley","era":"trad","nn":385,"risk":51,"cat":"amber"},{"name":"Mottisfont Social Club","lat":51.04047,"lon":-1.53832,"postcode":"SO51 0LP","la":"Test Valley","era":"mod","nn":1025,"risk":58,"cat":"amber"},{"name":"Nightingale","lat":50.98961,"lon":-1.4977,"postcode":"SO51 8DF","la":"Test Valley","era":"other","nn":0,"risk":28,"cat":"green"},{"name":"Nursling And Rownhams Social Club","lat":50.94504,"lon":-1.46497,"postcode":"SO16 0XH","la":"Test Valley","era":"mod","nn":253,"risk":33,"cat":"amber"},{"name":"Romsey Comrades Club","lat":51.04148,"lon":-1.34305,"postcode":"SO51 8GJ","la":"Test Valley","era":"other","nn":1197,"risk":59,"cat":"amber"},{"name":"Romsey Conservative Working Mens Club","lat":50.98911,"lon":-1.49925,"postcode":"SO51 8NA","la":"Test Valley","era":"trad","nn":59,"risk":29,"cat":"green"},{"name":"Romsey Golf Club Ltd","lat":50.95183,"lon":-1.46777,"postcode":"SO16 0XW","la":"Test Valley","era":"other","nn":586,"risk":35,"cat":"amber"},{"name":"Romsey Royal British Legion Club Ltd","lat":50.98936,"lon":-1.49677,"postcode":"SO51 8DE","la":"Test Valley","era":"trad","nn":1,"risk":28,"cat":"green"},{"name":"Romsey Town Football Club","lat":50.98852,"lon":-1.48917,"postcode":"SO51 8AF","la":"Test Valley","era":"other","nn":239,"risk":30,"cat":"green"},{"name":"The Abbots Mitre","lat":51.15734,"lon":-1.43973,"postcode":"SO20 6BA","la":"Test Valley","era":"other","nn":1130,"risk":59,"cat":"amber"},{"name":"The Bear And Ragged Staff","lat":51.0334,"lon":-1.5252,"postcode":"SO51 0LB","la":"Test Valley","era":"other","nn":1166,"risk":59,"cat":"amber"},{"name":"The Bedes Lea","lat":50.9772,"lon":-1.44891,"postcode":"SO52 9LW","la":"Test Valley","era":"other","nn":1649,"risk":62,"cat":"red"},{"name":"The Bishops Blaize","lat":50.98938,"lon":-1.4923,"postcode":"SO51 8AA","la":"Test Valley","era":"trad","nn":239,"risk":30,"cat":"green"},{"name":"The Boot Inn","lat":51.09191,"lon":-1.5117,"postcode":"SO20 6LH","la":"Test Valley","era":"trad","nn":2221,"risk":66,"cat":"red"},{"name":"The Chilworth Arms","lat":50.96241,"lon":-1.41289,"postcode":"SO16 7JZ","la":"Test Valley","era":"trad","nn":1865,"risk":64,"cat":"red"},{"name":"The Cleveland Bay","lat":50.97774,"lon":-1.4021,"postcode":"SO53 4ST","la":"Test Valley","era":"other","nn":723,"risk":53,"cat":"amber"},{"name":"The Cromwell Arms","lat":50.98433,"lon":-1.50448,"postcode":"SO51 8HG","la":"Test Valley","era":"trad","nn":286,"risk":30,"cat":"green"},{"name":"The Crown Inn","lat":51.0776,"lon":-1.48767,"postcode":"SO20 6PW","la":"Test Valley","era":"trad","nn":1540,"risk":62,"cat":"red"},{"name":"The Four Horseshoes","lat":50.9449,"lon":-1.47487,"postcode":"SO16 0YA","la":"Test Valley","era":"trad","nn":693,"risk":36,"cat":"amber"},{"name":"The George Inn","lat":51.13949,"lon":-1.58633,"postcode":"SO20 8EG","la":"Test Valley","era":"trad","nn":1083,"risk":58,"cat":"amber"},{"name":"The Greyhound On The Test","lat":51.11465,"lon":-1.49628,"postcode":"SO20 6EY","la":"Test Valley","era":"trad","nn":53,"risk":49,"cat":"amber"},{"name":"The Hatchet Inn","lat":51.00016,"lon":-1.57986,"postcode":"SO51 6FP","la":"Test Valley","era":"trad","nn":3382,"risk":75,"cat":"red"},{"name":"The Horns Inn","lat":50.94727,"lon":-1.46357,"postcode":"SO16 0XA","la":"Test Valley","era":"trad","nn":267,"risk":33,"cat":"amber"},{"name":"The Malthouse","lat":51.02654,"lon":-1.51258,"postcode":"SO51 0NG","la":"Test Valley","era":"other","nn":385,"risk":51,"cat":"amber"},{"name":"The Mayfly","lat":51.14893,"lon":-1.45568,"postcode":"SO20 6AX","la":"Test Valley","era":"other","nn":1453,"risk":61,"cat":"red"},{"name":"The Mill Arms","lat":51.03196,"lon":-1.54395,"postcode":"SO51 0LF","la":"Test Valley","era":"trad","nn":1025,"risk":58,"cat":"amber"},{"name":"The Old House At Home","lat":50.98935,"lon":-1.49677,"postcode":"SO51 8DE","la":"Test Valley","era":"mod","nn":1,"risk":28,"cat":"green"},{"name":"The Olive Tree","lat":50.98961,"lon":-1.4977,"postcode":"SO51 8DF","la":"Test Valley","era":"other","nn":0,"risk":28,"cat":"green"},{"name":"The Peat Spade","lat":51.13176,"lon":-1.48796,"postcode":"SO20 6DR","la":"Test Valley","era":"other","nn":1988,"risk":65,"cat":"red"},{"name":"The Phoenix Bar And Eatery","lat":50.98906,"lon":-1.49831,"postcode":"SO51 8BW","la":"Test Valley","era":"mod","nn":66,"risk":29,"cat":"green"},{"name":"The Red Rover","lat":50.97084,"lon":-1.59274,"postcode":"SO51 6BW","la":"Test Valley","era":"other","nn":840,"risk":54,"cat":"amber"},{"name":"The Rockingham Arms","lat":50.95893,"lon":-1.58854,"postcode":"SO51 6DE","la":"Test Valley","era":"trad","nn":1357,"risk":60,"cat":"amber"},{"name":"The Shoe Inn","lat":50.97316,"lon":-1.60416,"postcode":"SO51 6EE","la":"Test Valley","era":"trad","nn":840,"risk":54,"cat":"amber"},{"name":"The Star","lat":50.99136,"lon":-1.50054,"postcode":"SO51 8EZ","la":"Test Valley","era":"other","nn":246,"risk":30,"cat":"green"},{"name":"The Sun Inn","lat":50.99143,"lon":-1.4859,"postcode":"SO51 7JG","la":"Test Valley","era":"trad","nn":396,"risk":31,"cat":"amber"},{"name":"The Swan Inn","lat":51.16617,"lon":-1.37884,"postcode":"SO21 3RL","la":"Test Valley","era":"trad","nn":3152,"risk":73,"cat":"red"},{"name":"The Three Cups","lat":51.11433,"lon":-1.49572,"postcode":"SO20 6HB","la":"Test Valley","era":"other","nn":53,"risk":49,"cat":"amber"},{"name":"The Three Tuns","lat":50.98568,"lon":-1.50101,"postcode":"SO51 8HL","la":"Test Valley","era":"other","nn":286,"risk":30,"cat":"green"},{"name":"The Trojans Sports Club Ltd","lat":50.95129,"lon":-1.38253,"postcode":"SO50 9HT","la":"Test Valley","era":"other","nn":87,"risk":49,"cat":"amber"},{"name":"The Wheatsheaf Braishfield","lat":51.0205,"lon":-1.46609,"postcode":"SO51 0QE","la":"Test Valley","era":"trad","nn":192,"risk":47,"cat":"amber"},{"name":"The White Hart","lat":51.14365,"lon":-1.60036,"postcode":"SO20 8HU","la":"Test Valley","era":"trad","nn":1083,"risk":58,"cat":"amber"},{"name":"The White Horse","lat":51.00677,"lon":-1.42962,"postcode":"SO51 9BQ","la":"Test Valley","era":"trad","nn":0,"risk":46,"cat":"amber"},{"name":"Tudor Rose","lat":50.98858,"lon":-1.4992,"postcode":"SO51 8GB","la":"Test Valley","era":"other","nn":59,"risk":29,"cat":"green"},{"name":"Walnut Tree Farm","lat":50.93586,"lon":-1.46881,"postcode":"SO16 0AU","la":"Test Valley","era":"other","nn":644,"risk":53,"cat":"amber"},{"name":"Wellow Golf Club","lat":50.97751,"lon":-1.54441,"postcode":"SO51 6BD","la":"Test Valley","era":"other","nn":2449,"risk":68,"cat":"red"},{"name":"09.04The White Horse","lat":51.00416,"lon":-1.34865,"postcode":"SO21 2EQ","la":"Winchester","era":"trad","nn":497,"risk":50,"cat":"amber"},{"name":"Alfies","lat":51.06176,"lon":-1.31019,"postcode":"SO23 9BA","la":"Winchester","era":"other","nn":0,"risk":29,"cat":"green"},{"name":"Bakers Arms","lat":50.96166,"lon":-1.13769,"postcode":"SO32 3PA","la":"Winchester","era":"trad","nn":1713,"risk":63,"cat":"red"},{"name":"Bell Inn","lat":51.0905,"lon":-1.1625,"postcode":"SO24 9AT","la":"Winchester","era":"trad","nn":112,"risk":35,"cat":"amber"},{"name":"Bishop On The Bridge","lat":51.06171,"lon":-1.31186,"postcode":"SO23 9JX","la":"Winchester","era":"trad","nn":65,"risk":29,"cat":"green"},{"name":"Brambridge Arms","lat":50.99306,"lon":-1.32783,"postcode":"SO50 6HZ","la":"Winchester","era":"trad","nn":811,"risk":55,"cat":"amber"},{"name":"Brickmakers","lat":50.94509,"lon":-1.18221,"postcode":"SO32 2PA","la":"Winchester","era":"other","nn":778,"risk":52,"cat":"amber"},{"name":"Brushmakers Arms","lat":50.98336,"lon":-1.23365,"postcode":"SO32 1JJ","la":"Winchester","era":"trad","nn":3258,"risk":74,"cat":"red"},{"name":"Bucks Head","lat":50.97726,"lon":-1.12943,"postcode":"SO32 3NA","la":"Winchester","era":"trad","nn":861,"risk":55,"cat":"amber"},{"name":"Cart And Horses","lat":51.08875,"lon":-1.29675,"postcode":"SO23 7QN","la":"Winchester","era":"trad","nn":911,"risk":55,"cat":"amber"},{"name":"Coach And Horses","lat":51.1541,"lon":-1.33795,"postcode":"SO21 3JH","la":"Winchester","era":"trad","nn":3152,"risk":73,"cat":"red"},{"name":"Community Room","lat":51.06025,"lon":-1.30923,"postcode":"SO23 9LH","la":"Winchester","era":"other","nn":181,"risk":30,"cat":"green"},{"name":"County Arms Inn","lat":51.06231,"lon":-1.33083,"postcode":"SO22 5DL","la":"Winchester","era":"trad","nn":503,"risk":32,"cat":"amber"},{"name":"Cricketers Inn","lat":51.08591,"lon":-1.27168,"postcode":"SO21 1EJ","la":"Winchester","era":"trad","nn":1779,"risk":64,"cat":"red"},{"name":"Crown And Anchor","lat":51.06176,"lon":-1.31019,"postcode":"SO23 9BA","la":"Winchester","era":"trad","nn":0,"risk":29,"cat":"green"},{"name":"Fulflood Arms","lat":51.06599,"lon":-1.32664,"postcode":"SO22 5EF","la":"Winchester","era":"trad","nn":291,"risk":31,"cat":"amber"},{"name":"George And Falcon","lat":51.00409,"lon":-1.11383,"postcode":"SO32 3LB","la":"Winchester","era":"trad","nn":2212,"risk":67,"cat":"red"},{"name":"Hockley Golf Clubhouse","lat":51.03592,"lon":-1.31727,"postcode":"SO21 1PL","la":"Winchester","era":"other","nn":874,"risk":55,"cat":"amber"},{"name":"Hyde Tavern","lat":51.06968,"lon":-1.31477,"postcode":"SO23 7DY","la":"Winchester","era":"other","nn":100,"risk":30,"cat":"green"},{"name":"King Charles","lat":51.10599,"lon":-1.30134,"postcode":"SO23 7NU","la":"Winchester","era":"trad","nn":1120,"risk":59,"cat":"amber"},{"name":"March Hare","lat":51.08234,"lon":-1.33331,"postcode":"SO22 6JN","la":"Winchester","era":"other","nn":1550,"risk":62,"cat":"red"},{"name":"Old Forge Restaurant","lat":51.00746,"lon":-1.34386,"postcode":"SO21 2EE","la":"Winchester","era":"trad","nn":497,"risk":52,"cat":"amber"},{"name":"O'Neills Also Trading As Burger Dudes","lat":51.06344,"lon":-1.31778,"postcode":"SO23 9AP","la":"Winchester","era":"other","nn":110,"risk":30,"cat":"green"},{"name":"Outside Bar","lat":50.91351,"lon":-1.26093,"postcode":"SO30 2HA","la":"Winchester","era":"other","nn":309,"risk":36,"cat":"amber"},{"name":"Overdraft","lat":51.06387,"lon":-1.31636,"postcode":"SO23 8RZ","la":"Winchester","era":"other","nn":0,"risk":29,"cat":"green"},{"name":"Phoenix Inn","lat":51.01739,"lon":-1.31596,"postcode":"SO21 1RF","la":"Winchester","era":"trad","nn":2063,"risk":66,"cat":"red"},{"name":"Priory Inn","lat":50.95515,"lon":-1.22107,"postcode":"SO32 1BE","la":"Winchester","era":"trad","nn":600,"risk":38,"cat":"amber"},{"name":"Railway Inn","lat":51.06686,"lon":-1.32271,"postcode":"SO22 5AE","la":"Winchester","era":"trad","nn":33,"risk":29,"cat":"green"},{"name":"Railway Inn","lat":50.91596,"lon":-1.25882,"postcode":"SO30 2DN","la":"Winchester","era":"trad","nn":309,"risk":36,"cat":"amber"},{"name":"Rising Sun","lat":50.9974,"lon":-1.3185,"postcode":"SO21 1SB","la":"Winchester","era":"other","nn":811,"risk":55,"cat":"amber"},{"name":"Riverside Bowling Club","lat":51.06716,"lon":-1.31101,"postcode":"SO23 7DD","la":"Winchester","era":"other","nn":293,"risk":31,"cat":"amber"},{"name":"Robin Hood Inn","lat":50.95375,"lon":-1.25511,"postcode":"SO32 2AA","la":"Winchester","era":"trad","nn":1587,"risk":63,"cat":"red"},{"name":"Royal Oak","lat":51.06302,"lon":-1.31586,"postcode":"SO23 9AU","la":"Winchester","era":"trad","nn":101,"risk":30,"cat":"green"},{"name":"Samuels Rest","lat":50.91671,"lon":-1.19876,"postcode":"SO32 2JB","la":"Winchester","era":"other","nn":650,"risk":51,"cat":"amber"},{"name":"Ship Inn","lat":51.00614,"lon":-1.27383,"postcode":"SO21 1LT","la":"Winchester","era":"trad","nn":3202,"risk":74,"cat":"red"},{"name":"South Wonston Social Club","lat":51.11982,"lon":-1.34167,"postcode":"SO21 3EU","la":"Winchester","era":"mod","nn":3175,"risk":74,"cat":"red"},{"name":"Sparsholt Cricket Club","lat":51.08083,"lon":-1.37813,"postcode":"SO21 2LU","la":"Winchester","era":"other","nn":192,"risk":50,"cat":"amber"},{"name":"St Cross Symondians Cricket Club","lat":51.04159,"lon":-1.32593,"postcode":"SO23 9RX","la":"Winchester","era":"trad","nn":874,"risk":53,"cat":"amber"},{"name":"The Albion","lat":51.06742,"lon":-1.31865,"postcode":"SO23 7BZ","la":"Winchester","era":"other","nn":270,"risk":31,"cat":"amber"},{"name":"The Barleycorn Inn","lat":50.95357,"lon":-1.21178,"postcode":"SO32 1AJ","la":"Winchester","era":"trad","nn":100,"risk":35,"cat":"amber"},{"name":"The Bell Inn","lat":51.04959,"lon":-1.32272,"postcode":"SO23 9RE","la":"Winchester","era":"trad","nn":781,"risk":52,"cat":"amber"},{"name":"The Black Dog Inn","lat":50.92946,"lon":-1.20171,"postcode":"SO32 2LX","la":"Winchester","era":"trad","nn":649,"risk":53,"cat":"amber"},{"name":"The Broadway","lat":51.06159,"lon":-1.31095,"postcode":"SO23 9LH","la":"Winchester","era":"other","nn":57,"risk":29,"cat":"green"},{"name":"The Bunch Of Grapes","lat":50.95505,"lon":-1.21149,"postcode":"SO32 1AD","la":"Winchester","era":"other","nn":166,"risk":35,"cat":"amber"},{"name":"The Cricketers Inn","lat":51.08018,"lon":-1.17101,"postcode":"SO24 9LW","la":"Winchester","era":"trad","nn":1292,"risk":60,"cat":"amber"},{"name":"The Crown Inn","lat":50.95321,"lon":-1.21308,"postcode":"SO32 1AF","la":"Winchester","era":"trad","nn":100,"risk":35,"cat":"amber"},{"name":"The Dolphin","lat":51.02354,"lon":-1.39152,"postcode":"SO21 2JY","la":"Winchester","era":"other","nn":3024,"risk":73,"cat":"red"},{"name":"The Dove Inn","lat":51.18255,"lon":-1.26263,"postcode":"SO21 3AU","la":"Winchester","era":"trad","nn":3443,"risk":76,"cat":"red"},{"name":"The Eclipse Inn","lat":51.06215,"lon":-1.31445,"postcode":"SO23 9EX","la":"Winchester","era":"trad","nn":87,"risk":30,"cat":"green"},{"name":"The Exchange","lat":51.06245,"lon":-1.31714,"postcode":"SO23 9DZ","la":"Winchester","era":"other","nn":110,"risk":30,"cat":"green"},{"name":"The Farmers Home","lat":50.94145,"lon":-1.26659,"postcode":"SO32 2BT","la":"Winchester","era":"other","nn":1587,"risk":63,"cat":"red"},{"name":"The Forge","lat":50.92392,"lon":-1.19883,"postcode":"SO32 2HS","la":"Winchester","era":"trad","nn":649,"risk":51,"cat":"amber"},{"name":"The Fox Inn","lat":51.04614,"lon":-1.12404,"postcode":"SO24 0LP","la":"Winchester","era":"trad","nn":2515,"risk":69,"cat":"red"},{"name":"The Globe","lat":51.09298,"lon":-1.1613,"postcode":"SO24 9DB","la":"Winchester","era":"other","nn":198,"risk":35,"cat":"amber"},{"name":"The Golden Lion","lat":51.0622,"lon":-1.29578,"postcode":"SO23 0JZ","la":"Winchester","era":"trad","nn":898,"risk":53,"cat":"amber"},{"name":"The Green Man Also Trading As Lucky Lychee","lat":51.06045,"lon":-1.31819,"postcode":"SO23 9EH","la":"Winchester","era":"other","nn":234,"risk":31,"cat":"amber"},{"name":"The Hampshire Bowman","lat":50.96151,"lon":-1.18108,"postcode":"SO32 1GD","la":"Winchester","era":"other","nn":1827,"risk":64,"cat":"red"},{"name":"The Hinton Arms","lat":51.04681,"lon":-1.16001,"postcode":"SO24 0NH","la":"Winchester","era":"trad","nn":2515,"risk":69,"cat":"red"},{"name":"The Horse And Groom","lat":51.09078,"lon":-1.16096,"postcode":"SO24 9AQ","la":"Winchester","era":"trad","nn":47,"risk":34,"cat":"amber"},{"name":"The Hotbox","lat":51.06668,"lon":-1.32234,"postcode":"SO22 5AE","la":"Winchester","era":"other","nn":33,"risk":29,"cat":"green"},{"name":"The Hunters Inn","lat":50.94098,"lon":-1.17194,"postcode":"SO32 2PZ","la":"Winchester","era":"trad","nn":299,"risk":49,"cat":"amber"},{"name":"The Jolly Farmer","lat":51.07129,"lon":-1.31978,"postcode":"SO22 6AE","la":"Winchester","era":"other","nn":394,"risk":32,"cat":"amber"},{"name":"The King Alfred","lat":51.0696,"lon":-1.31334,"postcode":"SO23 7DJ","la":"Winchester","era":"trad","nn":100,"risk":30,"cat":"green"},{"name":"The Milbury","lat":51.01804,"lon":-1.18954,"postcode":"SO24 0PB","la":"Winchester","era":"other","nn":3808,"risk":78,"cat":"red"},{"name":"The Mucky Duck","lat":51.06814,"lon":-1.3149,"postcode":"SO23 7DW","la":"Winchester","era":"other","nn":171,"risk":30,"cat":"green"},{"name":"The Old Gaol House","lat":51.06387,"lon":-1.31636,"postcode":"SO23 8RZ","la":"Winchester","era":"other","nn":0,"risk":29,"cat":"green"},{"name":"The Old Vine","lat":51.06181,"lon":-1.31557,"postcode":"SO23 9HA","la":"Winchester","era":"other","nn":87,"risk":30,"cat":"green"},{"name":"The Otter Inn","lat":50.99852,"lon":-1.35413,"postcode":"SO21 2HW","la":"Winchester","era":"trad","nn":735,"risk":54,"cat":"amber"},{"name":"The Plough Inn","lat":51.09298,"lon":-1.235,"postcode":"SO21 1BQ","la":"Winchester","era":"trad","nn":2680,"risk":70,"cat":"red"},{"name":"The Plough Inn","lat":51.08012,"lon":-1.37563,"postcode":"SO21 2NW","la":"Winchester","era":"trad","nn":192,"risk":50,"cat":"amber"},{"name":"The Queen Inn","lat":51.05552,"lon":-1.31673,"postcode":"SO23 9PG","la":"Winchester","era":"trad","nn":352,"risk":31,"cat":"amber"},{"name":"The Rising Sun","lat":50.93952,"lon":-1.17552,"postcode":"SO32 2PS","la":"Winchester","era":"other","nn":299,"risk":49,"cat":"amber"},{"name":"The Roebuck Inn Winchester Ltd","lat":51.06856,"lon":-1.32745,"postcode":"SO22 6RP","la":"Winchester","era":"trad","nn":291,"risk":31,"cat":"amber"},{"name":"The Running Horse","lat":51.09226,"lon":-1.3536,"postcode":"SO22 6QS","la":"Winchester","era":"trad","nn":1796,"risk":64,"cat":"red"},{"name":"The Ship Inn","lat":51.08337,"lon":-1.13553,"postcode":"SO24 0AQ","la":"Winchester","era":"trad","nn":1958,"risk":65,"cat":"red"},{"name":"The Shoe","lat":50.98495,"lon":-1.12807,"postcode":"SO32 3NT","la":"Winchester","era":"other","nn":861,"risk":55,"cat":"amber"},{"name":"The Three Horseshoes","lat":51.10604,"lon":-1.12319,"postcode":"SO24 9RE","la":"Winchester","era":"trad","nn":2664,"risk":70,"cat":"red"},{"name":"The Town House","lat":51.0912,"lon":-1.16105,"postcode":"SO24 9AQ","la":"Winchester","era":"other","nn":47,"risk":34,"cat":"amber"},{"name":"The Westgate","lat":51.06369,"lon":-1.32023,"postcode":"SO23 8TP","la":"Winchester","era":"other","nn":173,"risk":30,"cat":"green"},{"name":"The White Lion","lat":50.94666,"lon":-1.13216,"postcode":"SO32 3PF","la":"Winchester","era":"trad","nn":1713,"risk":63,"cat":"red"},{"name":"The Wykeham Arms","lat":51.0585,"lon":-1.315,"postcode":"SO23 9PE","la":"Winchester","era":"trad","nn":311,"risk":31,"cat":"amber"},{"name":"Wheatsheaf Inn","lat":50.91401,"lon":-1.20698,"postcode":"SO32 2JG","la":"Winchester","era":"trad","nn":650,"risk":53,"cat":"amber"},{"name":"Willow Tree","lat":51.06438,"lon":-1.30815,"postcode":"SO23 8QX","la":"Winchester","era":"trad","nn":325,"risk":31,"cat":"amber"},{"name":"Winchester Rugby Football Club","lat":51.07041,"lon":-1.31126,"postcode":"SO23 7EF","la":"Winchester","era":"other","nn":171,"risk":30,"cat":"green"},{"name":"Worthy Sports And Social Club","lat":51.09683,"lon":-1.29469,"postcode":"SO23 7NJ","la":"Winchester","era":"mod","nn":911,"risk":55,"cat":"amber"}]